area,positionname,longitude,latitude,timepoint,pm2_5,pm10,co,no2,so2,o3,o3_8h,aqi,primarypollutant
阿坝藏族羌族自治州,州农科所,102.1879,31.914,2024-11-08T2300,9,29,0.1,11,8,32,51,29,
阿坝藏族羌族自治州,马师校,102.2502,31.8896,2024-11-08T2300,15,27,0.4,16,4,16,44,27,
阿坝藏族羌族自治州,马尔康中学西区,102.2165,31.9024,2024-11-08T2300,19,,0.5,22,5,19,59,28,
阿克苏地区,电视台,80.292,41.1694,2024-11-08T2300,38,73,0.5,22,3,87,94,62,颗粒物(PM10)
阿克苏地区,艺术中心,80.2613,41.1551,2024-11-08T2300,24,91,0.7,13,4,92,98,71,颗粒物(PM10)
阿拉善盟,西城区西花园,105.6467,38.8363,2024-11-08T2300,44,45,0.8,18,11,80,94,62,细颗粒物(PM2.5)
阿拉善盟,蒙二幼,105.6985,38.8411,2024-11-08T2300,23,38,0.6,19,8,76,81,38,
阿拉善盟,环保局新楼,105.724,38.8516,2024-11-08T2300,17,31,0.6,12,10,92,92,31,
阿勒泰地区,市站,88.1264,47.8517,2024-11-08T2300,9,34,0.1,14,8,44,38,34,
阿里地区,阿里监测站,80.1161,32.5,2024-11-08T2300,7,12,0.9,38,8,70,113,22,
阿里地区,阿里藏医院,80.0903,32.5028,2024-11-08T2300,19,23,0.7,15,11,90,122,29,
安康市,香溪洞,109.0318,32.6537,2024-11-08T2300,42,64,0.5,17,9,59,70,59,细颗粒物(PM2.5)
安康市,汉滨区检察院,109.0072,32.6975,2024-11-08T2300,56,93,0.7,44,7,19,53,77,细颗粒物(PM2.5)
安康市,市邮政管理局,109.0325,32.6913,2024-11-08T2300,48,90,0.8,45,7,17,54,70,颗粒物(PM10)
安庆市,环科院,117.0809,30.5177,2024-11-08T2300,36,51,0.6,22,12,84,110,52,细颗粒物(PM2.5)
安庆市,马山宾馆,117.0331,30.5119,2024-11-08T2300,34,46,0.5,27,10,90,117,49,
安庆市,安庆大学,116.9896,30.6145,2024-11-08T2300,35,53,0.6,18,9,83,110,52,颗粒物(PM10)
安庆市,市人大,117.0598,30.5351,2024-11-08T2300,36,46,0.4,26,13,82,108,52,细颗粒物(PM2.5)
安顺市,伍家关,105.9606,26.2611,2024-11-08T2300,46,54,0.9,18,7,53,99,64,细颗粒物(PM2.5)
安顺市,凤凰山,105.9408,26.2431,2024-11-08T2300,52,60,0.6,23,10,70,109,72,细颗粒物(PM2.5)
安顺市,金钟山,105.9439,26.2564,2024-11-08T2300,44,53,0.7,12,10,75,112,62,细颗粒物(PM2.5)
安顺市,娄家坡,105.8983,26.2481,2024-11-08T2300,42,52,0.5,11,8,85,110,59,细颗粒物(PM2.5)
安阳市,棉研所,114.4839,36.0621,2024-11-08T2300,65,99,0.4,53,7,37,100,88,细颗粒物(PM2.5)
安阳市,红庙街,114.3551,36.1017,2024-11-08T2300,54,72,0.5,27,3,65,95,74,细颗粒物(PM2.5)
安阳市,银杏小区,114.361,36.0681,2024-11-08T2300,49,79,0.4,28,4,68,99,68,细颗粒物(PM2.5)
安阳市,信访局,114.3922,36.0878,2024-11-08T2300,50,81,0.5,27,3,66,98,69,细颗粒物(PM2.5)
安阳市,左辅环卫站,114.4705,36.0637,2024-11-08T2300,56,105,0.6,44,2,37,97,78,颗粒物(PM10)
安阳市,安钢职工学校,114.2917,36.0949,2024-11-08T2300,56,98,0.5,42,3,49,92,77,细颗粒物(PM2.5)
鞍山市,深沟寺,123.044,41.1196,2024-11-08T2300,29,51,0.7,8,4,93,97,51,颗粒物(PM10)
鞍山市,太阳城,123.011,41.0931,2024-11-08T2300,34,50,0.5,14,4,91,101,50,
鞍山市,太平,123.0485,41.1442,2024-11-08T2300,28,44,0.5,14,9,91,91,44,
鞍山市,铁西三道街,122.9642,41.0971,2024-11-08T2300,34,63,0.6,46,66,58,89,57,颗粒物(PM10)
鞍山市,铁西工业园区,122.9341,41.0833,2024-11-08T2300,32,57,1.0,22,9,73,96,54,颗粒物(PM10)
鞍山市,明达新区,123.022,41.0821,2024-11-08T2300,29,44,0.5,9,6,97,100,44,
鞍山市,千山,123.1289,41.0228,2024-11-08T2300,,,,,,,68,,
巴彦淖尔市,附二中,107.4212,40.761,2024-11-08T2300,51,129,0.8,25,88,52,80,90,颗粒物(PM10)
巴彦淖尔市,市环保大楼,107.37,40.7372,2024-11-08T2300,41,80,0.3,19,4,72,81,65,颗粒物(PM10)
巴音郭楞蒙古自治州,孔雀公园,86.1472,41.7538,2024-11-08T2300,33,89,0.7,88,4,1,85,70,颗粒物(PM10)
巴音郭楞蒙古自治州,棉纺厂,86.1972,41.7166,2024-11-08T2300,39,107,0.6,76,2,7,78,79,颗粒物(PM10)
巴音郭楞蒙古自治州,经济开发区,86.2357,41.7173,2024-11-08T2300,27,67,0.5,33,2,49,88,59,颗粒物(PM10)
巴中市,苏山坪,106.7677,31.8794,2024-11-08T2300,36,48,0.4,7,6,73,61,52,细颗粒物(PM2.5)
巴中市,丽阳花园,106.7656,31.8545,2024-11-08T2300,55,72,0.8,34,4,4,7,75,细颗粒物(PM2.5)
巴中市,圣泉水务公司,106.7418,31.8654,2024-11-08T2300,42,52,0.7,36,4,4,15,59,细颗粒物(PM2.5)
巴中市,市中心医院,106.7616,31.8344,2024-11-08T2300,54,75,1.0,35,4,2,5,74,细颗粒物(PM2.5)
白城市,洮北区环保局,122.7911,45.6077,2024-11-08T2300,218,,1.4,63,8,14,66,268,细颗粒物(PM2.5)
白城市,市环保局,122.8738,45.5725,2024-11-08T2300,131,151,0.9,51,3,29,64,173,细颗粒物(PM2.5)
白山市,喜丰,126.4219,41.9171,2024-11-08T2300,34,113,0.8,51,25,7,35,82,颗粒物(PM10)
白山市,环保局,126.4077,41.9419,2024-11-08T2300,36,82,0.8,26,6,19,29,66,颗粒物(PM10)
白银市,第三小学,104.1724,36.5446,2024-11-08T2300,21,64,1.1,22,30,38,62,57,颗粒物(PM10)
白银市,动力公司,104.1465,36.5482,2024-11-08T2300,38,62,1.4,43,8,15,75,56,颗粒物(PM10)
百色市,市监测站,106.6103,23.9011,2024-11-08T2300,26,46,0.6,34,5,26,106,46,
百色市,市中心血站,106.6538,23.8859,2024-11-08T2300,35,105,0.8,45,6,23,111,78,颗粒物(PM10)
百色市,祈福高中,106.6085,23.8798,2024-11-08T2300,30,53,0.7,44,4,18,102,52,颗粒物(PM10)
蚌埠市,工人疗养院,117.396,32.939,2024-11-08T2300,36,54,0.3,37,4,44,88,52,"颗粒物(PM10),细颗粒物(PM2.5)"
蚌埠市,百货大楼,117.3605,32.9427,2024-11-08T2300,43,67,0.4,44,5,36,84,60,细颗粒物(PM2.5)
蚌埠市,蚌埠学院,117.4185,32.8911,2024-11-08T2300,14,31,0.2,25,6,69,93,31,
蚌埠市,淮上区政府,117.3533,32.9673,2024-11-08T2300,35,58,0.3,21,7,57,83,54,颗粒物(PM10)
蚌埠市,高新区,117.3145,32.8977,2024-11-08T2300,15,24,0.2,20,5,73,89,24,
蚌埠市,蚌埠田家炳中学,117.3092,32.9314,2024-11-08T2300,28,45,0.3,38,6,49,90,45,
包头市,市环境监测站,109.8756,40.6532,2024-11-08T2300,43,69,1.7,54,40,35,64,60,"颗粒物(PM10),细颗粒物(PM2.5)"
包头市,包头八中,109.9991,40.5842,2024-11-08T2300,53,90,1.3,43,24,40,61,73,细颗粒物(PM2.5)
包头市,青山宾馆,109.8538,40.6821,2024-11-08T2300,47,86,1.6,54,46,39,64,68,颗粒物(PM10)
包头市,惠龙物流,109.8642,40.6288,2024-11-08T2300,38,72,0.9,52,16,33,66,61,颗粒物(PM10)
包头市,东河鸿龙湾,110.0377,40.5546,2024-11-08T2300,53,58,0.9,49,11,21,66,73,细颗粒物(PM2.5)
包头市,滨河大厦,109.9154,40.5685,2024-11-08T2300,39,62,0.8,40,12,38,70,56,颗粒物(PM10)
包头市,包头市委党校,109.9447,40.6261,2024-11-08T2300,51,68,2.2,58,95,32,65,70,细颗粒物(PM2.5)
包头市,昆区政府,109.8331,40.6576,2024-11-08T2300,44,62,1.1,48,21,44,63,62,细颗粒物(PM2.5)
宝鸡市,庙沟村,107.185,34.3063,2024-11-08T2300,97,141,0.9,44,9,64,104,128,细颗粒物(PM2.5)
宝鸡市,竹园沟,107.0708,34.3017,2024-11-08T2300,124,142,0.8,18,7,48,107,163,细颗粒物(PM2.5)
宝鸡市,三陆医院,107.1906,34.3672,2024-11-08T2300,154,174,1.1,75,7,15,110,204,细颗粒物(PM2.5)
宝鸡市,监测站,107.1431,34.3547,2024-11-08T2300,137,139,0.9,36,7,31,102,182,细颗粒物(PM2.5)
宝鸡市,技工学校,107.1186,34.3739,2024-11-08T2300,142,148,1.2,52,8,39,107,189,细颗粒物(PM2.5)
宝鸡市,陈仓区环保局家属楼,107.3906,34.3528,2024-11-08T2300,177,188,1.1,88,7,8,112,227,细颗粒物(PM2.5)
宝鸡市,文理学院,107.2058,34.3497,2024-11-08T2300,128,157,1.0,50,9,28,108,169,细颗粒物(PM2.5)
宝鸡市,三迪小学,107.2386,34.3622,2024-11-08T2300,154,188,1.2,97,8,5,113,204,细颗粒物(PM2.5)
保定市,游泳馆,115.493,38.8632,2024-11-08T2300,156,178,0.9,86,4,11,67,206,细颗粒物(PM2.5)
保定市,华电二区,115.5213,38.8959,2024-11-08T2300,181,,0.9,93,4,6,64,231,细颗粒物(PM2.5)
保定市,接待中心,115.4713,38.9108,2024-11-08T2300,143,167,0.7,82,4,3,55,190,细颗粒物(PM2.5)
保定市,地表水厂,115.4612,38.8416,2024-11-08T2300,156,208,0.8,85,2,5,59,206,细颗粒物(PM2.5)
保定市,满城区生态环境分局,115.31981,38.95208,2024-11-08T2300,158,197,0.9,73,3,5,64,208,细颗粒物(PM2.5)
保定市,清苑区第二中学,115.47694,38.76408,2024-11-08T2300,141,184,0.9,77,6,12,69,188,细颗粒物(PM2.5)
保定市,徐水物探局,115.62909,39.02311,2024-11-08T2300,166,186,0.7,71,7,10,59,216,细颗粒物(PM2.5)
保定市,双鹰农机,115.4202,38.8656,2024-11-08T2300,147,193,0.8,82,1,8,62,196,细颗粒物(PM2.5)
保定市,植保所站,115.5150,38.8590,2024-11-08T2300,170,197,0.7,73,10,12,59,220,细颗粒物(PM2.5)
保山市,市环境监测站,99.1678,25.1081,2024-11-08T2300,3,13,0.6,7,4,28,58,13,
保山市,市环保局,99.1711,25.1328,2024-11-08T2300,14,,0.5,2,5,45,63,20,
北海市,牛尾岭水库,109.2262,21.588,2024-11-08T2300,54,,0.7,,4,50,126,,
北海市,海滩公园,109.1436,21.4086,2024-11-08T2300,46,60,1.0,29,10,118,166,64,细颗粒物(PM2.5)
北海市,新市环保局,109.0981,21.4661,2024-11-08T2300,46,58,0.9,28,11,126,165,64,细颗粒物(PM2.5)
北海市,北海工业园,109.1778,21.5233,2024-11-08T2300,42,53,0.6,19,9,123,149,59,细颗粒物(PM2.5)
北海市,龙潭自来水厂,109.1911,21.4415,2024-11-08T2300,61,73,0.9,25,8,51,150,83,细颗粒物(PM2.5)
北京市,万寿西宫,116.3621,39.8784,2024-11-08T2300,142,195,1.7,110,3,0,49,189,细颗粒物(PM2.5)
北京市,定陵,116.2202,40.2915,2024-11-08T2300,147,191,0.8,32,3,21,53,196,细颗粒物(PM2.5)
北京市,东四,116.4174,39.9289,2024-11-08T2300,140,206,1.5,113,7,1,48,186,细颗粒物(PM2.5)
北京市,天坛,116.4072,39.8863,2024-11-08T2300,123,147,1.4,50,3,0,41,162,细颗粒物(PM2.5)
北京市,农展馆,116.462,39.9365,2024-11-08T2300,139,197,1.2,110,3,0,46,185,细颗粒物(PM2.5)
北京市,官园,116.3392,39.9295,2024-11-08T2300,146,221,1.8,110,6,0,43,195,细颗粒物(PM2.5)
北京市,海淀万柳,116.2878,39.9611,2024-11-08T2300,136,206,1.4,57,4,7,34,180,细颗粒物(PM2.5)
北京市,顺义新城,116.6636,40.135,2024-11-08T2300,125,166,0.9,73,1,0,48,165,细颗粒物(PM2.5)
北京市,怀柔镇,116.6275,40.3275,2024-11-08T2300,140,181,0.6,32,2,44,67,186,细颗粒物(PM2.5)
北京市,昌平镇,116.2296,40.217,2024-11-08T2300,137,203,1.1,83,5,0,62,182,细颗粒物(PM2.5)
北京市,奥体中心,116.3966,39.9821,2024-11-08T2300,139,204,1.7,102,3,2,34,185,细颗粒物(PM2.5)
北京市,古城,116.184,39.9136,2024-11-08T2300,153,232,1.4,48,4,2,32,203,细颗粒物(PM2.5)
北京市,延庆夏都,115.9718,40.4529,2024-11-08T2300,137,180,0.7,29,3,50,99,182,细颗粒物(PM2.5)
北京市,平谷新城,117.0709,40.1465,2024-11-08T2300,98,136,0.6,28,3,18,64,129,细颗粒物(PM2.5)
北京市,密云新城,116.8336,40.4095,2024-11-08T2300,117,189,0.8,60,3,5,71,153,细颗粒物(PM2.5)
北京市,门头沟三家店,116.088,39.9726,2024-11-08T2300,142,202,0.8,47,6,6,50,189,细颗粒物(PM2.5)
北京市,丰台云岗,116.1541,39.8204,2024-11-08T2300,164,224,0.9,84,4,8,51,214,细颗粒物(PM2.5)
北京市,通州东关,116.6804,39.9081,2024-11-08T2300,111,179,1.3,87,3,3,45,145,细颗粒物(PM2.5)
北京市,房山燕山,115.9577,39.7603,2024-11-08T2300,112,133,0.6,27,3,34,66,147,细颗粒物(PM2.5)
北京市,大兴旧宫,116.4672,39.7733,2024-11-08T2300,89,,0.7,35,3,2,56,118,细颗粒物(PM2.5)
北京市,延庆石河营,115.986,40.4563,2024-11-08T2300,129,165,0.7,37,3,25,101,170,细颗粒物(PM2.5)
北京市,怀柔新城,116.6151,40.3053,2024-11-08T2300,139,185,0.7,33,3,42,60,185,细颗粒物(PM2.5)
北京市,丰台小屯,116.2545,39.8768,2024-11-08T2300,146,213,1.7,80,3,2,46,195,细颗粒物(PM2.5)
北京市,密云镇,116.84,40.3844,2024-11-08T2300,105,161,0.8,69,3,0,62,138,细颗粒物(PM2.5)
本溪市,大峪,123.8275,41.3064,2024-11-08T2300,38,62,0.8,27,10,57,91,56,颗粒物(PM10)
本溪市,溪湖,123.7567,41.3325,2024-11-08T2300,43,69,0.8,26,10,67,84,60,"颗粒物(PM10),细颗粒物(PM2.5)"
本溪市,彩屯,123.7169,41.3094,2024-11-08T2300,67,92,1.5,32,12,46,69,90,细颗粒物(PM2.5)
本溪市,东明,123.7669,41.2864,2024-11-08T2300,39,40,0.7,25,8,79,89,55,细颗粒物(PM2.5)
本溪市,新立屯,123.7992,41.2664,2024-11-08T2300,22,39,0.6,18,6,96,88,39,
本溪市,威宁,123.8142,41.3472,2024-11-08T2300,42,82,1.0,32,8,36,77,66,颗粒物(PM10)
毕节市,八中,105.2864,27.3125,2024-11-08T2300,48,58,0.7,19,8,47,59,67,细颗粒物(PM2.5)
毕节市,师专,105.31,27.2944,2024-11-08T2300,51,,0.7,19,9,45,63,70,细颗粒物(PM2.5)
毕节市,长征村,105.3631,27.3533,2024-11-08T2300,42,52,0.6,8,7,68,71,59,细颗粒物(PM2.5)
滨州市,第二水厂,118.0018,37.3617,2024-11-08T2300,56,112,0.6,85,10,8,103,81,颗粒物(PM10)
滨州市,北中新校,117.9776,37.393,2024-11-08T2300,56,107,0.8,89,8,8,95,79,颗粒物(PM10)
滨州市,中海酒店,117.9378,37.3956,2024-11-08T2300,56,97,1.0,63,7,38,113,77,细颗粒物(PM2.5)
滨州市,开发区一中,117.9378,37.3553,2024-11-08T2300,46,107,0.7,84,12,32,102,79,颗粒物(PM10)
滨州市,金海六路,118.0917,37.694,2024-11-08T2300,44,80,0.5,34,6,40,124,65,颗粒物(PM10)
滨州市,滨州市西街道办事处,117.9956,37.3753,2024-11-08T2300,63,110,0.8,85,10,4,108,85,细颗粒物(PM2.5)
亳州市,污水处理厂,115.8072,33.8399,2024-11-08T2300,43,71,0.5,25,10,48,94,61,颗粒物(PM10)
亳州市,三国揽胜宫,115.7789,33.8518,2024-11-08T2300,45,85,0.4,25,10,57,98,68,颗粒物(PM10)
亳州市,亳州学院,115.7633,33.8034,2024-11-08T2300,36,55,0.3,23,4,55,95,53,颗粒物(PM10)
博尔塔拉蒙古自治州,市党校,82.0485,44.8556,2024-11-08T2300,14,30,0.3,12,5,34,43,30,
博尔塔拉蒙古自治州,市环保局,82.0806,44.8969,2024-11-08T2300,9,42,0.3,13,4,33,37,42,
沧州市,沧县城建局,116.8842,38.2991,2024-11-08T2300,53,111,0.9,80,5,7,93,81,颗粒物(PM10)
沧州市,电视转播站,116.8584,38.3254,2024-11-08T2300,53,82,0.6,44,3,36,105,73,细颗粒物(PM2.5)
沧州市,市环保局,116.8709,38.3228,2024-11-08T2300,50,88,0.7,64,4,14,93,69,"颗粒物(PM10),细颗粒物(PM2.5)"
沧州市,河北水利电力学院,116.8136,38.3004,2024-11-08T2300,48,68,0.3,27,3,60,94,67,细颗粒物(PM2.5)
昌都市,昌都监测站,97.1806,31.1273,2024-11-08T2300,41,74,1.5,50,8,7,75,62,颗粒物(PM10)
昌都市,昌都会议中心,97.1714,31.1406,2024-11-08T2300,13,27,0.6,27,6,34,88,27,
昌吉回族自治州,天山天池,88.1236,43.8886,2024-11-08T2300,3,9,0.5,2,7,43,60,14,
昌吉回族自治州,新区政务中心,87.2717,44.0297,2024-11-08T2300,3,18,0.2,15,6,34,56,18,
昌吉回族自治州,亚心广场,87.3095,44.0142,2024-11-08T2300,3,9,0.3,16,3,47,56,15,
长春市,食品厂,125.3325,43.9166,2024-11-08T2300,99,117,1.0,54,10,19,43,130,细颗粒物(PM2.5)
长春市,客车厂,125.2863,43.9027,2024-11-08T2300,82,95,0.7,62,17,18,51,109,细颗粒物(PM2.5)
长春市,邮电学院,125.2841,43.8463,2024-11-08T2300,85,105,0.8,52,11,31,59,113,细颗粒物(PM2.5)
长春市,劳动公园,125.3716,43.8772,2024-11-08T2300,108,133,1.5,76,9,10,65,142,细颗粒物(PM2.5)
长春市,园林处,125.3297,43.8805,2024-11-08T2300,88,99,0.9,47,14,30,60,117,细颗粒物(PM2.5)
长春市,净月潭,125.4605,43.79,2024-11-08T2300,87,91,0.8,17,7,44,83,115,细颗粒物(PM2.5)
长春市,甩湾子,125.7194,43.515,2024-11-08T2300,,,,,,,,,
长春市,经开区环卫处,125.3863,43.8447,2024-11-08T2300,99,114,1.0,68,11,7,58,130,细颗粒物(PM2.5)
长春市,高新区管委会,125.245,43.7783,2024-11-08T2300,94,94,0.8,45,8,19,66,124,细颗粒物(PM2.5)
长春市,岱山公园,125.1761,43.8325,2024-11-08T2300,68,73,0.6,37,7,39,63,92,细颗粒物(PM2.5)
长沙市,经开区环保局,113.0833,28.2325,2024-11-08T2300,76,106,0.7,50,4,81,121,102,细颗粒物(PM2.5)
长沙市,高开区环保局,112.8872,28.2189,2024-11-08T2300,104,105,0.6,50,8,91,129,137,细颗粒物(PM2.5)
长沙市,马坡岭,113.0792,28.2053,2024-11-08T2300,74,98,0.7,58,6,59,122,99,细颗粒物(PM2.5)
长沙市,湖南师范大学,112.9394,28.19,2024-11-08T2300,70,106,0.7,29,8,107,126,94,细颗粒物(PM2.5)
长沙市,雨花区环保局,113.0178,28.1322,2024-11-08T2300,65,100,0.6,35,8,101,129,88,细颗粒物(PM2.5)
长沙市,伍家岭,112.9792,28.2597,2024-11-08T2300,80,122,0.9,75,3,31,124,107,细颗粒物(PM2.5)
长沙市,火车新站,113.0014,28.1944,2024-11-08T2300,68,105,0.7,38,5,92,123,92,细颗粒物(PM2.5)
长沙市,天心区环保局,112.9844,28.1178,2024-11-08T2300,64,104,0.9,69,7,65,126,87,细颗粒物(PM2.5)
长沙市,湖南中医药大学,112.8908,28.1308,2024-11-08T2300,110,,1.0,97,10,31,137,144,细颗粒物(PM2.5)
长沙市,沙坪,112.9581,28.3611,2024-11-08T2300,47,60,0.4,13,11,121,127,65,细颗粒物(PM2.5)
长治市,清华站,113.1147,36.1547,2024-11-08T2300,56,62,0.8,24,10,74,66,77,细颗粒物(PM2.5)
长治市,监测站,113.1031,36.1989,2024-11-08T2300,61,83,1.2,34,13,47,51,83,细颗粒物(PM2.5)
长治市,审计局,113.0886,36.2125,2024-11-08T2300,61,67,1.0,24,8,73,66,83,细颗粒物(PM2.5)
长治市,长治八中,113.0844,36.1856,2024-11-08T2300,61,75,1.0,28,9,80,62,83,细颗粒物(PM2.5)
长治市,德盛苑,113.1569,36.1911,2024-11-08T2300,53,78,1.1,24,7,78,75,73,细颗粒物(PM2.5)
长治市,向阳小学,113.06,36.0464,2024-11-08T2300,40,73,0.5,27,10,113,124,62,颗粒物(PM10)
长治市,屯留一中,112.8792,36.3144,2024-11-08T2300,54,71,0.8,34,8,84,95,74,细颗粒物(PM2.5)
长治市,潞城四中,113.235,36.3489,2024-11-08T2300,66,78,1.0,41,9,54,77,89,细颗粒物(PM2.5)
常德市,市二中,111.6975,28.9703,2024-11-08T2300,94,,0.8,25,11,99,130,124,细颗粒物(PM2.5)
常德市,白鹤山,111.7158,29.1456,2024-11-08T2300,,,,,,,,,
常德市,武陵区永安,111.7153,29.0289,2024-11-08T2300,66,92,0.9,25,11,106,138,89,细颗粒物(PM2.5)
常德市,鼎城区玉霞,111.6892,28.9881,2024-11-08T2300,80,123,0.9,34,9,75,131,107,细颗粒物(PM2.5)
常德市,武陵区长庚,111.6625,29.0531,2024-11-08T2300,84,116,0.9,40,6,58,141,112,细颗粒物(PM2.5)
常州市,市监测站,119.9633,31.762,2024-11-08T2300,23,59,0.7,35,10,47,88,55,颗粒物(PM10)
常州市,武进监测站,119.9468,31.7069,2024-11-08T2300,14,43,0.5,21,6,55,87,43,
常州市,安家,119.9255,31.9087,2024-11-08T2300,25,60,0.7,68,8,12,87,55,颗粒物(PM10)
常州市,行政中心,119.9805,31.8174,2024-11-08T2300,15,36,0.5,36,8,43,76,36,
常州市,经开区,120.0522,31.7748,2024-11-08T2300,19,49,0.6,60,9,22,87,49,
常州市,钟楼,119.9025,31.7964,2024-11-08T2300,15,45,0.6,37,8,46,80,45,
常州市,武进经发区,119.8598,31.7066,2024-11-08T2300,20,47,0.6,24,9,56,87,47,
常州市,金坛城区,119.5826,31.7245,2024-11-08T2300,23,48,0.6,45,7,36,88,48,
朝阳市,西梁,120.4318,41.5881,2024-11-08T2300,92,130,1.4,55,18,34,39,122,细颗粒物(PM2.5)
朝阳市,河畔小区,120.4521,41.5646,2024-11-08T2300,133,184,2.2,76,13,18,52,176,细颗粒物(PM2.5)
朝阳市,八里堡,120.4176,41.5648,2024-11-08T2300,100,122,1.6,78,12,11,33,132,细颗粒物(PM2.5)
朝阳市,农业园区,120.3806,41.5969,2024-11-08T2300,102,,1.3,54,12,40,41,134,细颗粒物(PM2.5)
潮州市,西园路,116.6367,23.6719,2024-11-08T2300,21,37,0.3,17,6,86,90,37,
潮州市,市政府,116.6183,23.6608,2024-11-08T2300,17,39,0.6,15,8,88,87,39,
潮州市,金山,116.6461,23.6761,2024-11-08T2300,15,27,0.6,17,10,85,93,27,
郴州市,马头岭,113.0073,25.9061,2024-11-08T2300,39,96,0.9,22,14,60,122,73,颗粒物(PM10)
郴州市,市职中,113.0116,25.8226,2024-11-08T2300,46,80,0.8,38,6,24,130,65,颗粒物(PM10)
郴州市,兴隆步行街,113.0161,25.8001,2024-11-08T2300,50,81,0.8,52,6,16,128,69,细颗粒物(PM2.5)
郴州市,市审计局,113.0383,25.8071,2024-11-08T2300,47,63,0.7,41,8,43,132,65,细颗粒物(PM2.5)
郴州市,市环保局,113.0348,25.7759,2024-11-08T2300,67,88,0.8,64,9,,121,,
成都市,金泉两河,103.9728,30.7236,2024-11-08T2300,87,92,0.7,38,2,15,19,115,细颗粒物(PM2.5)
成都市,十里店,104.176,30.6872,2024-11-08T2300,75,98,0.7,29,2,26,12,100,细颗粒物(PM2.5)
成都市,三瓦窑,104.079,30.5706,2024-11-08T2300,81,,0.7,42,1,8,18,108,细颗粒物(PM2.5)
成都市,沙河铺,104.1114,30.63,2024-11-08T2300,72,91,0.8,36,2,12,10,97,细颗粒物(PM2.5)
成都市,君平街,104.0786,30.6531,2024-11-08T2300,78,,1.0,49,4,3,23,104,细颗粒物(PM2.5)
成都市,灵岩寺,103.613,31.0283,2024-11-08T2300,,,,,,,,,
成都市,大石西路,104.0239,30.65639,2024-11-08T2300,64,92,0.8,40,3,8,13,87,细颗粒物(PM2.5)
成都市,龙泉驿区区政府,104.2725,30.5589,2024-11-08T2300,34,36,0.6,13,2,42,52,49,
成都市,金博路,104.0106,30.6931,2024-11-08T2300,75,105,0.7,34,1,16,16,100,细颗粒物(PM2.5)
成都市,华阳,104.0578,30.5225,2024-11-08T2300,53,61,0.9,40,1,1,35,73,细颗粒物(PM2.5)
成都市,车城东七路,104.2394,30.5319,2024-11-08T2300,35,44,0.6,17,1,41,47,50,
成都市,青白江技师分院,104.3853,30.7453,2024-11-08T2300,49,64,0.7,16,3,41,46,68,细颗粒物(PM2.5)
成都市,科学城,104.0789,30.4072,2024-11-08T2300,45,51,0.6,14,4,38,56,63,细颗粒物(PM2.5)
成都市,光华大道三段,103.8506,30.6947,2024-11-08T2300,71,93,0.7,40,4,15,15,95,细颗粒物(PM2.5)
承德市,铁路,117.9531,40.9081,2024-11-08T2300,95,139,1.0,61,4,5,33,125,细颗粒物(PM2.5)
承德市,中国银行,117.9392,40.9763,2024-11-08T2300,86,132,1.0,60,2,2,52,114,细颗粒物(PM2.5)
承德市,开发区,117.9503,40.928,2024-11-08T2300,89,143,1.0,59,4,6,44,118,细颗粒物(PM2.5)
承德市,文化中心,117.8051,40.9655,2024-11-08T2300,82,167,1.0,72,4,0,40,109,"颗粒物(PM10),细颗粒物(PM2.5)"
承德市,离宫,117.9268,41.0026,2024-11-08T2300,96,133,0.8,46,2,26,62,127,细颗粒物(PM2.5)
池州市,池州学院,117.47,30.6618,2024-11-08T2300,37,71,0.6,46,7,50,98,61,颗粒物(PM10)
池州市,展览馆,117.4918,30.6617,2024-11-08T2300,33,62,0.5,38,5,48,95,56,颗粒物(PM10)
池州市,第八中学,117.5627,30.695,2024-11-08T2300,29,56,0.6,36,5,49,95,53,颗粒物(PM10)
池州市,第十二中学,117.5038,30.6243,2024-11-08T2300,34,54,0.6,22,4,68,106,52,颗粒物(PM10)
赤峰市,松山一中,118.9233,42.2816,2024-11-08T2300,107,200,3.8,69,69,8,23,140,细颗粒物(PM2.5)
赤峰市,哈达街,118.9576,42.2728,2024-11-08T2300,102,193,2.2,52,66,7,17,134,细颗粒物(PM2.5)
赤峰市,天义路,118.8788,42.2554,2024-11-08T2300,113,180,2.1,71,60,4,25,148,细颗粒物(PM2.5)
赤峰市,银河街,119.2658,42.0353,2024-11-08T2300,129,194,1.4,40,19,23,52,170,细颗粒物(PM2.5)
赤峰市,桥北物流园区,118.9359,42.3147,2024-11-08T2300,108,144,1.5,66,18,6,38,142,细颗粒物(PM2.5)
崇左市,市环保局江州分局,107.3476,22.4136,2024-11-08T2300,48,98,0.7,33,4,38,140,74,颗粒物(PM10)
崇左市,城南新区,107.3702,22.3707,2024-11-08T2300,36,53,0.6,28,6,52,146,52,"颗粒物(PM10),细颗粒物(PM2.5)"
滁州市,老年大学,118.3093,32.3153,2024-11-08T2300,19,43,0.2,32,3,47,88,43,
滁州市,人大宾馆,118.3244,32.2786,2024-11-08T2300,24,46,0.3,34,7,48,91,46,
滁州市,市政府原办公楼,118.3118,32.3038,2024-11-08T2300,28,43,0.5,36,5,45,88,43,
滁州市,图书馆,118.3267,32.2634,2024-11-08T2300,26,50,0.3,29,4,46,93,50,
楚雄彝族自治州,州环境监测站,101.5482,25.0441,2024-11-08T2300,16,,0.8,29,32,17,57,23,
楚雄彝族自治州,市经济开发区,101.538,25.0492,2024-11-08T2300,13,20,0.8,29,39,19,56,20,
达州市,达州职业技术学院,107.5277,31.2827,2024-11-08T2300,51,69,0.8,32,5,5,16,70,细颗粒物(PM2.5)
达州市,市环境监测站,107.5086,31.2186,2024-11-08T2300,31,64,0.6,48,5,2,11,57,颗粒物(PM10)
达州市,凤凰小区,107.4988,31.2132,2024-11-08T2300,39,58,0.7,51,7,4,17,55,细颗粒物(PM2.5)
达州市,达县机关宾馆,107.5082,31.1986,2024-11-08T2300,40,66,0.7,46,6,2,19,58,颗粒物(PM10)
达州市,市政中心,107.4644,31.2124,2024-11-08T2300,44,73,1.0,56,6,4,16,62,"颗粒物(PM10),细颗粒物(PM2.5)"
大理白族自治州,大理市环境监测站,100.1542,25.7054,2024-11-08T2300,12,,0.6,17,6,29,66,18,
大理白族自治州,大理古城,100.2171,25.5811,2024-11-08T2300,3,11,0.5,10,7,36,52,12,
大连市,甘井子,121.612,38.9741,2024-11-08T2300,24,43,0.5,24,8,102,103,43,
大连市,周水子,121.565,38.9511,2024-11-08T2300,24,49,0.6,21,9,95,94,49,
大连市,星海三站,121.5637,38.8845,2024-11-08T2300,18,38,0.5,12,8,109,115,38,
大连市,青泥洼桥,121.6302,38.9117,2024-11-08T2300,19,36,0.6,15,10,100,104,36,
大连市,傅家庄,121.6251,38.8638,2024-11-08T2300,16,37,0.4,16,10,109,118,37,
大连市,七贤岭,121.5213,38.8661,2024-11-08T2300,18,41,0.5,16,9,101,105,41,
大连市,旅顺,121.2529,38.8061,2024-11-08T2300,24,31,0.6,18,8,119,119,38,
大连市,金州,121.7485,39.1311,2024-11-08T2300,25,35,0.6,16,8,108,106,36,
大连市,开发区,121.7811,39.0496,2024-11-08T2300,26,41,0.3,14,5,105,107,41,
大连市,双D港,121.9762,39.0631,2024-11-08T2300,23,39,0.7,15,8,121,122,39,
大庆市,大同区,124.81117,46.03138,2024-11-08T2300,317,361,0.8,60,13,18,47,367,细颗粒物(PM2.5)
大庆市,龙凤区,125.129,46.533,2024-11-08T2300,420,450,2.1,99,20,61,54,447,细颗粒物(PM2.5)
大庆市,红岗区,124.902,46.408,2024-11-08T2300,336,377,1.6,87,17,13,58,386,细颗粒物(PM2.5)
大庆市,萨尔图区,125.153,46.586,2024-11-08T2300,269,298,1.2,78,14,32,60,319,细颗粒物(PM2.5)
大庆市,让胡路区,124.9042,46.6215,2024-11-08T2300,307,338,1.3,73,16,36,45,357,细颗粒物(PM2.5)
大庆市,萨区政府监测点,125.141,46.634,2024-11-08T2300,251,254,1.2,61,15,28,48,301,细颗粒物(PM2.5)
大同市,果树场,113.3819,40.1097,2024-11-08T2300,116,138,1.3,58,7,2,57,152,细颗粒物(PM2.5)
大同市,云冈宾馆,113.2994,40.0758,2024-11-08T2300,118,158,1.3,54,12,44,72,155,细颗粒物(PM2.5)
大同市,大同大学,113.3444,40.0917,2024-11-08T2300,112,157,1.1,60,12,31,73,147,细颗粒物(PM2.5)
大同市,安家小村,113.2661,40.1269,2024-11-08T2300,105,133,0.8,33,17,73,82,138,细颗粒物(PM2.5)
大同市,教育学院,113.2711,40.0844,2024-11-08T2300,108,182,1.4,100,20,7,68,142,细颗粒物(PM2.5)
大同市,大同市卫生学校,113.3397,40.0597,2024-11-08T2300,116,173,0.9,71,12,20,75,152,细颗粒物(PM2.5)
大同市,云冈站,113.1367,40.1122,2024-11-08T2300,99,155,0.9,72,15,8,85,130,细颗粒物(PM2.5)
大同市,图书馆,113.1186,40.2556,2024-11-08T2300,78,149,0.9,51,11,9,75,104,细颗粒物(PM2.5)
大同市,区一中,113.5931,40.0461,2024-11-08T2300,59,181,1.3,49,20,37,86,116,颗粒物(PM10)
大同市,第二人民医院,113.2802,40.0995,2024-11-08T2300,101,166,1.2,56,16,50,81,133,细颗粒物(PM2.5)
大兴安岭地区,科技局,124.1069,50.4097,2024-11-08T2300,42,58,0.4,17,7,34,49,59,细颗粒物(PM2.5)
大兴安岭地区,红旗社区,124.1164,50.4278,2024-11-08T2300,49,61,0.5,26,7,18,44,68,细颗粒物(PM2.5)
丹东市,江湾东路,124.3303,40.0625,2024-11-08T2300,61,92,1.5,41,11,22,63,83,细颗粒物(PM2.5)
丹东市,临江后街,124.4256,40.1503,2024-11-08T2300,72,136,1.5,46,9,8,51,97,细颗粒物(PM2.5)
丹东市,元宝山,124.3933,40.1461,2024-11-08T2300,72,129,1.2,38,9,27,65,97,细颗粒物(PM2.5)
丹东市,民主桥,124.3633,40.1092,2024-11-08T2300,42,78,1.1,66,7,4,69,64,颗粒物(PM10)
儋州市,第一中学子站,109.5726,19.5167,2024-11-08T2300,26,47,0.4,12,8,120,166,47,
儋州市,东坡学校子站,109.5567,19.5187,2024-11-08T2300,34,53,0.6,13,8,108,178,52,颗粒物(PM10)
德宏傣族景颇族自治州,德宏州监测站,98.5842,24.428,2024-11-08T2300,20,34,0.9,23,5,9,39,34,
德宏傣族景颇族自治州,芒市人民政府综合楼,98.5881,24.4368,2024-11-08T2300,14,26,0.8,13,4,16,42,26,
德阳市,东山公园,104.4239,31.1208,2024-11-08T2300,42,76,0.8,12,1,34,48,63,颗粒物(PM10)
德阳市,西小区,104.3826,31.1317,2024-11-08T2300,54,70,0.8,19,2,24,41,74,细颗粒物(PM2.5)
德阳市,耐火材料厂,104.3553,31.1091,2024-11-08T2300,50,76,0.7,38,3,2,38,69,细颗粒物(PM2.5)
德阳市,市教育局,104.4019,31.1244,2024-11-08T2300,45,66,0.7,19,2,25,43,63,细颗粒物(PM2.5)
德州市,儿童乐园,116.3032,37.4674,2024-11-08T2300,53,114,0.8,77,12,13,94,82,颗粒物(PM10)
德州市,监理站,116.2991,37.4451,2024-11-08T2300,48,83,0.7,74,14,19,99,67,"颗粒物(PM10),细颗粒物(PM2.5)"
德州市,九衢泉纯净水厂,116.2721,37.4379,2024-11-08T2300,51,102,0.7,80,12,11,95,76,颗粒物(PM10)
德州市,开发区人民医院,116.3728,37.4403,2024-11-08T2300,48,83,0.7,79,12,21,93,67,"颗粒物(PM10),细颗粒物(PM2.5)"
德州市,太阳城中学,116.3572,37.4094,2024-11-08T2300,63,110,0.8,88,8,9,102,85,细颗粒物(PM2.5)
德州市,陵城艺术中心,116.5652,37.3319,2024-11-08T2300,61,100,0.7,76,11,14,95,83,细颗粒物(PM2.5)
迪庆藏族自治州,迪庆州站,99.7056,27.8317,2024-11-08T2300,28,38,1.0,26,7,21,73,40,
迪庆藏族自治州,质量技术监督局,99.7136,27.8094,2024-11-08T2300,30,48,1.1,24,7,23,64,48,
定西市,东关小学,104.6241,35.5734,2024-11-08T2300,18,42,0.3,10,3,44,60,42,
定西市,供电公司,104.6194,35.5934,2024-11-08T2300,27,34,0.3,15,6,40,62,39,
东莞市,莞城梨川,113.7547,23.0494,2024-11-08T2300,21,48,0.6,30,9,76,125,48,
东莞市,东城石井,113.7944,23.0128,2024-11-08T2300,30,48,0.7,34,9,56,130,48,
东莞市,南城西平,113.7383,22.9658,2024-11-08T2300,24,49,0.6,62,7,46,131,49,
东莞市,万江金泰,113.7338,23.0381,2024-11-08T2300,24,42,0.6,22,9,78,121,42,
东莞市,南城元岭,113.7533,23.0202,2024-11-08T2300,23,45,0.6,21,10,74,119,45,
东莞市,东城主山,113.7875,23.0457,2024-11-08T2300,27,46,0.6,36,8,65,131,46,
东营市,市环保局,118.6614,37.4309,2024-11-08T2300,19,44,0.4,26,8,71,98,44,
东营市,开发区管委会,118.6904,37.4338,2024-11-08T2300,24,50,0.4,20,8,79,102,50,
东营市,垦利区民丰路,118.5719,37.565,2024-11-08T2300,22,46,0.5,30,10,65,92,46,
东营市,河口城区,118.5055,37.8612,2024-11-08T2300,29,58,0.6,22,4,69,115,54,颗粒物(PM10)
东营市,胜利站,118.4978,37.4623,2024-11-08T2300,22,46,0.6,24,6,72,89,46,
东营市,理想之城,118.35,37.26,2024-11-08T2300,31,56,0.6,42,4,56,96,53,颗粒物(PM10)
鄂尔多斯市,综合楼,110.0023,39.8129,2024-11-08T2300,19,68,0.6,34,8,64,102,59,颗粒物(PM10)
鄂尔多斯市,巴音孟克林场办事处,109.9486,39.8261,2024-11-08T2300,27,56,0.7,26,8,75,93,53,颗粒物(PM10)
鄂尔多斯市,康泽苑,109.7736,39.5986,2024-11-08T2300,27,51,0.5,28,8,62,102,51,颗粒物(PM10)
鄂尔多斯市,华泰汽车城,109.8119,39.5989,2024-11-08T2300,29,44,0.6,32,6,50,101,44,
鄂尔多斯市,奥林花园,109.9734,39.7884,2024-11-08T2300,27,56,0.9,36,8,50,84,53,颗粒物(PM10)
鄂州市,市政府,114.8938,30.3994,2024-11-08T2300,48,76,0.8,38,8,75,104,67,细颗粒物(PM2.5)
鄂州市,赵家坝,114.8989,30.3714,2024-11-08T2300,48,81,0.8,38,12,72,98,67,细颗粒物(PM2.5)
鄂州市,精准医疗中心,114.8094,30.4089,2024-11-08T2300,48,75,4.0,49,43,63,100,67,细颗粒物(PM2.5)
恩施土家族苗族自治州,湖北民院,109.4978,30.2981,2024-11-08T2300,62,76,0.6,37,6,2,29,84,细颗粒物(PM2.5)
恩施土家族苗族自治州,州电力总公司,109.4707,30.2798,2024-11-08T2300,54,64,0.6,27,7,21,27,74,细颗粒物(PM2.5)
恩施土家族苗族自治州,龙凤新区,109.5061,30.3772,2024-11-08T2300,44,59,0.8,17,6,15,32,62,细颗粒物(PM2.5)
防城港市,沙万,108.3411,21.6158,2024-11-08T2300,33,48,0.5,24,7,96,139,48,
防城港市,防城档案局,108.3514,21.7731,2024-11-08T2300,48,147,0.7,52,5,16,131,99,颗粒物(PM10)
防城港市,大海花园,108.3506,21.6414,2024-11-08T2300,30,46,0.6,18,5,103,144,46,
佛山市,湾梁,113.1294,23.0067,2024-11-08T2300,29,46,0.7,44,11,80,136,46,
佛山市,华材职中,113.1083,23.0478,2024-11-08T2300,30,75,0.7,84,13,41,130,63,颗粒物(PM10)
佛山市,南海气象局,113.144,23.0453,2024-11-08T2300,27,52,0.5,50,11,64,136,51,颗粒物(PM10)
佛山市,顺德苏岗,113.2881,22.8094,2024-11-08T2300,31,68,0.8,57,11,54,135,59,颗粒物(PM10)
佛山市,高明孔堂,112.8383,22.8678,2024-11-08T2300,32,65,0.6,48,10,55,146,58,颗粒物(PM10)
佛山市,三水监测站,112.8836,23.1588,2024-11-08T2300,40,73,0.7,68,12,48,132,62,颗粒物(PM10)
佛山市,三水云东海,112.867,23.185,2024-11-08T2300,38,50,0.7,72,12,32,130,54,细颗粒物(PM2.5)
佛山市,容桂街道办,113.2544,22.7642,2024-11-08T2300,34,56,0.7,50,11,63,143,53,颗粒物(PM10)
福州市,鼓山,119.3903,26.0543,2024-11-08T2300,,,,,,,86,,
福州市,师大,119.2681,26.0504,2024-11-08T2300,20,45,0.7,23,5,70,99,45,
福州市,五四北路,119.2984,26.1028,2024-11-08T2300,17,26,0.8,20,3,73,92,26,
福州市,杨桥西路,119.2648,26.0768,2024-11-08T2300,16,48,0.8,25,3,64,96,48,
福州市,紫阳,119.317,26.0746,2024-11-08T2300,19,40,0.7,31,4,63,88,40,
福州市,九龙,119.5799,26.0936,2024-11-08T2300,,,,,,,,,
福州市,吴航,119.5189,25.9664,2024-11-08T2300,23,41,0.2,17,4,77,102,41,
抚顺市,望花区,123.7977,41.8491,2024-11-08T2300,54,77,1.0,55,9,19,73,74,细颗粒物(PM2.5)
抚顺市,顺城区,123.9161,41.8822,2024-11-08T2300,55,86,0.7,55,6,12,39,75,细颗粒物(PM2.5)
抚顺市,东洲区,124.0436,41.8611,2024-11-08T2300,54,65,0.7,43,9,17,74,74,细颗粒物(PM2.5)
抚顺市,新抚区,123.9247,41.8642,2024-11-08T2300,54,91,0.7,55,5,8,36,74,细颗粒物(PM2.5)
抚顺市,大伙房水库,124.0972,41.8961,2024-11-08T2300,39,44,0.6,17,8,68,82,55,细颗粒物(PM2.5)
抚顺市,沈抚新城,123.7086,41.8391,2024-11-08T2300,46,72,0.5,18,8,60,82,64,细颗粒物(PM2.5)
抚州市,桐源党溪,116.2127,28.0814,2024-11-08T2300,42,62,0.4,16,6,31,110,59,细颗粒物(PM2.5)
抚州市,市站,116.3544,27.9831,2024-11-08T2300,48,73,0.9,22,6,72,104,67,细颗粒物(PM2.5)
抚州市,血防站,116.3565,27.963,2024-11-08T2300,40,72,0.8,20,8,76,124,61,颗粒物(PM10)
抚州市,采茶剧团,116.3564,28.0007,2024-11-08T2300,51,75,0.9,21,7,65,113,70,细颗粒物(PM2.5)
抚州市,医学分院,116.385,27.9647,2024-11-08T2300,36,68,0.8,19,5,52,105,59,颗粒物(PM10)
阜新市,工业园区,121.6094,41.998,2024-11-08T2300,127,210,2.1,54,17,4,37,168,细颗粒物(PM2.5)
阜新市,长青街,121.6697,42.0279,2024-11-08T2300,100,154,1.9,41,13,4,33,132,细颗粒物(PM2.5)
阜新市,农业园区,121.6673,42.0705,2024-11-08T2300,97,122,1.2,42,30,49,49,128,细颗粒物(PM2.5)
阜新市,东苑,121.6717,42.0224,2024-11-08T2300,99,148,2.6,47,23,5,38,130,细颗粒物(PM2.5)
阜新市,玉龙新城,121.6506,42.0498,2024-11-08T2300,96,144,1.6,39,11,6,41,127,细颗粒物(PM2.5)
阜阳市,市监测站,115.8277,32.8929,2024-11-08T2300,62,87,0.6,28,6,37,93,84,细颗粒物(PM2.5)
阜阳市,开发区,115.8554,32.8605,2024-11-08T2300,56,99,0.6,32,7,35,92,77,细颗粒物(PM2.5)
阜阳市,阜阳职业技术学院,115.784,32.8892,2024-11-08T2300,60,81,0.5,25,6,42,95,82,细颗粒物(PM2.5)
阜阳市,市规划展馆,115.7901,32.8613,2024-11-08T2300,64,76,0.4,30,8,44,100,87,细颗粒物(PM2.5)
阜阳市,枣园社区,115.836,32.9183,2024-11-08T2300,54,83,0.5,29,7,43,94,74,细颗粒物(PM2.5)
甘南藏族自治州,州政府,102.9099,34.9841,2024-11-08T2300,13,41,0.9,59,6,2,72,41,
甘南藏族自治州,甘肃民族师范学院,102.8914,34.9617,2024-11-08T2300,17,59,0.4,56,8,1,78,55,颗粒物(PM10)
甘孜藏族自治州,水桥子,101.9603,30.0475,2024-11-08T2300,18,35,0.4,21,6,4,10,35,
甘孜藏族自治州,州环保局,101.9533,29.9972,2024-11-08T2300,6,19,0.2,37,4,10,18,19,
赣江新区,桑海产业园,115.8347,28.932,2024-11-08T2300,47,88,0.9,93,13,7,104,69,颗粒物(PM10)
赣州市,通天岩,114.9017,25.9149,2024-11-08T2300,40,,0.1,8,1,77,131,57,细颗粒物(PM2.5)
赣州市,地委,114.9367,25.8664,2024-11-08T2300,37,63,0.8,39,2,63,131,57,颗粒物(PM10)
赣州市,气象台,114.9461,25.8481,2024-11-08T2300,38,48,0.6,27,16,100,126,54,细颗粒物(PM2.5)
赣州市,市图书馆,114.9322,25.8333,2024-11-08T2300,28,56,0.5,24,13,93,135,53,颗粒物(PM10)
赣州市,华坚鞋城,114.8905,25.8471,2024-11-08T2300,31,45,0.6,16,7,112,124,45,
赣州市,赣县区卫计委,115.0093,25.8613,2024-11-08T2300,44,78,0.6,76,5,34,117,64,颗粒物(PM10)
固原市,马园,106.2319,36.1417,2024-11-08T2300,68,89,0.9,56,6,19,50,92,细颗粒物(PM2.5)
固原市,监测站,106.2792,36.0022,2024-11-08T2300,76,,0.7,16,5,66,64,102,细颗粒物(PM2.5)
固原市,新区,106.2375,36.0211,2024-11-08T2300,63,,0.7,13,3,65,58,85,细颗粒物(PM2.5)
固原市,原州区十五小,106.2177,35.9959,2024-11-08T2300,54,75,0.8,16,6,74,77,74,细颗粒物(PM2.5)
广安市,小平旧居,106.6308,30.5278,2024-11-08T2300,,,,,,,,,
广安市,市委,106.6303,30.4576,2024-11-08T2300,66,85,0.7,32,4,35,56,89,细颗粒物(PM2.5)
广安市,友谊中学,106.6271,30.4663,2024-11-08T2300,57,81,0.9,35,3,27,53,78,细颗粒物(PM2.5)
广安市,广电花园,106.6388,30.4551,2024-11-08T2300,56,85,0.8,32,5,24,52,77,细颗粒物(PM2.5)
广安市,北辰小学,106.6351,30.4865,2024-11-08T2300,66,88,0.7,21,4,33,61,89,细颗粒物(PM2.5)
广元市,黑石坡,105.8945,32.4535,2024-11-08T2300,32,47,0.6,11,5,31,46,47,
广元市,老城,105.821,32.4444,2024-11-08T2300,45,48,1.0,36,3,21,44,63,细颗粒物(PM2.5)
广元市,监测站,105.8628,32.4287,2024-11-08T2300,35,48,0.8,24,4,39,58,50,
广元市,经开区,105.8047,32.4166,2024-11-08T2300,39,58,0.8,43,3,11,45,55,细颗粒物(PM2.5)
广州市,广雅中学,113.2347,23.1423,2024-11-08T2300,36,83,,70,11,46,126,,
广州市,市五中,113.2612,23.105,2024-11-08T2300,33,55,0.6,38,9,81,141,53,颗粒物(PM10)
广州市,广东商学院,113.3478,23.0916,2024-11-08T2300,26,46,0.5,37,9,78,136,46,
广州市,市八十六中,113.4332,23.1047,2024-11-08T2300,25,49,0.6,40,6,65,122,49,
广州市,番禺中学,113.3505,22.9483,2024-11-08T2300,30,56,0.5,45,9,76,140,53,颗粒物(PM10)
广州市,花都师范,113.2146,23.3916,2024-11-08T2300,24,50,0.7,23,13,97,127,50,
广州市,市监测站,113.2597,23.1331,2024-11-08T2300,34,63,0.6,70,10,45,130,57,颗粒物(PM10)
广州市,九龙镇镇龙,113.5618,23.312,2024-11-08T2300,29,60,0.6,54,6,39,116,55,颗粒物(PM10)
广州市,麓湖,113.2765,23.1544,2024-11-08T2300,31,49,0.6,49,8,63,133,49,
广州市,帽峰山森林公园,113.443,23.3035,2024-11-08T2300,17,27,0.5,20,10,80,134,27,
广州市,体育西,113.3221,23.1322,2024-11-08T2300,31,52,0.6,39,7,62,127,51,颗粒物(PM10)
广州市,从化街口,113.5717,23.5491,2024-11-08T2300,30,56,0.7,53,9,49,117,53,颗粒物(PM10)
广州市,白云竹料,113.3472,23.3692,2024-11-08T2300,29,60,0.7,31,12,81,131,55,颗粒物(PM10)
广州市,白云嘉禾,113.2981,23.237,2024-11-08T2300,41,86,0.8,100,11,21,128,68,颗粒物(PM10)
广州市,黄埔科学城,113.4256,23.1716,2024-11-08T2300,27,47,0.7,36,8,66,130,47,
广州市,番禺大学城,113.3942,23.0483,2024-11-08T2300,26,41,0.1,47,10,61,132,41,
广州市,南沙黄阁,113.4922,22.8168,2024-11-08T2300,31,62,0.6,60,8,50,133,56,颗粒物(PM10)
广州市,南沙街,113.5342,22.7896,2024-11-08T2300,29,71,0.5,67,8,33,137,61,颗粒物(PM10)
广州市,花都梯面,113.2902,23.5544,2024-11-08T2300,21,32,0.3,12,12,108,131,34,
广州市,从化良口,113.7858,23.7478,2024-11-08T2300,14,22,0.5,12,6,79,116,25,
广州市,增城荔城,113.8051,23.2614,2024-11-08T2300,26,35,0.6,18,10,94,115,38,
贵港市,德智高中,109.568,23.1478,2024-11-08T2300,,,,,,,,,
贵港市,江南子站,109.6047,23.0666,2024-11-08T2300,43,100,0.8,84,9,22,147,75,颗粒物(PM10)
贵港市,贵城子站,109.6014,23.0948,2024-11-08T2300,45,62,0.9,52,9,52,135,63,细颗粒物(PM2.5)
贵港市,荷城子站,109.5669,23.1065,2024-11-08T2300,39,102,0.8,101,13,25,132,76,颗粒物(PM10)
贵港市,新世纪学校,109.5886,23.1172,2024-11-08T2300,32,63,0.7,21,10,111,136,57,颗粒物(PM10)
贵阳市,马鞍山,106.6899,26.5998,2024-11-08T2300,34,39,0.7,15,4,64,98,49,
贵阳市,市环保站,106.6971,26.5694,2024-11-08T2300,43,61,0.6,24,7,74,113,60,细颗粒物(PM2.5)
贵阳市,鉴湖路,106.6243,26.6266,2024-11-08T2300,34,56,0.5,20,6,74,102,53,颗粒物(PM10)
贵阳市,燕子冲,106.7487,26.6343,2024-11-08T2300,31,39,0.4,12,8,80,108,45,
贵阳市,碧云窝,106.6555,26.4365,2024-11-08T2300,39,66,0.6,34,8,31,105,58,颗粒物(PM10)
贵阳市,中院村,106.694,26.5161,2024-11-08T2300,41,73,0.7,65,12,30,104,62,颗粒物(PM10)
贵阳市,红边门,106.7109,26.6027,2024-11-08T2300,31,48,0.6,19,7,85,112,48,
贵阳市,新华路,106.7164,26.5699,2024-11-08T2300,46,66,0.6,31,5,56,113,64,细颗粒物(PM2.5)
贵阳市,太慈桥,106.674,26.5424,2024-11-08T2300,29,53,0.6,53,5,23,100,52,颗粒物(PM10)
贵阳市,桐木岭,106.805,26.3003,2024-11-08T2300,36,54,0.5,6,26,99,117,52,"颗粒物(PM10),细颗粒物(PM2.5)"
桂林市,电子科大尧山校区,110.4144,25.3167,2024-11-08T2300,16,47,0.5,15,11,117,138,47,
桂林市,监测站,110.2819,25.2697,2024-11-08T2300,30,33,0.6,26,11,104,140,43,
桂林市,龙隐路小学,110.3089,25.2708,2024-11-08T2300,24,38,0.6,16,11,122,148,39,
桂林市,八中,110.2869,25.2178,2024-11-08T2300,25,37,0.8,21,10,108,138,37,
桂林市,创业大厦,110.1764,25.2381,2024-11-08T2300,31,36,0.4,11,10,129,140,45,
桂林市,旅游学院,110.296,25.1253,2024-11-08T2300,29,34,0.5,14,12,112,146,42,
果洛藏族自治州,玛沁县大武镇,100.2561,34.4714,2024-11-08T2300,17,81,0.6,33,17,23,88,66,颗粒物(PM10)
哈尔滨市,岭北,126.5422,45.755,2024-11-08T2300,127,171,0.4,72,18,31,56,168,细颗粒物(PM2.5)
哈尔滨市,松北商大,126.561,45.8167,2024-11-08T2300,141,164,1.3,75,14,16,28,188,细颗粒物(PM2.5)
哈尔滨市,阿城会宁,126.979,45.5419,2024-11-08T2300,136,158,0.8,52,7,19,58,180,细颗粒物(PM2.5)
哈尔滨市,南岗学府路,126.599,45.7222,2024-11-08T2300,115,178,1.2,71,17,18,38,150,细颗粒物(PM2.5)
哈尔滨市,太平宏伟公园,126.689,45.7733,2024-11-08T2300,162,209,1.6,82,15,6,26,212,细颗粒物(PM2.5)
哈尔滨市,道外承德广场,126.635,45.7667,2024-11-08T2300,134,187,1.7,82,14,15,23,178,细颗粒物(PM2.5)
哈尔滨市,香坊红旗大街,126.685,45.7319,2024-11-08T2300,151,175,1.3,78,16,24,45,201,细颗粒物(PM2.5)
哈尔滨市,动力和平路,126.6411,45.7258,2024-11-08T2300,153,213,1.4,91,22,4,32,203,细颗粒物(PM2.5)
哈尔滨市,道里建国路,126.593,45.7478,2024-11-08T2300,125,148,2.6,68,23,20,19,165,细颗粒物(PM2.5)
哈尔滨市,平房东轻厂,126.615,45.61,2024-11-08T2300,133,136,1.1,34,11,48,60,176,细颗粒物(PM2.5)
哈尔滨市,呼兰师专,126.595,45.9855,2024-11-08T2300,158,170,1.1,82,11,13,43,208,细颗粒物(PM2.5)
哈尔滨市,省农科院,126.6206,45.6842,2024-11-08T2300,163,199,1.0,67,12,15,40,213,细颗粒物(PM2.5)
哈密市,地区监测站,93.5128,42.8172,2024-11-08T2300,35,89,0.5,33,5,33,55,70,颗粒物(PM10)
哈密市,哈密师范学校,93.4961,42.8328,2024-11-08T2300,38,85,0.6,31,5,40,59,68,颗粒物(PM10)
海北藏族自治州,海晏县西海镇,100.9048,36.9639,2024-11-08T2300,9,20,0.2,11,7,40,46,20,
海东市,平安区公安北苑,102.0738,36.5056,2024-11-08T2300,23,39,0.7,18,9,44,75,39,
海口市,东寨港,110.576,19.9507,2024-11-08T2300,,,,,,,,,
海口市,海南大学,110.3232,20.0574,2024-11-08T2300,25,49,0.5,24,6,122,162,49,
海口市,秀英海南医院,110.283,20.0053,2024-11-08T2300,40,44,0.6,58,8,72,160,57,细颗粒物(PM2.5)
海口市,海南师范大学,110.338,19.9969,2024-11-08T2300,19,40,0.4,14,9,139,163,44,
海口市,龙华路环保局宿舍,110.33,20.0356,2024-11-08T2300,23,42,0.5,18,6,123,158,42,
海口市,桂林洋子站,110.5111,19.9736,2024-11-08T2300,33,57,0.4,23,7,96,169,54,颗粒物(PM10)
海南藏族自治州,共和县恰卜恰镇,100.6188,36.2866,2024-11-08T2300,10,35,0.6,30,14,27,76,35,
海西蒙古族藏族自治州,德令哈市,97.3731,37.3753,2024-11-08T2300,18,26,0.4,6,16,57,87,26,
邯郸市,东污水处理厂,114.5302,36.6116,2024-11-08T2300,53,89,0.6,39,4,39,93,73,细颗粒物(PM2.5)
邯郸市,矿院,114.4918,36.5713,2024-11-08T2300,48,88,0.5,54,2,33,92,69,颗粒物(PM10)
邯郸市,丛台公园,114.484,36.6133,2024-11-08T2300,45,74,0.5,37,5,55,90,63,细颗粒物(PM2.5)
邯郸市,香泉濮院小区,114.7895,36.5593,2024-11-08T2300,49,96,0.6,33,5,46,109,73,颗粒物(PM10)
邯郸市,永年区实验高中,114.50634,36.77178,2024-11-08T2300,45,92,0.3,89,5,10,96,71,颗粒物(PM10)
邯郸市,峰峰矿区临水派出所,114.20016,36.44293,2024-11-08T2300,48,67,0.5,21,5,66,87,67,细颗粒物(PM2.5)
汉中市,汉川机床厂子校,106.9893,33.1842,2024-11-08T2300,28,42,0.6,14,5,19,37,42,
汉中市,市监测站,107.0154,33.0706,2024-11-08T2300,53,94,1.0,45,10,8,34,73,细颗粒物(PM2.5)
汉中市,鑫源开发区,107.0089,33.1138,2024-11-08T2300,63,113,0.9,58,11,32,27,85,细颗粒物(PM2.5)
汉中市,南郑大河坎水厂,107.007,33.0323,2024-11-08T2300,63,92,1.1,35,9,10,30,85,细颗粒物(PM2.5)
杭州市,滨江,120.2072,30.2111,2024-11-08T2300,14,37,0.4,32,7,54,81,37,
杭州市,西溪,120.0633,30.2747,2024-11-08T2300,26,32,0.6,60,6,4,81,38,
杭州市,下沙,120.3461,30.3153,2024-11-08T2300,24,44,0.5,60,8,28,98,44,
杭州市,卧龙桥,120.1269,30.2456,2024-11-08T2300,13,31,0.4,33,6,22,88,31,
杭州市,浙江农大,120.1903,30.2692,2024-11-08T2300,17,35,0.5,31,6,48,84,35,
杭州市,和睦小学,120.1197,30.3119,2024-11-08T2300,27,57,0.3,83,9,4,102,54,颗粒物(PM10)
杭州市,临平镇,120.3019,30.4183,2024-11-08T2300,20,53,0.4,56,6,25,100,52,颗粒物(PM10)
杭州市,城厢镇,120.2697,30.1819,2024-11-08T2300,16,37,0.5,30,7,56,94,37,
杭州市,云栖,120.0883,30.1808,2024-11-08T2300,12,24,0.5,43,7,16,82,24,
杭州市,镇二中,119.9464,30.0494,2024-11-08T2300,47,78,0.9,36,6,22,82,65,细颗粒物(PM2.5)
杭州市,市府大楼,119.7183,30.2367,2024-11-08T2300,67,121,0.8,65,7,6,87,90,细颗粒物(PM2.5)
杭州市,消防大队,120.1556,30.2864,2024-11-08T2300,20,43,0.3,46,8,43,96,43,
合肥市,明珠广场,117.1959,31.7848,2024-11-08T2300,22,51,0.4,78,8,19,94,51,颗粒物(PM10)
合肥市,三里街,117.3072,31.8764,2024-11-08T2300,31,63,0.6,77,6,8,85,57,颗粒物(PM10)
合肥市,琥珀山庄,117.2588,31.8707,2024-11-08T2300,27,46,0.8,48,9,44,100,46,
合肥市,董铺水库,117.1604,31.9052,2024-11-08T2300,17,53,0.4,39,5,46,92,52,颗粒物(PM10)
合肥市,长江中路,117.25,31.8571,2024-11-08T2300,30,53,0.7,55,8,41,96,52,颗粒物(PM10)
合肥市,庐阳区,117.266,31.9436,2024-11-08T2300,24,51,0.7,38,3,50,97,51,颗粒物(PM10)
合肥市,瑶海区,117.336,31.8586,2024-11-08T2300,29,58,0.5,71,7,29,94,54,颗粒物(PM10)
合肥市,包河区,117.3027,31.7964,2024-11-08T2300,31,68,0.6,93,6,2,88,59,颗粒物(PM10)
合肥市,滨湖新区,117.2776,31.7385,2024-11-08T2300,29,53,0.5,38,6,59,96,52,颗粒物(PM10)
合肥市,高新区,117.1318,31.8403,2024-11-08T2300,19,39,0.7,38,1,58,94,39,
合肥市,高教基地,117.3803,31.9147,2024-11-08T2300,25,49,0.4,35,6,41,98,49,
和田地区,地区环保局,79.924,37.0877,2024-11-08T2300,45,136,0.7,24,8,62,96,93,颗粒物(PM10)
和田地区,市环保局,79.9131,37.113,2024-11-08T2300,42,115,0.7,24,7,59,92,83,颗粒物(PM10)
河池市,东仁乐园,108.2011,24.715,2024-11-08T2300,26,39,0.6,16,4,46,106,39,
河池市,市环保站,108.0497,24.6947,2024-11-08T2300,37,62,0.7,47,12,29,120,56,颗粒物(PM10)
河池市,市疾控中心,108.0983,24.6989,2024-11-08T2300,33,81,0.6,40,9,27,111,66,颗粒物(PM10)
河源市,源西,114.6778,23.7569,2024-11-08T2300,20,31,0.5,16,10,102,103,32,
河源市,东埔,114.6944,23.7586,2024-11-08T2300,20,28,0.5,14,6,113,114,36,
河源市,老城,114.6892,23.7233,2024-11-08T2300,15,37,0.4,14,6,108,113,37,
菏泽市,气象局,115.4208,35.2464,2024-11-08T2300,38,74,0.4,28,5,72,106,62,颗粒物(PM10)
菏泽市,市政协,115.4747,35.2375,2024-11-08T2300,38,77,0.4,29,7,60,102,64,颗粒物(PM10)
菏泽市,定陶老年大学,115.5564,35.0891,2024-11-08T2300,29,68,0.2,39,6,50,92,59,颗粒物(PM10)
菏泽市,菏泽医专,115.4702,35.2706,2024-11-08T2300,31,77,0.4,39,11,62,99,64,颗粒物(PM10)
贺州市,环保小区,111.5264,24.4172,2024-11-08T2300,39,46,0.5,26,5,61,133,55,细颗粒物(PM2.5)
贺州市,政协大楼,111.5608,24.4078,2024-11-08T2300,28,68,0.5,48,7,29,138,59,颗粒物(PM10)
贺州市,西湾,111.4744,24.4553,2024-11-08T2300,31,49,0.6,41,8,39,129,49,
鹤壁市,市监测站,114.17,35.9019,2024-11-08T2300,36,76,0.4,42,1,26,93,63,颗粒物(PM10)
鹤壁市,市交警支队,114.2956,35.7511,2024-11-08T2300,37,98,0.7,62,4,23,92,74,颗粒物(PM10)
鹤壁市,迎宾馆,114.2878,35.7306,2024-11-08T2300,54,104,0.7,58,2,39,97,77,颗粒物(PM10)
鹤壁市,大新区,114.2617,35.6822,2024-11-08T2300,53,72,0.6,77,3,6,88,73,细颗粒物(PM2.5)
鹤壁市,南山宾馆,114.1572,35.9603,2024-11-08T2300,62,91,0.3,30,1,55,90,84,细颗粒物(PM2.5)
鹤岗市,哈啤分公司,130.2537,47.3416,2024-11-08T2300,39,55,0.9,20,13,25,35,55,细颗粒物(PM2.5)
鹤岗市,斯达机电,130.2684,47.3086,2024-11-08T2300,30,40,0.4,23,12,35,39,43,
鹤岗市,东山纸板厂,130.3114,47.3388,2024-11-08T2300,41,108,2.4,38,14,6,30,79,颗粒物(PM10)
鹤岗市,五号水库,130.1097,47.3382,2024-11-08T2300,8,20,0.5,9,8,42,67,20,
黑河市,交通局,127.4833,50.2524,2024-11-08T2300,155,178,0.8,20,7,60,60,205,细颗粒物(PM2.5)
黑河市,环保局,127.5144,50.2341,2024-11-08T2300,150,175,0.7,23,5,54,70,200,细颗粒物(PM2.5)
黑河市,大黑河岛,127.5291,50.2472,2024-11-08T2300,177,192,0.9,15,1,32,58,227,细颗粒物(PM2.5)
衡水市,电机北厂,115.6838,37.7541,2024-11-08T2300,24,63,0.4,26,3,67,97,57,颗粒物(PM10)
衡水市,市监测站,115.6303,37.7316,2024-11-08T2300,27,64,0.4,45,3,47,92,57,颗粒物(PM10)
衡水市,市城管局,115.6683,37.7217,2024-11-08T2300,39,67,0.4,49,8,44,92,59,颗粒物(PM10)
衡水市,地表水厂,115.5989,37.5491,2024-11-08T2300,37,84,0.3,56,4,25,85,67,颗粒物(PM10)
衡阳市,原169医院,112.5003,26.9167,2024-11-08T2300,37,67,0.7,21,14,73,100,59,颗粒物(PM10)
衡阳市,衡阳化工总厂,112.6194,26.9258,2024-11-08T2300,48,62,0.7,31,11,91,130,67,细颗粒物(PM2.5)
衡阳市,珠晖区环保局,112.6211,26.8956,2024-11-08T2300,37,58,0.8,31,13,93,130,54,颗粒物(PM10)
衡阳市,市委党校,112.6197,26.8733,2024-11-08T2300,40,55,0.9,31,17,101,139,57,细颗粒物(PM2.5)
衡阳市,市监测站,112.6006,26.8919,2024-11-08T2300,45,64,0.8,30,14,96,140,63,细颗粒物(PM2.5)
衡阳市,真空机电公司,112.5664,26.9056,2024-11-08T2300,39,63,0.8,43,12,68,137,57,颗粒物(PM10)
衡阳市,师范学院,112.6703,26.882,2024-11-08T2300,42,66,0.8,25,19,91,141,59,细颗粒物(PM2.5)
红河哈尼族彝族自治州,污水处理厂,103.3772,23.3993,2024-11-08T2300,49,53,0.7,18,10,42,94,68,细颗粒物(PM2.5)
红河哈尼族彝族自治州,监测站,103.3861,23.35,2024-11-08T2300,49,61,0.6,18,58,61,95,68,细颗粒物(PM2.5)
红河哈尼族彝族自治州,州图书馆,103.3758,23.368,2024-11-08T2300,45,54,0.7,12,89,59,89,63,细颗粒物(PM2.5)
呼和浩特市,呼市一监,111.6507,40.7517,2024-11-08T2300,49,75,0.9,78,9,10,81,68,细颗粒物(PM2.5)
呼和浩特市,小召,111.6572,40.8033,2024-11-08T2300,47,68,1.0,79,10,8,78,65,细颗粒物(PM2.5)
呼和浩特市,如意水处理厂,111.7516,40.8369,2024-11-08T2300,42,88,0.9,73,8,1,63,69,颗粒物(PM10)
呼和浩特市,二十九中,111.7276,40.8062,2024-11-08T2300,47,73,1.0,73,8,5,70,65,细颗粒物(PM2.5)
呼和浩特市,工大金川校区,111.5512,40.7866,2024-11-08T2300,54,99,1.0,84,7,3,76,75,颗粒物(PM10)
呼和浩特市,化肥厂生活区,111.717,40.7612,2024-11-08T2300,57,90,0.8,53,11,28,74,78,细颗粒物(PM2.5)
呼和浩特市,红旗小学,111.5968,40.8178,2024-11-08T2300,55,90,0.9,77,10,1,68,75,细颗粒物(PM2.5)
呼和浩特市,海东办,111.6518,40.8389,2024-11-08T2300,75,141,1.7,80,12,4,74,100,细颗粒物(PM2.5)
呼伦贝尔市,区环保局,119.7594,49.2261,2024-11-08T2300,23,45,0.4,43,6,5,32,45,
呼伦贝尔市,国华电力东,119.7512,49.1577,2024-11-08T2300,17,26,0.3,15,3,22,41,26,
湖州市,城西水厂,120.0751,30.8669,2024-11-08T2300,18,38,0.4,34,6,52,86,38,
湖州市,仁皇山新区,120.0875,30.8955,2024-11-08T2300,18,36,0.5,38,6,54,92,36,
湖州市,吴兴区站,120.1844,30.8596,2024-11-08T2300,21,42,0.6,27,8,52,78,42,
湖州市,南浔区站,120.4148,30.8538,2024-11-08T2300,21,48,0.4,34,4,46,77,48,
葫芦岛市,龙港区,120.9092,40.7136,2024-11-08T2300,54,70,0.7,15,14,97,106,74,细颗粒物(PM2.5)
葫芦岛市,化工街,120.8392,40.7514,2024-11-08T2300,46,92,0.8,29,18,78,95,71,颗粒物(PM10)
葫芦岛市,新区,120.8341,40.7073,2024-11-08T2300,53,59,0.8,20,13,99,106,73,细颗粒物(PM2.5)
葫芦岛市,东城区,120.8695,40.7677,2024-11-08T2300,60,76,0.8,34,14,78,96,82,细颗粒物(PM2.5)
怀化市,林科所,109.5981,27.5721,2024-11-08T2300,29,42,1.1,21,59,81,107,42,
怀化市,河西地税局,109.9453,27.5444,2024-11-08T2300,46,72,0.6,26,12,36,104,64,细颗粒物(PM2.5)
怀化市,市四医院,109.9781,27.5342,2024-11-08T2300,40,66,0.7,24,19,62,101,58,颗粒物(PM10)
怀化市,监测楼,109.9972,27.5578,2024-11-08T2300,47,97,0.7,49,9,23,102,74,颗粒物(PM10)
怀化市,市委党校,110.0394,27.583,2024-11-08T2300,46,64,0.7,36,8,27,103,64,细颗粒物(PM2.5)
淮安市,钵池山,119.036,33.5981,2024-11-08T2300,24,51,0.6,49,4,28,87,51,颗粒物(PM10)
淮安市,北京南路,119.007,33.575,2024-11-08T2300,23,51,0.5,50,7,28,85,51,颗粒物(PM10)
淮安市,市监测站,118.989,33.6067,2024-11-08T2300,27,44,0.7,42,8,43,86,44,
淮安市,楚州区监测站,119.135,33.5039,2024-11-08T2300,34,44,0.5,42,8,42,80,49,
淮安市,淮阴区监测站,119.0186,33.6297,2024-11-08T2300,24,58,0.6,75,4,13,81,54,颗粒物(PM10)
淮安市,新华书店,118.8755,33.2894,2024-11-08T2300,20,35,0.4,44,5,46,84,35,
淮北市,监测站,116.8004,33.975,2024-11-08T2300,19,44,0.5,20,2,65,84,44,
淮北市,烈山区政府,116.8091,33.9007,2024-11-08T2300,23,48,0.3,26,2,67,90,48,
淮北市,杜集区检察院,116.8873,33.9836,2024-11-08T2300,18,54,0.4,14,2,79,94,52,颗粒物(PM10)
淮北市,市博物馆,116.7923,33.9535,2024-11-08T2300,20,37,0.5,19,5,73,94,37,
淮南市,潘集区政府,116.8305,32.7727,2024-11-08T2300,41,69,0.5,33,9,39,93,60,颗粒物(PM10)
淮南市,师范学院,117.0067,32.6524,2024-11-08T2300,24,41,0.2,28,10,63,100,41,
淮南市,谢家集区政府,116.8569,32.5951,2024-11-08T2300,23,36,0.4,22,9,61,90,36,
淮南市,八公山区政府,116.8281,32.633,2024-11-08T2300,29,55,0.4,28,11,56,99,53,颗粒物(PM10)
淮南市,焦岗湖风景区管理处,116.6325,32.6201,2024-11-08T2300,16,30,0.1,31,4,52,88,30,
淮南市,经济技术开发区消防队,117.0566,32.6531,2024-11-08T2300,17,47,0.3,26,4,52,92,47,
淮南市,山南新区,117.0108,32.5893,2024-11-08T2300,35,62,0.4,16,4,71,100,56,颗粒物(PM10)
黄冈市,职工中心,114.9028,30.4742,2024-11-08T2300,58,88,0.6,32,14,74,102,79,细颗粒物(PM2.5)
黄冈市,红卫路,114.8858,30.4519,2024-11-08T2300,56,72,0.5,33,9,79,105,77,细颗粒物(PM2.5)
黄冈市,市林业局,114.9136,30.4445,2024-11-08T2300,55,108,0.6,35,11,85,111,79,颗粒物(PM10)
黄南藏族自治州,同仁县隆务镇,102.0199,35.5102,2024-11-08T2300,12,37,0.4,3,6,61,78,37,
黄山市,延安路89号,118.2903,29.6963,2024-11-08T2300,19,38,0.3,13,6,23,86,38,
黄山市,黄山东路89号,118.327,29.7178,2024-11-08T2300,8,36,0.3,14,6,55,87,36,
黄山市,黄山区政府5号楼,118.1371,30.2756,2024-11-08T2300,22,38,0.4,10,7,20,92,38,
黄石市,沈家营,115.0601,30.2313,2024-11-08T2300,35,50,0.6,14,10,92,107,50,
黄石市,陈家湾,115.0817,30.2006,2024-11-08T2300,36,51,0.6,18,14,104,118,52,细颗粒物(PM2.5)
黄石市,铁山,114.8988,30.2019,2024-11-08T2300,30,52,0.6,13,5,114,115,51,颗粒物(PM10)
黄石市,团城山,115.0307,30.2092,2024-11-08T2300,40,52,0.7,20,7,103,117,57,细颗粒物(PM2.5)
黄石市,笔架山北路,115.0235,30.1578,2024-11-08T2300,40,59,0.6,26,9,96,114,57,细颗粒物(PM2.5)
惠州市,河南岸金山湖子站,114.4183,23.0528,2024-11-08T2300,24,42,0.7,20,12,80,112,42,
惠州市,下埔横江三路子站,114.4053,23.0822,2024-11-08T2300,23,42,0.5,18,10,85,114,42,
惠州市,江北云山西路子站,114.4103,23.1142,2024-11-08T2300,21,36,0.5,12,11,100,122,36,
惠州市,惠阳区承修路船湖子站,114.4645,22.7833,2024-11-08T2300,21,45,0.5,18,12,69,110,45,
惠州市,大亚湾管委会子站,114.5317,22.7422,2024-11-08T2300,19,33,0.4,11,4,93,113,33,
惠州市,惠阳秋长,114.4338,22.8134,2024-11-08T2300,18,27,0.5,13,8,89,115,28,
惠州市,大亚湾霞涌,114.6517,22.775,2024-11-08T2300,19,31,0.3,10,8,81,105,31,
鸡西市,环保局,130.9762,45.3001,2024-11-08T2300,142,224,1.9,65,12,3,33,189,细颗粒物(PM2.5)
鸡西市,第一中学,130.9429,45.3039,2024-11-08T2300,74,155,0.8,70,15,3,39,103,颗粒物(PM10)
鸡西市,欧美日汽修厂,131.0207,45.3073,2024-11-08T2300,161,245,1.8,51,22,4,30,211,细颗粒物(PM2.5)
鸡西市,市政设施管理处,130.9967,45.3106,2024-11-08T2300,130,228,1.4,59,14,2,26,172,细颗粒物(PM2.5)
吉安市,红声器材厂,114.9754,27.0803,2024-11-08T2300,27,55,0.5,32,17,89,124,53,颗粒物(PM10)
吉安市,市森林工业局,114.9658,27.0999,2024-11-08T2300,24,46,0.5,28,16,86,124,46,
吉安市,市环境监测站,114.99,27.1312,2024-11-08T2300,27,49,0.4,32,18,88,127,49,
吉安市,青原区法院,115.0093,27.0968,2024-11-08T2300,23,49,0.5,42,12,65,127,49,
吉林市,哈达湾,126.54,43.8622,2024-11-08T2300,89,118,1.1,52,9,30,76,118,细颗粒物(PM2.5)
吉林市,东局子,126.5844,43.8358,2024-11-08T2300,44,67,0.8,31,6,43,73,62,细颗粒物(PM2.5)
吉林市,电力学院,126.5052,43.8245,2024-11-08T2300,102,129,1.6,51,10,9,65,134,细颗粒物(PM2.5)
吉林市,江北,126.6133,43.8972,2024-11-08T2300,57,87,1.2,23,10,38,69,78,细颗粒物(PM2.5)
吉林市,江南公园,126.555,43.8306,2024-11-08T2300,60,85,1.0,36,8,36,71,82,细颗粒物(PM2.5)
吉林市,丰满,126.7061,43.7133,2024-11-08T2300,40,49,0.9,10,7,52,71,57,细颗粒物(PM2.5)
吉林市,九站,126.4739,43.953,2024-11-08T2300,78,103,1.0,48,17,23,61,104,细颗粒物(PM2.5)
济南市,科干所,116.9862,36.6114,2024-11-08T2300,32,61,0.7,29,8,89,104,56,颗粒物(PM10)
济南市,农科所,116.9376,36.665,2024-11-08T2300,44,100,1.1,95,7,7,92,75,颗粒物(PM10)
济南市,开发区,117.1265,36.6734,2024-11-08T2300,39,88,0.9,90,5,10,106,69,颗粒物(PM10)
济南市,省种子仓库,117.0624,36.6868,2024-11-08T2300,41,107,0.9,86,5,6,97,79,颗粒物(PM10)
济南市,机床二厂,116.9489,36.6447,2024-11-08T2300,54,115,1.0,95,7,8,95,83,颗粒物(PM10)
济南市,市监测站,117.0495,36.663,2024-11-08T2300,34,73,0.7,88,4,16,108,62,颗粒物(PM10)
济南市,长清党校,116.7675,36.5484,2024-11-08T2300,42,73,0.9,72,8,44,104,62,颗粒物(PM10)
济南市,技术学院,117.6795,36.229,2024-11-08T2300,46,70,1.2,51,9,49,91,64,细颗粒物(PM2.5)
济南市,东山小学,117.532,36.6868,2024-11-08T2300,34,66,0.7,28,8,80,94,58,颗粒物(PM10)
济南市,泰兴公司,117.7161,36.2049,2024-11-08T2300,51,80,0.5,86,10,22,92,70,细颗粒物(PM2.5)
济南市,莱芜战役纪念馆,117.6867,36.2171,2024-11-08T2300,46,75,0.9,54,8,57,92,64,细颗粒物(PM2.5)
济南市,济阳区政府,117.1673,36.9782,2024-11-08T2300,56,107,0.6,57,8,44,69,79,颗粒物(PM10)
济南市,锦屏中学,117.1171,36.63,2024-11-08T2300,37,51,0.6,40,5,61,110,53,细颗粒物(PM2.5)
济南市,济南四建,116.9814,36.6819,2024-11-08T2300,51,122,1.3,96,6,6,92,86,颗粒物(PM10)
济宁市,火炬城,116.6251,35.4302,2024-11-08T2300,66,72,0.7,30,11,72,93,89,细颗粒物(PM2.5)
济宁市,电化厂,116.5491,35.4042,2024-11-08T2300,36,71,0.7,28,9,72,92,61,颗粒物(PM10)
济宁市,北湖一中,116.5814,35.3707,2024-11-08T2300,36,57,0.5,28,7,73,95,54,颗粒物(PM10)
济宁市,服务中心,116.8249,35.5593,2024-11-08T2300,34,72,0.7,66,9,25,91,61,颗粒物(PM10)
济宁市,市第七中学,116.5907,35.4054,2024-11-08T2300,46,68,0.6,32,8,69,95,64,细颗粒物(PM2.5)
佳木斯市,佳纺,130.2751,46.8028,2024-11-08T2300,112,144,1.6,52,11,13,44,147,细颗粒物(PM2.5)
佳木斯市,发电厂,130.3995,46.8307,2024-11-08T2300,65,72,1.1,68,8,5,40,88,细颗粒物(PM2.5)
佳木斯市,环保局,130.3258,46.7975,2024-11-08T2300,76,111,1.2,63,15,6,41,102,细颗粒物(PM2.5)
佳木斯市,十一中,130.3648,46.8032,2024-11-08T2300,129,144,1.1,63,8,11,41,170,细颗粒物(PM2.5)
佳木斯市,四丰,130.3794,46.7588,2024-11-08T2300,,,0.2,,1,55,66,,
嘉兴市,清河小学,120.7436,30.778,2024-11-08T2300,16,35,0.1,32,8,55,71,35,
嘉兴市,嘉兴学院,120.726,30.7478,2024-11-08T2300,20,37,0.5,30,5,57,71,37,
嘉兴市,南湖区残联,120.7846,30.7525,2024-11-08T2300,22,37,0.4,42,6,46,78,37,
嘉兴市,秀洲住建,120.6916,30.7739,2024-11-08T2300,16,36,0.3,28,7,48,73,36,
嘉峪关市,气象局,98.2908,39.7711,2024-11-08T2300,44,268,0.2,12,4,86,109,159,颗粒物(PM10)
嘉峪关市,酒钢宾馆,98.2672,39.7978,2024-11-08T2300,44,251,0.4,12,10,92,105,151,颗粒物(PM10)
嘉峪关市,雄关区,98.2643,39.7724,2024-11-08T2300,26,200,0.3,18,8,84,110,125,颗粒物(PM10)
江门市,北街,113.1064,22.6058,2024-11-08T2300,29,50,0.7,52,13,76,158,50,
江门市,西区,113.0731,22.5835,2024-11-08T2300,28,52,0.5,35,13,85,157,51,颗粒物(PM10)
江门市,圭峰西,113.0219,22.5311,2024-11-08T2300,23,35,0.4,24,9,111,164,35,
江门市,东湖,113.0828,22.5947,2024-11-08T2300,26,49,0.6,34,13,86,157,49,
江门市,江海富民,113.1075,22.5647,2024-11-08T2300,32,59,0.6,50,13,76,160,55,颗粒物(PM10)
江门市,新会银湖,113.05,22.4667,2024-11-08T2300,25,42,0.5,40,12,86,160,42,
焦作市,市环保局,113.227,35.2125,2024-11-08T2300,51,78,0.3,29,5,79,86,70,细颗粒物(PM2.5)
焦作市,影视城,113.1992,35.2590,2024-11-08T2300,55,,0.5,11,8,107,105,75,细颗粒物(PM2.5)
焦作市,太极体育中心,113.2725,35.2067,2024-11-08T2300,42,78,0.4,26,5,72,80,64,颗粒物(PM10)
焦作市,马村街道办,113.3137,35.2641,2024-11-08T2300,50,69,0.3,32,8,65,83,69,细颗粒物(PM2.5)
焦作市,焦作技师学院,113.2465,35.2373,2024-11-08T2300,36,76,0.5,25,6,82,86,63,颗粒物(PM10)
焦作市,中站许衡医院,113.1656,35.2539,2024-11-08T2300,36,76,0.4,16,6,96,93,63,颗粒物(PM10)
焦作市,原李万街道办,113.2449,35.1803,2024-11-08T2300,45,93,0.6,26,13,71,86,72,颗粒物(PM10)
揭阳市,新兴,116.3701,23.5345,2024-11-08T2300,21,39,0.5,21,8,85,106,39,
揭阳市,西马,116.3264,23.5443,2024-11-08T2300,18,37,0.6,14,8,92,107,37,
揭阳市,东兴,116.3611,23.5626,2024-11-08T2300,17,43,0.7,18,13,89,102,43,
揭阳市,渔湖,116.4151,23.5294,2024-11-08T2300,16,34,0.5,22,9,81,110,34,
揭阳市,曲溪,116.403,23.5699,2024-11-08T2300,21,36,0.6,19,9,89,108,36,
金昌市,天庆家园,102.1692,38.5167,2024-11-08T2300,62,261,0.6,7,11,112,86,156,颗粒物(PM10)
金昌市,市委党校,102.1864,38.5253,2024-11-08T2300,55,177,0.5,8,10,111,91,114,颗粒物(PM10)
金昌市,金川区人防中心,102.1647,38.5371,2024-11-08T2300,65,332,0.8,6,11,111,87,191,颗粒物(PM10)
金华市,十五中,119.647,29.077,2024-11-08T2300,30,58,0.5,60,4,30,99,54,颗粒物(PM10)
金华市,监测站,119.686,29.1029,2024-11-08T2300,28,58,0.3,65,3,21,96,54,颗粒物(PM10)
金华市,气象局,119.656,29.1131,2024-11-08T2300,25,50,0.4,50,5,38,97,50,
锦州市,南山,121.1115,41.0879,2024-11-08T2300,70,73,0.8,56,14,44,92,94,细颗粒物(PM2.5)
锦州市,开发区,121.0533,40.8434,2024-11-08T2300,72,,1.0,59,43,58,72,97,细颗粒物(PM2.5)
锦州市,百股街道,121.1836,41.1119,2024-11-08T2300,48,,0.9,36,16,67,96,67,细颗粒物(PM2.5)
锦州市,天安街道,121.1178,41.1222,2024-11-08T2300,70,77,1.0,47,13,49,89,94,细颗粒物(PM2.5)
锦州市,北湖公园,121.1303,41.1386,2024-11-08T2300,65,72,1.0,50,12,46,90,88,细颗粒物(PM2.5)
晋城市,自来水公司,112.85,35.5051,2024-11-08T2300,41,79,0.5,27,6,109,124,65,颗粒物(PM10)
晋城市,白云商贸,112.8318,35.4936,2024-11-08T2300,36,94,0.6,22,5,115,127,72,颗粒物(PM10)
晋城市,市环保局,112.8508,35.4887,2024-11-08T2300,36,81,0.6,21,6,108,122,66,颗粒物(PM10)
晋城市,技术学院,112.8676,35.4897,2024-11-08T2300,22,50,0.7,26,5,108,119,50,
晋城市,白马寺,112.8453,35.546,2024-11-08T2300,36,61,0.6,19,10,108,122,56,颗粒物(PM10)
晋城市,泽州一中,112.8271,35.4828,2024-11-08T2300,34,51,0.7,20,5,103,115,51,颗粒物(PM10)
晋中市,锦纶小区,112.7532,37.6945,2024-11-08T2300,127,173,0.9,41,9,63,119,168,细颗粒物(PM2.5)
晋中市,南都小区,112.7249,37.7067,2024-11-08T2300,136,168,1.0,42,8,53,118,180,细颗粒物(PM2.5)
晋中市,榆次区政府,112.6991,37.6982,2024-11-08T2300,87,163,0.9,45,9,54,120,115,细颗粒物(PM2.5)
晋中市,榆次三中,112.7195,37.6828,2024-11-08T2300,124,173,1.1,38,10,61,114,163,细颗粒物(PM2.5)
荆门市,竹园小学,112.2014,31.0481,2024-11-08T2300,103,135,0.9,38,16,65,104,135,细颗粒物(PM2.5)
荆门市,掇刀,112.1969,30.9891,2024-11-08T2300,105,152,0.8,57,12,46,105,138,细颗粒物(PM2.5)
荆门市,石化一小,112.2213,31.0386,2024-11-08T2300,97,145,0.7,48,16,54,103,128,细颗粒物(PM2.5)
荆门市,西山林语,112.1849,31.0362,2024-11-08T2300,91,118,0.6,39,10,66,105,120,细颗粒物(PM2.5)
荆门市,龙泉中学南校,112.1632,31.0138,2024-11-08T2300,98,148,0.7,61,14,39,107,129,细颗粒物(PM2.5)
荆州市,市图书馆,112.2494,30.3197,2024-11-08T2300,52,89,1.1,92,6,12,91,72,细颗粒物(PM2.5)
荆州市,市委党校,112.2008,30.3544,2024-11-08T2300,56,80,1.2,94,7,4,90,77,细颗粒物(PM2.5)
荆州市,管委会,112.2747,30.3122,2024-11-08T2300,62,106,1.0,106,11,5,97,84,细颗粒物(PM2.5)
荆州市,学苑路,112.1655,30.3364,2024-11-08T2300,70,112,1.1,77,11,21,98,94,细颗粒物(PM2.5)
景德镇市,王港中学,117.3102,29.3867,2024-11-08T2300,,,,,,,,,
景德镇市,老干部活动中心,117.2117,29.2933,2024-11-08T2300,32,50,0.3,32,6,13,91,50,
景德镇市,兽医站,117.1894,29.2789,2024-11-08T2300,20,56,0.3,21,6,33,90,53,颗粒物(PM10)
景德镇市,台达陶瓷,117.1547,29.2617,2024-11-08T2300,19,42,0.4,28,9,24,83,42,
景德镇市,陶研所,117.2461,29.2956,2024-11-08T2300,20,30,0.2,25,5,23,84,30,
九江市,十里,115.9872,29.6815,2024-11-08T2300,47,70,0.6,29,7,76,103,65,细颗粒物(PM2.5)
九江市,茅山头,115.9584,29.7046,2024-11-08T2300,36,54,0.6,19,11,87,99,52,"颗粒物(PM10),细颗粒物(PM2.5)"
九江市,西园,115.9877,29.7295,2024-11-08T2300,28,55,0.5,25,8,84,111,53,颗粒物(PM10)
九江市,五七二七厂,116.0172,29.6547,2024-11-08T2300,36,51,0.7,20,9,85,100,52,细颗粒物(PM2.5)
九江市,综合工业园,115.9114,29.6038,2024-11-08T2300,52,55,0.5,47,16,74,100,72,细颗粒物(PM2.5)
九江市,石化总厂,116.0721,29.7535,2024-11-08T2300,44,74,0.7,28,9,79,101,62,"颗粒物(PM10),细颗粒物(PM2.5)"
九江市,庐山气象台,115.9773,29.5698,2024-11-08T2300,6,7,0.8,2,6,102,112,32,
九江市,外国语学校,116.0254,29.6994,2024-11-08T2300,42,76,0.5,29,3,69,96,63,颗粒物(PM10)
酒泉市,仓门街子站,98.5061,39.7443,2024-11-08T2300,32,158,0.3,11,5,84,102,104,颗粒物(PM10)
酒泉市,油田生活基地,98.4989,39.7256,2024-11-08T2300,39,163,0.4,9,4,80,98,107,颗粒物(PM10)
喀什地区,巡警大队,76.0072,39.4467,2024-11-08T2300,76,233,2.3,112,10,3,70,142,颗粒物(PM10)
喀什地区,吾办,75.9755,39.4694,2024-11-08T2300,110,235,2.8,100,5,1,65,144,细颗粒物(PM2.5)
喀什地区,老干局,75.9483,39.4689,2024-11-08T2300,100,432,3.7,99,6,9,79,315,颗粒物(PM10)
开封市,肿瘤医院,114.3389,34.7781,2024-11-08T2300,47,67,0.5,27,4,61,99,65,细颗粒物(PM2.5)
开封市,世纪星幼儿园,114.2885,34.7965,2024-11-08T2300,43,65,0.4,26,2,70,110,60,细颗粒物(PM2.5)
开封市,龙亭公园,114.3438,34.8106,2024-11-08T2300,37,55,0.7,21,4,68,106,53,"颗粒物(PM10),细颗粒物(PM2.5)"
开封市,汴京公园,114.3644,34.7964,2024-11-08T2300,40,71,0.5,22,6,67,100,61,颗粒物(PM10)
开封市,技师学院,114.2485,34.8306,2024-11-08T2300,38,60,0.5,19,7,75,105,55,颗粒物(PM10)
开封市,祥符区生态环境局,114.4644,34.7556,2024-11-08T2300,39,77,0.5,36,3,46,98,64,颗粒物(PM10)
克拉玛依市,长征新村,84.895,45.6094,2024-11-08T2300,3,7,0.2,6,5,49,54,16,
克拉玛依市,南林小区,84.8988,45.5893,2024-11-08T2300,14,,0.2,12,2,41,55,20,
克拉玛依市,独山子区,84.905,44.3396,2024-11-08T2300,16,24,0.3,10,8,42,55,24,
克拉玛依市,乌尔禾区商贸楼,85.6979,46.098,2024-11-08T2300,8,20,0.3,20,3,36,63,20,
克拉玛依市,白碱滩区新站,85.1045,45.6899,2024-11-08T2300,3,16,0,7,8,57,52,18,
克孜勒苏柯尔克孜自治州,市人民政府,76.1454,39.7142,2024-11-08T2300,18,64,0.5,24,6,64,97,57,颗粒物(PM10)
克孜勒苏柯尔克孜自治州,克州文化中心,76.1658,39.7157,2024-11-08T2300,22,47,0.7,56,8,52,98,47,
昆明市,呈贡新区,102.8204,24.8886,2024-11-08T2300,10,17,0.8,36,7,28,61,18,
昆明市,西山森林公园,102.6251,24.9608,2024-11-08T2300,,,,,,,,,
昆明市,龙泉镇,102.7252,25.0902,2024-11-08T2300,14,24,1.0,34,6,19,50,24,
昆明市,东风东路,102.7266,25.0375,2024-11-08T2300,12,,0.8,19,7,41,53,18,
昆明市,金鼎山,102.6742,25.0669,2024-11-08T2300,13,20,0.8,25,2,39,56,20,
昆明市,碧鸡广场,102.6644,25.0401,2024-11-08T2300,13,14,0.7,31,5,30,59,19,
昆明市,官渡区博物馆,102.7494,25.0119,2024-11-08T2300,10,11,0.7,20,6,36,56,15,
昆明市,青年创业园,102.8017,24.8336,2024-11-08T2300,11,14,0.7,24,6,26,73,16,
昆明市,昆明学院,102.7997,24.9786,2024-11-08T2300,20,23,0.8,46,6,17,58,29,
昆明市,晋宁区生态环境分局,102.5967,24.6736,2024-11-08T2300,22,,0.4,18,1,45,64,32,
昆明市,云天化总部,102.6678,24.9856,2024-11-08T2300,8,11,0.5,22,4,33,70,12,
拉萨市,八廓街,91.1319,29.6514,2024-11-08T2300,32,51,1.0,75,9,12,96,51,颗粒物(PM10)
拉萨市,市环保局,91.1221,29.6747,2024-11-08T2300,48,97,1.3,54,10,17,96,74,颗粒物(PM10)
拉萨市,区监测站,91.0874,29.6475,2024-11-08T2300,19,38,1.1,79,7,8,88,40,
拉萨市,西藏大学,91.1774,29.6541,2024-11-08T2300,14,32,0.2,36,6,43,90,32,
拉萨市,区辐射站,90.9798,29.6588,2024-11-08T2300,15,33,0.5,47,9,39,84,33,
拉萨市,拉萨火车站,91.0834,29.6292,2024-11-08T2300,16,23,0.8,46,6,36,84,23,
来宾市,来宾技工学校,109.2203,23.7256,2024-11-08T2300,40,80,0.9,32,8,64,163,65,颗粒物(PM10)
来宾市,兴宾区政府,109.1781,23.7297,2024-11-08T2300,40,67,0.8,15,7,92,158,59,颗粒物(PM10)
来宾市,中南小学,109.2416,23.7461,2024-11-08T2300,30,90,0.9,83,8,11,157,70,颗粒物(PM10)
兰州市,兰炼宾馆,103.631,36.1031,2024-11-08T2300,87,146,1.3,106,16,9,80,115,细颗粒物(PM2.5)
兰州市,榆中兰大校区,104.1373,35.9454,2024-11-08T2300,,,,,,,,,
兰州市,生物制品所,103.8412,36.0726,2024-11-08T2300,45,79,0.8,75,11,3,43,65,颗粒物(PM10)
兰州市,铁路设计院,103.831,36.0464,2024-11-08T2300,54,95,1.7,93,10,4,35,74,细颗粒物(PM2.5)
兰州市,教育港,103.7158,36.1058,2024-11-08T2300,78,136,1.6,89,13,2,63,104,细颗粒物(PM2.5)
兰州市,百合公园,103.7439,36.0842,2024-11-08T2300,68,98,1.7,73,14,4,50,92,细颗粒物(PM2.5)
兰州市,和平,103.9611,35.998,2024-11-08T2300,29,48,0.6,35,10,20,65,48,
兰州新区,新区管委会,103.6633,36.533,2024-11-08T2300,80,122,1.2,69,16,4,85,107,细颗粒物(PM2.5)
兰州新区,舟曲中学,103.6975,36.4789,2024-11-08T2300,50,92,0.9,76,42,18,82,71,颗粒物(PM10)
廊坊市,药材公司,116.6708,39.5111,2024-11-08T2300,102,143,1.2,73,3,5,76,134,细颗粒物(PM2.5)
廊坊市,开发区,116.7214,39.5589,2024-11-08T2300,68,106,0.8,67,2,0,67,92,细颗粒物(PM2.5)
廊坊市,北华航天学院,116.7244,39.5269,2024-11-08T2300,113,166,1.5,59,5,3,67,148,细颗粒物(PM2.5)
廊坊市,河北工业大学,116.7022,39.5453,2024-11-08T2300,87,128,1.1,85,6,2,72,115,细颗粒物(PM2.5)
乐山市,花湖湾,103.7723,29.5462,2024-11-08T2300,61,78,1.0,17,4,5,44,83,细颗粒物(PM2.5)
乐山市,牛耳桥,103.7627,29.5844,2024-11-08T2300,47,59,0.8,21,4,14,39,65,细颗粒物(PM2.5)
乐山市,市第三水厂,103.7508,29.6006,2024-11-08T2300,50,59,1.0,31,4,12,46,69,细颗粒物(PM2.5)
乐山市,市监测站,103.7571,29.5664,2024-11-08T2300,44,55,0.7,17,4,22,42,62,细颗粒物(PM2.5)
乐山市,理工大学,103.7311,29.5628,2024-11-08T2300,41,46,0.8,24,4,15,44,58,细颗粒物(PM2.5)
丽江市,西南郊,100.2143,26.8576,2024-11-08T2300,12,24,1.4,24,4,28,63,24,
丽江市,丽江古城,100.2497,26.8802,2024-11-08T2300,13,20,0.5,12,7,41,60,20,
丽江市,市中心,100.2203,26.8906,2024-11-08T2300,15,16,0.5,13,6,42,57,22,
丽水市,监测站大楼,119.914,28.4514,2024-11-08T2300,43,,0.3,34,9,39,95,60,细颗粒物(PM2.5)
丽水市,莲都小学,119.93,28.4586,2024-11-08T2300,28,51,0.4,29,5,49,96,51,颗粒物(PM10)
丽水市,余庄前,119.879,28.4231,2024-11-08T2300,16,28,0.2,17,5,18,87,28,
连云港市,市环境监测站,119.176,34.5885,2024-11-08T2300,12,27,0.5,14,8,89,106,28,
连云港市,德源药业,119.3581,34.6972,2024-11-08T2300,14,41,0.1,57,6,24,96,41,
连云港市,新城一中,119.178,34.844,2024-11-08T2300,11,32,0.4,83,7,16,94,42,
连云港市,胡沟管理处,119.3608,34.7519,2024-11-08T2300,3,14,0.2,11,8,93,88,30,
连云港市,矿山设计院,119.1478,34.5911,2024-11-08T2300,9,34,0.6,29,7,59,105,34,
连云港市,工贸学校,119.2413,34.6539,2024-11-08T2300,8,15,0.4,10,8,87,108,28,
连云港市,连云街道,119.4172,34.7341,2024-11-08T2300,9,17,0.4,7,6,103,104,33,
凉山彝族自治州,青龙寺,102.3431,27.8099,2024-11-08T2300,3,7,0.6,4,3,24,50,8,
凉山彝族自治州,邛海宾馆,102.2721,27.8415,2024-11-08T2300,11,16,0.8,16,7,20,52,16,
凉山彝族自治州,西昌市政府,102.2625,27.898,2024-11-08T2300,9,18,0.7,9,7,29,44,18,
凉山彝族自治州,凉山州政府,102.2685,27.8851,2024-11-08T2300,12,16,1.0,18,8,23,48,18,
凉山彝族自治州,长安,102.237,27.8914,2024-11-08T2300,13,28,0.7,28,9,16,39,28,
辽阳市,宏伟区,123.2,41.1953,2024-11-08T2300,32,35,0.4,10,6,88,88,46,
辽阳市,新华园,123.1683,41.2495,2024-11-08T2300,39,,0.6,18,8,74,82,55,细颗粒物(PM2.5)
辽阳市,滨河路,123.2354,41.2639,2024-11-08T2300,35,,0.5,16,12,77,80,50,
辽阳市,铁西工业园,123.149,41.2991,2024-11-08T2300,29,45,0.9,9,11,74,80,45,
辽源市,环保局,125.1358,42.8845,2024-11-08T2300,50,68,1.1,48,9,14,76,69,细颗粒物(PM2.5)
辽源市,银鹰制药,125.0764,42.9078,2024-11-08T2300,41,46,0.9,42,6,27,74,58,细颗粒物(PM2.5)
聊城市,区政府,115.9848,36.4372,2024-11-08T2300,34,61,0.7,32,9,65,87,56,颗粒物(PM10)
聊城市,聊大东校,116.0072,36.4343,2024-11-08T2300,39,68,0.6,36,8,59,92,59,颗粒物(PM10)
聊城市,监控中心,115.9819,36.4978,2024-11-08T2300,27,46,0.5,28,9,81,89,46,
聊城市,九州社区,116.0445,36.4361,2024-11-08T2300,34,63,0.6,39,8,54,89,57,颗粒物(PM10)
聊城市,星美广场,116.0567,36.4608,2024-11-08T2300,42,85,0.5,38,9,58,110,68,颗粒物(PM10)
林芝市,林芝监测站,94.3681,29.6376,2024-11-08T2300,16,31,0.6,29,6,28,77,31,
林芝市,林芝人民医院,94.3616,29.6616,2024-11-08T2300,38,,0.5,10,6,,78,,
临沧市,市环保局,100.0781,23.8982,2024-11-08T2300,18,,0.7,14,7,26,65,26,
临沧市,市气象局,100.0894,23.8822,2024-11-08T2300,20,21,0.6,11,8,29,64,29,
临汾市,临钢医院,111.5531,36.0783,2024-11-08T2300,53,88,0.6,43,5,62,77,73,细颗粒物(PM2.5)
临汾市,技工学校,111.5028,36.0714,2024-11-08T2300,61,93,0.7,39,7,65,104,83,细颗粒物(PM2.5)
临汾市,市委,111.5018,36.0855,2024-11-08T2300,58,100,0.7,33,7,73,112,79,细颗粒物(PM2.5)
临汾市,唐尧大酒店,111.505,36.1014,2024-11-08T2300,58,85,0.7,32,5,72,105,79,细颗粒物(PM2.5)
临汾市,城南,111.5036,36.0414,2024-11-08T2300,68,88,0.7,39,5,60,104,92,细颗粒物(PM2.5)
临夏回族自治州,环保局,103.2069,35.5993,2024-11-08T2300,22,111,1.2,52,8,13,67,81,颗粒物(PM10)
临夏回族自治州,建设大厦,103.2417,35.6057,2024-11-08T2300,27,67,1.0,46,6,14,79,59,颗粒物(PM10)
临沂市,沂河小区,118.3429,35.0532,2024-11-08T2300,23,39,0.3,19,6,69,105,39,
临沂市,鲁南制药厂,118.295,35.0583,2024-11-08T2300,19,24,0.6,22,5,76,94,28,
临沂市,新光毛纺厂,118.2794,34.9976,2024-11-08T2300,24,31,0.6,35,6,59,108,35,
临沂市,河东保险公司,118.3956,35.0888,2024-11-08T2300,21,34,0.5,39,2,40,108,34,
临沂市,十里堡居委,118.3564,35.0215,2024-11-08T2300,9,17,0.3,23,6,70,108,22,
临沂市,南坊新区,118.3604,35.1084,2024-11-08T2300,9,29,0.5,34,4,64,112,29,
临沂市,皇山花园小区,118.3920,35.0300,2024-11-08T2300,19,34,0.5,39,3,49,105,34,
柳州市,柳东小学,109.4856,24.3895,2024-11-08T2300,50,73,0.6,29,10,74,134,69,细颗粒物(PM2.5)
柳州市,环保监测站,109.4157,24.3277,2024-11-08T2300,57,105,0.9,83,11,12,135,78,"颗粒物(PM10),细颗粒物(PM2.5)"
柳州市,河西水厂,109.389,24.341,2024-11-08T2300,50,121,1.0,78,11,9,129,86,颗粒物(PM10)
柳州市,市四中,109.4311,24.2921,2024-11-08T2300,52,105,1.2,65,10,22,144,78,颗粒物(PM10)
柳州市,市九中,109.4006,24.3631,2024-11-08T2300,61,152,1.0,86,12,7,137,101,颗粒物(PM10)
柳州市,古亭山,109.4958,24.3134,2024-11-08T2300,31,45,0.6,92,10,23,138,46,
柳州市,市二中,109.5422,24.3996,2024-11-08T2300,53,77,0.9,63,9,19,136,73,细颗粒物(PM2.5)
六安市,监测大楼,116.5079,31.737,2024-11-08T2300,29,47,0.6,24,6,73,104,47,
六安市,皖西学院,116.4738,31.7643,2024-11-08T2300,24,45,0.5,24,6,80,105,45,
六安市,朝阳厂,116.4996,31.7905,2024-11-08T2300,16,34,0.6,24,3,79,101,34,
六安市,开发区,116.5567,31.7886,2024-11-08T2300,23,44,0.5,20,5,74,99,44,
六盘水市,窑上,104.8,26.5892,2024-11-08T2300,24,26,0.7,12,5,51,57,35,
六盘水市,黄土坡,104.83,26.5917,2024-11-08T2300,23,,0.7,16,6,57,58,33,
六盘水市,水钢,104.89,26.5939,2024-11-08T2300,34,38,0.5,10,4,70,72,49,
六盘水市,民中,104.8475,26.5894,2024-11-08T2300,22,29,0.7,15,7,60,61,32,
六盘水市,双水,104.9544,26.5506,2024-11-08T2300,20,,0.4,8,6,76,82,29,
龙岩市,龙岩师专,117.0189,25.1181,2024-11-08T2300,,,,,,,,,
龙岩市,龙岩市监测站,117.0217,25.1033,2024-11-08T2300,17,25,0.5,14,9,79,99,25,
龙岩市,闽西职业技术学院,117.0258,25.0661,2024-11-08T2300,18,51,0.7,53,15,20,100,51,颗粒物(PM10)
龙岩市,龙岩学院,117.0196,25.0306,2024-11-08T2300,17,24,0.6,22,13,38,100,25,
陇南市,汉王镇固水子,105.0822,33.3261,2024-11-08T2300,,,,,,,,,
陇南市,滨江中学,104.9339,33.3826,2024-11-08T2300,22,50,0.6,28,6,14,51,50,
陇南市,市总工会,104.955,33.371,2024-11-08T2300,13,28,0.3,7,4,42,57,28,
娄底市,电视发射台,111.9589,27.8901,2024-11-08T2300,34,43,1.0,14,7,96,133,49,
娄底市,市监测站,111.9975,27.725,2024-11-08T2300,58,84,0.7,34,25,96,150,79,细颗粒物(PM2.5)
娄底市,市委党校,112.0194,27.7314,2024-11-08T2300,60,78,0.8,30,4,79,143,82,细颗粒物(PM2.5)
娄底市,涟钢,111.9561,27.7569,2024-11-08T2300,49,75,0.7,31,4,63,145,68,细颗粒物(PM2.5)
娄底市,市政府,111.9892,27.7044,2024-11-08T2300,97,122,0.8,48,7,25,142,128,细颗粒物(PM2.5)
泸州市,九狮山,105.4324,28.9634,2024-11-08T2300,40,60,0.6,17,4,9,46,57,细颗粒物(PM2.5)
泸州市,小市上码头,105.4427,28.9063,2024-11-08T2300,49,74,0.6,21,5,38,56,68,细颗粒物(PM2.5)
泸州市,兰田宪桥,105.4241,28.8573,2024-11-08T2300,49,52,0.7,25,4,20,48,68,细颗粒物(PM2.5)
泸州市,市环监站,105.4379,28.8833,2024-11-08T2300,61,76,0.8,32,6,17,46,83,细颗粒物(PM2.5)
泸州市,纳溪区环保局,105.3617,28.7703,2024-11-08T2300,45,49,0.7,24,3,27,44,63,细颗粒物(PM2.5)
吕梁市,环保局,111.1406,37.5211,2024-11-08T2300,96,148,1.0,40,4,80,107,127,细颗粒物(PM2.5)
吕梁市,自来水公司,111.1297,37.5136,2024-11-08T2300,95,132,1.0,28,6,89,112,125,细颗粒物(PM2.5)
吕梁市,马茂庄小学,111.1283,37.51,2024-11-08T2300,110,157,1.1,75,4,42,119,144,细颗粒物(PM2.5)
洛阳市,市委党校,112.3931,34.6516,2024-11-08T2300,57,94,0.6,36,4,57,79,78,细颗粒物(PM2.5)
洛阳市,豫西宾馆,112.4657,34.6871,2024-11-08T2300,46,97,0.5,32,5,57,82,74,颗粒物(PM10)
洛阳市,河南林校,112.494,34.6886,2024-11-08T2300,63,97,0.5,36,6,50,75,85,细颗粒物(PM2.5)
洛阳市,开发区管委会,112.3844,34.623,2024-11-08T2300,59,104,0.4,29,10,59,84,80,细颗粒物(PM2.5)
洛阳市,市委新办公区,112.4267,34.6258,2024-11-08T2300,58,112,0.4,36,5,52,79,81,颗粒物(PM10)
洛阳市,伊滨,112.6005,34.6326,2024-11-08T2300,52,100,0.5,29,5,54,81,75,颗粒物(PM10)
洛阳市,中移产业园,112.4951,34.6332,2024-11-08T2300,60,95,0.6,43,6,50,86,82,细颗粒物(PM2.5)
洛阳市,吉利监测站,112.5736,34.8993,2024-11-08T2300,56,80,0.4,31,7,68,82,77,细颗粒物(PM2.5)
洛阳市,河科大西苑校区,112.3677,34.662,2024-11-08T2300,57,95,0.6,36,5,61,86,78,细颗粒物(PM2.5)
洛阳市,英才小学,112.4388,34.6781,2024-11-08T2300,52,104,0.5,35,5,54,77,77,颗粒物(PM10)
漯河市,三五一五工厂,114.051,33.5699,2024-11-08T2300,71,98,0.7,30,12,64,97,95,细颗粒物(PM2.5)
漯河市,漯河大学,114.0055,33.5698,2024-11-08T2300,61,102,0.6,36,8,55,104,83,细颗粒物(PM2.5)
漯河市,市水利局,114.0138,33.5828,2024-11-08T2300,70,100,0.7,21,10,69,101,94,细颗粒物(PM2.5)
漯河市,市广电局,114.0261,33.5698,2024-11-08T2300,69,98,0.7,30,9,60,102,93,细颗粒物(PM2.5)
漯河市,市图书馆,113.9749,33.5664,2024-11-08T2300,46,73,0.5,22,5,74,100,64,细颗粒物(PM2.5)
漯河市,召陵区卫健委,114.0967,33.5906,2024-11-08T2300,44,84,0.6,30,18,60,97,67,颗粒物(PM10)
马鞍山市,湖东路四小,118.5092,31.6837,2024-11-08T2300,24,49,0.6,33,5,52,102,49,
马鞍山市,开发区,118.5024,31.6449,2024-11-08T2300,34,52,0.7,46,8,46,93,51,颗粒物(PM10)
马鞍山市,慈湖,118.5228,31.7231,2024-11-08T2300,32,42,0.7,32,8,60,101,46,
马鞍山市,濮塘,118.6245,31.7241,2024-11-08T2300,39,59,0.8,32,8,45,101,55,"颗粒物(PM10),细颗粒物(PM2.5)"
马鞍山市,雨山,118.4918,31.6809,2024-11-08T2300,29,50,0.8,30,6,56,92,50,
茂名市,电白南海,111.0286,21.4688,2024-11-08T2300,36,85,0.7,33,6,85,147,68,颗粒物(PM10)
茂名市,茂石化七小,110.9294,21.6533,2024-11-08T2300,36,58,0.8,25,13,112,142,54,颗粒物(PM10)
茂名市,健康路,110.9107,21.6687,2024-11-08T2300,75,112,0.9,47,64,60,146,100,细颗粒物(PM2.5)
茂名市,高岭,110.8592,21.6828,2024-11-08T2300,78,173,0.9,80,12,6,131,112,颗粒物(PM10)
茂名市,电白水东,111.01,21.5165,2024-11-08T2300,48,100,0.9,52,10,60,147,75,颗粒物(PM10)
眉山市,黑龙滩水库,104.0308,30.0478,2024-11-08T2300,41,47,0.7,4,4,40,52,58,细颗粒物(PM2.5)
眉山市,气象局,103.8416,30.0874,2024-11-08T2300,48,49,0.8,17,7,30,42,67,细颗粒物(PM2.5)
眉山市,市委党校,103.8578,30.0744,2024-11-08T2300,39,51,0.7,23,9,29,46,55,细颗粒物(PM2.5)
眉山市,区人社局,103.8291,30.0564,2024-11-08T2300,51,52,0.7,33,4,19,49,70,细颗粒物(PM2.5)
梅州市,梅江月梅,116.1231,24.3284,2024-11-08T2300,23,50,0.6,65,8,7,104,50,
梅州市,梅县新城,116.0797,24.2719,2024-11-08T2300,19,47,0.5,19,6,61,103,47,
梅州市,环境监控中心,116.1248,24.2654,2024-11-08T2300,22,47,0.5,58,7,6,97,47,
梅州市,梅龙,116.1233,24.2991,2024-11-08T2300,33,63,0.8,43,12,24,96,57,颗粒物(PM10)
绵阳市,富乐山,104.7778,31.4741,2024-11-08T2300,68,77,0.7,10,2,59,50,92,细颗粒物(PM2.5)
绵阳市,市人大,104.7563,31.4535,2024-11-08T2300,60,79,0.6,15,4,50,50,82,细颗粒物(PM2.5)
绵阳市,高新区自来水公司,104.6697,31.4668,2024-11-08T2300,48,63,0.8,14,3,39,53,67,细颗粒物(PM2.5)
绵阳市,三水厂,104.7287,31.5075,2024-11-08T2300,79,,0.7,14,5,47,53,105,细颗粒物(PM2.5)
绵阳市,西科大附属小学,104.69,31.5322,2024-11-08T2300,34,74,0.7,20,4,32,42,62,颗粒物(PM10)
绵阳市,安州区旅游局,104.5648,31.5343,2024-11-08T2300,61,69,0.9,28,6,17,42,83,细颗粒物(PM2.5)
牡丹江市,环保大楼,129.61,44.561,2024-11-08T2300,57,105,0.9,54,12,5,30,78,"颗粒物(PM10),细颗粒物(PM2.5)"
牡丹江市,文化广场,129.6115,44.5782,2024-11-08T2300,91,114,1.1,54,15,4,26,120,细颗粒物(PM2.5)
牡丹江市,第一医院,129.5904,44.5963,2024-11-08T2300,75,94,0.9,51,10,11,34,100,细颗粒物(PM2.5)
牡丹江市,机车工厂,129.6364,44.6075,2024-11-08T2300,63,110,0.9,45,12,4,23,85,细颗粒物(PM2.5)
牡丹江市,第一中学,129.6386,44.5462,2024-11-08T2300,61,93,0.9,47,6,4,32,83,细颗粒物(PM2.5)
内江市,市监测站,105.0703,29.61,2024-11-08T2300,49,,0.8,24,10,28,29,68,细颗粒物(PM2.5)
内江市,东兴区政府,105.0717,29.5947,2024-11-08T2300,38,44,0.6,18,7,51,29,54,细颗粒物(PM2.5)
内江市,内江二中,105.0653,29.5817,2024-11-08T2300,46,50,0.6,22,7,55,31,64,细颗粒物(PM2.5)
内江市,内江日报社,105.0406,29.5822,2024-11-08T2300,47,53,0.6,34,6,32,28,65,细颗粒物(PM2.5)
那曲市,那曲监测站,92.0657,31.4846,2024-11-08T2300,132,202,3.9,70,30,7,86,175,细颗粒物(PM2.5)
那曲市,那曲会议中心,92.0506,31.4797,2024-11-08T2300,48,97,1.3,33,11,24,84,74,颗粒物(PM10)
南昌市,省外办,115.8931,28.6843,2024-11-08T2300,53,74,0.7,33,9,66,107,73,细颗粒物(PM2.5)
南昌市,省林业公司,115.8886,28.7003,2024-11-08T2300,46,78,0.6,39,10,59,109,64,"颗粒物(PM10),细颗粒物(PM2.5)"
南昌市,林科所,115.8126,28.7442,2024-11-08T2300,31,51,0.5,34,10,74,115,51,颗粒物(PM10)
南昌市,建工学校,115.8518,28.687,2024-11-08T2300,42,66,0.5,32,12,74,112,59,细颗粒物(PM2.5)
南昌市,象湖,115.8921,28.6424,2024-11-08T2300,49,69,0.6,36,13,74,123,68,细颗粒物(PM2.5)
南昌市,武术学校,115.7423,28.7996,2024-11-08T2300,13,32,0.5,12,1,23,84,32,
南昌市,省站,115.9314,28.6842,2024-11-08T2300,54,76,0.7,32,13,66,106,74,细颗粒物(PM2.5)
南昌市,机电学校,115.9084,28.6062,2024-11-08T2300,58,97,0.6,45,11,60,113,79,细颗粒物(PM2.5)
南昌市,外国语学校,115.9721,28.7031,2024-11-08T2300,54,85,0.8,45,12,61,110,74,细颗粒物(PM2.5)
南充市,西山风景区,106.056,30.8064,2024-11-08T2300,55,65,0.7,15,2,23,61,75,细颗粒物(PM2.5)
南充市,南充市委,106.0789,30.8023,2024-11-08T2300,57,74,0.6,28,4,11,50,78,细颗粒物(PM2.5)
南充市,南充炼油厂,106.1031,30.8217,2024-11-08T2300,58,78,0.7,28,3,9,47,79,细颗粒物(PM2.5)
南充市,高坪区监测站,106.1064,30.7856,2024-11-08T2300,63,94,0.7,47,3,7,56,85,细颗粒物(PM2.5)
南充市,嘉陵区环保局,106.0642,30.7636,2024-11-08T2300,56,79,0.8,49,4,6,66,77,细颗粒物(PM2.5)
南充市,市环境监测站,106.1087,30.8388,2024-11-08T2300,59,75,0.6,24,3,10,52,80,细颗粒物(PM2.5)
南京市,迈皋桥,118.8086,32.1065,2024-11-08T2300,19,40,0.6,64,4,8,91,40,
南京市,草场门,118.7538,32.0551,2024-11-08T2300,14,41,0.4,77,4,14,91,41,
南京市,山西路,118.7794,32.0745,2024-11-08T2300,22,53,0.5,68,4,51,116,52,颗粒物(PM10)
南京市,中华门,118.7752,32.0023,2024-11-08T2300,22,41,0.5,52,4,32,99,41,
南京市,瑞金路,118.8109,32.0309,2024-11-08T2300,17,41,0.6,30,7,34,95,41,
南京市,玄武湖,118.7997,32.0754,2024-11-08T2300,17,48,0.6,106,6,2,77,53,二氧化氮
南京市,浦口,118.6414,32.0931,2024-11-08T2300,23,44,0.7,35,6,32,74,44,
南京市,奥体中心,118.7356,31.9996,2024-11-08T2300,22,43,0.3,43,7,47,100,43,
南京市,仙林大学城,118.9125,32.1028,2024-11-08T2300,19,46,0.5,66,5,14,94,46,
南京市,江宁彩虹桥,118.8436,31.9198,2024-11-08T2300,12,45,0.6,42,5,40,96,45,
南京市,溧水永阳,119.0138,31.6494,2024-11-08T2300,28,66,0.7,63,4,16,94,58,颗粒物(PM10)
南京市,高淳老职中,118.879,31.3302,2024-11-08T2300,23,26,0.4,34,5,48,98,33,
南京市,六合雄州,118.8554,32.3578,2024-11-08T2300,22,41,0.4,20,6,34,78,41,
南宁市,二十一中,108.3103,22.7881,2024-11-08T2300,59,95,1.2,97,6,13,166,80,细颗粒物(PM2.5)
南宁市,北湖,108.3141,22.8528,2024-11-08T2300,70,120,1.3,98,10,6,154,94,细颗粒物(PM2.5)
南宁市,市监测站,108.3206,22.8225,2024-11-08T2300,60,83,0.9,84,21,25,148,82,细颗粒物(PM2.5)
南宁市,大自然花园,108.3829,22.8037,2024-11-08T2300,39,54,0.7,35,7,69,152,55,细颗粒物(PM2.5)
南宁市,仙葫,108.4394,22.7904,2024-11-08T2300,76,89,1.0,90,10,7,130,102,细颗粒物(PM2.5)
南宁市,区农职院,108.2397,22.8467,2024-11-08T2300,49,62,0.8,27,8,62,150,68,细颗粒物(PM2.5)
南宁市,英华嘉园,108.3275,22.735,2024-11-08T2300,53,95,1.0,108,8,4,158,73,"颗粒物(PM10),细颗粒物(PM2.5)"
南宁市,沙井镇街道办,108.2257,22.7757,2024-11-08T2300,69,157,0.9,85,33,4,146,104,颗粒物(PM10)
南宁市,红星社区,108.4834,22.7618,2024-11-08T2300,52,81,,,8,40,139,,
南平市,茫荡山,118.0966,26.6761,2024-11-08T2300,,,,,,,,,
南平市,南平市监测站,118.1681,26.6369,2024-11-08T2300,20,26,0.4,43,3,11,90,29,
南平市,南平铝业有限公司,118.1825,26.6489,2024-11-08T2300,22,28,0.4,45,5,6,88,32,
南平市,南平七中,118.1756,26.6272,2024-11-08T2300,16,,0.4,24,2,30,91,23,
南通市,狼山街道,120.9098,31.9663,2024-11-08T2300,13,31,0.5,32,7,53,96,31,
南通市,虹桥,120.86,32.0005,2024-11-08T2300,21,31,0.4,33,7,48,91,31,
南通市,城中,120.87,32.02,2024-11-08T2300,16,40,0.4,34,7,52,88,40,
南通市,星湖花园,120.94,31.93,2024-11-08T2300,11,25,0.5,21,6,72,91,25,
南通市,紫琅学院,120.81,32.0417,2024-11-08T2300,27,43,0.5,56,3,18,87,43,
南通市,通州监测站,121.067,32.062,2024-11-08T2300,14,29,0.5,16,1,66,99,29,
南通市,环境教育馆,120.9348,31.9883,2024-11-08T2300,11,31,0.4,54,3,28,97,31,
南阳市,瓦房庄,112.5224,33.0122,2024-11-08T2300,61,83,0.7,23,6,83,126,83,细颗粒物(PM2.5)
南阳市,汉画馆,112.5003,32.9735,2024-11-08T2300,55,98,0.7,37,8,64,122,75,细颗粒物(PM2.5)
南阳市,气象站,112.5573,33.027,2024-11-08T2300,51,81,0.7,32,6,79,131,70,细颗粒物(PM2.5)
南阳市,理工学院,112.5481,32.9689,2024-11-08T2300,60,86,0.7,29,5,69,122,82,细颗粒物(PM2.5)
南阳市,卧龙区政府,112.5234,32.9922,2024-11-08T2300,56,92,0.8,34,6,68,120,77,细颗粒物(PM2.5)
宁波市,区环保大楼,121.8358,29.911,2024-11-08T2300,10,43,0.5,38,6,43,69,43,
宁波市,万里学院,121.56,29.82,2024-11-08T2300,39,51,0.7,56,6,14,82,55,细颗粒物(PM2.5)
宁波市,龙赛医院,121.713,29.9572,2024-11-08T2300,7,25,0.6,26,9,61,85,25,
宁波市,钱湖水厂,121.633,29.7733,2024-11-08T2300,32,63,0.7,41,8,26,68,57,颗粒物(PM10)
宁波市,太古小学,121.5856,29.8635,2024-11-08T2300,22,46,0.8,44,8,35,77,46,
宁波市,市环境监测中心,121.524,29.8674,2024-11-08T2300,21,45,0.6,33,10,49,81,45,
宁波市,万里国际学校,121.6147,29.9017,2024-11-08T2300,14,26,0.6,40,8,54,79,26,
宁波市,白沙活动中心,121.5594,29.8975,2024-11-08T2300,10,25,0.6,19,9,72,81,25,
宁德市,金涵水库,119.5001,26.6946,2024-11-08T2300,,,,,,,,,
宁德市,宁德市监测站,119.5388,26.6612,2024-11-08T2300,20,34,0.6,27,3,48,88,34,
宁德市,宁德一中,119.5231,26.6562,2024-11-08T2300,19,31,0.5,14,3,62,94,31,
怒江傈僳族自治州,州监测站,98.8601,25.8567,2024-11-08T2300,23,36,0.8,22,6,6,33,36,
怒江傈僳族自治州,泸水一中,98.8546,25.8417,2024-11-08T2300,20,25,0.7,18,7,2,26,29,
攀枝花市,弄弄坪,101.6891,26.571,2024-11-08T2300,15,30,1.8,29,15,10,60,30,
攀枝花市,河门口,101.5769,26.5928,2024-11-08T2300,10,20,0.7,26,5,7,53,20,
攀枝花市,炳草岗,101.7169,26.585,2024-11-08T2300,10,37,1.2,32,7,6,41,37,
攀枝花市,仁和,101.7369,26.5008,2024-11-08T2300,17,27,2.1,20,4,9,42,27,
攀枝花市,四十中小,101.7227,26.567,2024-11-08T2300,10,24,1.8,39,7,5,61,24,
盘锦市,开发区,122.0303,41.1489,2024-11-08T2300,30,,0.5,18,6,82,97,43,
盘锦市,兴隆台,122.0485,41.0883,2024-11-08T2300,31,,0.5,22,13,75,99,45,
盘锦市,新生街道,121.8297,41.1028,2024-11-08T2300,25,,0.5,16,10,95,110,36,
平顶山市,新华旅馆,113.3257,33.742,2024-11-08T2300,50,106,0.4,44,8,51,99,78,颗粒物(PM10)
平顶山市,规划设计院,113.2919,33.737,2024-11-08T2300,53,95,0.7,42,7,54,98,73,"颗粒物(PM10),细颗粒物(PM2.5)"
平顶山市,平顶山工学院,113.182,33.774,2024-11-08T2300,48,86,0.7,,9,63,104,,
平顶山市,规划局,113.3025,33.73,2024-11-08T2300,52,95,0.6,38,7,61,105,73,颗粒物(PM10)
平顶山市,石龙区,112.8867,33.9116,2024-11-08T2300,82,119,0.9,34,10,42,104,109,细颗粒物(PM2.5)
平凉市,聚贤嘉苑,106.6692,35.5461,2024-11-08T2300,93,130,1.1,67,10,44,84,123,细颗粒物(PM2.5)
平凉市,博物馆,106.7021,35.5307,2024-11-08T2300,,,,,,,,,
萍乡市,武功山,114.0997,27.5002,2024-11-08T2300,3,21,0.2,8,8,63,104,21,
萍乡市,中医院,113.8385,27.6434,2024-11-08T2300,31,60,0.5,29,14,78,118,55,颗粒物(PM10)
萍乡市,市政府车库,113.8493,27.6253,2024-11-08T2300,48,65,0.6,37,25,62,114,67,细颗粒物(PM2.5)
萍乡市,市环保局,113.8676,27.6435,2024-11-08T2300,47,73,0.5,35,34,68,112,65,细颗粒物(PM2.5)
萍乡市,安源区政府,113.866,27.6198,2024-11-08T2300,38,74,1.3,45,21,40,117,62,颗粒物(PM10)
莆田市,荔城区仓后路,119.0141,25.4325,2024-11-08T2300,12,25,0.4,10,2,89,96,28,
莆田市,莆田市监测站,119.0015,25.4553,2024-11-08T2300,10,21,0.3,6,3,92,98,29,
莆田市,涵江区六中,119.1119,25.4561,2024-11-08T2300,17,32,,13,2,80,98,,
莆田市,秀屿区政府,119.1013,25.3215,2024-11-08T2300,13,21,0.3,8,2,95,98,30,
莆田市,东圳水库,118.981,25.4792,2024-11-08T2300,,,,,,,,,
濮阳市,环保局,115.0312,35.7636,2024-11-08T2300,32,41,0.3,18,3,69,102,46,
濮阳市,油田运输公司,115.0574,35.7609,2024-11-08T2300,36,54,0.4,19,4,65,101,52,"颗粒物(PM10),细颗粒物(PM2.5)"
濮阳市,油田物探公司,115.0866,35.7754,2024-11-08T2300,37,56,0.3,22,2,64,101,53,"颗粒物(PM10),细颗粒物(PM2.5)"
濮阳市,濮水河管理处,115,35.7668,2024-11-08T2300,35,63,0.4,22,3,57,89,57,颗粒物(PM10)
普洱市,市环保局,100.98,22.7633,2024-11-08T2300,20,,0.6,12,6,38,64,29,
普洱市,普洱第二中学,100.9817,22.8322,2024-11-08T2300,9,16,0.4,20,7,25,63,16,
七台河市,新一中,131.0518,45.8751,2024-11-08T2300,34,49,1.0,27,11,25,58,49,
七台河市,中波台,131.0577,45.7879,2024-11-08T2300,45,83,1.1,44,11,4,38,67,颗粒物(PM10)
七台河市,人民广场,131.0176,45.7761,2024-11-08T2300,63,103,1.3,46,8,8,33,85,细颗粒物(PM2.5)
七台河市,新建矿广场,130.8781,45.8222,2024-11-08T2300,56,183,1.0,63,13,3,38,117,颗粒物(PM10)
齐齐哈尔市,安居小区,123.9305,47.3636,2024-11-08T2300,111,130,0.7,40,12,51,58,145,细颗粒物(PM2.5)
齐齐哈尔市,中心广场,123.9488,47.3386,2024-11-08T2300,117,121,0.7,32,7,56,55,153,细颗粒物(PM2.5)
齐齐哈尔市,农牧车辆厂,123.9483,47.3227,2024-11-08T2300,72,136,,26,8,64,62,,
齐齐哈尔市,市环境监测站,123.945,47.2988,2024-11-08T2300,95,140,0.5,30,6,61,71,125,细颗粒物(PM2.5)
齐齐哈尔市,富区青少年活动中心,123.6333,47.2075,2024-11-08T2300,129,169,0.6,22,7,55,74,170,细颗粒物(PM2.5)
黔东南苗族侗族自治州,市环境监测站,107.9783,26.5747,2024-11-08T2300,32,43,0.5,26,8,78,109,46,
黔东南苗族侗族自治州,凯里学院,107.8908,26.5311,2024-11-08T2300,26,41,0.4,15,6,86,117,41,
黔南布依族苗族自治州,小围寨,107.5228,26.2403,2024-11-08T2300,27,34,0.2,14,7,78,118,39,
黔南布依族苗族自治州,沙坝,107.5175,26.2978,2024-11-08T2300,34,46,0.5,19,5,55,120,49,
黔西南布依族苗族自治州,场坝街,104.9022,25.0925,2024-11-08T2300,55,77,0.6,31,18,25,84,75,细颗粒物(PM2.5)
黔西南布依族苗族自治州,坪东大道,104.8811,25.0992,2024-11-08T2300,66,72,0.6,27,3,13,79,89,细颗粒物(PM2.5)
钦州市,市环保站,108.6236,21.9667,2024-11-08T2300,61,110,1.6,40,31,80,135,83,细颗粒物(PM2.5)
钦州市,沙埠小学,108.6549,21.9481,2024-11-08T2300,65,117,0.9,72,14,46,134,88,细颗粒物(PM2.5)
钦州市,港区一小,108.5989,21.7431,2024-11-08T2300,59,177,0.9,107,13,20,140,114,颗粒物(PM10)
钦州市,北职校,108.5959,21.9633,2024-11-08T2300,55,113,0.8,38,8,63,129,82,颗粒物(PM10)
秦皇岛市,北戴河环保局,119.5134,39.8207,2024-11-08T2300,54,77,0.5,28,5,75,89,74,细颗粒物(PM2.5)
秦皇岛市,第一关,119.7493,40.0116,2024-11-08T2300,96,102,0.7,103,7,1,82,127,细颗粒物(PM2.5)
秦皇岛市,监测站,119.5897,39.9499,2024-11-08T2300,57,111,0.7,64,9,46,82,81,颗粒物(PM10)
秦皇岛市,建设大厦,119.5251,39.9041,2024-11-08T2300,83,106,0.8,81,7,24,85,110,细颗粒物(PM2.5)
秦皇岛市,文明里,119.610547,39.943889,2024-11-08T2300,74,123,0.6,64,6,42,84,99,细颗粒物(PM2.5)
青岛市,仰口,120.6659,36.2403,2024-11-08T2300,16,33,0.7,6,7,111,110,35,
青岛市,市南区东部子站,120.4134,36.0658,2024-11-08T2300,12,34,0.5,10,9,118,116,37,
青岛市,四方区子站,120.3664,36.1032,2024-11-08T2300,24,51,0.7,20,10,107,112,51,颗粒物(PM10)
青岛市,市南区西部子站,120.2994,36.054,2024-11-08T2300,10,24,0.5,10,9,121,118,38,
青岛市,崂山区子站,120.4581,36.0858,2024-11-08T2300,7,27,0.5,16,9,126,124,40,
青岛市,黄岛区子站,120.1983,35.9608,2024-11-08T2300,17,34,0.6,12,8,122,115,39,
青岛市,城阳区子站,120.3999,36.3083,2024-11-08T2300,29,63,0.9,72,9,31,115,57,颗粒物(PM10)
青岛市,黄岛区4号,120.0405,35.8735,2024-11-08T2300,9,24,0.5,12,8,128,122,40,
青岛市,即墨2号,120.5014,36.4034,2024-11-08T2300,17,40,0.5,22,7,92,113,40,
青岛市,市北区南部,120.3503,36.0736,2024-11-08T2300,17,28,0.7,17,10,112,112,35,
青岛市,李沧区北部,120.3948,36.1805,2024-11-08T2300,27,44,0.9,48,9,75,107,44,
清远市,环保大楼,113.0426,23.691,2024-11-08T2300,26,35,0.8,21,10,106,144,38,
清远市,凤城街办,113.0208,23.7106,2024-11-08T2300,18,31,0.7,16,7,104,133,33,
清远市,技师学院,113.0477,23.6344,2024-11-08T2300,22,47,0.5,29,14,76,131,47,
清远市,清新太和,112.9903,23.7403,2024-11-08T2300,19,35,0.6,20,4,85,138,35,
清远市,清城东城,113.076,23.7198,2024-11-08T2300,20,44,0.6,17,10,83,135,44,
庆阳市,庆阳五中,107.6325,35.7357,2024-11-08T2300,65,90,0.6,16,9,108,111,88,细颗粒物(PM2.5)
庆阳市,市环保局,107.6364,35.7067,2024-11-08T2300,60,81,0.6,10,7,112,117,82,细颗粒物(PM2.5)
曲靖市,环境监测站,103.7897,25.5035,2024-11-08T2300,16,24,0.7,26,4,33,76,24,
曲靖市,烟厂办公区,103.8,25.5364,2024-11-08T2300,18,28,0.7,24,5,41,75,28,
曲靖市,南苑二区,103.7947,25.462,2024-11-08T2300,20,26,0.8,17,4,49,80,29,
曲靖市,曲靖师范学院,103.7444,25.5261,2024-11-08T2300,13,16,0.7,15,5,49,84,19,
衢州市,环保大楼,118.8692,28.9398,2024-11-08T2300,27,46,0.5,36,5,50,98,46,
衢州市,实验学校,118.8709,28.9666,2024-11-08T2300,24,46,0.3,37,9,51,101,46,
衢州市,衢州学院,118.8621,28.9808,2024-11-08T2300,27,52,0.4,38,8,52,107,51,颗粒物(PM10)
泉州市,涂山街,118.5819,24.9117,2024-11-08T2300,15,27,0.3,16,1,72,102,27,
泉州市,津头埔,118.5972,24.8978,2024-11-08T2300,14,30,0.4,20,2,66,94,30,
泉州市,万安,118.6663,24.9424,2024-11-08T2300,14,28,0.5,13,2,75,101,28,
泉州市,清源山,118.6117,24.9604,2024-11-08T2300,,,,,,,,,
泉州市,城华南路,118.6333,24.9264,2024-11-08T2300,14,30,0.3,16,2,68,101,30,
日喀则市,日喀则监测站,88.8876,29.2718,2024-11-08T2300,63,91,1.4,65,5,14,87,85,细颗粒物(PM2.5)
日喀则市,林业技术推广中心,88.8781,29.2426,2024-11-08T2300,12,38,0.7,19,8,42,90,38,
日照市,监测站,119.471,35.4209,2024-11-08T2300,42,68,0.9,80,7,4,104,59,"颗粒物(PM10),细颗粒物(PM2.5)"
日照市,市政府广场,119.523,35.4216,2024-11-08T2300,13,22,0.3,9,5,119,116,38,
日照市,港务局,119.5587,35.4044,2024-11-08T2300,15,24,0.5,9,6,119,118,38,
日照市,职业技术学院,119.5328,35.4625,2024-11-08T2300,12,22,0.3,10,4,112,119,35,
日照市,岚山环保分局,119.3266,35.1044,2024-11-08T2300,12,29,0.2,25,5,92,88,29,
三门峡市,市政府,111.1922,34.7752,2024-11-08T2300,61,62,0.6,20,6,86,113,83,细颗粒物(PM2.5)
三门峡市,开发区,111.1587,34.7942,2024-11-08T2300,70,,0.5,12,4,83,105,,
三门峡市,风景区,111.143,34.7955,2024-11-08T2300,60,69,0.7,25,12,87,110,82,细颗粒物(PM2.5)
三门峡市,三门峡市第一小学,111.1911,34.7829,2024-11-08T2300,56,73,0.5,18,4,84,108,77,细颗粒物(PM2.5)
三门峡市,富达温泉假日酒店,111.1,34.7167,2024-11-08T2300,62,97,0.7,19,7,80,115,84,细颗粒物(PM2.5)
三明市,三钢,117.6211,26.2625,2024-11-08T2300,33,,0.4,35,2,20,103,48,
三明市,三明二中,117.635,26.2714,2024-11-08T2300,20,30,0.4,29,2,31,97,30,
三明市,三元区政府,117.6028,26.2378,2024-11-08T2300,19,38,0.5,45,3,6,99,38,
三明市,洋溪,117.7275,26.3108,2024-11-08T2300,,,,,,,,,
三亚市,河东子站,109.5078,18.2489,2024-11-08T2300,30,63,0.6,27,2,86,168,57,颗粒物(PM10)
三亚市,河西子站,109.4964,18.2681,2024-11-08T2300,31,43,0.5,17,4,89,162,45,
三亚市,君悦子站,109.7348,18.3443,2024-11-08T2300,27,64,0.5,22,4,109,152,57,颗粒物(PM10)
山南市,山南监测站,91.7608,29.2313,2024-11-08T2300,9,10,0.3,9,4,69,83,22,
山南市,山南人民医院,91.7706,29.2436,2024-11-08T2300,8,16,0.5,7,4,74,83,24,
汕头市,金平子站,116.6794,23.3667,2024-11-08T2300,9,22,0.7,15,8,82,119,26,
汕头市,龙湖子站,116.7244,23.3633,2024-11-08T2300,14,33,0.6,,10,79,111,,
汕头市,濠江子站,116.7258,23.2775,2024-11-08T2300,12,12,0.4,6,8,86,116,27,
汕头市,澄海子站,116.7519,23.4714,2024-11-08T2300,16,28,0.3,14,9,85,119,28,
汕头市,潮阳子站,116.6092,23.2539,2024-11-08T2300,8,18,0.6,2,7,86,113,27,
汕头市,潮南峡山,116.454,23.2684,2024-11-08T2300,3,23,0.4,12,9,87,122,28,
汕头市,潮南子站,116.4069,23.2533,2024-11-08T2300,9,24,0.5,12,11,82,113,26,
汕尾市,市环保局,115.3653,22.775,2024-11-08T2300,16,34,0.7,13,11,92,92,34,
汕尾市,市政府,115.3706,22.7898,2024-11-08T2300,20,43,0.6,15,10,93,97,43,
汕尾市,新城中学,115.3622,22.7925,2024-11-08T2300,,,0.6,,8,79,88,,
商洛市,监测站,109.9154,33.8715,2024-11-08T2300,53,85,0.8,16,12,161,140,73,细颗粒物(PM2.5)
商洛市,商州区中学,109.9643,33.8471,2024-11-08T2300,60,73,1.0,18,16,189,138,87,臭氧1小时
商丘市,环境监测站,115.6702,34.4285,2024-11-08T2300,35,52,0.4,35,7,51,94,51,颗粒物(PM10)
商丘市,粮食局,115.6458,34.4045,2024-11-08T2300,30,49,0.5,32,1,59,101,49,
商丘市,睢阳区环保局,115.6293,34.3948,2024-11-08T2300,33,60,0.4,30,10,52,94,55,颗粒物(PM10)
商丘市,梁园区档案局,115.6071,34.4465,2024-11-08T2300,29,51,0.4,27,5,70,106,51,颗粒物(PM10)
上海市,普陀,121.4,31.238,2024-11-08T2300,,33,0.5,29,5,65,86,,
上海市,十五厂,121.478,31.2036,2024-11-08T2300,9,32,0.5,29,8,72,90,32,
上海市,虹口,121.467,31.3008,2024-11-08T2300,15,34,0.7,40,8,58,90,34,
上海市,徐汇上师大,121.412,31.1654,2024-11-08T2300,14,30,0.6,26,9,77,88,30,
上海市,杨浦四漂,121.536,31.2659,2024-11-08T2300,11,33,0.6,28,8,66,93,33,
上海市,静安监测站,121.425,31.2261,2024-11-08T2300,16,37,0.6,40,8,59,86,37,
上海市,浦东川沙,121.703,31.1907,2024-11-08T2300,15,48,0.5,24,6,74,96,48,
上海市,浦东新区监测站,121.533,31.2284,2024-11-08T2300,10,28,0.5,29,8,68,90,28,
上海市,浦东张江,121.577,31.2071,2024-11-08T2300,10,33,0.6,38,5,60,92,33,
上海市,宝山庙行,121.4316,31.3322,2024-11-08T2300,12,37,0.5,31,10,62,89,37,
上海市,崇明上实东滩,121.8791,31.4662,2024-11-08T2300,9,26,0.6,5,8,84,102,27,
上海市,嘉定南翔,121.3162,31.2838,2024-11-08T2300,12,32,0.5,32,9,65,86,32,
上海市,金山新城,121.3359,30.7456,2024-11-08T2300,12,35,0.7,24,4,69,87,35,
上海市,闵行浦江,121.4996,31.0739,2024-11-08T2300,11,32,0.5,34,6,63,91,32,
上海市,青浦徐泾,121.2886,31.1663,2024-11-08T2300,16,38,0.5,36,7,66,91,38,
上海市,松江图书馆,121.2186,31.0378,2024-11-08T2300,16,38,0.6,34,6,62,86,38,
上海市,长宁仙霞,121.3902,31.2059,2024-11-08T2300,12,33,0.7,31,8,69,91,33,
上海市,浦东惠南,121.7965,31.0507,2024-11-08T2300,10,29,0.6,24,10,68,99,29,
上海市,奉贤南桥新城,121.4891,30.925,2024-11-08T2300,15,34,0.5,25,1,72,92,34,
上饶市,百草园,118.005,28.4572,2024-11-08T2300,9,25,0.6,15,11,82,108,26,
上饶市,市监测站,117.9756,28.4436,2024-11-08T2300,19,40,0.6,19,11,71,107,40,
上饶市,凤凰光学,117.9519,28.4628,2024-11-08T2300,19,49,0.7,38,26,48,104,49,
上饶市,广丰区教体局,118.1953,28.4401,2024-11-08T2300,36,65,0.7,25,12,65,103,58,颗粒物(PM10)
上饶市,双创科技城,117.897,28.4315,2024-11-08T2300,22,42,0.7,28,26,61,104,42,
韶关市,市八中,113.5824,24.7733,2024-11-08T2300,34,59,0.6,34,9,47,124,55,颗粒物(PM10)
韶关市,园林处,113.5917,24.7972,2024-11-08T2300,30,39,0.4,19,11,84,130,43,
韶关市,韶关学院,113.6735,24.7791,2024-11-08T2300,42,54,0.6,26,10,20,128,59,细颗粒物(PM2.5)
韶关市,曲江监测站,113.5971,24.6863,2024-11-08T2300,34,62,0.5,36,12,42,126,56,颗粒物(PM10)
韶关市,碧湖山庄,113.5556,24.8082,2024-11-08T2300,30,46,0.4,15,11,76,125,46,
邵阳市,市水土所,111.5239,27.3033,2024-11-08T2300,,,,,,,,,
邵阳市,市一中,111.4733,27.2317,2024-11-08T2300,59,92,0.7,44,11,58,154,80,细颗粒物(PM2.5)
邵阳市,市化工厂,111.5283,27.2442,2024-11-08T2300,54,85,1.0,65,12,40,150,74,细颗粒物(PM2.5)
邵阳市,市罐头厂,111.4503,27.2537,2024-11-08T2300,77,100,0.8,35,11,50,153,103,细颗粒物(PM2.5)
邵阳市,市环保局,111.4328,27.2272,2024-11-08T2300,65,85,0.8,39,10,60,150,88,细颗粒物(PM2.5)
绍兴市,城东开发委,120.6053,29.9928,2024-11-08T2300,16,37,0.4,31,8,57,78,37,
绍兴市,树下王站,120.5483,30.0003,2024-11-08T2300,17,34,0.5,23,6,69,89,34,
绍兴市,绍兴中专,120.5683,29.9361,2024-11-08T2300,17,38,0.5,52,7,21,88,38,
绍兴市,柯桥区政府,120.4906,30.0861,2024-11-08T2300,13,31,0.6,34,10,50,78,31,
绍兴市,重华小学,120.8752,30.0249,2024-11-08T2300,17,29,0.5,21,6,74,85,29,
绍兴市,上虞中学,120.8369,30.0137,2024-11-08T2300,15,28,0.6,9,5,79,86,28,
绍兴市,柯桥妇保,120.4722,30.0415,2024-11-08T2300,15,38,0.7,39,5,31,79,38,
绍兴市,袍江中学,120.6153,30.0764,2024-11-08T2300,21,50,0.7,28,6,66,84,50,
深圳市,通心岭子站,114.1063,22.5545,2024-11-08T2300,22,43,0.6,34,6,68,136,43,
深圳市,洪湖,114.117,22.5625,2024-11-08T2300,22,54,0.5,37,6,66,116,52,颗粒物(PM10)
深圳市,华侨城,113.987,22.5417,2024-11-08T2300,23,49,0.5,46,4,51,152,49,
深圳市,南海子站,113.9181,22.5171,2024-11-08T2300,27,62,0.6,39,7,72,153,56,颗粒物(PM10)
深圳市,盐田,114.2458,22.5689,2024-11-08T2300,14,35,0.5,12,8,84,118,35,
深圳市,龙岗,114.2283,22.7244,2024-11-08T2300,17,39,0.5,21,9,84,128,39,
深圳市,南澳,114.494,22.5422,2024-11-08T2300,23,42,0.5,12,8,87,134,42,
深圳市,葵涌,114.41,22.6342,2024-11-08T2300,15,33,0.5,24,8,78,126,33,
深圳市,梅沙,114.297,22.5978,2024-11-08T2300,18,36,0.6,14,9,92,131,36,
深圳市,观澜,114.0678,22.738,2024-11-08T2300,34,70,0.6,46,6,57,123,60,颗粒物(PM10)
深圳市,莲花,114.0731,22.559,2024-11-08T2300,19,38,0.4,28,8,73,131,38,
深圳市,民治,114.0261,22.6198,2024-11-08T2300,31,66,0.6,43,6,62,145,58,颗粒物(PM10)
深圳市,横岗,114.1871,22.6451,2024-11-08T2300,22,43,0.5,29,7,73,128,43,
深圳市,坪山,114.3551,22.7151,2024-11-08T2300,22,42,0.5,25,8,78,122,42,
深圳市,西乡,113.8953,22.5861,2024-11-08T2300,17,42,0.5,32,8,85,159,42,
沈阳市,森林路,123.6836,41.9339,2024-11-08T2300,,,,,,,,,
沈阳市,浑南东路,123.505,41.7406,2024-11-08T2300,49,85,1.0,65,13,15,76,68,"颗粒物(PM10),细颗粒物(PM2.5)"
沈阳市,新秀街,123.4231,41.6989,2024-11-08T2300,40,67,0.9,31,12,58,75,59,颗粒物(PM10)
沈阳市,东陵路,123.5903,41.8411,2024-11-08T2300,42,44,0.8,23,11,60,74,59,细颗粒物(PM2.5)
沈阳市,陵东街,123.4264,41.8467,2024-11-08T2300,48,74,1.0,47,12,40,78,67,细颗粒物(PM2.5)
沈阳市,文化路,123.4114,41.7653,2024-11-08T2300,40,67,0.7,23,10,71,83,59,颗粒物(PM10)
沈阳市,小河沿,123.4678,41.7867,2024-11-08T2300,50,85,0.9,42,11,36,79,69,细颗粒物(PM2.5)
沈阳市,太原街,123.4017,41.7972,2024-11-08T2300,38,65,0.7,25,21,67,78,58,颗粒物(PM10)
沈阳市,京沈街,123.3783,41.9228,2024-11-08T2300,55,62,0.9,54,18,29,75,75,细颗粒物(PM2.5)
沈阳市,沈辽西路,123.2444,41.7347,2024-11-08T2300,42,77,1.0,26,33,56,88,64,颗粒物(PM10)
沈阳市,裕农路,123.5953,41.9086,2024-11-08T2300,42,66,0.7,37,10,51,74,59,细颗粒物(PM2.5)
十堰市,武当山,111.0419,32.395,2024-11-08T2300,47,71,0.8,19,12,122,126,65,细颗粒物(PM2.5)
十堰市,滨河新村,110.78,32.6494,2024-11-08T2300,71,83,0.9,81,10,23,112,95,细颗粒物(PM2.5)
十堰市,刘家沟,110.7258,32.6389,2024-11-08T2300,58,113,0.7,28,7,69,119,82,颗粒物(PM10)
十堰市,铁二处,110.8839,32.5714,2024-11-08T2300,55,72,0.7,25,9,63,113,75,细颗粒物(PM2.5)
十堰市,郧阳区金沙路,110.8054,32.8401,2024-11-08T2300,51,60,0.8,28,4,73,125,70,细颗粒物(PM2.5)
石河子市,艾青诗歌馆,86.0497,44.2967,2024-11-08T2300,7,,0.4,7,11,48,50,15,
石河子市,南区管委会,86.047,44.2331,2024-11-08T2300,3,6,0.4,12,7,45,56,15,
石河子市,世纪广场,86.0791,44.3017,2024-11-08T2300,11,,0.3,11,5,51,54,16,
石家庄市,职工医院,114.4422,38.0444,2024-11-08T2300,157,241,0.9,90,7,3,74,207,细颗粒物(PM2.5)
石家庄市,高新区,114.6063,38.0266,2024-11-08T2300,151,244,1.1,79,3,20,83,201,细颗粒物(PM2.5)
石家庄市,西北水源,114.4898,38.1328,2024-11-08T2300,185,230,1.0,95,2,2,79,235,细颗粒物(PM2.5)
石家庄市,西南高教,114.4586,38.0058,2024-11-08T2300,180,221,1.0,81,4,13,82,230,细颗粒物(PM2.5)
石家庄市,世纪公园,114.5331,38.0178,2024-11-08T2300,156,219,1.0,52,6,34,70,206,细颗粒物(PM2.5)
石家庄市,人民会堂,114.509,38.0457,2024-11-08T2300,184,234,1.0,71,4,28,83,234,细颗粒物(PM2.5)
石家庄市,封龙山,114.3524,37.8911,2024-11-08T2300,83,148,0.9,26,6,82,100,110,细颗粒物(PM2.5)
石家庄市,22中南校区,114.5481,38.0378,2024-11-08T2300,172,214,1.0,71,4,26,77,222,细颗粒物(PM2.5)
石家庄市,鹿泉一中,114.289,38.0906,2024-11-08T2300,165,218,0.8,58,4,37,79,215,细颗粒物(PM2.5)
石家庄市,藁城区实验学校,114.8506765,38.0322033,2024-11-08T2300,214,250,0.9,68,11,17,69,264,细颗粒物(PM2.5)
石家庄市,井陉矿区区委大楼,114.0504658,38.0591645,2024-11-08T2300,178,256,0.9,63,5,38,69,228,细颗粒物(PM2.5)
石家庄市,栾城区星河路,114.6549,37.9020,2024-11-08T2300,184,223,0.8,84,5,14,74,234,细颗粒物(PM2.5)
石嘴山市,沙湖旅游区,106.3394,38.817,2024-11-08T2300,,,,,,,,,
石嘴山市,大武口朝阳西街,106.3668,39.0145,2024-11-08T2300,153,197,2.1,80,24,13,68,203,细颗粒物(PM2.5)
石嘴山市,惠农南大街,106.7704,39.2282,2024-11-08T2300,43,50,0.7,28,13,40,72,60,细颗粒物(PM2.5)
石嘴山市,红果子镇惠新街,106.7099,39.1325,2024-11-08T2300,50,62,0.5,24,15,46,87,69,细颗粒物(PM2.5)
石嘴山市,妇女儿童医院,106.3495,38.9836,2024-11-08T2300,157,217,2.3,54,19,36,66,207,细颗粒物(PM2.5)
石嘴山市,石大公路,106.7492,39.2069,2024-11-08T2300,44,62,0.6,26,7,37,68,62,细颗粒物(PM2.5)
双鸭山市,双合村,131.1511,46.6937,2024-11-08T2300,36,62,1.1,24,17,37,44,56,颗粒物(PM10)
双鸭山市,南小市,131.1652,46.6191,2024-11-08T2300,23,,0.5,18,10,44,47,33,
双鸭山市,环保局,131.1524,46.6554,2024-11-08T2300,31,52,0.7,34,8,27,49,51,颗粒物(PM10)
双鸭山市,苗圃,131.12,46.5656,2024-11-08T2300,16,40,0.2,12,4,39,40,40,
朔州市,平朔,112.4397,39.3522,2024-11-08T2300,76,116,1.2,62,14,37,100,102,细颗粒物(PM2.5)
朔州市,朔唯,112.4575,39.3617,2024-11-08T2300,69,145,0.9,82,19,17,89,98,颗粒物(PM10)
朔州市,区政府,112.4258,39.3197,2024-11-08T2300,76,113,1.0,32,15,80,96,102,细颗粒物(PM2.5)
朔州市,市环保局,112.4072,39.3278,2024-11-08T2300,82,135,1.2,38,14,63,96,109,细颗粒物(PM2.5)
朔州市,市二中,112.4272,39.3681,2024-11-08T2300,77,125,0.9,36,13,60,91,103,细颗粒物(PM2.5)
朔州市,一水厂,112.2931,39.53,2024-11-08T2300,80,138,0.8,21,8,90,77,107,细颗粒物(PM2.5)
四平市,一商场,124.4002,43.1713,2024-11-08T2300,46,48,0.5,28,6,69,73,64,细颗粒物(PM2.5)
四平市,境园,124.388,43.193,2024-11-08T2300,36,57,0.4,24,7,70,76,54,颗粒物(PM10)
四平市,植物园,124.4036,43.1411,2024-11-08T2300,59,75,0.5,38,4,59,66,80,细颗粒物(PM2.5)
四平市,世纪城,124.3419,43.1666,2024-11-08T2300,38,48,0.6,21,6,71,72,54,细颗粒物(PM2.5)
松原市,江南,124.8006,45.1214,2024-11-08T2300,184,,0.7,53,7,26,59,234,细颗粒物(PM2.5)
松原市,江北,124.7965,45.1722,2024-11-08T2300,171,,1.0,46,6,37,54,221,细颗粒物(PM2.5)
苏州市,上方山,120.561,31.2472,2024-11-08T2300,17,32,0.6,36,9,56,88,32,
苏州市,彩香,120.591,31.3019,2024-11-08T2300,25,46,0.6,26,8,55,88,46,
苏州市,轧钢厂,120.596,31.3264,2024-11-08T2300,21,47,0.5,30,9,58,89,47,
苏州市,吴中区,120.613,31.2703,2024-11-08T2300,20,47,0.5,28,6,56,82,47,
苏州市,苏州新区,120.543,31.2994,2024-11-08T2300,22,56,0.4,41,8,53,88,53,颗粒物(PM10)
苏州市,苏州工业园区,120.669,31.3097,2024-11-08T2300,21,46,0.5,40,6,53,86,46,
苏州市,相城区,120.641,31.3708,2024-11-08T2300,21,43,0.4,43,6,56,85,43,
苏州市,方洲路,120.743,31.3188,2024-11-08T2300,22,35,0.5,34,7,48,85,35,
苏州市,木渎中学,120.5031,31.2774,2024-11-08T2300,17,36,0.5,29,8,63,89,36,
苏州市,越秀幼儿园,120.624,31.1733,2024-11-08T2300,18,35,0.6,54,9,32,87,35,
苏州市,高铁新城,120.6505,31.416,2024-11-08T2300,18,41,0.5,21,7,64,86,41,
宿迁市,宿迁学院,118.293,33.9528,2024-11-08T2300,18,41,0.4,29,3,41,86,41,
宿迁市,宿迁中学,118.2442,33.9592,2024-11-08T2300,15,33,0.4,20,3,58,90,33,
宿迁市,市供电局,118.283,33.965,2024-11-08T2300,19,34,0.6,24,4,54,91,34,
宿迁市,宿豫区政府,118.3225,33.9447,2024-11-08T2300,21,42,0.3,30,2,42,88,42,
宿州市,远航博物馆,116.9509,33.666,2024-11-08T2300,35,64,0.3,33,3,55,91,57,颗粒物(PM10)
宿州市,社会福利中心,116.9708,33.591,2024-11-08T2300,36,68,0.3,36,8,45,87,59,颗粒物(PM10)
宿州市,宿州学院,116.9884,33.6305,2024-11-08T2300,31,63,0.4,30,5,58,87,57,颗粒物(PM10)
宿州市,皖北煤电集团,116.9648,33.6252,2024-11-08T2300,30,68,0.3,29,5,59,94,59,颗粒物(PM10)
绥化市,人和东街,126.9785,46.6365,2024-11-08T2300,239,262,1.0,57,10,21,54,289,细颗粒物(PM2.5)
绥化市,党政办公中心,126.964,46.6528,2024-11-08T2300,245,310,0.9,54,22,28,49,295,细颗粒物(PM2.5)
随州市,市委党校,113.3583,31.7275,2024-11-08T2300,51,80,0.7,37,6,68,125,70,细颗粒物(PM2.5)
随州市,市林业局,113.3833,31.6908,2024-11-08T2300,65,87,0.9,69,15,59,132,88,细颗粒物(PM2.5)
随州市,市立交桥水厂,113.3983,31.7308,2024-11-08T2300,55,75,0.8,60,10,44,128,75,细颗粒物(PM2.5)
遂宁市,石溪浩,105.5453,30.5678,2024-11-08T2300,54,66,0.8,21,7,4,11,74,细颗粒物(PM2.5)
遂宁市,市监测站,105.5582,30.5232,2024-11-08T2300,50,62,0.6,36,6,4,14,69,细颗粒物(PM2.5)
遂宁市,行政中心,105.5861,30.5366,2024-11-08T2300,48,70,0.6,28,7,4,14,67,细颗粒物(PM2.5)
遂宁市,美宁食品公司,105.5918,30.4728,2024-11-08T2300,54,60,0.6,30,7,6,22,74,细颗粒物(PM2.5)
塔城地区,东门外小游园,82.9994,46.7432,2024-11-08T2300,10,12,0.2,3,3,51,46,16,
台州市,黄岩环保大楼,121.273,28.6459,2024-11-08T2300,16,33,0.4,14,3,65,83,33,
台州市,台州环保大楼,121.419,28.6542,2024-11-08T2300,28,37,0.4,19,4,68,93,40,
台州市,路桥田洋王,121.377,28.5773,2024-11-08T2300,31,32,0.3,15,4,73,93,45,
台州市,台州科技职业学院,121.2568,28.6681,2024-11-08T2300,14,28,0.4,11,3,80,91,28,
太原市,尖草坪,112.522,37.8873,2024-11-08T2300,70,101,0.9,100,7,10,114,94,细颗粒物(PM2.5)
太原市,上兰,112.434,38.0108,2024-11-08T2300,63,79,0.8,20,5,68,98,85,细颗粒物(PM2.5)
太原市,晋源,112.469,37.7124,2024-11-08T2300,83,111,0.7,41,9,56,104,110,细颗粒物(PM2.5)
太原市,小店,112.5583,37.7394,2024-11-08T2300,142,185,1.3,55,9,45,116,189,细颗粒物(PM2.5)
太原市,桃园,112.5369,37.8692,2024-11-08T2300,72,106,1.0,66,6,33,111,97,细颗粒物(PM2.5)
太原市,坞城,112.57,37.8195,2024-11-08T2300,79,121,1.2,74,9,30,105,105,细颗粒物(PM2.5)
太原市,南寨,112.549,37.9854,2024-11-08T2300,109,169,0.8,72,7,4,96,143,细颗粒物(PM2.5)
太原市,金胜,112.4719,37.7831,2024-11-08T2300,81,127,0.7,48,8,47,114,108,细颗粒物(PM2.5)
太原市,育英中学,112.5608,37.8807,2024-11-08T2300,118,190,1.1,52,10,54,112,155,细颗粒物(PM2.5)
泰安市,监测站,117.1437,36.1937,2024-11-08T2300,58,90,0.8,38,8,59,88,79,细颗粒物(PM2.5)
泰安市,人口学校,117.0885,36.2017,2024-11-08T2300,40,77,0.8,30,11,79,95,64,颗粒物(PM10)
泰安市,电力学校,117.1089,36.1758,2024-11-08T2300,58,88,0.7,43,8,53,85,79,细颗粒物(PM2.5)
泰安市,国网新校,117.1812,36.2275,2024-11-08T2300,56,88,0.7,30,6,62,91,77,细颗粒物(PM2.5)
泰安市,交通技校,117.0313,36.2018,2024-11-08T2300,38,71,0.5,26,6,84,98,61,颗粒物(PM10)
泰安市,山东第一医科大学,117.0829,36.13,2024-11-08T2300,53,78,0.5,45,7,66,98,73,细颗粒物(PM2.5)
泰州市,公园路,119.905,32.4878,2024-11-08T2300,24,44,0.4,40,5,40,89,44,
泰州市,莲花,119.9189,32.4625,2024-11-08T2300,24,39,0.6,31,4,48,89,39,
泰州市,留学生创业园,119.888,32.4639,2024-11-08T2300,24,47,0.6,28,6,53,94,47,
泰州市,王营,119.8767,32.3289,2024-11-08T2300,27,53,0.5,37,6,39,92,52,颗粒物(PM10)
泰州市,姜堰区政府广场,120.1259,32.5099,2024-11-08T2300,24,47,0.5,39,7,42,92,47,
泰州市,周山河街区,119.9192,32.4322,2024-11-08T2300,23,35,0.5,26,7,52,89,35,
唐山市,雷达站,118.131,39.6363,2024-11-08T2300,94,147,1.1,67,14,68,82,124,细颗粒物(PM2.5)
唐山市,物资局,118.1725,39.6334,2024-11-08T2300,89,143,1.1,72,11,45,76,118,细颗粒物(PM2.5)
唐山市,十二中,118.1705,39.6506,2024-11-08T2300,80,120,1.3,57,16,51,74,107,细颗粒物(PM2.5)
唐山市,小山,118.1869,39.622,2024-11-08T2300,93,138,1.0,72,10,25,73,123,细颗粒物(PM2.5)
唐山市,冀东油田职工医院,118.4359,39.2762,2024-11-08T2300,47,62,0.2,34,5,93,101,65,细颗粒物(PM2.5)
唐山市,正泰大街热力站,118.09279,39.58089,2024-11-08T2300,86,136,0.9,84,7,23,72,114,细颗粒物(PM2.5)
唐山市,丰润区政府,118.1562,39.8322,2024-11-08T2300,107,177,1.6,84,7,2,62,140,细颗粒物(PM2.5)
唐山市,金山小学,118.43673,39.73809,2024-11-08T2300,85,123,0.8,64,10,39,70,113,细颗粒物(PM2.5)
唐山市,政府服务中心,118.24498,39.66941,2024-11-08T2300,100,112,0.8,68,10,42,74,132,细颗粒物(PM2.5)
唐山市,消防缸窑路中队,118.2059,39.6585,2024-11-08T2300,83,133,0.8,74,11,39,78,110,细颗粒物(PM2.5)
唐山市,路南电大,118.1436,39.6202,2024-11-08T2300,75,146,1.4,60,14,50,73,100,细颗粒物(PM2.5)
天津市,勤俭道,117.1444,39.1661,2024-11-08T2300,98,148,1.2,84,14,25,81,129,细颗粒物(PM2.5)
天津市,大直沽八号路,117.237,39.1082,2024-11-08T2300,96,186,0.8,51,10,64,84,127,细颗粒物(PM2.5)
天津市,前进道,117.202,39.0927,2024-11-08T2300,93,140,0.8,61,10,64,86,123,细颗粒物(PM2.5)
天津市,淮河道,117.1837,39.2133,2024-11-08T2300,95,150,1.0,99,11,17,87,125,细颗粒物(PM2.5)
天津市,跃进路,117.307,39.0877,2024-11-08T2300,104,155,0.9,91,8,23,78,137,细颗粒物(PM2.5)
天津市,第四大街,117.707,39.0343,2024-11-08T2300,69,125,0.6,93,6,40,70,93,细颗粒物(PM2.5)
天津市,永明路,117.457,38.8394,2024-11-08T2300,89,122,0.8,96,7,22,83,118,细颗粒物(PM2.5)
天津市,汉北路,117.764,39.1587,2024-11-08T2300,59,85,0.2,41,10,91,89,80,细颗粒物(PM2.5)
天津市,团泊洼,117.157,38.9194,2024-11-08T2300,,,,,,,,,
天津市,河西一经路,117.7918,39.2474,2024-11-08T2300,57,79,0.6,27,6,113,98,78,细颗粒物(PM2.5)
天津市,津沽路,117.3747,38.9846,2024-11-08T2300,98,143,1.0,87,11,32,84,129,细颗粒物(PM2.5)
天津市,宾水西道,117.1589,39.0845,2024-11-08T2300,95,144,1.0,44,5,50,78,125,细颗粒物(PM2.5)
天津市,大理道,117.1941,39.1067,2024-11-08T2300,90,136,0.8,57,8,70,87,119,细颗粒物(PM2.5)
天津市,中山北路,117.2101,39.1699,2024-11-08T2300,96,150,1.0,107,6,10,77,127,细颗粒物(PM2.5)
天津市,西四道,117.3876,39.1488,2024-11-08T2300,100,158,1.1,71,9,35,74,132,细颗粒物(PM2.5)
天津市,雍阳西道,117.0365,39.3828,2024-11-08T2300,71,130,0.7,108,7,4,88,95,细颗粒物(PM2.5)
天津市,辛老路,117.0296,39.0605,2024-11-08T2300,102,162,0.9,76,6,27,88,134,细颗粒物(PM2.5)
天津市,地纬路,116.9638,38.9375,2024-11-08T2300,98,149,1.0,96,8,4,82,129,细颗粒物(PM2.5)
天津市,北环路,117.4067,40.0583,2024-11-08T2300,75,113,0.7,33,7,48,58,100,细颗粒物(PM2.5)
天津市,建设路,117.3045,39.7169,2024-11-08T2300,104,168,1.0,99,7,4,57,137,细颗粒物(PM2.5)
天津市,滨水东路,117.8199,39.3521,2024-11-08T2300,57,90,0.6,66,7,73,70,78,细颗粒物(PM2.5)
天水市,麦积山,106.0055,34.343,2024-11-08T2300,,,,,,,,,
天水市,公园小学,105.7205,34.5786,2024-11-08T2300,23,27,0.4,8,8,73,71,33,
天水市,麦积国土局,105.8945,34.5538,2024-11-08T2300,13,18,0.5,9,5,82,78,26,
铁岭市,汇工街西,123.8139,42.3022,2024-11-08T2300,38,48,0.7,19,6,69,81,54,细颗粒物(PM2.5)
铁岭市,水上乐园,123.8649,42.2923,2024-11-08T2300,112,138,0.5,31,16,53,67,147,细颗粒物(PM2.5)
铁岭市,银州路东段,123.8486,42.2867,2024-11-08T2300,46,64,0.6,28,8,52,72,64,细颗粒物(PM2.5)
铁岭市,金沙江路北,123.7153,42.2217,2024-11-08T2300,42,46,0.8,25,9,61,72,59,细颗粒物(PM2.5)
通化市,光明,125.9358,41.7173,2024-11-08T2300,31,49,0.7,34,7,22,65,49,
通化市,铁路,125.9446,41.7325,2024-11-08T2300,40,78,1.2,51,9,4,63,64,颗粒物(PM10)
通辽市,艺术职业学校,122.2532,43.6801,2024-11-08T2300,58,92,1.2,29,4,18,16,79,细颗粒物(PM2.5)
通辽市,老干部活动中心,122.2584,43.6333,2024-11-08T2300,55,91,0.6,32,6,26,19,75,细颗粒物(PM2.5)
通辽市,东方明珠社区,122.2922,43.6189,2024-11-08T2300,68,117,1.2,30,14,16,26,92,细颗粒物(PM2.5)
铜川市,党校,109.0656,35.0994,2024-11-08T2300,,,,,,,,,
铜川市,王益区政府,109.0697,35.0697,2024-11-08T2300,72,85,0.8,24,6,83,115,97,细颗粒物(PM2.5)
铜川市,新区管委会,108.9344,34.9058,2024-11-08T2300,93,132,1.1,62,9,45,126,123,细颗粒物(PM2.5)
铜川市,旺旺集团,108.9543,34.8732,2024-11-08T2300,93,118,1.0,58,10,54,122,123,细颗粒物(PM2.5)
铜陵市,市第四中学,117.8177,30.9412,2024-11-08T2300,32,72,0.5,26,1,65,106,61,颗粒物(PM10)
铜陵市,市公路局,117.8059,30.9273,2024-11-08T2300,35,69,0.5,25,5,59,104,60,颗粒物(PM10)
铜陵市,市新民污水厂,117.7807,30.9413,2024-11-08T2300,29,64,0.5,30,6,63,108,57,颗粒物(PM10)
铜陵市,市第九中学,117.7439,30.8792,2024-11-08T2300,42,83,0.9,36,11,53,94,67,颗粒物(PM10)
铜陵市,车站新区,117.846,30.9413,2024-11-08T2300,30,71,0.5,26,5,62,105,61,颗粒物(PM10)
铜陵市,市职教基地,117.8483,30.97,2024-11-08T2300,32,64,0.6,21,7,61,100,57,颗粒物(PM10)
铜仁市,铜仁卫校,109.1839,27.7344,2024-11-08T2300,37,68,0.6,37,2,28,72,59,颗粒物(PM10)
铜仁市,铜仁七中,109.1753,27.6944,2024-11-08T2300,37,46,0.4,30,2,34,71,53,细颗粒物(PM2.5)
吐鲁番市,市环保局,89.1904,42.9418,2024-11-08T2300,18,61,1.7,14,5,,59,,
吐鲁番市,地区环保局,89.1673,42.9559,2024-11-08T2300,,,0.7,18,4,48,38,,
威海市,华夏技校,122.1214,37.4236,2024-11-08T2300,36,41,0.4,20,5,102,110,52,细颗粒物(PM2.5)
威海市,山大分校,122.0508,37.5236,2024-11-08T2300,20,32,0.5,15,6,111,121,35,
威海市,市监测站,122.1067,37.5072,2024-11-08T2300,32,44,0.6,21,5,90,104,46,
威海市,文登开发区,122.0693,37.2174,2024-11-08T2300,48,68,0.5,45,7,38,110,67,细颗粒物(PM2.5)
威海市,临港区管委会,122.1379,37.3414,2024-11-08T2300,28,44,0.4,23,5,91,113,44,
潍坊市,环保局,119.1437,36.7023,2024-11-08T2300,20,34,0.4,20,7,87,108,34,
潍坊市,坊子邮政,119.1641,36.6523,2024-11-08T2300,17,36,0.3,20,7,85,111,36,
潍坊市,潍坊七中,119.0587,36.721,2024-11-08T2300,24,51,0.4,31,6,56,103,51,颗粒物(PM10)
潍坊市,高新实验学校,119.1977,36.6872,2024-11-08T2300,22,39,0.1,18,11,80,108,39,
潍坊市,潍坊学院,119.1755,36.7149,2024-11-08T2300,13,31,0.4,15,6,93,111,31,
潍坊市,寒亭区实验一小,119.2041,36.7699,2024-11-08T2300,22,34,0.2,21,8,82,105,34,
渭南市,农科所,109.5293,34.5101,2024-11-08T2300,,,,,,,,,
渭南市,日报社,109.4974,34.4877,2024-11-08T2300,105,149,0.9,70,10,6,105,138,细颗粒物(PM2.5)
渭南市,体育馆,109.4636,34.493,2024-11-08T2300,73,127,0.8,66,12,33,108,98,细颗粒物(PM2.5)
渭南市,高新一小,109.4259,34.5023,2024-11-08T2300,73,102,0.8,28,13,80,114,98,细颗粒物(PM2.5)
温州市,瓯海,120.634,28.0089,2024-11-08T2300,22,30,0.4,16,5,66,89,32,
温州市,南浦,120.6748,27.9939,2024-11-08T2300,13,25,0.3,11,7,78,96,25,
温州市,龙湾,120.76,27.9747,2024-11-08T2300,15,26,0.4,34,5,54,90,26,
温州市,市站,120.6709,28.0167,2024-11-08T2300,13,24,0.3,15,5,70,84,24,
温州市,茶山,120.6985,27.9251,2024-11-08T2300,12,23,0.2,22,5,73,100,23,
文山壮族苗族自治州,州水务局,104.2533,23.3594,2024-11-08T2300,65,72,0.4,14,6,49,84,88,细颗粒物(PM2.5)
文山壮族苗族自治州,市便民服务中心,104.2319,23.3892,2024-11-08T2300,45,55,0.5,20,7,41,80,63,细颗粒物(PM2.5)
乌海市,市林业局,106.8174,39.6973,2024-11-08T2300,40,93,0.8,24,18,66,68,72,颗粒物(PM10)
乌海市,中海勃湾学校,106.7907,39.6667,2024-11-08T2300,44,119,0.9,40,27,48,67,85,颗粒物(PM10)
乌海市,海北新区,106.813,39.7274,2024-11-08T2300,26,121,0.6,23,20,68,55,86,颗粒物(PM10)
乌海市,聚英学校,106.8288,39.6778,2024-11-08T2300,23,224,0.7,27,26,68,70,137,颗粒物(PM10)
乌兰察布市,集宁新区,113.1306,40.9923,2024-11-08T2300,74,87,0.8,47,11,77,92,99,细颗粒物(PM2.5)
乌兰察布市,光明街小学,113.1076,41.0385,2024-11-08T2300,58,86,0.8,36,12,80,89,79,细颗粒物(PM2.5)
乌兰察布市,北京八中,113.1376,40.9509,2024-11-08T2300,76,120,1.2,72,14,15,79,102,细颗粒物(PM2.5)
乌兰察布市,市委党校,113.1775,40.9779,2024-11-08T2300,82,123,1.5,90,11,8,84,109,细颗粒物(PM2.5)
乌鲁木齐市,监测站,87.5801,43.8303,2024-11-08T2300,22,25,0.4,27,3,36,50,32,
乌鲁木齐市,收费所,87.6046,43.768,2024-11-08T2300,17,24,0.5,29,1,29,50,25,
乌鲁木齐市,新疆农科院农场,87.4754,43.9469,2024-11-08T2300,12,13,0.8,20,7,27,48,18,
乌鲁木齐市,铁路局,87.5525,43.8711,2024-11-08T2300,20,22,0.3,23,1,39,51,29,
乌鲁木齐市,三十一中学,87.6432,43.831,2024-11-08T2300,14,22,0.3,25,3,38,46,22,
乌鲁木齐市,米东区环保局,87.7216,44.1747,2024-11-08T2300,9,10,0.5,8,4,53,58,17,
乌鲁木齐市,培训基地,87.4651,43.4569,2024-11-08T2300,3,,0.5,5,3,70,69,22,
乌鲁木齐市,达坂城区环保局,88.3118,43.3658,2024-11-08T2300,14,19,0.4,20,4,37,58,20,
乌鲁木齐市,红光山片区,87.6162,43.8801,2024-11-08T2300,18,,0.6,27,6,27,44,26,
乌鲁木齐市,新师大温泉校区,87.7024,43.8004,2024-11-08T2300,17,18,0.2,12,7,44,55,25,
乌鲁木齐市,大绿谷,87.4921,43.8411,2024-11-08T2300,21,28,0.4,30,3,31,48,30,
无锡市,雪浪,120.269,31.4867,2024-11-08T2300,14,24,0.3,29,8,67,86,24,
无锡市,黄巷,120.275,31.6219,2024-11-08T2300,19,56,0.7,54,4,24,77,53,颗粒物(PM10)
无锡市,曹张,120.294,31.56,2024-11-08T2300,9,32,0.5,34,6,54,84,32,
无锡市,漆塘,120.242,31.5031,2024-11-08T2300,12,29,0.8,34,3,62,85,29,
无锡市,东亭,120.3489,31.5863,2024-11-08T2300,14,36,0.8,44,5,34,83,36,
无锡市,旺庄,120.354,31.5475,2024-11-08T2300,12,27,0.5,21,4,61,85,27,
无锡市,荣巷,120.245,31.5631,2024-11-08T2300,9,27,0.5,31,3,56,78,27,
无锡市,堰桥,120.299,31.6817,2024-11-08T2300,9,36,0.7,48,9,32,91,36,
无锡市,华庄,120.3142,31.4753,2024-11-08T2300,18,36,0.7,27,4,58,85,36,
吴忠市,教育园区,106.1532,37.9648,2024-11-08T2300,56,56,0.7,29,9,38,68,77,细颗粒物(PM2.5)
吴忠市,新区二泵站,106.1856,37.9956,2024-11-08T2300,51,55,0.7,29,10,45,76,70,细颗粒物(PM2.5)
吴忠市,文卫南街,106.2112,37.9768,2024-11-08T2300,45,61,1.1,17,8,48,73,63,细颗粒物(PM2.5)
芜湖市,监测站,118.3606,31.3519,2024-11-08T2300,35,63,0.5,48,11,41,92,57,颗粒物(PM10)
芜湖市,科创中心,118.3714,31.4134,2024-11-08T2300,30,52,0.5,64,11,30,100,51,颗粒物(PM10)
芜湖市,四水厂,118.3673,31.3131,2024-11-08T2300,29,49,0.5,43,11,55,102,49,
芜湖市,市气象局,118.4209,31.3707,2024-11-08T2300,32,59,0.7,38,7,48,102,55,颗粒物(PM10)
芜湖市,清苑社区,118.4781,31.3225,2024-11-08T2300,27,48,0.5,54,9,27,98,48,
芜湖市,扬子职业技术学院,118.2746,31.2326,2024-11-08T2300,26,52,0.5,36,8,48,103,51,颗粒物(PM10)
