area,positionname,longitude,latitude,timepoint,pm2_5,pm10,co,no2,so2,o3,o3_8h,aqi,primarypollutant
阿坝藏族羌族自治州,州农科所,102.1879,31.914,2024-12-04T1800,7,19,0.5,37,15,55,74,19,
阿坝藏族羌族自治州,马师校,102.2502,31.8896,2024-12-04T1800,24,34,0.7,41,4,36,55,35,
阿坝藏族羌族自治州,马尔康中学西区,102.2165,31.9024,2024-12-04T1800,18,33,0.5,22,5,54,59,33,
阿克苏地区,电视台,80.292,41.1694,2024-12-04T1800,45,99,0.7,32,8,78,58,75,颗粒物(PM10)
阿克苏地区,艺术中心,80.2613,41.1551,2024-12-04T1800,33,89,0.7,19,3,89,61,70,颗粒物(PM10)
阿拉善盟,西城区西花园,105.6467,38.8363,2024-12-04T1800,18,37,0.5,15,7,82,89,37,
阿拉善盟,蒙二幼,105.6985,38.8411,2024-12-04T1800,8,16,0.5,8,6,83,86,26,
阿拉善盟,环保局新楼,105.724,38.8516,2024-12-04T1800,7,14,0.5,6,8,87,89,28,
阿勒泰地区,市站,88.1264,47.8517,2024-12-04T1800,8,11,0.4,21,8,44,51,14,
阿里地区,阿里监测站,80.1161,32.5,2024-12-04T1800,3,6,0.4,1,4,94,82,30,
阿里地区,阿里藏医院,80.0903,32.5028,2024-12-04T1800,3,6,0.5,1,4,95,84,30,
安康市,香溪洞,109.0318,32.6537,2024-12-04T1800,48,62,0.6,27,10,29,55,67,细颗粒物(PM2.5)
安康市,汉滨区检察院,109.0072,32.6975,2024-12-04T1800,56,83,0.8,40,9,28,39,77,细颗粒物(PM2.5)
安康市,市邮政管理局,109.0325,32.6913,2024-12-04T1800,65,85,0.9,43,12,23,42,88,细颗粒物(PM2.5)
安庆市,环科院,117.0809,30.5177,2024-12-04T1800,58,101,0.9,28,7,43,39,79,细颗粒物(PM2.5)
安庆市,马山宾馆,117.0331,30.5119,2024-12-04T1800,58,108,0.7,33,8,,36,,
安庆市,安庆大学,116.9896,30.6145,2024-12-04T1800,53,100,0.8,33,10,49,43,75,颗粒物(PM10)
安庆市,市人大,117.0598,30.5351,2024-12-04T1800,62,91,0.9,30,5,37,37,84,细颗粒物(PM2.5)
安顺市,伍家关,105.9606,26.2611,2024-12-04T1800,13,31,1.1,14,6,32,29,31,
安顺市,凤凰山,105.9408,26.2431,2024-12-04T1800,20,30,0.7,16,11,27,37,30,
安顺市,金钟山,105.9439,26.2564,2024-12-04T1800,19,24,0.7,13,10,30,38,28,
安顺市,娄家坡,105.8983,26.2481,2024-12-04T1800,20,25,0.7,18,11,29,39,29,
安阳市,棉研所,114.4839,36.0621,2024-12-04T1800,128,129,0.7,35,6,36,49,169,细颗粒物(PM2.5)
安阳市,红庙街,114.3551,36.1017,2024-12-04T1800,99,111,0.6,33,4,36,51,130,细颗粒物(PM2.5)
安阳市,银杏小区,114.361,36.0681,2024-12-04T1800,109,,1.2,34,2,32,54,143,细颗粒物(PM2.5)
安阳市,信访局,114.3922,36.0878,2024-12-04T1800,115,138,0.8,28,4,33,53,150,细颗粒物(PM2.5)
安阳市,左辅环卫站,114.4705,36.0637,2024-12-04T1800,112,157,0.7,30,3,39,48,147,细颗粒物(PM2.5)
安阳市,安钢职工学校,114.2917,36.0949,2024-12-04T1800,115,130,0.6,45,4,35,50,150,细颗粒物(PM2.5)
鞍山市,深沟寺,123.044,41.1196,2024-12-04T1800,20,27,1.1,33,12,44,58,29,
鞍山市,太阳城,123.011,41.0931,2024-12-04T1800,19,32,0.7,33,12,44,59,32,
鞍山市,太平,123.0485,41.1442,2024-12-04T1800,22,42,1.4,50,20,32,51,42,
鞍山市,铁西三道街,122.9642,41.0971,2024-12-04T1800,22,49,0.6,38,10,39,56,49,
鞍山市,铁西工业园区,122.9341,41.0833,2024-12-04T1800,18,39,0.3,27,11,53,58,39,
鞍山市,明达新区,123.022,41.0821,2024-12-04T1800,20,39,0.8,30,10,38,56,39,
鞍山市,千山,123.1289,41.0228,2024-12-04T1800,,,,,,,43,,
巴彦淖尔市,附二中,107.4212,40.761,2024-12-04T1800,23,47,0.4,16,5,63,66,47,
巴彦淖尔市,市环保大楼,107.37,40.7372,2024-12-04T1800,22,45,0.3,12,4,64,68,45,
巴音郭楞蒙古自治州,孔雀公园,86.1472,41.7538,2024-12-04T1800,23,73,0.4,16,5,83,52,62,颗粒物(PM10)
巴音郭楞蒙古自治州,棉纺厂,86.1972,41.7166,2024-12-04T1800,25,75,0.3,15,3,78,57,63,颗粒物(PM10)
巴音郭楞蒙古自治州,经济开发区,86.2357,41.7173,2024-12-04T1800,12,64,0.4,13,4,81,61,57,颗粒物(PM10)
巴中市,苏山坪,106.7677,31.8794,2024-12-04T1800,51,,0.6,29,8,26,56,70,细颗粒物(PM2.5)
巴中市,丽阳花园,106.7656,31.8545,2024-12-04T1800,30,49,0.9,47,4,6,14,49,
巴中市,圣泉水务公司,106.7418,31.8654,2024-12-04T1800,32,45,0.8,50,4,4,34,46,
巴中市,市中心医院,106.7616,31.8344,2024-12-04T1800,29,40,0.7,41,3,3,12,42,
白城市,洮北区环保局,122.7911,45.6077,2024-12-04T1800,16,19,0.5,12,6,66,70,23,
白城市,市环保局,122.8738,45.5725,2024-12-04T1800,9,27,0.4,9,4,69,74,27,
白山市,喜丰,126.4219,41.9171,2024-12-04T1800,3,17,0.6,10,14,68,70,22,
白山市,环保局,126.4077,41.9419,2024-12-04T1800,13,56,0.7,19,6,50,61,53,颗粒物(PM10)
白银市,第三小学,104.1724,36.5446,2024-12-04T1800,29,57,0.9,31,331,66,69,76,二氧化硫
白银市,动力公司,104.1465,36.5482,2024-12-04T1800,28,55,0.8,26,210,73,75,59,二氧化硫
百色市,市监测站,106.6103,23.9011,2024-12-04T1800,37,55,0.8,16,16,135,122,53,"颗粒物(PM10),细颗粒物(PM2.5)"
百色市,市中心血站,106.6538,23.8859,2024-12-04T1800,43,78,0.8,18,14,125,106,64,颗粒物(PM10)
百色市,祈福高中,106.6085,23.8798,2024-12-04T1800,36,89,0.8,16,12,131,124,70,颗粒物(PM10)
蚌埠市,工人疗养院,117.396,32.939,2024-12-04T1800,59,89,0.6,56,4,16,61,80,细颗粒物(PM2.5)
蚌埠市,百货大楼,117.3605,32.9427,2024-12-04T1800,68,92,0.5,28,4,44,60,92,细颗粒物(PM2.5)
蚌埠市,蚌埠学院,117.4185,32.8911,2024-12-04T1800,61,66,0.6,42,6,35,49,83,细颗粒物(PM2.5)
蚌埠市,淮上区政府,117.3533,32.9673,2024-12-04T1800,73,102,0.5,43,8,22,58,98,细颗粒物(PM2.5)
蚌埠市,高新区,117.3145,32.8977,2024-12-04T1800,59,75,0.6,50,6,24,50,80,细颗粒物(PM2.5)
蚌埠市,蚌埠田家炳中学,117.3092,32.9314,2024-12-04T1800,56,89,0.6,58,6,13,55,77,细颗粒物(PM2.5)
包头市,市环境监测站,109.8756,40.6532,2024-12-04T1800,11,16,0.5,18,7,65,72,21,
包头市,包头八中,109.9991,40.5842,2024-12-04T1800,11,30,0.2,18,7,54,60,30,
包头市,青山宾馆,109.8538,40.6821,2024-12-04T1800,13,20,0.4,22,10,62,71,20,
包头市,惠龙物流,109.8642,40.6288,2024-12-04T1800,11,19,0.5,17,5,68,71,22,
包头市,东河鸿龙湾,110.0377,40.5546,2024-12-04T1800,3,22,0.8,21,10,54,61,22,
包头市,滨河大厦,109.9154,40.5685,2024-12-04T1800,13,23,0.5,25,6,59,66,23,
包头市,包头市委党校,109.9447,40.6261,2024-12-04T1800,7,36,0.3,18,5,66,69,36,
包头市,昆区政府,109.8331,40.6576,2024-12-04T1800,12,23,0.4,13,7,69,71,23,
宝鸡市,庙沟村,107.185,34.3063,2024-12-04T1800,24,42,0.3,20,7,75,78,42,
宝鸡市,竹园沟,107.0708,34.3017,2024-12-04T1800,41,54,0.4,16,7,74,75,58,细颗粒物(PM2.5)
宝鸡市,三陆医院,107.1906,34.3672,2024-12-04T1800,27,48,0.5,52,6,50,63,48,
宝鸡市,监测站,107.1431,34.3547,2024-12-04T1800,24,54,0.6,47,8,51,66,52,颗粒物(PM10)
宝鸡市,技工学校,107.1186,34.3739,2024-12-04T1800,18,56,0.5,42,6,55,69,53,颗粒物(PM10)
宝鸡市,陈仓区环保局家属楼,107.3906,34.3528,2024-12-04T1800,21,45,0.6,44,7,57,15,45,
宝鸡市,文理学院,107.2058,34.3497,2024-12-04T1800,18,42,0.4,38,7,60,62,42,
宝鸡市,三迪小学,107.2386,34.3622,2024-12-04T1800,26,50,0.4,33,7,72,63,50,
保定市,游泳馆,115.493,38.8632,2024-12-04T1800,82,126,1.0,47,4,26,38,109,细颗粒物(PM2.5)
保定市,华电二区,115.5213,38.8959,2024-12-04T1800,105,105,0.8,61,5,20,28,138,细颗粒物(PM2.5)
保定市,接待中心,115.4713,38.9108,2024-12-04T1800,89,128,0.8,59,,,33,118,细颗粒物(PM2.5)
保定市,地表水厂,115.4612,38.8416,2024-12-04T1800,88,140,0.7,81,5,11,41,117,细颗粒物(PM2.5)
保定市,满城区生态环境分局,115.31981,38.95208,2024-12-04T1800,85,136,1.1,86,3,8,31,113,细颗粒物(PM2.5)
保定市,清苑区第二中学,115.47694,38.76408,2024-12-04T1800,58,108,0.7,51,10,33,40,79,"颗粒物(PM10),细颗粒物(PM2.5)"
保定市,徐水物探局,115.62909,39.02311,2024-12-04T1800,85,122,0.8,62,8,10,24,113,细颗粒物(PM2.5)
保定市,双鹰农机,115.4202,38.8656,2024-12-04T1800,94,132,0.8,63,4,20,36,124,细颗粒物(PM2.5)
保定市,植保所站,115.5150,38.8590,2024-12-04T1800,93,129,0.9,59,7,30,40,123,细颗粒物(PM2.5)
保山市,市环境监测站,99.1678,25.1081,2024-12-04T1800,7,26,0.2,7,3,80,75,26,
保山市,市环保局,99.1711,25.1328,2024-12-04T1800,9,19,0.2,4,5,82,76,26,
北海市,牛尾岭水库,109.2262,21.588,2024-12-04T1800,26,37,0.5,,5,129,154,,
北海市,海滩公园,109.1436,21.4086,2024-12-04T1800,17,47,0.5,11,10,163,170,54,臭氧1小时
北海市,新市环保局,109.0981,21.4661,2024-12-04T1800,22,40,0.7,16,7,134,157,42,
北海市,北海工业园,109.1778,21.5233,2024-12-04T1800,24,53,0.5,18,8,134,164,52,颗粒物(PM10)
北海市,龙潭自来水厂,109.1911,21.4415,2024-12-04T1800,25,38,0.6,15,10,140,159,44,
北京市,万寿西宫,116.3621,39.8784,2024-12-04T1800,62,92,0.6,77,5,8,31,84,细颗粒物(PM2.5)
北京市,定陵,116.2202,40.2915,2024-12-04T1800,3,12,0.2,6,3,51,49,16,
北京市,东四,116.4174,39.9289,2024-12-04T1800,45,91,0.5,57,4,20,42,71,颗粒物(PM10)
北京市,天坛,116.4072,39.8863,2024-12-04T1800,40,74,0.6,49,1,25,39,62,颗粒物(PM10)
北京市,农展馆,116.462,39.9365,2024-12-04T1800,43,90,0.7,53,3,28,44,70,颗粒物(PM10)
北京市,官园,116.3392,39.9295,2024-12-04T1800,38,68,0.6,45,3,29,40,59,颗粒物(PM10)
北京市,海淀万柳,116.2878,39.9611,2024-12-04T1800,6,17,0.3,13,2,65,53,21,
北京市,顺义新城,116.6636,40.135,2024-12-04T1800,15,27,0.2,19,1,46,54,27,
北京市,怀柔镇,116.6275,40.3275,2024-12-04T1800,8,21,0.4,37,1,35,52,21,
北京市,昌平镇,116.2296,40.217,2024-12-04T1800,8,21,0.3,20,5,54,62,21,
北京市,奥体中心,116.3966,39.9821,2024-12-04T1800,7,27,0.5,17,2,60,52,27,
北京市,古城,116.184,39.9136,2024-12-04T1800,36,82,1.0,50,6,23,42,66,颗粒物(PM10)
北京市,延庆夏都,115.9718,40.4529,2024-12-04T1800,7,16,0.1,5,3,58,52,19,
北京市,平谷新城,117.0709,40.1465,2024-12-04T1800,15,43,0.5,48,1,12,49,43,
北京市,密云新城,116.8336,40.4095,2024-12-04T1800,9,19,0.1,6,1,61,59,20,
北京市,门头沟三家店,116.088,39.9726,2024-12-04T1800,22,55,0.4,54,2,16,62,53,颗粒物(PM10)
北京市,丰台云岗,116.1541,39.8204,2024-12-04T1800,65,115,0.6,68,5,10,37,88,细颗粒物(PM2.5)
北京市,通州东关,116.6804,39.9081,2024-12-04T1800,40,76,0.5,50,4,22,36,63,颗粒物(PM10)
北京市,房山燕山,115.9577,39.7603,2024-12-04T1800,59,94,0.5,52,1,14,36,80,细颗粒物(PM2.5)
北京市,大兴旧宫,116.4672,39.7733,2024-12-04T1800,40,84,0.4,45,1,22,33,67,颗粒物(PM10)
北京市,延庆石河营,115.986,40.4563,2024-12-04T1800,6,15,0.2,8,1,66,58,21,
北京市,怀柔新城,116.6151,40.3053,2024-12-04T1800,8,19,0.2,25,1,40,48,19,
北京市,丰台小屯,116.2545,39.8768,2024-12-04T1800,59,97,0.6,67,4,10,32,80,细颗粒物(PM2.5)
北京市,密云镇,116.84,40.3844,2024-12-04T1800,3,19,0.2,20,1,49,58,19,
本溪市,大峪,123.8275,41.3064,2024-12-04T1800,20,39,1.2,31,18,44,50,39,
本溪市,溪湖,123.7567,41.3325,2024-12-04T1800,22,42,1.1,32,15,39,54,42,
本溪市,彩屯,123.7169,41.3094,2024-12-04T1800,38,62,1.2,63,13,16,50,56,颗粒物(PM10)
本溪市,东明,123.7669,41.2864,2024-12-04T1800,25,38,1.5,49,22,31,46,38,
本溪市,新立屯,123.7992,41.2664,2024-12-04T1800,24,40,0.7,68,8,8,57,40,
本溪市,威宁,123.8142,41.3472,2024-12-04T1800,16,45,1.1,39,13,31,49,45,
毕节市,八中,105.2864,27.3125,2024-12-04T1800,39,50,0.6,14,7,70,68,55,细颗粒物(PM2.5)
毕节市,师专,105.31,27.2944,2024-12-04T1800,41,48,0.6,13,5,68,65,58,细颗粒物(PM2.5)
毕节市,长征村,105.3631,27.3533,2024-12-04T1800,45,50,0.7,11,7,77,74,63,细颗粒物(PM2.5)
滨州市,第二水厂,118.0018,37.3617,2024-12-04T1800,48,85,0.8,48,16,37,42,68,颗粒物(PM10)
滨州市,北中新校,117.9776,37.393,2024-12-04T1800,46,85,0.9,58,11,22,34,68,颗粒物(PM10)
滨州市,中海酒店,117.9378,37.3956,2024-12-04T1800,56,88,0.7,60,12,25,48,77,细颗粒物(PM2.5)
滨州市,开发区一中,117.9378,37.3553,2024-12-04T1800,56,97,0.8,63,14,30,42,77,细颗粒物(PM2.5)
滨州市,金海六路,118.0917,37.694,2024-12-04T1800,36,88,0.7,60,6,15,44,69,颗粒物(PM10)
滨州市,滨州市西街道办事处,117.9956,37.3753,2024-12-04T1800,61,88,0.7,47,12,30,42,83,细颗粒物(PM2.5)
亳州市,污水处理厂,115.8072,33.8399,2024-12-04T1800,71,127,0.8,29,8,37,36,95,细颗粒物(PM2.5)
亳州市,三国揽胜宫,115.7789,33.8518,2024-12-04T1800,69,136,0.8,41,6,30,34,93,"颗粒物(PM10),细颗粒物(PM2.5)"
亳州市,亳州学院,115.7633,33.8034,2024-12-04T1800,66,127,0.8,34,4,36,36,89,"颗粒物(PM10),细颗粒物(PM2.5)"
博尔塔拉蒙古自治州,市党校,82.0485,44.8556,2024-12-04T1800,40,52,0.6,20,1,47,29,57,细颗粒物(PM2.5)
博尔塔拉蒙古自治州,市环保局,82.0806,44.8969,2024-12-04T1800,32,49,0.7,17,3,38,43,49,
沧州市,沧县城建局,116.8842,38.2991,2024-12-04T1800,65,105,0.7,54,9,32,45,88,细颗粒物(PM2.5)
沧州市,电视转播站,116.8584,38.3254,2024-12-04T1800,53,102,0.6,44,9,41,48,76,颗粒物(PM10)
沧州市,市环保局,116.8709,38.3228,2024-12-04T1800,55,95,0.6,40,6,42,47,75,细颗粒物(PM2.5)
沧州市,河北水利电力学院,116.8136,38.3004,2024-12-04T1800,60,102,0.6,55,10,28,50,82,细颗粒物(PM2.5)
昌都市,昌都监测站,97.1806,31.1273,2024-12-04T1800,16,22,0.9,48,7,48,62,24,
昌都市,昌都会议中心,97.1714,31.1406,2024-12-04T1800,10,,0.4,6,4,88,68,28,
昌吉回族自治州,天山天池,88.1236,43.8886,2024-12-04T1800,3,6,0.5,4,3,73,70,23,
昌吉回族自治州,新区政务中心,87.2717,44.0297,2024-12-04T1800,12,20,0.9,,7,53,52,,
昌吉回族自治州,亚心广场,87.3095,44.0142,2024-12-04T1800,14,27,0.7,25,7,53,54,27,
长春市,食品厂,125.3325,43.9166,2024-12-04T1800,14,47,0.4,30,8,37,58,47,
长春市,客车厂,125.2863,43.9027,2024-12-04T1800,11,49,0.3,34,10,34,57,49,
长春市,邮电学院,125.2841,43.8463,2024-12-04T1800,14,48,0.4,39,22,34,58,48,
长春市,劳动公园,125.3716,43.8772,2024-12-04T1800,15,33,0.4,37,17,40,63,33,
长春市,园林处,125.3297,43.8805,2024-12-04T1800,11,46,0.4,34,9,36,57,46,
长春市,净月潭,125.4605,43.79,2024-12-04T1800,14,38,0.3,17,7,51,65,38,
长春市,甩湾子,125.7194,43.515,2024-12-04T1800,14,24,0.4,11,6,43,48,24,
长春市,经开区环卫处,125.3863,43.8447,2024-12-04T1800,16,41,0.4,23,13,48,58,41,
长春市,高新区管委会,125.245,43.7783,2024-12-04T1800,20,34,0.4,18,6,51,62,34,
长春市,岱山公园,125.1761,43.8325,2024-12-04T1800,24,41,0.5,13,7,48,58,41,
长沙市,经开区环保局,113.0833,28.2325,2024-12-04T1800,109,157,0.7,28,1,22,36,143,细颗粒物(PM2.5)
长沙市,高开区环保局,112.8872,28.2189,2024-12-04T1800,98,113,0.8,22,4,31,37,129,细颗粒物(PM2.5)
长沙市,马坡岭,113.0792,28.2053,2024-12-04T1800,118,140,0.8,24,2,26,42,155,细颗粒物(PM2.5)
长沙市,湖南师范大学,112.9394,28.19,2024-12-04T1800,98,144,0.7,22,7,30,42,129,细颗粒物(PM2.5)
长沙市,雨花区环保局,113.0178,28.1322,2024-12-04T1800,118,130,0.7,24,4,31,46,155,细颗粒物(PM2.5)
长沙市,伍家岭,112.9792,28.2597,2024-12-04T1800,100,142,0.9,22,2,22,36,132,细颗粒物(PM2.5)
长沙市,火车新站,113.0014,28.1944,2024-12-04T1800,119,138,0.7,23,1,26,41,156,细颗粒物(PM2.5)
长沙市,天心区环保局,112.9844,28.1178,2024-12-04T1800,94,152,0.7,22,3,33,44,124,细颗粒物(PM2.5)
长沙市,湖南中医药大学,112.8908,28.1308,2024-12-04T1800,100,149,0.8,24,5,32,43,132,细颗粒物(PM2.5)
长沙市,沙坪,112.9581,28.3611,2024-12-04T1800,91,114,1.0,25,6,25,30,120,细颗粒物(PM2.5)
长治市,清华站,113.1147,36.1547,2024-12-04T1800,31,52,0.6,36,16,51,44,51,颗粒物(PM10)
长治市,监测站,113.1031,36.1989,2024-12-04T1800,31,42,0.7,29,16,50,43,45,
长治市,审计局,113.0886,36.2125,2024-12-04T1800,36,49,0.5,30,13,50,40,52,细颗粒物(PM2.5)
长治市,长治八中,113.0844,36.1856,2024-12-04T1800,33,68,0.6,28,14,52,44,59,颗粒物(PM10)
长治市,德盛苑,113.1569,36.1911,2024-12-04T1800,29,41,0.8,25,10,57,51,42,
长治市,向阳小学,113.06,36.0464,2024-12-04T1800,39,70,0.7,41,12,44,56,60,颗粒物(PM10)
长治市,屯留一中,112.8792,36.3144,2024-12-04T1800,19,38,0.3,28,20,73,62,38,
长治市,潞城四中,113.235,36.3489,2024-12-04T1800,39,61,0.8,41,13,39,54,56,颗粒物(PM10)
常德市,市二中,111.6975,28.9703,2024-12-04T1800,50,92,0.6,10,3,70,69,71,颗粒物(PM10)
常德市,白鹤山,111.7158,29.1456,2024-12-04T1800,,,,,,,,,
常德市,武陵区永安,111.7153,29.0289,2024-12-04T1800,51,77,0.6,10,1,66,66,70,细颗粒物(PM2.5)
常德市,鼎城区玉霞,111.6892,28.9881,2024-12-04T1800,53,82,0.7,11,2,70,69,73,细颗粒物(PM2.5)
常德市,武陵区长庚,111.6625,29.0531,2024-12-04T1800,46,92,0.5,11,1,63,62,71,颗粒物(PM10)
常州市,市监测站,119.9633,31.762,2024-12-04T1800,42,70,0.6,29,9,55,51,60,颗粒物(PM10)
常州市,武进监测站,119.9468,31.7069,2024-12-04T1800,36,53,0.8,38,9,47,46,52,"颗粒物(PM10),细颗粒物(PM2.5)"
常州市,安家,119.9255,31.9087,2024-12-04T1800,34,56,0.6,48,8,34,58,53,颗粒物(PM10)
常州市,行政中心,119.9805,31.8174,2024-12-04T1800,33,58,0.4,32,9,49,49,54,颗粒物(PM10)
常州市,经开区,120.0522,31.7748,2024-12-04T1800,26,56,0.7,34,9,49,48,53,颗粒物(PM10)
常州市,钟楼,119.9025,31.7964,2024-12-04T1800,28,56,0.6,31,8,52,52,53,颗粒物(PM10)
常州市,武进经发区,119.8598,31.7066,2024-12-04T1800,42,71,0.8,51,8,26,49,61,颗粒物(PM10)
常州市,金坛城区,119.5826,31.7245,2024-12-04T1800,48,84,0.5,31,8,42,53,67,"颗粒物(PM10),细颗粒物(PM2.5)"
朝阳市,西梁,120.4318,41.5881,2024-12-04T1800,61,64,1.2,54,12,25,55,83,细颗粒物(PM2.5)
朝阳市,河畔小区,120.4521,41.5646,2024-12-04T1800,38,,0.9,39,8,35,55,54,细颗粒物(PM2.5)
朝阳市,八里堡,120.4176,41.5648,2024-12-04T1800,18,62,1.1,45,12,29,57,56,颗粒物(PM10)
朝阳市,农业园区,120.3806,41.5969,2024-12-04T1800,21,22,0.4,17,8,60,67,30,
潮州市,西园路,116.6367,23.6719,2024-12-04T1800,52,67,0.5,18,6,126,106,72,细颗粒物(PM2.5)
潮州市,市政府,116.6183,23.6608,2024-12-04T1800,73,,0.7,20,7,121,105,98,细颗粒物(PM2.5)
潮州市,金山,116.6461,23.6761,2024-12-04T1800,37,53,0.6,17,7,131,112,53,细颗粒物(PM2.5)
郴州市,马头岭,113.0073,25.9061,2024-12-04T1800,80,143,0.7,,17,115,108,107,细颗粒物(PM2.5)
郴州市,市职中,113.0116,25.8226,2024-12-04T1800,,,1.1,,,122,117,,
郴州市,兴隆步行街,113.0161,25.8001,2024-12-04T1800,101,121,0.9,25,11,125,118,133,细颗粒物(PM2.5)
郴州市,市审计局,113.0383,25.8071,2024-12-04T1800,90,114,1.0,15,11,133,118,119,细颗粒物(PM2.5)
郴州市,市环保局,113.0348,25.7759,2024-12-04T1800,102,124,0.9,24,9,122,112,134,细颗粒物(PM2.5)
成都市,金泉两河,103.9728,30.7236,2024-12-04T1800,35,68,0.4,41,3,51,37,59,颗粒物(PM10)
成都市,十里店,104.176,30.6872,2024-12-04T1800,44,58,0.5,33,3,57,42,62,细颗粒物(PM2.5)
成都市,三瓦窑,104.079,30.5706,2024-12-04T1800,34,61,0.5,30,2,61,42,56,颗粒物(PM10)
成都市,沙河铺,104.1114,30.63,2024-12-04T1800,24,74,0.5,30,3,58,41,62,颗粒物(PM10)
成都市,君平街,104.0786,30.6531,2024-12-04T1800,35,62,0.6,26,5,72,50,56,颗粒物(PM10)
成都市,灵岩寺,103.613,31.0283,2024-12-04T1800,,,,,,,,,
成都市,大石西路,104.0239,30.65639,2024-12-04T1800,29,66,0.3,18,6,74,49,58,颗粒物(PM10)
成都市,龙泉驿区区政府,104.2725,30.5589,2024-12-04T1800,29,44,0.4,17,4,69,37,44,
成都市,金博路,104.0106,30.6931,2024-12-04T1800,29,64,0.5,24,2,66,40,57,颗粒物(PM10)
成都市,华阳,104.0578,30.5225,2024-12-04T1800,31,53,0.4,21,2,60,36,52,颗粒物(PM10)
成都市,车城东七路,104.2394,30.5319,2024-12-04T1800,28,40,0.4,20,4,65,29,40,
成都市,青白江技师分院,104.3853,30.7453,2024-12-04T1800,36,53,0.7,27,8,66,40,52,"颗粒物(PM10),细颗粒物(PM2.5)"
成都市,科学城,104.0789,30.4072,2024-12-04T1800,33,42,0.5,26,5,54,31,48,
成都市,光华大道三段,103.8506,30.6947,2024-12-04T1800,45,62,0.6,41,2,38,36,63,细颗粒物(PM2.5)
承德市,铁路,117.9531,40.9081,2024-12-04T1800,35,85,0.8,65,21,7,46,68,颗粒物(PM10)
承德市,中国银行,117.9392,40.9763,2024-12-04T1800,9,20,0.5,41,2,11,49,21,
承德市,开发区,117.9503,40.928,2024-12-04T1800,21,134,0.4,56,11,7,45,92,颗粒物(PM10)
承德市,文化中心,117.8051,40.9655,2024-12-04T1800,37,82,0.8,46,8,20,53,66,颗粒物(PM10)
承德市,离宫,117.9268,41.0026,2024-12-04T1800,23,28,0.3,10,2,51,53,33,
池州市,池州学院,117.47,30.6618,2024-12-04T1800,39,66,0.8,30,8,45,36,58,颗粒物(PM10)
池州市,展览馆,117.4918,30.6617,2024-12-04T1800,43,66,0.8,35,10,44,36,60,细颗粒物(PM2.5)
池州市,第八中学,117.5627,30.695,2024-12-04T1800,36,59,0.8,35,7,42,35,55,颗粒物(PM10)
池州市,第十二中学,117.5038,30.6243,2024-12-04T1800,38,64,0.8,32,6,44,37,57,颗粒物(PM10)
赤峰市,松山一中,118.9233,42.2816,2024-12-04T1800,3,15,0.4,18,8,59,67,19,
赤峰市,哈达街,118.9576,42.2728,2024-12-04T1800,,,0.6,23,8,60,67,,
赤峰市,天义路,118.8788,42.2554,2024-12-04T1800,7,13,0.3,22,6,57,64,18,
赤峰市,银河街,119.2658,42.0353,2024-12-04T1800,3,25,0.4,14,12,67,66,25,
赤峰市,桥北物流园区,118.9359,42.3147,2024-12-04T1800,3,13,0.7,20,9,64,73,20,
崇左市,市环保局江州分局,107.3476,22.4136,2024-12-04T1800,20,36,0.6,7,6,120,112,38,
崇左市,城南新区,107.3702,22.3707,2024-12-04T1800,18,33,0.7,12,7,114,112,36,
滁州市,老年大学,118.3093,32.3153,2024-12-04T1800,30,46,0.5,29,11,50,56,46,
滁州市,人大宾馆,118.3244,32.2786,2024-12-04T1800,35,46,0.3,38,8,46,50,50,
滁州市,市政府原办公楼,118.3118,32.3038,2024-12-04T1800,33,36,0.9,32,5,44,54,48,
滁州市,图书馆,118.3267,32.2634,2024-12-04T1800,31,51,0.3,28,6,46,52,51,颗粒物(PM10)
楚雄彝族自治州,州环境监测站,101.5482,25.0441,2024-12-04T1800,6,10,0.3,4,5,70,67,22,
楚雄彝族自治州,市经济开发区,101.538,25.0492,2024-12-04T1800,6,13,0.5,7,5,67,66,21,
达州市,达州职业技术学院,107.5277,31.2827,2024-12-04T1800,32,40,0.8,38,9,29,30,46,
达州市,市环境监测站,107.5086,31.2186,2024-12-04T1800,17,42,0.6,40,6,39,36,42,
达州市,凤凰小区,107.4988,31.2132,2024-12-04T1800,19,27,0.5,20,7,64,52,28,
达州市,达县机关宾馆,107.5082,31.1986,2024-12-04T1800,34,,0.8,56,6,20,21,49,
达州市,市政中心,107.4644,31.2124,2024-12-04T1800,22,34,0.5,30,8,51,45,34,
大理白族自治州,大理市环境监测站,100.1542,25.7054,2024-12-04T1800,6,22,0.4,,7,83,79,,
大理白族自治州,大理古城,100.2171,25.5811,2024-12-04T1800,17,22,0.4,8,4,82,86,26,
大连市,甘井子,121.612,38.9741,2024-12-04T1800,11,26,0.4,20,19,58,67,26,
大连市,周水子,121.565,38.9511,2024-12-04T1800,9,23,0.3,35,9,49,53,23,
大连市,星海三站,121.5637,38.8845,2024-12-04T1800,8,20,0.3,20,8,60,64,20,
大连市,青泥洼桥,121.6302,38.9117,2024-12-04T1800,12,24,0.5,29,12,36,53,24,
大连市,傅家庄,121.6251,38.8638,2024-12-04T1800,17,26,0.4,16,14,62,67,26,
大连市,七贤岭,121.5213,38.8661,2024-12-04T1800,8,18,0.6,15,8,66,70,21,
大连市,旅顺,121.2529,38.8061,2024-12-04T1800,6,14,0.4,11,12,67,67,21,
大连市,金州,121.7485,39.1311,2024-12-04T1800,15,30,0.5,27,10,50,62,30,
大连市,开发区,121.7811,39.0496,2024-12-04T1800,13,29,0.5,34,15,42,52,29,
大连市,双D港,121.9762,39.0631,2024-12-04T1800,3,19,0.4,16,7,59,72,19,
大庆市,大同区,124.81117,46.03138,2024-12-04T1800,34,53,0.5,24,6,44,52,52,颗粒物(PM10)
大庆市,龙凤区,125.129,46.533,2024-12-04T1800,,,,,,,39,,
大庆市,红岗区,124.902,46.408,2024-12-04T1800,23,30,0.5,48,5,24,53,33,
大庆市,萨尔图区,125.153,46.586,2024-12-04T1800,19,32,0.6,53,7,27,58,32,
大庆市,让胡路区,124.9042,46.6215,2024-12-04T1800,26,37,0.4,45,6,29,54,38,
大庆市,萨区政府监测点,125.141,46.634,2024-12-04T1800,3,14,0.5,31,6,39,59,16,
大同市,果树场,113.3819,40.1097,2024-12-04T1800,9,23,0.5,68,8,18,48,34,
大同市,云冈宾馆,113.2994,40.0758,2024-12-04T1800,16,31,0.4,23,8,59,62,31,
大同市,大同大学,113.3444,40.0917,2024-12-04T1800,3,20,0.3,16,4,64,58,20,
大同市,安家小村,113.2661,40.1269,2024-12-04T1800,12,21,0.1,18,12,56,57,21,
大同市,教育学院,113.2711,40.0844,2024-12-04T1800,21,38,0.5,39,8,42,50,38,
大同市,大同市卫生学校,113.3397,40.0597,2024-12-04T1800,8,21,0.4,23,6,57,55,21,
大同市,云冈站,113.1367,40.1122,2024-12-04T1800,9,30,0.2,36,9,40,59,30,
大同市,图书馆,113.1186,40.2556,2024-12-04T1800,13,32,0.3,15,8,64,66,32,
大同市,区一中,113.5931,40.0461,2024-12-04T1800,10,21,0.4,17,15,65,56,21,
大同市,第二人民医院,113.2802,40.0995,2024-12-04T1800,24,25,0.3,26,11,59,59,35,
大兴安岭地区,科技局,124.1069,50.4097,2024-12-04T1800,18,,0.5,6,4,68,68,26,
大兴安岭地区,红旗社区,124.1164,50.4278,2024-12-04T1800,3,7,0.3,4,6,68,67,22,
丹东市,江湾东路,124.3303,40.0625,2024-12-04T1800,55,68,1.1,57,28,17,50,75,细颗粒物(PM2.5)
丹东市,临江后街,124.4256,40.1503,2024-12-04T1800,34,63,0.9,34,13,33,54,57,颗粒物(PM10)
丹东市,元宝山,124.3933,40.1461,2024-12-04T1800,30,57,0.8,18,9,49,53,54,颗粒物(PM10)
丹东市,民主桥,124.3633,40.1092,2024-12-04T1800,30,55,1.1,53,14,25,54,53,颗粒物(PM10)
儋州市,第一中学子站,109.5726,19.5167,2024-12-04T1800,13,33,0.5,6,6,91,86,33,
儋州市,东坡学校子站,109.5567,19.5187,2024-12-04T1800,15,21,0.5,8,6,101,95,32,
德宏傣族景颇族自治州,德宏州监测站,98.5842,24.428,2024-12-04T1800,7,19,0.5,16,16,75,64,24,
德宏傣族景颇族自治州,芒市人民政府综合楼,98.5881,24.4368,2024-12-04T1800,8,38,0.4,12,13,74,60,38,
德阳市,东山公园,104.4239,31.1208,2024-12-04T1800,38,77,0.6,18,3,77,57,64,颗粒物(PM10)
德阳市,西小区,104.3826,31.1317,2024-12-04T1800,38,58,0.7,26,3,61,48,54,"颗粒物(PM10),细颗粒物(PM2.5)"
德阳市,耐火材料厂,104.3553,31.1091,2024-12-04T1800,37,60,0.5,24,5,62,44,55,颗粒物(PM10)
德阳市,市教育局,104.4019,31.1244,2024-12-04T1800,37,57,0.6,28,4,62,53,54,颗粒物(PM10)
德州市,儿童乐园,116.3032,37.4674,2024-12-04T1800,61,102,0.7,46,11,50,57,83,细颗粒物(PM2.5)
德州市,监理站,116.2991,37.4451,2024-12-04T1800,66,110,0.8,,13,48,58,,
德州市,九衢泉纯净水厂,116.2721,37.4379,2024-12-04T1800,63,110,0.6,54,10,37,7,85,细颗粒物(PM2.5)
德州市,开发区人民医院,116.3728,37.4403,2024-12-04T1800,61,119,0.8,,,38,53,,
德州市,太阳城中学,116.3572,37.4094,2024-12-04T1800,73,112,0.7,63,11,38,56,98,细颗粒物(PM2.5)
德州市,陵城艺术中心,116.5652,37.3319,2024-12-04T1800,58,97,0.8,45,12,38,50,79,细颗粒物(PM2.5)
迪庆藏族自治州,迪庆州站,99.7056,27.8317,2024-12-04T1800,13,21,0.4,8,8,76,76,24,
迪庆藏族自治州,质量技术监督局,99.7136,27.8094,2024-12-04T1800,9,32,0.4,8,8,70,67,32,
定西市,东关小学,104.6241,35.5734,2024-12-04T1800,26,71,0.4,14,11,67,67,61,颗粒物(PM10)
定西市,供电公司,104.6194,35.5934,2024-12-04T1800,,,,15,,73,69,,
东莞市,莞城梨川,113.7547,23.0494,2024-12-04T1800,32,58,0.7,29,8,149,138,54,颗粒物(PM10)
东莞市,东城石井,113.7944,23.0128,2024-12-04T1800,28,42,0.7,17,5,116,144,42,
东莞市,南城西平,113.7383,22.9658,2024-12-04T1800,30,51,0.7,26,3,163,158,54,臭氧1小时
东莞市,万江金泰,113.7338,23.0381,2024-12-04T1800,30,51,0.7,24,8,152,140,51,颗粒物(PM10)
东莞市,南城元岭,113.7533,23.0202,2024-12-04T1800,32,54,0.8,27,9,137,142,52,颗粒物(PM10)
东莞市,东城主山,113.7875,23.0457,2024-12-04T1800,33,63,0.6,35,9,,140,,
东营市,市环保局,118.6614,37.4309,2024-12-04T1800,39,75,1.1,75,15,27,54,63,颗粒物(PM10)
东营市,开发区管委会,118.6904,37.4338,2024-12-04T1800,34,63,1.0,54,11,40,57,57,颗粒物(PM10)
东营市,垦利区民丰路,118.5719,37.565,2024-12-04T1800,27,68,0.5,54,9,30,52,59,颗粒物(PM10)
东营市,河口城区,118.5055,37.8612,2024-12-04T1800,3,22,0.5,29,3,60,60,22,
东营市,胜利站,118.4978,37.4623,2024-12-04T1800,34,66,0.9,65,10,20,54,58,颗粒物(PM10)
东营市,理想之城,118.35,37.26,2024-12-04T1800,36,66,0.7,66,8,21,53,58,颗粒物(PM10)
鄂尔多斯市,综合楼,110.0023,39.8129,2024-12-04T1800,12,,0.5,14,6,81,76,26,
鄂尔多斯市,巴音孟克林场办事处,109.9486,39.8261,2024-12-04T1800,12,22,0.4,13,6,69,68,22,
鄂尔多斯市,康泽苑,109.7736,39.5986,2024-12-04T1800,14,22,0.5,9,5,73,76,23,
鄂尔多斯市,华泰汽车城,109.8119,39.5989,2024-12-04T1800,,,,,,,58,,
鄂尔多斯市,奥林花园,109.9734,39.7884,2024-12-04T1800,9,24,0.3,19,6,66,68,24,
鄂州市,市政府,114.8938,30.3994,2024-12-04T1800,53,76,1.0,34,6,13,22,73,细颗粒物(PM2.5)
鄂州市,赵家坝,114.8989,30.3714,2024-12-04T1800,53,70,0.7,32,,15,28,,
鄂州市,精准医疗中心,114.8094,30.4089,2024-12-04T1800,51,57,0.9,30,4,19,32,70,细颗粒物(PM2.5)
恩施土家族苗族自治州,湖北民院,109.4978,30.2981,2024-12-04T1800,34,42,0.8,,6,52,40,,
恩施土家族苗族自治州,州电力总公司,109.4707,30.2798,2024-12-04T1800,33,48,0.9,22,7,48,36,48,
恩施土家族苗族自治州,龙凤新区,109.5061,30.3772,2024-12-04T1800,34,34,0.4,12,6,40,36,49,
防城港市,沙万,108.3411,21.6158,2024-12-04T1800,32,60,0.6,31,25,156,164,55,颗粒物(PM10)
防城港市,防城档案局,108.3514,21.7731,2024-12-04T1800,49,79,1.0,27,12,192,192,90,臭氧1小时
防城港市,大海花园,108.3506,21.6414,2024-12-04T1800,36,83,0.6,33,34,165,180,67,颗粒物(PM10)
佛山市,湾梁,113.1294,23.0067,2024-12-04T1800,27,61,0.7,36,8,149,117,56,颗粒物(PM10)
佛山市,华材职中,113.1083,23.0478,2024-12-04T1800,37,63,0.6,37,9,144,121,57,颗粒物(PM10)
佛山市,南海气象局,113.144,23.0453,2024-12-04T1800,37,51,0.6,34,9,135,112,53,细颗粒物(PM2.5)
佛山市,顺德苏岗,113.2881,22.8094,2024-12-04T1800,58,81,0.7,43,9,204,177,102,臭氧1小时
佛山市,高明孔堂,112.8383,22.8678,2024-12-04T1800,48,92,0.9,44,8,195,172,94,臭氧1小时
佛山市,三水监测站,112.8836,23.1588,2024-12-04T1800,44,83,0.7,94,8,93,124,67,颗粒物(PM10)
佛山市,三水云东海,112.867,23.185,2024-12-04T1800,27,62,0.8,42,10,102,122,56,颗粒物(PM10)
佛山市,容桂街道办,113.2544,22.7642,2024-12-04T1800,46,78,0.7,37,8,218,182,109,臭氧1小时
福州市,鼓山,119.3903,26.0543,2024-12-04T1800,,,,,,,111,,
福州市,师大,119.2681,26.0504,2024-12-04T1800,31,59,0.4,16,3,104,112,55,颗粒物(PM10)
福州市,五四北路,119.2984,26.1028,2024-12-04T1800,31,57,0.4,18,1,101,111,54,颗粒物(PM10)
福州市,杨桥西路,119.2648,26.0768,2024-12-04T1800,29,57,0.4,14,,,113,,
福州市,紫阳,119.317,26.0746,2024-12-04T1800,31,57,0.3,13,2,103,111,54,颗粒物(PM10)
福州市,九龙,119.5799,26.0936,2024-12-04T1800,19,44,0.3,5,1,120,105,44,
福州市,吴航,119.5189,25.9664,2024-12-04T1800,24,46,,10,3,122,114,,
抚顺市,望花区,123.7977,41.8491,2024-12-04T1800,40,58,0.8,55,8,19,42,57,细颗粒物(PM2.5)
抚顺市,顺城区,123.9161,41.8822,2024-12-04T1800,,,0.5,48,9,38,49,,
抚顺市,东洲区,124.0436,41.8611,2024-12-04T1800,23,48,0.6,30,9,41,47,48,
抚顺市,新抚区,123.9247,41.8642,2024-12-04T1800,26,65,0.5,38,10,34,43,58,颗粒物(PM10)
抚顺市,大伙房水库,124.0972,41.8961,2024-12-04T1800,26,39,0.7,24,14,48,52,39,
抚顺市,沈抚新城,123.7086,41.8391,2024-12-04T1800,23,49,0.5,61,10,17,51,49,
抚州市,桐源党溪,116.2127,28.0814,2024-12-04T1800,55,83,0.6,11,5,98,97,75,细颗粒物(PM2.5)
抚州市,市站,116.3544,27.9831,2024-12-04T1800,56,92,1.1,24,4,100,96,77,细颗粒物(PM2.5)
抚州市,血防站,116.3565,27.963,2024-12-04T1800,60,85,0.8,15,5,106,105,82,细颗粒物(PM2.5)
抚州市,采茶剧团,116.3564,28.0007,2024-12-04T1800,56,80,0.9,19,6,99,96,77,细颗粒物(PM2.5)
抚州市,医学分院,116.385,27.9647,2024-12-04T1800,57,80,1.1,16,5,107,98,78,细颗粒物(PM2.5)
阜新市,工业园区,121.6094,41.998,2024-12-04T1800,24,53,0.5,36,12,36,64,52,颗粒物(PM10)
阜新市,长青街,121.6697,42.0279,2024-12-04T1800,17,57,0.8,25,8,35,58,54,颗粒物(PM10)
阜新市,农业园区,121.6673,42.0705,2024-12-04T1800,3,27,0.3,13,8,61,61,27,
阜新市,东苑,121.6717,42.0224,2024-12-04T1800,27,33,0.4,20,10,46,54,39,
阜新市,玉龙新城,121.6506,42.0498,2024-12-04T1800,31,46,0.7,36,9,39,62,46,
阜阳市,市监测站,115.8277,32.8929,2024-12-04T1800,82,102,0.7,47,5,7,24,109,细颗粒物(PM2.5)
阜阳市,开发区,115.8554,32.8605,2024-12-04T1800,76,109,0.7,48,6,2,25,102,细颗粒物(PM2.5)
阜阳市,阜阳职业技术学院,115.784,32.8892,2024-12-04T1800,65,102,0.8,44,6,6,23,88,细颗粒物(PM2.5)
阜阳市,市规划展馆,115.7901,32.8613,2024-12-04T1800,81,107,0.7,45,5,8,34,108,细颗粒物(PM2.5)
阜阳市,枣园社区,115.836,32.9183,2024-12-04T1800,80,94,0.7,38,4,11,24,107,细颗粒物(PM2.5)
甘南藏族自治州,州政府,102.9099,34.9841,2024-12-04T1800,30,65,0.4,16,8,79,82,58,颗粒物(PM10)
甘南藏族自治州,甘肃民族师范学院,102.8914,34.9617,2024-12-04T1800,18,26,0.5,28,6,82,78,26,
甘孜藏族自治州,水桥子,101.9603,30.0475,2024-12-04T1800,8,13,0.4,15,7,48,35,15,
甘孜藏族自治州,州环保局,101.9533,29.9972,2024-12-04T1800,8,17,0.3,18,4,46,39,17,
赣江新区,桑海产业园,115.8347,28.932,2024-12-04T1800,77,144,0.7,26,9,67,76,103,细颗粒物(PM2.5)
赣州市,通天岩,114.9017,25.9149,2024-12-04T1800,46,57,0.5,12,4,67,109,64,细颗粒物(PM2.5)
赣州市,地委,114.9367,25.8664,2024-12-04T1800,30,51,0.9,18,4,102,113,51,颗粒物(PM10)
赣州市,气象台,114.9461,25.8481,2024-12-04T1800,26,58,0.9,30,13,84,105,54,颗粒物(PM10)
赣州市,市图书馆,114.9322,25.8333,2024-12-04T1800,,48,0.7,24,5,92,118,,
赣州市,华坚鞋城,114.8905,25.8471,2024-12-04T1800,18,52,0.6,23,7,81,95,51,颗粒物(PM10)
赣州市,赣县区卫计委,115.0093,25.8613,2024-12-04T1800,43,62,0.9,30,7,71,88,60,细颗粒物(PM2.5)
固原市,马园,106.2319,36.1417,2024-12-04T1800,19,86,0.8,28,7,53,74,68,颗粒物(PM10)
固原市,监测站,106.2792,36.0022,2024-12-04T1800,18,42,0.4,18,5,74,81,42,
固原市,新区,106.2375,36.0211,2024-12-04T1800,16,46,0.2,22,3,70,82,46,
固原市,原州区十五小,106.2177,35.9959,2024-12-04T1800,18,52,0.4,19,6,75,86,51,颗粒物(PM10)
广安市,小平旧居,106.6308,30.5278,2024-12-04T1800,,,,,,,,,
广安市,市委,106.6303,30.4576,2024-12-04T1800,24,28,0.5,13,2,46,20,35,
广安市,友谊中学,106.6271,30.4663,2024-12-04T1800,24,,0.6,14,2,50,16,35,
广安市,广电花园,106.6388,30.4551,2024-12-04T1800,23,34,0.7,25,2,38,19,34,
广安市,北辰小学,106.6351,30.4865,2024-12-04T1800,21,28,0.6,,5,51,16,,
广元市,黑石坡,105.8945,32.4535,2024-12-04T1800,21,29,0.4,11,7,66,67,30,
广元市,老城,105.821,32.4444,2024-12-04T1800,24,50,0.6,39,3,51,72,50,
广元市,监测站,105.8628,32.4287,2024-12-04T1800,36,58,0.7,32,6,66,81,54,颗粒物(PM10)
广元市,经开区,105.8047,32.4166,2024-12-04T1800,29,54,0.5,39,5,53,69,52,颗粒物(PM10)
广州市,广雅中学,113.2347,23.1423,2024-12-04T1800,30,61,0.8,32,9,135,121,56,颗粒物(PM10)
广州市,市五中,113.2612,23.105,2024-12-04T1800,35,58,0.7,23,7,146,125,54,颗粒物(PM10)
广州市,广东商学院,113.3478,23.0916,2024-12-04T1800,43,74,0.7,40,7,165,123,62,颗粒物(PM10)
广州市,市八十六中,113.4332,23.1047,2024-12-04T1800,,,0.8,,12,119,112,,
广州市,番禺中学,113.3505,22.9483,2024-12-04T1800,48,85,0.8,34,6,226,170,113,臭氧1小时
广州市,花都师范,113.2146,23.3916,2024-12-04T1800,25,51,,35,6,111,107,,
广州市,市监测站,113.2597,23.1331,2024-12-04T1800,28,58,0.5,24,8,142,124,54,颗粒物(PM10)
广州市,九龙镇镇龙,113.5618,23.312,2024-12-04T1800,31,61,0.6,55,6,70,98,56,颗粒物(PM10)
广州市,麓湖,113.2765,23.1544,2024-12-04T1800,26,48,0.6,37,6,103,127,48,
广州市,帽峰山森林公园,113.443,23.3035,2024-12-04T1800,23,,0.4,13,5,105,111,33,
广州市,体育西,113.3221,23.1322,2024-12-04T1800,37,77,0.8,31,7,141,118,64,颗粒物(PM10)
广州市,从化街口,113.5717,23.5491,2024-12-04T1800,47,69,0.8,50,7,56,94,65,细颗粒物(PM2.5)
广州市,白云竹料,113.3472,23.3692,2024-12-04T1800,27,52,0.7,41,8,99,114,51,颗粒物(PM10)
广州市,白云嘉禾,113.2981,23.237,2024-12-04T1800,36,82,1.0,77,8,76,104,66,颗粒物(PM10)
广州市,黄埔科学城,113.4256,23.1716,2024-12-04T1800,25,47,0.6,31,7,110,125,47,
广州市,番禺大学城,113.3942,23.0483,2024-12-04T1800,38,79,0.8,37,11,177,137,72,臭氧1小时
广州市,南沙黄阁,113.4922,22.8168,2024-12-04T1800,43,81,0.9,59,8,190,190,88,臭氧1小时
广州市,南沙街,113.5342,22.7896,2024-12-04T1800,39,83,0.7,35,6,217,187,109,臭氧1小时
广州市,花都梯面,113.2902,23.5544,2024-12-04T1800,35,64,0.8,79,8,6,94,57,颗粒物(PM10)
广州市,从化良口,113.7858,23.7478,2024-12-04T1800,26,39,0.7,14,6,56,72,39,
广州市,增城荔城,113.8051,23.2614,2024-12-04T1800,70,95,0.8,17,3,103,122,94,细颗粒物(PM2.5)
贵港市,德智高中,109.568,23.1478,2024-12-04T1800,,,,,,,,,
贵港市,江南子站,109.6047,23.0666,2024-12-04T1800,36,73,0.7,20,11,184,190,80,臭氧1小时
贵港市,贵城子站,109.6014,23.0948,2024-12-04T1800,43,65,0.9,22,15,168,174,60,"细颗粒物(PM2.5),臭氧1小时"
贵港市,荷城子站,109.5669,23.1065,2024-12-04T1800,31,66,0.8,31,16,155,167,58,颗粒物(PM10)
贵港市,新世纪学校,109.5886,23.1172,2024-12-04T1800,36,70,0.7,21,20,170,174,63,臭氧1小时
贵阳市,马鞍山,106.6899,26.5998,2024-12-04T1800,12,14,0.7,24,6,17,23,18,
贵阳市,市环保站,106.6971,26.5694,2024-12-04T1800,19,19,0.4,23,7,18,31,28,
贵阳市,鉴湖路,106.6243,26.6266,2024-12-04T1800,17,19,0.6,16,6,16,12,25,
贵阳市,燕子冲,106.7487,26.6343,2024-12-04T1800,19,,0.7,19,6,19,28,28,
贵阳市,碧云窝,106.6555,26.4365,2024-12-04T1800,17,34,0.7,28,8,10,17,34,
贵阳市,中院村,106.694,26.5161,2024-12-04T1800,19,31,1.0,26,13,12,27,31,
贵阳市,红边门,106.7109,26.6027,2024-12-04T1800,19,39,0.8,26,14,17,26,39,
贵阳市,新华路,106.7164,26.5699,2024-12-04T1800,19,24,0.8,25,6,12,30,28,
贵阳市,太慈桥,106.674,26.5424,2024-12-04T1800,17,24,0.7,21,7,17,22,25,
贵阳市,桐木岭,106.805,26.3003,2024-12-04T1800,19,27,0.8,8,9,23,36,28,
桂林市,电子科大尧山校区,110.4144,25.3167,2024-12-04T1800,52,91,0.7,14,10,129,187,72,细颗粒物(PM2.5)
桂林市,监测站,110.2819,25.2697,2024-12-04T1800,64,96,1.2,28,19,126,143,87,细颗粒物(PM2.5)
桂林市,龙隐路小学,110.3089,25.2708,2024-12-04T1800,70,84,1.1,21,16,139,149,94,细颗粒物(PM2.5)
桂林市,八中,110.2869,25.2178,2024-12-04T1800,51,92,0.9,24,14,125,140,71,颗粒物(PM10)
桂林市,创业大厦,110.1764,25.2381,2024-12-04T1800,63,97,0.8,25,20,141,148,85,细颗粒物(PM2.5)
桂林市,旅游学院,110.296,25.1253,2024-12-04T1800,53,85,0.9,21,,138,145,,
果洛藏族自治州,玛沁县大武镇,100.2561,34.4714,2024-12-04T1800,17,30,0.4,1,4,98,83,31,
哈尔滨市,岭北,126.5422,45.755,2024-12-04T1800,25,69,1.0,23,5,51,63,60,颗粒物(PM10)
哈尔滨市,松北商大,126.561,45.8167,2024-12-04T1800,15,30,0.4,33,8,35,53,30,
哈尔滨市,阿城会宁,126.979,45.5419,2024-12-04T1800,36,41,0.8,21,6,42,55,52,细颗粒物(PM2.5)
哈尔滨市,南岗学府路,126.599,45.7222,2024-12-04T1800,29,53,0.6,30,12,37,55,52,颗粒物(PM10)
哈尔滨市,太平宏伟公园,126.689,45.7733,2024-12-04T1800,24,30,0.8,37,10,29,48,35,
哈尔滨市,道外承德广场,126.635,45.7667,2024-12-04T1800,32,34,0.9,46,11,25,48,46,
哈尔滨市,香坊红旗大街,126.685,45.7319,2024-12-04T1800,35,51,0.5,43,8,26,48,51,颗粒物(PM10)
哈尔滨市,动力和平路,126.6411,45.7258,2024-12-04T1800,32,47,0.4,30,10,35,52,47,
哈尔滨市,道里建国路,126.593,45.7478,2024-12-04T1800,32,,0.7,46,13,22,49,46,
哈尔滨市,平房东轻厂,126.615,45.61,2024-12-04T1800,22,39,0.6,44,11,25,53,39,
哈尔滨市,呼兰师专,126.595,45.9855,2024-12-04T1800,40,,0.7,26,8,49,59,57,细颗粒物(PM2.5)
哈尔滨市,省农科院,126.6206,45.6842,2024-12-04T1800,62,,0.8,46,15,21,51,84,细颗粒物(PM2.5)
哈密市,地区监测站,93.5128,42.8172,2024-12-04T1800,18,38,,15,8,67,61,,
哈密市,哈密师范学校,93.4961,42.8328,2024-12-04T1800,18,40,0.4,20,8,60,55,40,
海北藏族自治州,海晏县西海镇,100.9048,36.9639,2024-12-04T1800,24,43,0.5,16,42,102,97,43,
海东市,平安区公安北苑,102.0738,36.5056,2024-12-04T1800,27,97,0.7,41,,74,76,,
海口市,东寨港,110.576,19.9507,2024-12-04T1800,20,39,0.4,3,13,80,82,39,
海口市,海南大学,110.3232,20.0574,2024-12-04T1800,18,41,0.4,6,5,95,98,41,
海口市,秀英海南医院,110.283,20.0053,2024-12-04T1800,15,38,0.3,7,3,91,101,38,
海口市,海南师范大学,110.338,19.9969,2024-12-04T1800,16,39,0.3,6,5,92,100,39,
海口市,龙华路环保局宿舍,110.33,20.0356,2024-12-04T1800,15,37,0.4,5,5,93,100,37,
海口市,桂林洋子站,110.5111,19.9736,2024-12-04T1800,18,38,0.4,10,5,91,96,38,
海南藏族自治州,共和县恰卜恰镇,100.6188,36.2866,2024-12-04T1800,18,,0.6,12,4,82,78,26,
海西蒙古族藏族自治州,德令哈市,97.3731,37.3753,2024-12-04T1800,28,35,0.5,17,16,97,95,40,
邯郸市,东污水处理厂,114.5302,36.6116,2024-12-04T1800,112,137,0.8,42,4,39,46,147,细颗粒物(PM2.5)
邯郸市,矿院,114.4918,36.5713,2024-12-04T1800,112,167,,41,2,35,47,147,细颗粒物(PM2.5)
邯郸市,丛台公园,114.484,36.6133,2024-12-04T1800,107,148,0.7,,,52,51,140,细颗粒物(PM2.5)
邯郸市,香泉濮院小区,114.7895,36.5593,2024-12-04T1800,112,152,1.0,17,3,60,57,147,细颗粒物(PM2.5)
邯郸市,永年区实验高中,114.50634,36.77178,2024-12-04T1800,111,181,0.4,38,6,44,43,145,细颗粒物(PM2.5)
邯郸市,峰峰矿区临水派出所,114.20016,36.44293,2024-12-04T1800,106,155,1.1,41,14,39,48,139,细颗粒物(PM2.5)
汉中市,汉川机床厂子校,106.9893,33.1842,2024-12-04T1800,43,57,0.5,15,7,59,68,60,细颗粒物(PM2.5)
汉中市,市监测站,107.0154,33.0706,2024-12-04T1800,47,65,0.8,24,6,61,54,65,细颗粒物(PM2.5)
汉中市,鑫源开发区,107.0089,33.1138,2024-12-04T1800,51,58,0.7,31,6,54,56,70,细颗粒物(PM2.5)
汉中市,南郑大河坎水厂,107.007,33.0323,2024-12-04T1800,48,63,0.7,27,6,62,53,67,细颗粒物(PM2.5)
杭州市,滨江,120.2072,30.2111,2024-12-04T1800,21,31,0.5,32,7,57,59,31,
杭州市,西溪,120.0633,30.2747,2024-12-04T1800,18,49,0.6,68,7,9,61,49,
杭州市,下沙,120.3461,30.3153,2024-12-04T1800,17,27,0.6,46,5,51,55,27,
杭州市,卧龙桥,120.1269,30.2456,2024-12-04T1800,26,63,0.5,77,8,4,63,57,颗粒物(PM10)
杭州市,浙江农大,120.1903,30.2692,2024-12-04T1800,26,46,0.6,72,5,2,52,46,
杭州市,和睦小学,120.1197,30.3119,2024-12-04T1800,29,48,0.4,76,6,3,54,48,
杭州市,临平镇,120.3019,30.4183,2024-12-04T1800,20,45,0.5,31,6,58,49,45,
杭州市,城厢镇,120.2697,30.1819,2024-12-04T1800,18,39,0.6,38,6,54,55,39,
杭州市,云栖,120.0883,30.1808,2024-12-04T1800,32,48,0.7,81,7,4,64,48,
杭州市,镇二中,119.9464,30.0494,2024-12-04T1800,32,60,0.7,66,6,5,63,55,颗粒物(PM10)
杭州市,市府大楼,119.7183,30.2367,2024-12-04T1800,43,78,0.6,63,7,25,47,64,颗粒物(PM10)
杭州市,消防大队,120.1556,30.2864,2024-12-04T1800,34,63,0.5,77,8,7,60,57,颗粒物(PM10)
合肥市,明珠广场,117.1959,31.7848,2024-12-04T1800,34,36,0.6,30,7,40,35,49,
合肥市,三里街,117.3072,31.8764,2024-12-04T1800,19,36,0.5,22,5,39,35,36,
合肥市,琥珀山庄,117.2588,31.8707,2024-12-04T1800,28,34,0.7,32,4,47,44,40,
合肥市,董铺水库,117.1604,31.9052,2024-12-04T1800,17,31,0.3,21,4,46,42,31,
合肥市,长江中路,117.25,31.8571,2024-12-04T1800,29,36,0.7,26,6,50,44,42,
合肥市,庐阳区,117.266,31.9436,2024-12-04T1800,22,44,0.6,29,4,44,44,44,
合肥市,瑶海区,117.336,31.8586,2024-12-04T1800,18,36,0.7,28,8,51,45,36,
合肥市,包河区,117.3027,31.7964,2024-12-04T1800,29,36,0.6,51,2,25,24,42,
合肥市,滨湖新区,117.2776,31.7385,2024-12-04T1800,22,41,0.4,29,,,35,,
合肥市,高新区,117.1318,31.8403,2024-12-04T1800,22,31,0.6,24,1,50,37,32,
合肥市,高教基地,117.3803,31.9147,2024-12-04T1800,21,31,0.3,23,6,39,44,31,
和田地区,地区环保局,79.924,37.0877,2024-12-04T1800,23,111,0.7,14,9,81,70,81,颗粒物(PM10)
和田地区,市环保局,79.9131,37.113,2024-12-04T1800,30,78,0.7,17,10,86,71,64,颗粒物(PM10)
河池市,东仁乐园,108.2011,24.715,2024-12-04T1800,60,107,0.8,27,8,116,111,82,细颗粒物(PM2.5)
河池市,市环保站,108.0497,24.6947,2024-12-04T1800,46,64,0.8,26,13,125,127,64,细颗粒物(PM2.5)
河池市,市疾控中心,108.0983,24.6989,2024-12-04T1800,,,0.7,44,14,117,115,,
河源市,源西,114.6778,23.7569,2024-12-04T1800,32,43,0.5,37,6,64,95,46,
河源市,东埔,114.6944,23.7586,2024-12-04T1800,25,30,0.6,24,5,92,106,36,
河源市,老城,114.6892,23.7233,2024-12-04T1800,69,,0.6,16,4,81,99,93,细颗粒物(PM2.5)
菏泽市,气象局,115.4208,35.2464,2024-12-04T1800,101,172,0.7,28,5,54,50,133,细颗粒物(PM2.5)
菏泽市,市政协,115.4747,35.2375,2024-12-04T1800,103,166,0.8,26,6,57,54,135,细颗粒物(PM2.5)
菏泽市,定陶老年大学,115.5564,35.0891,2024-12-04T1800,107,166,0.9,47,5,43,56,140,细颗粒物(PM2.5)
菏泽市,菏泽医专,115.4702,35.2706,2024-12-04T1800,83,151,0.7,32,9,59,53,110,细颗粒物(PM2.5)
贺州市,环保小区,111.5264,24.4172,2024-12-04T1800,44,63,0.8,28,9,108,125,62,细颗粒物(PM2.5)
贺州市,政协大楼,111.5608,24.4078,2024-12-04T1800,40,64,0.7,35,12,110,131,57,"颗粒物(PM10),细颗粒物(PM2.5)"
贺州市,西湾,111.4744,24.4553,2024-12-04T1800,41,63,0.6,22,8,107,126,58,细颗粒物(PM2.5)
鹤壁市,市监测站,114.17,35.9019,2024-12-04T1800,108,155,0.7,49,3,22,45,142,细颗粒物(PM2.5)
鹤壁市,市交警支队,114.2956,35.7511,2024-12-04T1800,97,159,0.8,54,3,12,41,128,细颗粒物(PM2.5)
鹤壁市,迎宾馆,114.2878,35.7306,2024-12-04T1800,102,172,0.4,50,3,11,42,134,细颗粒物(PM2.5)
鹤壁市,大新区,114.2617,35.6822,2024-12-04T1800,132,134,0.9,59,3,6,30,175,细颗粒物(PM2.5)
鹤壁市,南山宾馆,114.1572,35.9603,2024-12-04T1800,117,152,0.5,39,8,29,49,153,细颗粒物(PM2.5)
鹤岗市,哈啤分公司,130.2537,47.3416,2024-12-04T1800,23,28,0.4,14,16,40,46,33,
鹤岗市,斯达机电,130.2684,47.3086,2024-12-04T1800,15,23,0.3,13,14,49,44,23,
鹤岗市,东山纸板厂,130.3114,47.3388,2024-12-04T1800,21,34,0.3,25,16,38,50,34,
鹤岗市,五号水库,130.1097,47.3382,2024-12-04T1800,11,18,0.1,4,10,70,67,22,
黑河市,交通局,127.4833,50.2524,2024-12-04T1800,25,27,0.4,19,7,38,54,36,
黑河市,环保局,127.5144,50.2341,2024-12-04T1800,26,34,0.5,24,6,28,57,38,
黑河市,大黑河岛,127.5291,50.2472,2024-12-04T1800,,20,0.7,13,2,10,55,,
衡水市,电机北厂,115.6838,37.7541,2024-12-04T1800,84,115,0.6,28,7,73,66,112,细颗粒物(PM2.5)
衡水市,市监测站,115.6303,37.7316,2024-12-04T1800,90,114,0.7,60,6,38,59,119,细颗粒物(PM2.5)
衡水市,市城管局,115.6683,37.7217,2024-12-04T1800,75,117,0.6,,,66,65,,
衡水市,地表水厂,115.5989,37.5491,2024-12-04T1800,107,124,0.8,73,13,27,64,140,细颗粒物(PM2.5)
衡阳市,原169医院,112.5003,26.9167,2024-12-04T1800,79,104,1.0,32,10,68,77,105,细颗粒物(PM2.5)
衡阳市,衡阳化工总厂,112.6194,26.9258,2024-12-04T1800,129,146,0.9,20,7,88,107,170,细颗粒物(PM2.5)
衡阳市,珠晖区环保局,112.6211,26.8956,2024-12-04T1800,127,144,1.0,26,8,91,103,168,细颗粒物(PM2.5)
衡阳市,市委党校,112.6197,26.8733,2024-12-04T1800,134,,1.0,23,18,102,115,178,细颗粒物(PM2.5)
衡阳市,市监测站,112.6006,26.8919,2024-12-04T1800,130,164,1.0,20,9,94,106,172,细颗粒物(PM2.5)
衡阳市,真空机电公司,112.5664,26.9056,2024-12-04T1800,125,134,1.0,20,7,99,104,165,细颗粒物(PM2.5)
衡阳市,师范学院,112.6703,26.882,2024-12-04T1800,42,152,0.9,26,10,99,109,101,颗粒物(PM10)
红河哈尼族彝族自治州,污水处理厂,103.3772,23.3993,2024-12-04T1800,28,30,0.5,8,5,65,68,40,
红河哈尼族彝族自治州,监测站,103.3861,23.35,2024-12-04T1800,30,43,0.6,14,8,60,66,43,
红河哈尼族彝族自治州,州图书馆,103.3758,23.368,2024-12-04T1800,20,25,0.5,7,6,61,62,29,
呼和浩特市,呼市一监,111.6507,40.7517,2024-12-04T1800,28,73,0.6,48,9,22,46,62,颗粒物(PM10)
呼和浩特市,小召,111.6572,40.8033,2024-12-04T1800,,,,22,8,64,65,,
呼和浩特市,如意水处理厂,111.7516,40.8369,2024-12-04T1800,6,15,0.3,18,6,62,65,20,
呼和浩特市,二十九中,111.7276,40.8062,2024-12-04T1800,6,16,0.4,19,6,69,72,22,
呼和浩特市,工大金川校区,111.5512,40.7866,2024-12-04T1800,31,85,0.7,57,7,19,56,68,颗粒物(PM10)
呼和浩特市,化肥厂生活区,111.717,40.7612,2024-12-04T1800,22,46,0.4,40,8,40,56,46,
呼和浩特市,红旗小学,111.5968,40.8178,2024-12-04T1800,14,34,0.5,29,5,51,58,34,
呼和浩特市,海东办,111.6518,40.8389,2024-12-04T1800,3,9,0.4,16,6,72,70,23,
呼伦贝尔市,区环保局,119.7594,49.2261,2024-12-04T1800,21,26,0.4,20,7,54,64,30,
呼伦贝尔市,国华电力东,119.7512,49.1577,2024-12-04T1800,16,25,0.3,11,5,59,64,25,
湖州市,城西水厂,120.0751,30.8669,2024-12-04T1800,14,39,0.5,44,7,38,58,39,
湖州市,仁皇山新区,120.0875,30.8955,2024-12-04T1800,16,34,0.5,40,7,42,59,34,
湖州市,吴兴区站,120.1844,30.8596,2024-12-04T1800,17,39,0.5,65,7,19,51,39,
湖州市,南浔区站,120.4148,30.8538,2024-12-04T1800,10,51,0.4,58,8,24,38,51,颗粒物(PM10)
葫芦岛市,龙港区,120.9092,40.7136,2024-12-04T1800,42,,0.5,37,16,36,62,59,细颗粒物(PM2.5)
葫芦岛市,化工街,120.8392,40.7514,2024-12-04T1800,31,66,0.8,45,32,20,56,58,颗粒物(PM10)
葫芦岛市,新区,120.8341,40.7073,2024-12-04T1800,26,44,0.7,59,17,22,62,44,
葫芦岛市,东城区,120.8695,40.7677,2024-12-04T1800,99,,2.0,72,24,15,55,130,细颗粒物(PM2.5)
怀化市,林科所,109.5981,27.5721,2024-12-04T1800,52,55,0.4,14,5,75,85,72,细颗粒物(PM2.5)
怀化市,河西地税局,109.9453,27.5444,2024-12-04T1800,67,94,0.6,20,8,67,84,90,细颗粒物(PM2.5)
怀化市,市四医院,109.9781,27.5342,2024-12-04T1800,61,95,0.7,13,8,71,81,83,细颗粒物(PM2.5)
怀化市,监测楼,109.9972,27.5578,2024-12-04T1800,58,86,0.6,16,3,70,80,79,细颗粒物(PM2.5)
怀化市,市委党校,110.0394,27.583,2024-12-04T1800,46,98,0.5,16,5,66,76,74,颗粒物(PM10)
淮安市,钵池山,119.036,33.5981,2024-12-04T1800,63,92,0.7,34,7,58,68,85,细颗粒物(PM2.5)
淮安市,北京南路,119.007,33.575,2024-12-04T1800,55,95,0.9,50,8,42,66,75,细颗粒物(PM2.5)
淮安市,市监测站,118.989,33.6067,2024-12-04T1800,73,100,0.8,63,6,33,65,98,细颗粒物(PM2.5)
淮安市,楚州区监测站,119.135,33.5039,2024-12-04T1800,43,83,0.6,52,7,42,68,67,颗粒物(PM10)
淮安市,淮阴区监测站,119.0186,33.6297,2024-12-04T1800,58,107,0.9,48,8,50,67,79,"颗粒物(PM10),细颗粒物(PM2.5)"
淮安市,新华书店,118.8755,33.2894,2024-12-04T1800,43,65,0.6,23,6,72,69,60,细颗粒物(PM2.5)
淮北市,监测站,116.8004,33.975,2024-12-04T1800,88,130,0.9,36,6,42,45,117,细颗粒物(PM2.5)
淮北市,烈山区政府,116.8091,33.9007,2024-12-04T1800,95,155,0.7,67,6,15,42,125,细颗粒物(PM2.5)
淮北市,杜集区检察院,116.8873,33.9836,2024-12-04T1800,95,147,0.6,46,5,34,37,125,细颗粒物(PM2.5)
淮北市,市博物馆,116.7923,33.9535,2024-12-04T1800,99,149,0.8,55,5,29,44,130,细颗粒物(PM2.5)
淮南市,潘集区政府,116.8305,32.7727,2024-12-04T1800,83,111,0.7,42,5,17,42,110,细颗粒物(PM2.5)
淮南市,师范学院,117.0067,32.6524,2024-12-04T1800,91,106,0.5,38,3,18,42,120,细颗粒物(PM2.5)
淮南市,谢家集区政府,116.8569,32.5951,2024-12-04T1800,62,69,0.5,36,8,28,40,84,细颗粒物(PM2.5)
淮南市,八公山区政府,116.8281,32.633,2024-12-04T1800,80,99,0.7,33,7,25,38,107,细颗粒物(PM2.5)
淮南市,焦岗湖风景区管理处,116.6325,32.6201,2024-12-04T1800,42,67,0.4,42,4,11,16,59,"颗粒物(PM10),细颗粒物(PM2.5)"
淮南市,经济技术开发区消防队,117.0566,32.6531,2024-12-04T1800,40,55,0.5,42,5,36,45,57,细颗粒物(PM2.5)
淮南市,山南新区,117.0108,32.5893,2024-12-04T1800,38,62,0.3,26,3,46,50,56,颗粒物(PM10)
黄冈市,职工中心,114.9028,30.4742,2024-12-04T1800,56,59,0.8,26,8,11,23,77,细颗粒物(PM2.5)
黄冈市,红卫路,114.8858,30.4519,2024-12-04T1800,51,55,1.0,30,6,14,27,70,细颗粒物(PM2.5)
黄冈市,市林业局,114.9136,30.4445,2024-12-04T1800,60,94,0.8,28,8,21,35,82,细颗粒物(PM2.5)
黄南藏族自治州,同仁县隆务镇,102.0199,35.5102,2024-12-04T1800,41,60,0.6,11,8,91,90,58,细颗粒物(PM2.5)
黄山市,延安路89号,118.2903,29.6963,2024-12-04T1800,30,64,0.4,18,7,74,83,57,颗粒物(PM10)
黄山市,黄山东路89号,118.327,29.7178,2024-12-04T1800,49,77,0.5,19,6,66,84,68,细颗粒物(PM2.5)
黄山市,黄山区政府5号楼,118.1371,30.2756,2024-12-04T1800,67,110,0.5,30,7,40,57,90,细颗粒物(PM2.5)
黄石市,沈家营,115.0601,30.2313,2024-12-04T1800,69,100,1.2,43,8,17,39,93,细颗粒物(PM2.5)
黄石市,陈家湾,115.0817,30.2006,2024-12-04T1800,84,93,1.0,38,9,18,39,112,细颗粒物(PM2.5)
黄石市,铁山,114.8988,30.2019,2024-12-04T1800,69,,0.5,32,11,26,38,93,细颗粒物(PM2.5)
黄石市,团城山,115.0307,30.2092,2024-12-04T1800,72,92,0.9,35,7,14,34,97,细颗粒物(PM2.5)
黄石市,笔架山北路,115.0235,30.1578,2024-12-04T1800,72,85,1.1,32,7,23,39,97,细颗粒物(PM2.5)
惠州市,河南岸金山湖子站,114.4183,23.0528,2024-12-04T1800,27,51,0.7,35,6,74,105,51,颗粒物(PM10)
惠州市,下埔横江三路子站,114.4053,23.0822,2024-12-04T1800,,,,20,6,,119,,
惠州市,江北云山西路子站,114.4103,23.1142,2024-12-04T1800,26,42,0.6,15,8,136,124,43,
惠州市,惠阳区承修路船湖子站,114.4645,22.7833,2024-12-04T1800,17,47,,12,8,113,111,,
惠州市,大亚湾管委会子站,114.5317,22.7422,2024-12-04T1800,16,41,0.5,12,6,130,124,41,
惠州市,惠阳秋长,114.4338,22.8134,2024-12-04T1800,16,39,0.6,16,6,132,126,42,
惠州市,大亚湾霞涌,114.6517,22.775,2024-12-04T1800,18,45,0.2,11,6,125,122,45,
鸡西市,环保局,130.9762,45.3001,2024-12-04T1800,3,17,0.4,5,6,53,54,17,
鸡西市,第一中学,130.9429,45.3039,2024-12-04T1800,3,13,0.3,6,6,59,60,19,
鸡西市,欧美日汽修厂,131.0207,45.3073,2024-12-04T1800,20,20,1.4,16,34,55,55,29,
鸡西市,市政设施管理处,130.9967,45.3106,2024-12-04T1800,6,18,0.7,12,3,54,57,18,
吉安市,红声器材厂,114.9754,27.0803,2024-12-04T1800,64,102,0.8,30,15,110,112,87,细颗粒物(PM2.5)
吉安市,市森林工业局,114.9658,27.0999,2024-12-04T1800,66,94,0.6,32,14,110,108,89,细颗粒物(PM2.5)
吉安市,市环境监测站,114.99,27.1312,2024-12-04T1800,50,74,0.9,37,16,111,111,69,细颗粒物(PM2.5)
吉安市,青原区法院,115.0093,27.0968,2024-12-04T1800,58,97,1.1,34,13,112,122,79,细颗粒物(PM2.5)
吉林市,哈达湾,126.54,43.8622,2024-12-04T1800,17,24,0.4,16,6,62,68,25,
吉林市,东局子,126.5844,43.8358,2024-12-04T1800,12,42,0.5,15,5,64,68,42,
吉林市,电力学院,126.5052,43.8245,2024-12-04T1800,13,38,0.5,10,6,65,67,38,
吉林市,江北,126.6133,43.8972,2024-12-04T1800,11,45,0.5,18,9,59,64,45,
吉林市,江南公园,126.555,43.8306,2024-12-04T1800,14,36,0.5,11,8,65,66,36,
吉林市,丰满,126.7061,43.7133,2024-12-04T1800,13,18,0.2,5,8,68,68,22,
吉林市,九站,126.4739,43.953,2024-12-04T1800,14,32,0.5,12,5,62,64,32,
济南市,科干所,116.9862,36.6114,2024-12-04T1800,44,92,0.8,57,10,38,47,71,颗粒物(PM10)
济南市,农科所,116.9376,36.665,2024-12-04T1800,34,81,0.9,63,9,26,40,66,颗粒物(PM10)
济南市,开发区,117.1265,36.6734,2024-12-04T1800,39,85,0.6,76,9,17,36,68,颗粒物(PM10)
济南市,省种子仓库,117.0624,36.6868,2024-12-04T1800,41,80,0.7,48,10,40,38,65,颗粒物(PM10)
济南市,机床二厂,116.9489,36.6447,2024-12-04T1800,51,98,1.0,65,12,24,47,74,颗粒物(PM10)
济南市,市监测站,117.0495,36.663,2024-12-04T1800,49,78,0.6,49,9,45,45,68,细颗粒物(PM2.5)
济南市,长清党校,116.7675,36.5484,2024-12-04T1800,73,115,0.9,62,13,38,52,98,细颗粒物(PM2.5)
济南市,技术学院,117.6795,36.229,2024-12-04T1800,85,114,1.3,50,16,49,53,113,细颗粒物(PM2.5)
济南市,东山小学,117.532,36.6868,2024-12-04T1800,59,127,0.9,66,11,17,39,89,颗粒物(PM10)
济南市,泰兴公司,117.7161,36.2049,2024-12-04T1800,85,122,1.0,71,15,27,54,113,细颗粒物(PM2.5)
济南市,莱芜战役纪念馆,117.6867,36.2171,2024-12-04T1800,85,127,1.0,46,14,53,53,113,细颗粒物(PM2.5)
济南市,济阳区政府,117.1673,36.9782,2024-12-04T1800,49,107,0.7,69,13,13,31,79,颗粒物(PM10)
济南市,锦屏中学,117.1171,36.63,2024-12-04T1800,39,68,0.9,68,6,19,44,59,颗粒物(PM10)
济南市,济南四建,116.9814,36.6819,2024-12-04T1800,37,78,0.8,62,10,25,37,64,颗粒物(PM10)
济宁市,火炬城,116.6251,35.4302,2024-12-04T1800,107,109,0.7,31,7,68,51,140,细颗粒物(PM2.5)
济宁市,电化厂,116.5491,35.4042,2024-12-04T1800,92,180,0.9,39,11,66,52,122,细颗粒物(PM2.5)
济宁市,北湖一中,116.5814,35.3707,2024-12-04T1800,114,123,0.9,43,2,61,52,149,细颗粒物(PM2.5)
济宁市,服务中心,116.8249,35.5593,2024-12-04T1800,112,185,0.9,45,12,43,39,147,细颗粒物(PM2.5)
济宁市,市第七中学,116.5907,35.4054,2024-12-04T1800,112,126,0.9,30,6,81,61,147,细颗粒物(PM2.5)
佳木斯市,佳纺,130.2751,46.8028,2024-12-04T1800,16,20,0.4,10,10,57,57,23,
佳木斯市,发电厂,130.3995,46.8307,2024-12-04T1800,16,20,0.4,10,6,52,50,23,
佳木斯市,环保局,130.3258,46.7975,2024-12-04T1800,20,22,0.1,15,13,49,50,29,
佳木斯市,十一中,130.3648,46.8032,2024-12-04T1800,16,26,0.5,16,2,52,52,26,
佳木斯市,四丰,130.3794,46.7588,2024-12-04T1800,3,29,0.3,5,1,58,56,29,
嘉兴市,清河小学,120.7436,30.778,2024-12-04T1800,6,32,0.5,34,16,44,45,32,
嘉兴市,嘉兴学院,120.726,30.7478,2024-12-04T1800,11,32,0.5,34,6,45,46,32,
嘉兴市,南湖区残联,120.7846,30.7525,2024-12-04T1800,14,41,0.5,33,7,48,55,41,
嘉兴市,秀洲住建,120.6916,30.7739,2024-12-04T1800,12,25,0.4,34,9,43,42,25,
嘉峪关市,气象局,98.2908,39.7711,2024-12-04T1800,14,41,0.2,17,6,72,77,41,
嘉峪关市,酒钢宾馆,98.2672,39.7978,2024-12-04T1800,14,61,0.6,26,17,66,76,56,颗粒物(PM10)
嘉峪关市,雄关区,98.2643,39.7724,2024-12-04T1800,22,44,0.4,16,9,75,77,44,
江门市,北街,113.1064,22.6058,2024-12-04T1800,23,52,0.5,32,6,150,158,51,颗粒物(PM10)
江门市,西区,113.0731,22.5835,2024-12-04T1800,22,50,0.6,33,8,144,160,50,
江门市,圭峰西,113.0219,22.5311,2024-12-04T1800,18,43,0.5,21,4,140,158,44,
江门市,东湖,113.0828,22.5947,2024-12-04T1800,22,36,0.5,25,7,146,150,46,
江门市,江海富民,113.1075,22.5647,2024-12-04T1800,30,59,0.8,34,9,141,155,55,颗粒物(PM10)
江门市,新会银湖,113.05,22.4667,2024-12-04T1800,16,44,0.5,27,7,101,138,44,
焦作市,市环保局,113.227,35.2125,2024-12-04T1800,119,185,0.9,58,9,23,35,156,细颗粒物(PM2.5)
焦作市,影视城,113.1992,35.2590,2024-12-04T1800,119,158,0.8,45,13,34,38,156,细颗粒物(PM2.5)
焦作市,太极体育中心,113.2725,35.2067,2024-12-04T1800,109,174,0.8,52,11,31,32,143,细颗粒物(PM2.5)
焦作市,马村街道办,113.3137,35.2641,2024-12-04T1800,143,181,0.9,57,14,15,30,190,细颗粒物(PM2.5)
焦作市,焦作技师学院,113.2465,35.2373,2024-12-04T1800,119,177,1.2,40,15,25,34,156,细颗粒物(PM2.5)
焦作市,中站许衡医院,113.1656,35.2539,2024-12-04T1800,119,174,1.2,74,16,10,32,156,细颗粒物(PM2.5)
焦作市,原李万街道办,113.2449,35.1803,2024-12-04T1800,120,179,0.9,45,11,35,40,158,细颗粒物(PM2.5)
揭阳市,新兴,116.3701,23.5345,2024-12-04T1800,31,121,0.5,29,8,125,131,86,颗粒物(PM10)
揭阳市,西马,116.3264,23.5443,2024-12-04T1800,23,63,0.6,18,9,131,141,57,颗粒物(PM10)
揭阳市,东兴,116.3611,23.5626,2024-12-04T1800,28,64,0.7,22,10,,129,,
揭阳市,渔湖,116.4151,23.5294,2024-12-04T1800,24,58,0.5,20,9,140,137,54,颗粒物(PM10)
揭阳市,曲溪,116.403,23.5699,2024-12-04T1800,,62,0.6,20,17,135,134,,
金昌市,天庆家园,102.1692,38.5167,2024-12-04T1800,14,31,0.6,7,11,91,82,31,
金昌市,市委党校,102.1864,38.5253,2024-12-04T1800,15,43,0.6,7,9,94,82,43,
金昌市,金川区人防中心,102.1647,38.5371,2024-12-04T1800,19,42,0.5,5,11,93,88,42,
金华市,十五中,119.647,29.077,2024-12-04T1800,68,94,0.8,59,4,36,66,92,细颗粒物(PM2.5)
金华市,监测站,119.686,29.1029,2024-12-04T1800,3,88,0.6,57,4,35,62,69,颗粒物(PM10)
金华市,气象局,119.656,29.1131,2024-12-04T1800,53,88,0.5,53,4,39,66,73,细颗粒物(PM2.5)
锦州市,南山,121.1115,41.0879,2024-12-04T1800,78,,1.4,59,26,26,64,104,细颗粒物(PM2.5)
锦州市,开发区,121.0533,40.8434,2024-12-04T1800,37,82,1.0,89,20,7,44,66,颗粒物(PM10)
锦州市,百股街道,121.1836,41.1119,2024-12-04T1800,61,,1.1,49,14,28,63,83,细颗粒物(PM2.5)
锦州市,天安街道,121.1178,41.1222,2024-12-04T1800,47,,1.2,58,18,26,65,65,细颗粒物(PM2.5)
锦州市,北湖公园,121.1303,41.1386,2024-12-04T1800,28,,0.6,34,15,44,63,40,
晋城市,自来水公司,112.85,35.5051,2024-12-04T1800,24,46,1.0,57,11,35,44,46,
晋城市,白云商贸,112.8318,35.4936,2024-12-04T1800,14,53,0.8,46,8,48,53,52,颗粒物(PM10)
晋城市,市环保局,112.8508,35.4887,2024-12-04T1800,,50,0.8,46,9,44,48,,
晋城市,技术学院,112.8676,35.4897,2024-12-04T1800,19,77,0.8,50,11,46,49,64,颗粒物(PM10)
晋城市,白马寺,112.8453,35.546,2024-12-04T1800,21,44,0.6,,14,57,52,,
晋城市,泽州一中,112.8271,35.4828,2024-12-04T1800,22,40,0.9,46,10,46,52,40,
晋中市,锦纶小区,112.7532,37.6945,2024-12-04T1800,17,117,0.4,28,4,56,53,84,颗粒物(PM10)
晋中市,南都小区,112.7249,37.7067,2024-12-04T1800,34,105,0.3,26,4,56,53,78,颗粒物(PM10)
晋中市,榆次区政府,112.6991,37.6982,2024-12-04T1800,38,234,0.3,25,4,56,51,142,颗粒物(PM10)
晋中市,榆次三中,112.7195,37.6828,2024-12-04T1800,14,215,0.3,24,7,56,50,133,颗粒物(PM10)
荆门市,竹园小学,112.2014,31.0481,2024-12-04T1800,47,68,0.6,20,10,58,70,65,细颗粒物(PM2.5)
荆门市,掇刀,112.1969,30.9891,2024-12-04T1800,49,73,0.7,21,9,69,81,68,细颗粒物(PM2.5)
荆门市,石化一小,112.2213,31.0386,2024-12-04T1800,50,87,0.6,24,9,57,72,69,"颗粒物(PM10),细颗粒物(PM2.5)"
荆门市,西山林语,112.1849,31.0362,2024-12-04T1800,40,68,0.6,19,7,68,84,59,颗粒物(PM10)
荆门市,龙泉中学南校,112.1632,31.0138,2024-12-04T1800,,,,,10,77,91,,
荆州市,市图书馆,112.2494,30.3197,2024-12-04T1800,57,66,0.9,26,4,53,57,78,细颗粒物(PM2.5)
荆州市,市委党校,112.2008,30.3544,2024-12-04T1800,57,64,0.8,26,4,59,64,78,细颗粒物(PM2.5)
荆州市,管委会,112.2747,30.3122,2024-12-04T1800,65,,,,6,55,58,,
荆州市,学苑路,112.1655,30.3364,2024-12-04T1800,52,72,0.7,37,9,57,67,72,细颗粒物(PM2.5)
景德镇市,王港中学,117.3102,29.3867,2024-12-04T1800,,,,,,,,,
景德镇市,老干部活动中心,117.2117,29.2933,2024-12-04T1800,59,72,0.7,17,8,84,101,80,细颗粒物(PM2.5)
景德镇市,兽医站,117.1894,29.2789,2024-12-04T1800,43,71,0.6,19,7,81,103,61,颗粒物(PM10)
景德镇市,台达陶瓷,117.1547,29.2617,2024-12-04T1800,49,78,0.8,9,15,60,81,68,细颗粒物(PM2.5)
景德镇市,陶研所,117.2461,29.2956,2024-12-04T1800,41,74,0.8,32,4,59,89,62,颗粒物(PM10)
九江市,十里,115.9872,29.6815,2024-12-04T1800,71,91,0.9,36,7,62,67,95,细颗粒物(PM2.5)
九江市,茅山头,115.9584,29.7046,2024-12-04T1800,69,107,0.9,33,9,59,64,93,细颗粒物(PM2.5)
九江市,西园,115.9877,29.7295,2024-12-04T1800,66,89,0.6,32,6,55,64,89,细颗粒物(PM2.5)
九江市,五七二七厂,116.0172,29.6547,2024-12-04T1800,76,110,1.1,28,4,64,67,102,细颗粒物(PM2.5)
九江市,综合工业园,115.9114,29.6038,2024-12-04T1800,94,100,0.9,35,15,71,71,124,细颗粒物(PM2.5)
九江市,石化总厂,116.0721,29.7535,2024-12-04T1800,57,108,0.9,37,10,57,66,79,颗粒物(PM10)
九江市,庐山气象台,115.9773,29.5698,2024-12-04T1800,61,64,1.1,14,6,87,112,83,细颗粒物(PM2.5)
九江市,外国语学校,116.0254,29.6994,2024-12-04T1800,64,99,0.6,30,16,57,60,87,细颗粒物(PM2.5)
酒泉市,仓门街子站,98.5061,39.7443,2024-12-04T1800,23,34,0.6,8,5,83,78,34,
酒泉市,油田生活基地,98.4989,39.7256,2024-12-04T1800,29,48,0.6,12,5,90,80,48,
喀什地区,巡警大队,76.0072,39.4467,2024-12-04T1800,22,80,0.1,12,8,81,48,65,颗粒物(PM10)
喀什地区,吾办,75.9755,39.4694,2024-12-04T1800,26,85,0.4,18,5,78,54,68,颗粒物(PM10)
喀什地区,老干局,75.9483,39.4689,2024-12-04T1800,24,119,0.3,16,5,80,48,85,颗粒物(PM10)
开封市,肿瘤医院,114.3389,34.7781,2024-12-04T1800,104,132,0.6,44,3,32,35,137,细颗粒物(PM2.5)
开封市,世纪星幼儿园,114.2885,34.7965,2024-12-04T1800,117,138,0.7,42,3,36,35,153,细颗粒物(PM2.5)
开封市,龙亭公园,114.3438,34.8106,2024-12-04T1800,111,130,0.7,36,2,42,36,145,细颗粒物(PM2.5)
开封市,汴京公园,114.3644,34.7964,2024-12-04T1800,107,131,0.8,45,2,32,33,140,细颗粒物(PM2.5)
开封市,技师学院,114.2485,34.8306,2024-12-04T1800,105,131,0.8,42,4,32,35,138,细颗粒物(PM2.5)
开封市,祥符区生态环境局,114.4644,34.7556,2024-12-04T1800,99,150,0.6,60,3,12,34,130,细颗粒物(PM2.5)
克拉玛依市,长征新村,84.895,45.6094,2024-12-04T1800,6,16,0.5,20,4,30,42,16,
克拉玛依市,南林小区,84.8988,45.5893,2024-12-04T1800,13,17,0.5,22,1,33,43,19,
克拉玛依市,独山子区,84.905,44.3396,2024-12-04T1800,31,53,0.5,24,4,39,46,52,颗粒物(PM10)
克拉玛依市,乌尔禾区商贸楼,85.6979,46.098,2024-12-04T1800,6,,0.4,14,3,59,52,19,
克拉玛依市,白碱滩区新站,85.1045,45.6899,2024-12-04T1800,12,14,0.7,25,8,36,53,18,
克孜勒苏柯尔克孜自治州,市人民政府,76.1454,39.7142,2024-12-04T1800,33,72,0.7,6,5,102,73,61,颗粒物(PM10)
克孜勒苏柯尔克孜自治州,克州文化中心,76.1658,39.7157,2024-12-04T1800,29,83,0.7,11,8,94,68,67,颗粒物(PM10)
昆明市,呈贡新区,102.8204,24.8886,2024-12-04T1800,7,17,0.3,12,4,69,75,22,
昆明市,西山森林公园,102.6251,24.9608,2024-12-04T1800,,,,,,,,,
昆明市,龙泉镇,102.7252,25.0902,2024-12-04T1800,6,18,0.4,14,7,75,76,24,
昆明市,东风东路,102.7266,25.0375,2024-12-04T1800,10,13,0.3,13,8,67,69,21,
昆明市,金鼎山,102.6742,25.0669,2024-12-04T1800,7,23,,17,11,72,77,,
昆明市,碧鸡广场,102.6644,25.0401,2024-12-04T1800,7,13,0.3,12,8,72,73,23,
昆明市,官渡区博物馆,102.7494,25.0119,2024-12-04T1800,9,19,0.3,9,7,74,77,24,
昆明市,青年创业园,102.8017,24.8336,2024-12-04T1800,6,10,0.3,3,6,82,84,26,
昆明市,昆明学院,102.7997,24.9786,2024-12-04T1800,6,11,0.2,9,8,74,77,24,
昆明市,晋宁区生态环境分局,102.5967,24.6736,2024-12-04T1800,7,12,0.2,4,2,84,82,27,
昆明市,云天化总部,102.6678,24.9856,2024-12-04T1800,3,8,,7,4,78,84,,
拉萨市,八廓街,91.1319,29.6514,2024-12-04T1800,8,18,0.2,12,7,92,76,29,
拉萨市,市环保局,91.1221,29.6747,2024-12-04T1800,9,19,0.5,13,7,111,86,35,
拉萨市,区监测站,91.0874,29.6475,2024-12-04T1800,3,10,0.5,16,5,97,80,31,
拉萨市,西藏大学,91.1774,29.6541,2024-12-04T1800,6,19,0.6,20,4,92,80,29,
拉萨市,区辐射站,90.9798,29.6588,2024-12-04T1800,8,21,0.4,14,7,98,74,31,
拉萨市,拉萨火车站,91.0834,29.6292,2024-12-04T1800,3,19,0.4,17,4,98,77,31,
来宾市,来宾技工学校,109.2203,23.7256,2024-12-04T1800,28,60,0.7,16,7,159,169,55,颗粒物(PM10)
来宾市,兴宾区政府,109.1781,23.7297,2024-12-04T1800,55,87,0.7,23,10,169,176,75,细颗粒物(PM2.5)
来宾市,中南小学,109.2416,23.7461,2024-12-04T1800,40,72,0.7,22,5,,164,,
兰州市,兰炼宾馆,103.631,36.1031,2024-12-04T1800,44,66,0.6,49,18,52,60,62,细颗粒物(PM2.5)
兰州市,榆中兰大校区,104.1373,35.9454,2024-12-04T1800,,,,,,,,,
兰州市,生物制品所,103.8412,36.0726,2024-12-04T1800,36,75,0.5,38,16,65,65,63,颗粒物(PM10)
兰州市,铁路设计院,103.831,36.0464,2024-12-04T1800,43,67,0.7,52,12,51,56,60,细颗粒物(PM2.5)
兰州市,教育港,103.7158,36.1058,2024-12-04T1800,40,89,0.7,57,21,47,55,70,颗粒物(PM10)
兰州市,百合公园,103.7439,36.0842,2024-12-04T1800,29,65,0.6,52,13,53,56,58,颗粒物(PM10)
兰州市,和平,103.9611,35.998,2024-12-04T1800,10,54,0.5,32,16,66,71,52,颗粒物(PM10)
兰州新区,新区管委会,103.6633,36.533,2024-12-04T1800,37,51,0.4,22,22,91,88,53,细颗粒物(PM2.5)
兰州新区,舟曲中学,103.6975,36.4789,2024-12-04T1800,32,67,0.4,20,29,79,82,59,颗粒物(PM10)
廊坊市,药材公司,116.6708,39.5111,2024-12-04T1800,52,75,0.7,51,5,34,41,72,细颗粒物(PM2.5)
廊坊市,开发区,116.7214,39.5589,2024-12-04T1800,44,77,,65,6,19,42,,
廊坊市,北华航天学院,116.7244,39.5269,2024-12-04T1800,40,68,0.6,51,8,35,41,59,颗粒物(PM10)
廊坊市,河北工业大学,116.7022,39.5453,2024-12-04T1800,45,73,0.6,48,8,30,40,63,细颗粒物(PM2.5)
乐山市,花湖湾,103.7723,29.5462,2024-12-04T1800,78,,0.6,30,3,32,26,104,细颗粒物(PM2.5)
乐山市,牛耳桥,103.7627,29.5844,2024-12-04T1800,72,103,0.7,41,6,24,19,97,细颗粒物(PM2.5)
乐山市,市第三水厂,103.7508,29.6006,2024-12-04T1800,63,88,0.7,41,5,30,24,85,细颗粒物(PM2.5)
乐山市,市监测站,103.7571,29.5664,2024-12-04T1800,70,81,0.7,33,6,29,24,94,细颗粒物(PM2.5)
乐山市,理工大学,103.7311,29.5628,2024-12-04T1800,54,66,0.7,34,6,29,24,74,细颗粒物(PM2.5)
丽江市,西南郊,100.2143,26.8576,2024-12-04T1800,,,,,,,,,
丽江市,丽江古城,100.2497,26.8802,2024-12-04T1800,14,36,0.7,12,9,80,80,36,
丽江市,市中心,100.2203,26.8906,2024-12-04T1800,6,17,0.7,16,6,76,77,24,
丽水市,监测站大楼,119.914,28.4514,2024-12-04T1800,27,44,0.9,15,2,84,99,44,
丽水市,莲都小学,119.93,28.4586,2024-12-04T1800,,,0.7,12,5,,102,,
丽水市,余庄前,119.879,28.4231,2024-12-04T1800,23,34,0.5,15,5,70,97,34,
连云港市,市环境监测站,119.176,34.5885,2024-12-04T1800,34,61,0.5,45,10,43,41,56,颗粒物(PM10)
连云港市,德源药业,119.3581,34.6972,2024-12-04T1800,34,80,0.6,68,10,16,51,65,颗粒物(PM10)
连云港市,新城一中,119.178,34.844,2024-12-04T1800,37,71,0.6,87,11,4,42,61,颗粒物(PM10)
连云港市,胡沟管理处,119.3608,34.7519,2024-12-04T1800,31,66,0.3,39,8,28,63,58,颗粒物(PM10)
连云港市,矿山设计院,119.1478,34.5911,2024-12-04T1800,31,68,0.8,44,10,40,39,59,颗粒物(PM10)
连云港市,工贸学校,119.2413,34.6539,2024-12-04T1800,35,57,0.6,32,9,48,57,54,颗粒物(PM10)
连云港市,连云街道,119.4172,34.7341,2024-12-04T1800,30,53,0.8,38,16,37,59,52,颗粒物(PM10)
凉山彝族自治州,青龙寺,102.3431,27.8099,2024-12-04T1800,9,24,0.7,6,5,80,79,25,
凉山彝族自治州,邛海宾馆,102.2721,27.8415,2024-12-04T1800,18,35,0.6,13,12,71,70,35,
凉山彝族自治州,西昌市政府,102.2625,27.898,2024-12-04T1800,29,38,0.8,15,10,90,74,42,
凉山彝族自治州,凉山州政府,102.2685,27.8851,2024-12-04T1800,24,35,0.7,14,14,87,72,35,
凉山彝族自治州,长安,102.237,27.8914,2024-12-04T1800,27,50,0.8,22,10,82,70,50,
辽阳市,宏伟区,123.2,41.1953,2024-12-04T1800,20,40,0.8,49,14,20,49,40,
辽阳市,新华园,123.1683,41.2495,2024-12-04T1800,20,35,1.1,50,15,25,52,35,
辽阳市,滨河路,123.2354,41.2639,2024-12-04T1800,21,33,0.8,41,18,32,52,33,
辽阳市,铁西工业园,123.149,41.2991,2024-12-04T1800,34,59,0.8,51,14,16,52,55,颗粒物(PM10)
辽源市,环保局,125.1358,42.8845,2024-12-04T1800,8,21,0.6,13,8,61,66,21,
辽源市,银鹰制药,125.0764,42.9078,2024-12-04T1800,12,18,0.4,14,11,60,66,19,
聊城市,区政府,115.9848,36.4372,2024-12-04T1800,102,161,1.0,36,8,70,72,134,细颗粒物(PM2.5)
聊城市,聊大东校,116.0072,36.4343,2024-12-04T1800,110,178,0.9,57,8,45,63,144,细颗粒物(PM2.5)
聊城市,监控中心,115.9819,36.4978,2024-12-04T1800,117,169,0.8,69,9,44,64,153,细颗粒物(PM2.5)
聊城市,九州社区,116.0445,36.4361,2024-12-04T1800,100,154,0.8,33,8,68,70,132,细颗粒物(PM2.5)
聊城市,星美广场,116.0567,36.4608,2024-12-04T1800,107,169,0.9,32,13,74,70,140,细颗粒物(PM2.5)
林芝市,林芝监测站,94.3681,29.6376,2024-12-04T1800,12,20,0.5,2,6,78,69,25,
林芝市,林芝人民医院,94.3616,29.6616,2024-12-04T1800,7,17,0.1,2,6,73,66,23,
临沧市,市环保局,100.0781,23.8982,2024-12-04T1800,14,19,0.3,7,10,72,75,23,
临沧市,市气象局,100.0894,23.8822,2024-12-04T1800,7,16,0.4,7,7,72,63,23,
临汾市,临钢医院,111.5531,36.0783,2024-12-04T1800,7,28,0.3,17,7,69,40,28,
临汾市,技工学校,111.5028,36.0714,2024-12-04T1800,26,32,0.4,20,5,68,39,38,
临汾市,市委,111.5018,36.0855,2024-12-04T1800,9,45,0.3,17,5,63,34,45,
临汾市,唐尧大酒店,111.505,36.1014,2024-12-04T1800,12,35,0.4,14,8,,27,,
临汾市,城南,111.5036,36.0414,2024-12-04T1800,19,44,0.4,19,5,70,40,44,
临夏回族自治州,环保局,103.2069,35.5993,2024-12-04T1800,14,50,0.6,20,12,75,70,50,
临夏回族自治州,建设大厦,103.2417,35.6057,2024-12-04T1800,16,46,0.7,16,13,82,74,46,
临沂市,沂河小区,118.3429,35.0532,2024-12-04T1800,79,129,1.1,73,20,34,51,105,细颗粒物(PM2.5)
临沂市,鲁南制药厂,118.295,35.0583,2024-12-04T1800,87,149,1.0,77,18,20,49,115,细颗粒物(PM2.5)
临沂市,新光毛纺厂,118.2794,34.9976,2024-12-04T1800,74,122,1.2,63,18,40,50,99,细颗粒物(PM2.5)
临沂市,河东保险公司,118.3956,35.0888,2024-12-04T1800,78,119,0.7,61,13,40,56,104,细颗粒物(PM2.5)
临沂市,十里堡居委,118.3564,35.0215,2024-12-04T1800,83,139,1.3,73,26,23,47,110,细颗粒物(PM2.5)
临沂市,南坊新区,118.3604,35.1084,2024-12-04T1800,80,122,1.0,67,11,44,57,107,细颗粒物(PM2.5)
临沂市,皇山花园小区,118.3920,35.0300,2024-12-04T1800,73,132,1.2,86,19,21,44,98,细颗粒物(PM2.5)
柳州市,柳东小学,109.4856,24.3895,2024-12-04T1800,45,57,0.7,14,14,164,156,63,细颗粒物(PM2.5)
柳州市,环保监测站,109.4157,24.3277,2024-12-04T1800,48,73,0.7,22,13,170,162,67,细颗粒物(PM2.5)
柳州市,河西水厂,109.389,24.341,2024-12-04T1800,51,73,0.9,23,12,171,160,70,细颗粒物(PM2.5)
柳州市,市四中,109.4311,24.2921,2024-12-04T1800,49,79,0.9,30,12,157,163,68,细颗粒物(PM2.5)
柳州市,市九中,109.4006,24.3631,2024-12-04T1800,45,96,0.8,22,10,163,164,73,颗粒物(PM10)
柳州市,古亭山,109.4958,24.3134,2024-12-04T1800,45,79,1.0,,16,132,155,,
柳州市,市二中,109.5422,24.3996,2024-12-04T1800,42,79,0.7,21,12,139,141,65,颗粒物(PM10)
六安市,监测大楼,116.5079,31.737,2024-12-04T1800,43,,0.6,,4,43,26,,
六安市,皖西学院,116.4738,31.7643,2024-12-04T1800,37,48,0.6,22,4,48,29,53,细颗粒物(PM2.5)
六安市,朝阳厂,116.4996,31.7905,2024-12-04T1800,33,38,0.6,16,1,41,26,48,
六安市,开发区,116.5567,31.7886,2024-12-04T1800,29,40,0.5,25,3,45,33,42,
六盘水市,窑上,104.8,26.5892,2024-12-04T1800,44,57,0.9,14,8,44,48,62,细颗粒物(PM2.5)
六盘水市,黄土坡,104.83,26.5917,2024-12-04T1800,26,41,0.6,15,7,40,56,41,
六盘水市,水钢,104.89,26.5939,2024-12-04T1800,31,42,1.2,21,8,49,63,45,
六盘水市,民中,104.8475,26.5894,2024-12-04T1800,14,35,0.7,18,8,40,61,35,
六盘水市,双水,104.9544,26.5506,2024-12-04T1800,33,44,0.7,15,7,46,72,48,
龙岩市,龙岩师专,117.0189,25.1181,2024-12-04T1800,,,,,,,,,
龙岩市,龙岩市监测站,117.0217,25.1033,2024-12-04T1800,18,28,0.5,14,10,76,76,28,
龙岩市,闽西职业技术学院,117.0258,25.0661,2024-12-04T1800,20,31,0.5,13,6,72,74,31,
龙岩市,龙岩学院,117.0196,25.0306,2024-12-04T1800,19,33,0.5,20,3,58,70,33,
陇南市,汉王镇固水子,105.0822,33.3261,2024-12-04T1800,,,,,,,,,
陇南市,滨江中学,104.9339,33.3826,2024-12-04T1800,25,80,0.7,29,7,70,77,65,颗粒物(PM10)
陇南市,市总工会,104.955,33.371,2024-12-04T1800,20,72,0.2,10,2,90,84,61,颗粒物(PM10)
娄底市,电视发射台,111.9589,27.8901,2024-12-04T1800,,29,0.6,24,6,72,84,,
娄底市,市监测站,111.9975,27.725,2024-12-04T1800,117,142,0.8,21,5,61,84,153,细颗粒物(PM2.5)
娄底市,市委党校,112.0194,27.7314,2024-12-04T1800,116,149,,25,,55,79,152,细颗粒物(PM2.5)
娄底市,涟钢,111.9561,27.7569,2024-12-04T1800,111,150,1.3,31,9,53,79,145,细颗粒物(PM2.5)
娄底市,市政府,111.9892,27.7044,2024-12-04T1800,114,150,1.0,33,6,58,83,149,细颗粒物(PM2.5)
泸州市,九狮山,105.4324,28.9634,2024-12-04T1800,,,,,,,,,
泸州市,小市上码头,105.4427,28.9063,2024-12-04T1800,102,134,0.8,42,3,10,22,134,细颗粒物(PM2.5)
泸州市,兰田宪桥,105.4241,28.8573,2024-12-04T1800,116,,0.8,24,3,23,18,152,细颗粒物(PM2.5)
泸州市,市环监站,105.4379,28.8833,2024-12-04T1800,103,123,0.8,36,4,12,17,135,细颗粒物(PM2.5)
泸州市,纳溪区环保局,105.3617,28.7703,2024-12-04T1800,89,102,0.9,42,3,3,7,118,细颗粒物(PM2.5)
吕梁市,环保局,111.1406,37.5211,2024-12-04T1800,15,24,0.3,9,1,77,60,25,
吕梁市,自来水公司,111.1297,37.5136,2024-12-04T1800,13,26,0.3,11,3,77,61,26,
吕梁市,马茂庄小学,111.1283,37.51,2024-12-04T1800,10,34,0.2,10,3,78,63,34,
洛阳市,市委党校,112.3931,34.6516,2024-12-04T1800,94,152,1.2,78,8,7,25,124,细颗粒物(PM2.5)
洛阳市,豫西宾馆,112.4657,34.6871,2024-12-04T1800,101,194,0.9,70,8,11,29,133,细颗粒物(PM2.5)
洛阳市,河南林校,112.494,34.6886,2024-12-04T1800,120,154,0.9,73,4,6,24,158,细颗粒物(PM2.5)
洛阳市,开发区管委会,112.3844,34.623,2024-12-04T1800,91,130,0.7,56,10,20,30,120,细颗粒物(PM2.5)
洛阳市,市委新办公区,112.4267,34.6258,2024-12-04T1800,115,184,0.9,68,6,9,27,150,细颗粒物(PM2.5)
洛阳市,伊滨,112.6005,34.6326,2024-12-04T1800,116,185,1.0,67,8,15,33,152,细颗粒物(PM2.5)
洛阳市,中移产业园,112.4951,34.6332,2024-12-04T1800,110,141,0.8,61,8,21,30,144,细颗粒物(PM2.5)
洛阳市,吉利监测站,112.5736,34.8993,2024-12-04T1800,114,147,0.8,72,5,6,24,149,细颗粒物(PM2.5)
洛阳市,河科大西苑校区,112.3677,34.662,2024-12-04T1800,98,157,1.1,78,10,13,30,129,细颗粒物(PM2.5)
洛阳市,英才小学,112.4388,34.6781,2024-12-04T1800,93,176,0.9,76,7,2,21,123,细颗粒物(PM2.5)
漯河市,三五一五工厂,114.051,33.5699,2024-12-04T1800,103,151,0.6,35,6,26,27,135,细颗粒物(PM2.5)
漯河市,漯河大学,114.0055,33.5698,2024-12-04T1800,105,154,0.8,44,6,16,24,138,细颗粒物(PM2.5)
漯河市,市水利局,114.0138,33.5828,2024-12-04T1800,102,141,0.6,34,7,21,25,134,细颗粒物(PM2.5)
漯河市,市广电局,114.0261,33.5698,2024-12-04T1800,102,147,0.7,36,6,22,27,134,细颗粒物(PM2.5)
漯河市,市图书馆,113.9749,33.5664,2024-12-04T1800,98,141,0.9,37,5,19,22,129,细颗粒物(PM2.5)
漯河市,召陵区卫健委,114.0967,33.5906,2024-12-04T1800,86,129,0.8,50,10,19,20,114,细颗粒物(PM2.5)
马鞍山市,湖东路四小,118.5092,31.6837,2024-12-04T1800,24,51,1.0,61,5,13,59,51,颗粒物(PM10)
马鞍山市,开发区,118.5024,31.6449,2024-12-04T1800,32,54,0.9,57,7,23,55,52,颗粒物(PM10)
马鞍山市,慈湖,118.5228,31.7231,2024-12-04T1800,35,53,1.0,66,8,7,61,52,颗粒物(PM10)
马鞍山市,濮塘,118.6245,31.7241,2024-12-04T1800,33,51,0.8,54,9,18,62,51,颗粒物(PM10)
马鞍山市,雨山,118.4918,31.6809,2024-12-04T1800,25,58,0.9,63,8,10,58,54,颗粒物(PM10)
茂名市,电白南海,111.0286,21.4688,2024-12-04T1800,19,51,0.5,18,5,98,130,51,颗粒物(PM10)
茂名市,茂石化七小,110.9294,21.6533,2024-12-04T1800,19,51,0.8,14,7,102,145,51,颗粒物(PM10)
茂名市,健康路,110.9107,21.6687,2024-12-04T1800,22,48,0.6,14,11,113,160,48,
茂名市,高岭,110.8592,21.6828,2024-12-04T1800,24,61,0.6,17,10,98,136,56,颗粒物(PM10)
茂名市,电白水东,111.01,21.5165,2024-12-04T1800,12,39,0.7,7,8,95,120,39,
眉山市,黑龙滩水库,104.0308,30.0478,2024-12-04T1800,43,52,0.4,7,3,73,28,60,细颗粒物(PM2.5)
眉山市,气象局,103.8416,30.0874,2024-12-04T1800,61,76,0.6,49,5,26,27,83,细颗粒物(PM2.5)
眉山市,市委党校,103.8578,30.0744,2024-12-04T1800,46,73,0.5,50,6,31,28,64,细颗粒物(PM2.5)
眉山市,区人社局,103.8291,30.0564,2024-12-04T1800,51,84,0.7,53,5,30,27,70,细颗粒物(PM2.5)
梅州市,梅江月梅,116.1231,24.3284,2024-12-04T1800,32,42,0.6,19,8,86,93,46,
梅州市,梅县新城,116.0797,24.2719,2024-12-04T1800,36,54,0.9,64,4,30,82,52,"颗粒物(PM10),细颗粒物(PM2.5)"
梅州市,环境监控中心,116.1248,24.2654,2024-12-04T1800,36,61,0.9,71,6,24,82,56,颗粒物(PM10)
梅州市,梅龙,116.1233,24.2991,2024-12-04T1800,20,46,1.1,43,6,60,81,46,
绵阳市,富乐山,104.7778,31.4741,2024-12-04T1800,28,47,0.5,15,2,62,52,47,
绵阳市,市人大,104.7563,31.4535,2024-12-04T1800,31,57,0.5,48,1,43,42,54,颗粒物(PM10)
绵阳市,高新区自来水公司,104.6697,31.4668,2024-12-04T1800,31,61,0.5,35,4,57,53,56,颗粒物(PM10)
绵阳市,三水厂,104.7287,31.5075,2024-12-04T1800,37,52,0.6,51,7,40,50,53,细颗粒物(PM2.5)
绵阳市,西科大附属小学,104.69,31.5322,2024-12-04T1800,46,63,0.5,52,,,52,,
绵阳市,安州区旅游局,104.5648,31.5343,2024-12-04T1800,39,56,0.6,36,6,64,56,55,细颗粒物(PM2.5)
牡丹江市,环保大楼,129.61,44.561,2024-12-04T1800,26,31,0.5,27,8,42,54,38,
牡丹江市,文化广场,129.6115,44.5782,2024-12-04T1800,28,31,0.6,35,10,38,52,40,
牡丹江市,第一医院,129.5904,44.5963,2024-12-04T1800,26,32,0.6,24,7,54,64,38,
牡丹江市,机车工厂,129.6364,44.6075,2024-12-04T1800,10,20,0.5,50,8,21,47,25,
牡丹江市,第一中学,129.6386,44.5462,2024-12-04T1800,12,29,0.4,20,5,49,57,29,
内江市,市监测站,105.0703,29.61,2024-12-04T1800,46,52,0.8,24,6,28,23,64,细颗粒物(PM2.5)
内江市,东兴区政府,105.0717,29.5947,2024-12-04T1800,38,51,0.8,28,5,30,23,54,细颗粒物(PM2.5)
内江市,内江二中,105.0653,29.5817,2024-12-04T1800,36,42,0.7,28,7,29,25,52,细颗粒物(PM2.5)
内江市,内江日报社,105.0406,29.5822,2024-12-04T1800,34,42,0.6,24,11,34,27,49,
那曲市,那曲监测站,92.0657,31.4846,2024-12-04T1800,,,0.4,6,8,100,76,,
那曲市,那曲会议中心,92.0506,31.4797,2024-12-04T1800,3,16,0.7,1,2,102,81,32,
南昌市,省外办,115.8931,28.6843,2024-12-04T1800,95,148,0.8,29,4,69,86,125,细颗粒物(PM2.5)
南昌市,省林业公司,115.8886,28.7003,2024-12-04T1800,85,139,0.6,27,7,69,88,113,细颗粒物(PM2.5)
南昌市,林科所,115.8126,28.7442,2024-12-04T1800,73,129,1.1,36,5,72,90,98,细颗粒物(PM2.5)
南昌市,建工学校,115.8518,28.687,2024-12-04T1800,60,118,0.8,35,7,71,86,84,颗粒物(PM10)
南昌市,象湖,115.8921,28.6424,2024-12-04T1800,84,100,1.1,34,6,80,96,112,细颗粒物(PM2.5)
南昌市,武术学校,115.7423,28.7996,2024-12-04T1800,57,88,0.7,17,3,47,69,78,细颗粒物(PM2.5)
南昌市,省站,115.9314,28.6842,2024-12-04T1800,85,115,0.8,37,10,66,86,113,细颗粒物(PM2.5)
南昌市,机电学校,115.9084,28.6062,2024-12-04T1800,80,152,0.8,29,10,74,92,107,细颗粒物(PM2.5)
南昌市,外国语学校,115.9721,28.7031,2024-12-04T1800,77,132,0.8,27,6,68,83,103,细颗粒物(PM2.5)
南充市,西山风景区,106.056,30.8064,2024-12-04T1800,37,,0.8,15,2,50,37,53,细颗粒物(PM2.5)
南充市,南充市委,106.0789,30.8023,2024-12-04T1800,26,34,0.4,22,8,59,36,38,
南充市,南充炼油厂,106.1031,30.8217,2024-12-04T1800,31,46,0.6,20,7,63,43,46,
南充市,高坪区监测站,106.1064,30.7856,2024-12-04T1800,34,47,0.4,20,16,56,41,49,
南充市,嘉陵区环保局,106.0642,30.7636,2024-12-04T1800,27,53,0.6,24,17,59,36,52,颗粒物(PM10)
南充市,市环境监测站,106.1087,30.8388,2024-12-04T1800,35,59,0.4,21,4,59,43,55,颗粒物(PM10)
南京市,迈皋桥,118.8086,32.1065,2024-12-04T1800,22,40,0.4,39,4,30,52,40,
南京市,草场门,118.7538,32.0551,2024-12-04T1800,22,36,0.6,37,4,34,52,36,
南京市,山西路,118.7794,32.0745,2024-12-04T1800,31,39,,,5,32,63,,
南京市,中华门,118.7752,32.0023,2024-12-04T1800,24,36,0.6,44,4,30,61,36,
南京市,瑞金路,118.8109,32.0309,2024-12-04T1800,24,41,0.4,40,5,24,57,41,
南京市,玄武湖,118.7997,32.0754,2024-12-04T1800,17,45,0.4,51,6,26,41,45,
南京市,浦口,118.6414,32.0931,2024-12-04T1800,25,42,0.7,35,6,27,44,42,
南京市,奥体中心,118.7356,31.9996,2024-12-04T1800,24,41,0.5,54,8,26,64,41,
南京市,仙林大学城,118.9125,32.1028,2024-12-04T1800,31,36,0.5,48,6,22,50,45,
南京市,江宁彩虹桥,118.8436,31.9198,2024-12-04T1800,19,51,0.4,58,6,19,61,51,颗粒物(PM10)
南京市,溧水永阳,119.0138,31.6494,2024-12-04T1800,26,44,0.3,37,3,37,53,44,
南京市,高淳老职中,118.879,31.3302,2024-12-04T1800,36,59,0.7,31,7,47,57,55,颗粒物(PM10)
南京市,六合雄州,118.8554,32.3578,2024-12-04T1800,31,43,0.4,30,5,35,46,45,
南宁市,二十一中,108.3103,22.7881,2024-12-04T1800,30,51,0.8,18,7,159,160,51,颗粒物(PM10)
南宁市,北湖,108.3141,22.8528,2024-12-04T1800,36,60,0.9,33,8,134,156,55,颗粒物(PM10)
南宁市,市监测站,108.3206,22.8225,2024-12-04T1800,36,62,0.7,22,10,143,154,56,颗粒物(PM10)
南宁市,大自然花园,108.3829,22.8037,2024-12-04T1800,40,61,0.5,30,8,134,162,57,细颗粒物(PM2.5)
南宁市,仙葫,108.4394,22.7904,2024-12-04T1800,29,47,0.6,14,6,138,150,47,
南宁市,区农职院,108.2397,22.8467,2024-12-04T1800,28,49,0.6,22,8,142,165,49,
南宁市,英华嘉园,108.3275,22.735,2024-12-04T1800,34,57,0.8,35,9,130,143,54,颗粒物(PM10)
南宁市,沙井镇街道办,108.2257,22.7757,2024-12-04T1800,33,60,0.8,33,8,128,142,55,颗粒物(PM10)
南宁市,红星社区,108.4834,22.7618,2024-12-04T1800,35,71,0.7,24,8,137,160,61,颗粒物(PM10)
南平市,茫荡山,118.0966,26.6761,2024-12-04T1800,,,,,,,,,
南平市,南平市监测站,118.1681,26.6369,2024-12-04T1800,26,31,0.4,13,3,86,81,38,
南平市,南平铝业有限公司,118.1825,26.6489,2024-12-04T1800,24,32,0.5,15,4,75,63,35,
南平市,南平七中,118.1756,26.6272,2024-12-04T1800,22,37,0.3,8,3,89,83,37,
南通市,狼山街道,120.9098,31.9663,2024-12-04T1800,15,34,0.3,22,7,68,77,34,
南通市,虹桥,120.86,32.0005,2024-12-04T1800,21,32,0.4,19,6,66,71,32,
南通市,城中,120.87,32.02,2024-12-04T1800,14,37,0.4,25,7,66,72,37,
南通市,星湖花园,120.94,31.93,2024-12-04T1800,10,32,0.3,23,5,64,72,32,
南通市,紫琅学院,120.81,32.0417,2024-12-04T1800,11,31,0.4,26,3,56,66,31,
南通市,通州监测站,121.067,32.062,2024-12-04T1800,14,34,0.4,12,3,78,84,34,
南通市,环境教育馆,120.9348,31.9883,2024-12-04T1800,18,34,0.5,20,4,71,81,34,
南阳市,瓦房庄,112.5224,33.0122,2024-12-04T1800,124,144,0.8,37,6,27,29,163,细颗粒物(PM2.5)
南阳市,汉画馆,112.5003,32.9735,2024-12-04T1800,114,140,1.0,35,5,29,30,149,细颗粒物(PM2.5)
南阳市,气象站,112.5573,33.027,2024-12-04T1800,117,138,1.1,41,4,,26,153,细颗粒物(PM2.5)
南阳市,理工学院,112.5481,32.9689,2024-12-04T1800,116,139,0.8,38,5,23,22,152,细颗粒物(PM2.5)
南阳市,卧龙区政府,112.5234,32.9922,2024-12-04T1800,112,145,0.7,36,4,28,28,147,细颗粒物(PM2.5)
宁波市,区环保大楼,121.8358,29.911,2024-12-04T1800,20,42,0.6,34,19,67,78,42,
宁波市,万里学院,121.56,29.82,2024-12-04T1800,24,51,0.6,35,7,68,77,51,颗粒物(PM10)
宁波市,龙赛医院,121.713,29.9572,2024-12-04T1800,15,37,,35,10,65,74,,
宁波市,钱湖水厂,121.633,29.7733,2024-12-04T1800,16,28,0.7,15,6,80,90,28,
宁波市,太古小学,121.5856,29.8635,2024-12-04T1800,24,48,0.6,41,9,62,70,48,
宁波市,市环境监测中心,121.524,29.8674,2024-12-04T1800,18,44,0.9,48,6,52,72,44,
宁波市,万里国际学校,121.6147,29.9017,2024-12-04T1800,19,48,0.5,50,9,52,73,48,
宁波市,白沙活动中心,121.5594,29.8975,2024-12-04T1800,18,47,0.6,43,10,55,75,47,
宁德市,金涵水库,119.5001,26.6946,2024-12-04T1800,,,,,,,,,
宁德市,宁德市监测站,119.5388,26.6612,2024-12-04T1800,42,62,0.6,30,7,84,73,59,细颗粒物(PM2.5)
宁德市,宁德一中,119.5231,26.6562,2024-12-04T1800,44,65,0.6,17,,98,82,,
怒江傈僳族自治州,州监测站,98.8601,25.8567,2024-12-04T1800,7,35,0.4,11,4,79,72,35,
怒江傈僳族自治州,泸水一中,98.8546,25.8417,2024-12-04T1800,10,33,0.5,14,6,68,62,33,
攀枝花市,弄弄坪,101.6891,26.571,2024-12-04T1800,18,39,0.5,37,23,68,64,39,
攀枝花市,河门口,101.5769,26.5928,2024-12-04T1800,25,40,1.5,37,29,77,71,40,
攀枝花市,炳草岗,101.7169,26.585,2024-12-04T1800,13,43,0.6,25,24,84,72,43,
攀枝花市,仁和,101.7369,26.5008,2024-12-04T1800,20,40,0.6,33,22,83,78,40,
攀枝花市,四十中小,101.7227,26.567,2024-12-04T1800,26,41,0.8,39,20,63,69,41,
盘锦市,开发区,122.0303,41.1489,2024-12-04T1800,34,59,0.7,54,10,23,59,55,颗粒物(PM10)
盘锦市,兴隆台,122.0485,41.0883,2024-12-04T1800,45,46,0.7,50,11,26,58,63,细颗粒物(PM2.5)
盘锦市,新生街道,121.8297,41.1028,2024-12-04T1800,8,15,0.3,24,9,57,68,18,
平顶山市,新华旅馆,113.3257,33.742,2024-12-04T1800,145,208,0.8,42,7,20,16,193,细颗粒物(PM2.5)
平顶山市,规划设计院,113.2919,33.737,2024-12-04T1800,139,223,1.0,39,6,25,19,185,细颗粒物(PM2.5)
平顶山市,平顶山工学院,113.182,33.774,2024-12-04T1800,134,202,1.0,38,7,19,22,178,细颗粒物(PM2.5)
平顶山市,规划局,113.3025,33.73,2024-12-04T1800,149,195,1.0,43,6,16,13,199,细颗粒物(PM2.5)
平顶山市,石龙区,112.8867,33.9116,2024-12-04T1800,122,169,1.3,41,14,30,28,160,细颗粒物(PM2.5)
平凉市,聚贤嘉苑,106.6692,35.5461,2024-12-04T1800,18,42,0.3,13,8,97,101,42,
平凉市,博物馆,106.7021,35.5307,2024-12-04T1800,23,54,0.3,8,8,101,104,52,颗粒物(PM10)
萍乡市,武功山,114.0997,27.5002,2024-12-04T1800,58,102,0.4,20,14,104,102,79,细颗粒物(PM2.5)
萍乡市,中医院,113.8385,27.6434,2024-12-04T1800,120,186,1.5,38,11,65,95,158,细颗粒物(PM2.5)
萍乡市,市政府车库,113.8493,27.6253,2024-12-04T1800,128,170,1.1,37,12,66,100,169,细颗粒物(PM2.5)
萍乡市,市环保局,113.8676,27.6435,2024-12-04T1800,114,159,1.4,35,15,71,92,149,细颗粒物(PM2.5)
萍乡市,安源区政府,113.866,27.6198,2024-12-04T1800,126,167,0.9,38,10,73,94,166,细颗粒物(PM2.5)
莆田市,荔城区仓后路,119.0141,25.4325,2024-12-04T1800,30,55,0.5,13,2,105,106,53,颗粒物(PM10)
莆田市,莆田市监测站,119.0015,25.4553,2024-12-04T1800,,,0.5,,,107,109,,
莆田市,涵江区六中,119.1119,25.4561,2024-12-04T1800,28,58,0.3,12,2,113,114,54,颗粒物(PM10)
莆田市,秀屿区政府,119.1013,25.3215,2024-12-04T1800,31,54,0.4,12,1,114,115,52,颗粒物(PM10)
莆田市,东圳水库,118.981,25.4792,2024-12-04T1800,,,,,,,,,
濮阳市,环保局,115.0312,35.7636,2024-12-04T1800,73,80,0.7,34,2,43,55,98,细颗粒物(PM2.5)
濮阳市,油田运输公司,115.0574,35.7609,2024-12-04T1800,65,106,0.7,32,2,39,52,88,细颗粒物(PM2.5)
濮阳市,油田物探公司,115.0866,35.7754,2024-12-04T1800,75,113,0.7,28,2,42,55,100,细颗粒物(PM2.5)
濮阳市,濮水河管理处,115,35.7668,2024-12-04T1800,76,126,0.6,40,3,26,53,102,细颗粒物(PM2.5)
普洱市,市环保局,100.98,22.7633,2024-12-04T1800,19,36,0.5,12,7,56,55,36,
普洱市,普洱第二中学,100.9817,22.8322,2024-12-04T1800,11,19,0.4,7,6,59,57,19,
七台河市,新一中,131.0518,45.8751,2024-12-04T1800,9,15,1.4,10,10,68,68,22,
七台河市,中波台,131.0577,45.7879,2024-12-04T1800,8,18,0.6,37,10,33,51,19,
七台河市,人民广场,131.0176,45.7761,2024-12-04T1800,16,18,0.5,35,7,39,53,23,
七台河市,新建矿广场,130.8781,45.8222,2024-12-04T1800,24,,0.5,22,3,49,53,35,
齐齐哈尔市,安居小区,123.9305,47.3636,2024-12-04T1800,34,53,0.7,24,1,53,64,52,颗粒物(PM10)
齐齐哈尔市,中心广场,123.9488,47.3386,2024-12-04T1800,16,24,0.6,26,5,49,58,24,
齐齐哈尔市,农牧车辆厂,123.9483,47.3227,2024-12-04T1800,18,29,0.4,22,6,54,57,29,
齐齐哈尔市,市环境监测站,123.945,47.2988,2024-12-04T1800,21,40,0.6,31,3,43,62,40,
齐齐哈尔市,富区青少年活动中心,123.6333,47.2075,2024-12-04T1800,19,31,0.8,22,9,45,50,31,
黔东南苗族侗族自治州,市环境监测站,107.9783,26.5747,2024-12-04T1800,73,87,0.8,22,2,54,58,98,细颗粒物(PM2.5)
黔东南苗族侗族自治州,凯里学院,107.8908,26.5311,2024-12-04T1800,67,75,0.7,21,3,58,64,90,细颗粒物(PM2.5)
黔南布依族苗族自治州,小围寨,107.5228,26.2403,2024-12-04T1800,31,41,0.8,10,3,27,38,45,
黔南布依族苗族自治州,沙坝,107.5175,26.2978,2024-12-04T1800,31,36,0.7,14,4,38,33,45,
黔西南布依族苗族自治州,场坝街,104.9022,25.0925,2024-12-04T1800,37,39,0.4,10,5,79,73,53,细颗粒物(PM2.5)
黔西南布依族苗族自治州,坪东大道,104.8811,25.0992,2024-12-04T1800,34,41,0.3,8,3,76,70,49,
钦州市,市环保站,108.6236,21.9667,2024-12-04T1800,48,107,1.0,31,10,212,180,106,臭氧1小时
钦州市,沙埠小学,108.6549,21.9481,2024-12-04T1800,52,110,0.9,36,12,221,186,111,臭氧1小时
钦州市,港区一小,108.5989,21.7431,2024-12-04T1800,47,160,0.9,56,11,156,196,105,颗粒物(PM10)
钦州市,北职校,108.5959,21.9633,2024-12-04T1800,58,81,1.0,23,13,204,184,102,臭氧1小时
秦皇岛市,北戴河环保局,119.5134,39.8207,2024-12-04T1800,17,,0.4,18,1,55,66,25,
秦皇岛市,第一关,119.7493,40.0116,2024-12-04T1800,18,,0.3,26,3,54,69,26,
秦皇岛市,监测站,119.5897,39.9499,2024-12-04T1800,12,30,0.4,41,3,35,60,30,
秦皇岛市,建设大厦,119.5251,39.9041,2024-12-04T1800,16,30,0.3,25,2,49,60,30,
秦皇岛市,文明里,119.610547,39.943889,2024-12-04T1800,18,37,0.3,34,4,45,59,37,
青岛市,仰口,120.6659,36.2403,2024-12-04T1800,36,50,0.3,29,11,60,71,52,细颗粒物(PM2.5)
青岛市,市南区东部子站,120.4134,36.0658,2024-12-04T1800,34,68,0.9,63,12,36,68,59,颗粒物(PM10)
青岛市,四方区子站,120.3664,36.1032,2024-12-04T1800,29,53,0.8,70,12,25,71,52,颗粒物(PM10)
青岛市,市南区西部子站,120.2994,36.054,2024-12-04T1800,24,51,0.7,34,12,61,66,51,颗粒物(PM10)
青岛市,崂山区子站,120.4581,36.0858,2024-12-04T1800,29,66,0.7,58,12,37,73,58,颗粒物(PM10)
青岛市,黄岛区子站,120.1983,35.9608,2024-12-04T1800,39,63,0.8,78,9,20,53,57,颗粒物(PM10)
青岛市,城阳区子站,120.3999,36.3083,2024-12-04T1800,39,85,1.1,75,14,14,54,68,颗粒物(PM10)
青岛市,黄岛区4号,120.0405,35.8735,2024-12-04T1800,24,48,0.6,53,9,39,63,48,
青岛市,即墨2号,120.5014,36.4034,2024-12-04T1800,43,93,1.2,76,17,16,50,72,颗粒物(PM10)
青岛市,市北区南部,120.3503,36.0736,2024-12-04T1800,29,94,0.7,77,10,25,63,72,颗粒物(PM10)
青岛市,李沧区北部,120.3948,36.1805,2024-12-04T1800,36,97,0.8,84,14,11,58,74,颗粒物(PM10)
清远市,环保大楼,113.0426,23.691,2024-12-04T1800,25,30,0.8,24,7,116,123,37,
清远市,凤城街办,113.0208,23.7106,2024-12-04T1800,25,39,0.9,35,11,99,120,39,
清远市,技师学院,113.0477,23.6344,2024-12-04T1800,27,41,0.8,20,9,118,116,41,
清远市,清新太和,112.9903,23.7403,2024-12-04T1800,21,40,0.6,18,5,105,108,40,
清远市,清城东城,113.076,23.7198,2024-12-04T1800,43,73,1.0,26,8,101,119,62,颗粒物(PM10)
庆阳市,庆阳五中,107.6325,35.7357,2024-12-04T1800,20,59,0.5,21,8,71,78,55,颗粒物(PM10)
庆阳市,市环保局,107.6364,35.7067,2024-12-04T1800,11,49,0.4,21,5,72,84,49,
曲靖市,环境监测站,103.7897,25.5035,2024-12-04T1800,3,23,0.4,12,6,91,85,29,
曲靖市,烟厂办公区,103.8,25.5364,2024-12-04T1800,3,13,0.1,8,4,92,82,29,
曲靖市,南苑二区,103.7947,25.462,2024-12-04T1800,7,10,0.4,6,4,96,89,30,
曲靖市,曲靖师范学院,103.7444,25.5261,2024-12-04T1800,3,22,,9,9,101,98,,
衢州市,环保大楼,118.8692,28.9398,2024-12-04T1800,72,93,0.7,54,4,39,63,97,细颗粒物(PM2.5)
衢州市,实验学校,118.8709,28.9666,2024-12-04T1800,53,68,0.6,31,5,64,72,73,细颗粒物(PM2.5)
衢州市,衢州学院,118.8621,28.9808,2024-12-04T1800,63,90,0.4,38,5,78,91,85,细颗粒物(PM2.5)
泉州市,涂山街,118.5819,24.9117,2024-12-04T1800,32,61,0.6,16,1,105,115,56,颗粒物(PM10)
泉州市,津头埔,118.5972,24.8978,2024-12-04T1800,32,62,0.4,21,2,,113,,
泉州市,万安,118.6663,24.9424,2024-12-04T1800,28,57,0.4,14,2,116,123,54,颗粒物(PM10)
泉州市,清源山,118.6117,24.9604,2024-12-04T1800,,,,,,,,,
泉州市,城华南路,118.6333,24.9264,2024-12-04T1800,30,54,0.4,20,2,102,115,52,颗粒物(PM10)
日喀则市,日喀则监测站,88.8876,29.2718,2024-12-04T1800,3,6,0.3,4,5,,87,,
日喀则市,林业技术推广中心,88.8781,29.2426,2024-12-04T1800,3,13,0.0,2,6,97,84,31,
日照市,监测站,119.471,35.4209,2024-12-04T1800,45,83,1.0,65,11,22,50,67,颗粒物(PM10)
日照市,市政府广场,119.523,35.4216,2024-12-04T1800,45,70,1.4,62,13,33,57,63,细颗粒物(PM2.5)
日照市,港务局,119.5587,35.4044,2024-12-04T1800,44,107,1.2,79,18,18,57,79,颗粒物(PM10)
日照市,职业技术学院,119.5328,35.4625,2024-12-04T1800,36,83,0.7,70,7,16,60,67,颗粒物(PM10)
日照市,岚山环保分局,119.3266,35.1044,2024-12-04T1800,36,75,1.1,58,15,36,50,63,颗粒物(PM10)
三门峡市,市政府,111.1922,34.7752,2024-12-04T1800,32,42,0.6,39,8,40,40,46,
三门峡市,开发区,111.1587,34.7942,2024-12-04T1800,20,43,0.5,22,6,51,43,43,
三门峡市,风景区,111.143,34.7955,2024-12-04T1800,28,50,0.5,22,16,61,12,50,
三门峡市,三门峡市第一小学,111.1911,34.7829,2024-12-04T1800,23,54,0.5,26,9,53,43,52,颗粒物(PM10)
三门峡市,富达温泉假日酒店,111.1,34.7167,2024-12-04T1800,40,81,0.7,46,14,40,45,66,颗粒物(PM10)
三明市,三钢,117.6211,26.2625,2024-12-04T1800,28,37,0.5,28,3,55,63,40,
三明市,三明二中,117.635,26.2714,2024-12-04T1800,24,28,0.6,17,1,65,64,35,
三明市,三元区政府,117.6028,26.2378,2024-12-04T1800,27,45,0.7,26,2,55,57,45,
三明市,洋溪,117.7275,26.3108,2024-12-04T1800,,,,,,,,,
三亚市,河东子站,109.5078,18.2489,2024-12-04T1800,13,44,0.6,6,3,85,93,44,
三亚市,河西子站,109.4964,18.2681,2024-12-04T1800,16,30,0.3,8,4,86,92,30,
三亚市,君悦子站,109.7348,18.3443,2024-12-04T1800,12,41,0.4,4,2,94,94,41,
山南市,山南监测站,91.7608,29.2313,2024-12-04T1800,10,21,0.3,14,3,91,73,29,
山南市,山南人民医院,91.7706,29.2436,2024-12-04T1800,6,17,0.5,17,2,92,76,29,
汕头市,金平子站,116.6794,23.3667,2024-12-04T1800,24,47,0.6,14,7,140,126,47,
汕头市,龙湖子站,116.7244,23.3633,2024-12-04T1800,22,56,0.6,16,8,131,120,53,颗粒物(PM10)
汕头市,濠江子站,116.7258,23.2775,2024-12-04T1800,47,,0.6,11,3,134,127,65,细颗粒物(PM2.5)
汕头市,澄海子站,116.7519,23.4714,2024-12-04T1800,29,52,0.9,15,8,142,132,51,颗粒物(PM10)
汕头市,潮阳子站,116.6092,23.2539,2024-12-04T1800,20,56,0.6,13,6,135,122,53,颗粒物(PM10)
汕头市,潮南峡山,116.454,23.2684,2024-12-04T1800,44,68,0.7,14,8,134,126,62,细颗粒物(PM2.5)
汕头市,潮南子站,116.4069,23.2533,2024-12-04T1800,25,66,0.6,15,6,131,124,58,颗粒物(PM10)
汕尾市,市环保局,115.3653,22.775,2024-12-04T1800,26,41,0.6,17,7,138,119,44,
汕尾市,市政府,115.3706,22.7898,2024-12-04T1800,26,38,0.6,15,8,126,110,40,
汕尾市,新城中学,115.3622,22.7925,2024-12-04T1800,29,49,0.5,13,7,123,106,49,
商洛市,监测站,109.9154,33.8715,2024-12-04T1800,22,47,0.2,18,4,75,71,47,
商洛市,商州区中学,109.9643,33.8471,2024-12-04T1800,20,43,0.3,19,2,75,69,43,
商丘市,环境监测站,115.6702,34.4285,2024-12-04T1800,75,114,1.0,25,8,65,59,100,细颗粒物(PM2.5)
商丘市,粮食局,115.6458,34.4045,2024-12-04T1800,81,102,,23,5,64,61,108,细颗粒物(PM2.5)
商丘市,睢阳区环保局,115.6293,34.3948,2024-12-04T1800,76,108,0.8,35,8,45,59,102,细颗粒物(PM2.5)
商丘市,梁园区档案局,115.6071,34.4465,2024-12-04T1800,76,106,1.4,42,6,54,59,102,细颗粒物(PM2.5)
上海市,普陀,121.4,31.238,2024-12-04T1800,13,31,0.6,36,6,58,62,31,
上海市,十五厂,121.478,31.2036,2024-12-04T1800,14,30,0.6,30,9,67,66,30,
上海市,虹口,121.467,31.3008,2024-12-04T1800,16,28,0.5,33,6,64,65,28,
上海市,徐汇上师大,121.412,31.1654,2024-12-04T1800,14,22,0.6,26,8,73,70,23,
上海市,杨浦四漂,121.536,31.2659,2024-12-04T1800,,,,,,,66,,
上海市,静安监测站,121.425,31.2261,2024-12-04T1800,12,30,0.5,33,8,64,67,30,
上海市,浦东川沙,121.703,31.1907,2024-12-04T1800,8,21,0.5,21,6,84,84,27,
上海市,浦东新区监测站,121.533,31.2284,2024-12-04T1800,16,24,0.5,28,7,70,70,24,
上海市,浦东张江,121.577,31.2071,2024-12-04T1800,13,19,0.7,22,6,86,80,27,
上海市,宝山庙行,121.4316,31.3322,2024-12-04T1800,,,,,,,65,,
上海市,崇明上实东滩,121.8791,31.4662,2024-12-04T1800,6,,,,8,78,85,,
上海市,嘉定南翔,121.3162,31.2838,2024-12-04T1800,13,29,0.6,43,8,52,58,29,
上海市,金山新城,121.3359,30.7456,2024-12-04T1800,13,22,0.4,22,6,78,70,25,
上海市,闵行浦江,121.4996,31.0739,2024-12-04T1800,10,24,,30,6,70,74,,
上海市,青浦徐泾,121.2886,31.1663,2024-12-04T1800,16,33,0.3,35,8,61,63,33,
上海市,松江图书馆,121.2186,31.0378,2024-12-04T1800,18,31,0.4,36,8,62,63,31,
上海市,长宁仙霞,121.3902,31.2059,2024-12-04T1800,17,30,0.8,36,7,63,71,30,
上海市,浦东惠南,121.7965,31.0507,2024-12-04T1800,10,23,0.5,21,7,80,82,25,
上海市,奉贤南桥新城,121.4891,30.925,2024-12-04T1800,14,24,0.4,28,6,,72,,
上饶市,百草园,118.005,28.4572,2024-12-04T1800,54,75,0.9,4,1,98,105,74,细颗粒物(PM2.5)
上饶市,市监测站,117.9756,28.4436,2024-12-04T1800,45,81,0.8,23,6,101,107,66,颗粒物(PM10)
上饶市,凤凰光学,117.9519,28.4628,2024-12-04T1800,44,80,1.0,20,8,97,105,65,颗粒物(PM10)
上饶市,广丰区教体局,118.1953,28.4401,2024-12-04T1800,67,122,0.9,30,6,70,86,90,细颗粒物(PM2.5)
上饶市,双创科技城,117.897,28.4315,2024-12-04T1800,48,78,1.0,28,6,98,112,67,细颗粒物(PM2.5)
韶关市,市八中,113.5824,24.7733,2024-12-04T1800,29,52,0.7,42,,57,91,,
韶关市,园林处,113.5917,24.7972,2024-12-04T1800,33,35,0.6,30,13,78,95,48,
韶关市,韶关学院,113.6735,24.7791,2024-12-04T1800,50,78,1.0,90,12,19,88,69,细颗粒物(PM2.5)
韶关市,曲江监测站,113.5971,24.6863,2024-12-04T1800,48,71,0.9,32,14,74,92,67,细颗粒物(PM2.5)
韶关市,碧湖山庄,113.5556,24.8082,2024-12-04T1800,37,56,0.6,25,11,88,96,53,"颗粒物(PM10),细颗粒物(PM2.5)"
邵阳市,市水土所,111.5239,27.3033,2024-12-04T1800,,,,,,,,,
邵阳市,市一中,111.4733,27.2317,2024-12-04T1800,124,133,1.0,22,,119,117,163,细颗粒物(PM2.5)
邵阳市,市化工厂,111.5283,27.2442,2024-12-04T1800,117,166,0.8,25,11,114,110,153,细颗粒物(PM2.5)
邵阳市,市罐头厂,111.4503,27.2537,2024-12-04T1800,130,149,0.9,28,10,113,113,172,细颗粒物(PM2.5)
邵阳市,市环保局,111.4328,27.2272,2024-12-04T1800,107,125,1.1,20,10,114,110,140,细颗粒物(PM2.5)
绍兴市,城东开发委,120.6053,29.9928,2024-12-04T1800,15,34,0.7,39,7,52,71,34,
绍兴市,树下王站,120.5483,30.0003,2024-12-04T1800,15,36,0.5,33,6,60,84,36,
绍兴市,绍兴中专,120.5683,29.9361,2024-12-04T1800,13,27,0.7,33,8,65,76,27,
绍兴市,柯桥区政府,120.4906,30.0861,2024-12-04T1800,14,31,0.7,43,7,53,59,31,
绍兴市,重华小学,120.8752,30.0249,2024-12-04T1800,18,34,0.6,25,8,72,82,34,
绍兴市,上虞中学,120.8369,30.0137,2024-12-04T1800,16,29,0.6,18,7,77,82,29,
绍兴市,柯桥妇保,120.4722,30.0415,2024-12-04T1800,8,27,0.6,30,5,60,64,27,
绍兴市,袍江中学,120.6153,30.0764,2024-12-04T1800,15,30,0.5,36,6,62,81,30,
深圳市,通心岭子站,114.1063,22.5545,2024-12-04T1800,17,33,0.7,10,4,131,120,41,
深圳市,洪湖,114.117,22.5625,2024-12-04T1800,20,43,0.4,37,6,113,108,43,
深圳市,华侨城,113.987,22.5417,2024-12-04T1800,17,34,0.7,18,6,111,107,35,
深圳市,南海子站,113.9181,22.5171,2024-12-04T1800,19,52,0.5,65,8,74,100,51,颗粒物(PM10)
深圳市,盐田,114.2458,22.5689,2024-12-04T1800,24,49,0.6,37,8,109,102,49,
深圳市,龙岗,114.2283,22.7244,2024-12-04T1800,14,34,0.7,23,8,121,127,38,
深圳市,南澳,114.494,22.5422,2024-12-04T1800,20,37,0.6,7,8,126,122,40,
深圳市,葵涌,114.41,22.6342,2024-12-04T1800,22,44,0.5,20,6,119,119,44,
深圳市,梅沙,114.297,22.5978,2024-12-04T1800,29,46,0.5,9,8,134,124,46,
深圳市,观澜,114.0678,22.738,2024-12-04T1800,,,,64,,93,83,,
深圳市,莲花,114.0731,22.559,2024-12-04T1800,18,33,0.6,22,6,112,110,35,
深圳市,民治,114.0261,22.6198,2024-12-04T1800,16,42,0.6,42,6,99,106,42,
深圳市,横岗,114.1871,22.6451,2024-12-04T1800,18,34,0.5,34,7,106,104,34,
深圳市,坪山,114.3551,22.7151,2024-12-04T1800,15,35,0.5,18,6,129,124,41,
深圳市,西乡,113.8953,22.5861,2024-12-04T1800,8,40,0.6,43,8,109,119,40,
沈阳市,森林路,123.6836,41.9339,2024-12-04T1800,,,,,,,,,
沈阳市,浑南东路,123.505,41.7406,2024-12-04T1800,20,38,0.7,53,11,26,51,38,
沈阳市,新秀街,123.4231,41.6989,2024-12-04T1800,18,34,0.7,48,11,27,45,34,
沈阳市,东陵路,123.5903,41.8411,2024-12-04T1800,14,18,0.6,43,17,28,48,22,
沈阳市,陵东街,123.4264,41.8467,2024-12-04T1800,13,41,0.7,28,15,42,50,41,
沈阳市,文化路,123.4114,41.7653,2024-12-04T1800,31,48,0.7,43,9,25,52,48,
沈阳市,小河沿,123.4678,41.7867,2024-12-04T1800,18,32,0.6,32,11,42,53,32,
沈阳市,太原街,123.4017,41.7972,2024-12-04T1800,21,37,1.1,53,18,22,43,37,
沈阳市,京沈街,123.3783,41.9228,2024-12-04T1800,29,45,0.7,46,28,28,51,45,
沈阳市,沈辽西路,123.2444,41.7347,2024-12-04T1800,20,43,0.6,56,11,24,51,43,
沈阳市,裕农路,123.5953,41.9086,2024-12-04T1800,16,37,0.5,40,12,32,48,37,
十堰市,武当山,111.0419,32.395,2024-12-04T1800,12,20,0.4,10,9,84,92,27,
十堰市,滨河新村,110.78,32.6494,2024-12-04T1800,25,37,0.6,45,9,33,33,37,
十堰市,刘家沟,110.7258,32.6389,2024-12-04T1800,21,45,1.0,22,6,45,38,45,
十堰市,铁二处,110.8839,32.5714,2024-12-04T1800,44,48,0.8,43,10,26,21,62,细颗粒物(PM2.5)
十堰市,郧阳区金沙路,110.8054,32.8401,2024-12-04T1800,44,,0.7,23,14,,21,,
石河子市,艾青诗歌馆,86.0497,44.2967,2024-12-04T1800,35,49,0.6,,9,31,46,,
石河子市,南区管委会,86.047,44.2331,2024-12-04T1800,13,28,0.6,23,5,36,49,28,
石河子市,世纪广场,86.0791,44.3017,2024-12-04T1800,17,37,0.6,12,6,42,48,37,
石家庄市,职工医院,114.4422,38.0444,2024-12-04T1800,81,120,0.8,40,5,38,29,108,细颗粒物(PM2.5)
石家庄市,高新区,114.6063,38.0266,2024-12-04T1800,58,146,0.8,46,3,43,36,98,颗粒物(PM10)
石家庄市,西北水源,114.4898,38.1328,2024-12-04T1800,73,125,0.9,72,7,17,23,98,细颗粒物(PM2.5)
石家庄市,西南高教,114.4586,38.0058,2024-12-04T1800,73,124,0.8,41,5,44,35,98,细颗粒物(PM2.5)
石家庄市,世纪公园,114.5331,38.0178,2024-12-04T1800,75,97,0.8,38,6,50,33,100,细颗粒物(PM2.5)
石家庄市,人民会堂,114.509,38.0457,2024-12-04T1800,74,117,0.8,36,4,52,33,99,细颗粒物(PM2.5)
石家庄市,封龙山,114.3524,37.8911,2024-12-04T1800,53,127,1.3,48,11,46,47,89,颗粒物(PM10)
石家庄市,22中南校区,114.5481,38.0378,2024-12-04T1800,85,105,0.8,47,5,48,33,113,细颗粒物(PM2.5)
石家庄市,鹿泉一中,114.289,38.0906,2024-12-04T1800,72,133,0.9,52,4,34,26,97,细颗粒物(PM2.5)
石家庄市,藁城区实验学校,114.8506765,38.0322033,2024-12-04T1800,68,113,0,46,4,48,39,92,细颗粒物(PM2.5)
石家庄市,井陉矿区区委大楼,114.0504658,38.0591645,2024-12-04T1800,61,129,1.0,76,12,7,23,90,颗粒物(PM10)
石家庄市,栾城区星河路,114.6549,37.9020,2024-12-04T1800,80,125,0.7,36,8,54,43,107,细颗粒物(PM2.5)
石嘴山市,沙湖旅游区,106.3394,38.817,2024-12-04T1800,,,,,,,,,
石嘴山市,大武口朝阳西街,106.3668,39.0145,2024-12-04T1800,9,10,0.5,6,4,82,78,26,
石嘴山市,惠农南大街,106.7704,39.2282,2024-12-04T1800,11,24,0.4,18,10,68,72,24,
石嘴山市,红果子镇惠新街,106.7099,39.1325,2024-12-04T1800,8,17,0.4,16,19,75,77,24,
石嘴山市,妇女儿童医院,106.3495,38.9836,2024-12-04T1800,8,23,0.3,13,5,80,72,25,
石嘴山市,石大公路,106.7492,39.2069,2024-12-04T1800,15,18,0.2,15,9,70,78,22,
双鸭山市,双合村,131.1511,46.6937,2024-12-04T1800,20,,0.4,6,5,63,59,29,
双鸭山市,南小市,131.1652,46.6191,2024-12-04T1800,13,19,,9,7,57,50,,
双鸭山市,环保局,131.1524,46.6554,2024-12-04T1800,25,26,0.6,16,9,48,48,36,
双鸭山市,苗圃,131.12,46.5656,2024-12-04T1800,8,28,0.3,8,3,54,53,28,
朔州市,平朔,112.4397,39.3522,2024-12-04T1800,21,32,0.5,26,4,39,55,32,
朔州市,朔唯,112.4575,39.3617,2024-12-04T1800,21,42,0.4,50,5,22,45,42,
朔州市,区政府,112.4258,39.3197,2024-12-04T1800,14,43,0.9,34,7,30,46,43,
朔州市,市环保局,112.4072,39.3278,2024-12-04T1800,15,41,0.8,37,10,30,53,41,
朔州市,市二中,112.4272,39.3681,2024-12-04T1800,22,36,0.5,28,7,36,52,36,
朔州市,一水厂,112.2931,39.53,2024-12-04T1800,17,48,0.4,25,6,47,52,48,
四平市,一商场,124.4002,43.1713,2024-12-04T1800,18,69,0.5,30,5,46,63,60,颗粒物(PM10)
四平市,境园,124.388,43.193,2024-12-04T1800,8,29,0.3,17,4,57,66,29,
四平市,植物园,124.4036,43.1411,2024-12-04T1800,3,47,0.4,36,8,34,65,47,
四平市,世纪城,124.3419,43.1666,2024-12-04T1800,17,42,0.3,16,6,57,66,42,
松原市,江南,124.8006,45.1214,2024-12-04T1800,13,88,0.5,11,3,63,63,69,颗粒物(PM10)
松原市,江北,124.7965,45.1722,2024-12-04T1800,9,36,0.3,8,3,63,63,36,
苏州市,上方山,120.561,31.2472,2024-12-04T1800,26,41,0.5,28,6,63,58,41,
苏州市,彩香,120.591,31.3019,2024-12-04T1800,23,58,0.6,26,8,57,60,54,颗粒物(PM10)
苏州市,轧钢厂,120.596,31.3264,2024-12-04T1800,22,49,0.7,34,6,54,56,49,
苏州市,吴中区,120.613,31.2703,2024-12-04T1800,22,51,0.6,34,7,50,51,51,颗粒物(PM10)
苏州市,苏州新区,120.543,31.2994,2024-12-04T1800,26,48,0.5,46,7,45,56,48,
苏州市,苏州工业园区,120.669,31.3097,2024-12-04T1800,22,45,0.5,36,7,54,56,45,
苏州市,相城区,120.641,31.3708,2024-12-04T1800,22,46,0.6,41,6,49,56,46,
苏州市,方洲路,120.743,31.3188,2024-12-04T1800,20,41,0.6,,,56,55,,
苏州市,木渎中学,120.5031,31.2774,2024-12-04T1800,25,52,0.7,34,8,57,61,51,颗粒物(PM10)
苏州市,越秀幼儿园,120.624,31.1733,2024-12-04T1800,23,52,0.7,31,6,51,50,51,颗粒物(PM10)
苏州市,高铁新城,120.6505,31.416,2024-12-04T1800,21,47,0.7,34,8,48,60,47,
宿迁市,宿迁学院,118.293,33.9528,2024-12-04T1800,69,101,0.8,39,3,54,66,93,细颗粒物(PM2.5)
宿迁市,宿迁中学,118.2442,33.9592,2024-12-04T1800,65,105,0.5,35,4,56,64,88,细颗粒物(PM2.5)
宿迁市,市供电局,118.283,33.965,2024-12-04T1800,88,130,0.5,56,6,30,64,117,细颗粒物(PM2.5)
宿迁市,宿豫区政府,118.3225,33.9447,2024-12-04T1800,88,154,0.8,57,5,41,64,117,细颗粒物(PM2.5)
宿州市,远航博物馆,116.9509,33.666,2024-12-04T1800,70,115,0.7,28,6,43,48,94,细颗粒物(PM2.5)
宿州市,社会福利中心,116.9708,33.591,2024-12-04T1800,61,116,0.6,54,7,20,38,83,"颗粒物(PM10),细颗粒物(PM2.5)"
宿州市,宿州学院,116.9884,33.6305,2024-12-04T1800,68,139,0.5,37,5,30,38,95,颗粒物(PM10)
宿州市,皖北煤电集团,116.9648,33.6252,2024-12-04T1800,67,120,0.6,50,5,26,39,90,细颗粒物(PM2.5)
绥化市,人和东街,126.9785,46.6365,2024-12-04T1800,12,22,0.5,21,3,55,58,22,
绥化市,党政办公中心,126.964,46.6528,2024-12-04T1800,12,22,0.6,15,4,60,59,22,
随州市,市委党校,113.3583,31.7275,2024-12-04T1800,57,83,0.8,20,5,47,35,78,细颗粒物(PM2.5)
随州市,市林业局,113.3833,31.6908,2024-12-04T1800,68,73,0.9,23,7,50,34,92,细颗粒物(PM2.5)
随州市,市立交桥水厂,113.3983,31.7308,2024-12-04T1800,69,80,0.8,19,6,,26,,
遂宁市,石溪浩,105.5453,30.5678,2024-12-04T1800,31,39,0.8,26,4,15,20,45,
遂宁市,市监测站,105.5582,30.5232,2024-12-04T1800,31,38,0.4,32,7,15,19,45,
遂宁市,行政中心,105.5861,30.5366,2024-12-04T1800,31,38,0.4,22,8,21,19,45,
遂宁市,美宁食品公司,105.5918,30.4728,2024-12-04T1800,25,47,0.4,33,6,14,22,47,
塔城地区,东门外小游园,82.9994,46.7432,2024-12-04T1800,12,38,0.4,23,4,22,30,38,
台州市,黄岩环保大楼,121.273,28.6459,2024-12-04T1800,40,65,0.6,34,2,61,87,58,颗粒物(PM10)
台州市,台州环保大楼,121.419,28.6542,2024-12-04T1800,30,50,0.5,20,4,103,106,50,
台州市,路桥田洋王,121.377,28.5773,2024-12-04T1800,35,59,0.7,28,4,100,110,55,颗粒物(PM10)
台州市,台州科技职业学院,121.2568,28.6681,2024-12-04T1800,36,72,0.6,28,4,81,91,61,颗粒物(PM10)
太原市,尖草坪,112.522,37.8873,2024-12-04T1800,27,58,0.4,32,6,49,61,54,颗粒物(PM10)
太原市,上兰,112.434,38.0108,2024-12-04T1800,30,37,0.4,15,2,56,63,43,
太原市,晋源,112.469,37.7124,2024-12-04T1800,17,73,0.4,21,7,62,48,62,颗粒物(PM10)
太原市,小店,112.5583,37.7394,2024-12-04T1800,18,37,0.3,24,4,59,50,37,
太原市,桃园,112.5369,37.8692,2024-12-04T1800,27,51,0.4,27,4,55,67,51,颗粒物(PM10)
太原市,坞城,112.57,37.8195,2024-12-04T1800,25,51,0.4,26,6,53,57,51,颗粒物(PM10)
太原市,南寨,112.549,37.9854,2024-12-04T1800,18,54,0.4,25,5,56,65,52,颗粒物(PM10)
太原市,金胜,112.4719,37.7831,2024-12-04T1800,14,36,0.4,20,7,62,54,36,
太原市,育英中学,112.5608,37.8807,2024-12-04T1800,22,49,0.4,24,7,58,68,49,
泰安市,监测站,117.1437,36.1937,2024-12-04T1800,65,105,0.9,46,10,52,55,88,细颗粒物(PM2.5)
泰安市,人口学校,117.0885,36.2017,2024-12-04T1800,61,102,1.1,42,9,53,58,83,细颗粒物(PM2.5)
泰安市,电力学校,117.1089,36.1758,2024-12-04T1800,68,107,0.7,43,9,48,52,92,细颗粒物(PM2.5)
泰安市,国网新校,117.1812,36.2275,2024-12-04T1800,66,100,0.9,35,9,58,57,89,细颗粒物(PM2.5)
泰安市,交通技校,117.0313,36.2018,2024-12-04T1800,70,107,0.8,63,6,35,54,94,细颗粒物(PM2.5)
泰安市,山东第一医科大学,117.0829,36.13,2024-12-04T1800,94,119,0,50,7,40,58,124,细颗粒物(PM2.5)
泰州市,公园路,119.905,32.4878,2024-12-04T1800,22,44,0.6,32,6,57,70,44,
泰州市,莲花,119.9189,32.4625,2024-12-04T1800,27,42,0.4,31,6,64,70,42,
泰州市,留学生创业园,119.888,32.4639,2024-12-04T1800,29,48,0.5,33,8,57,71,48,
泰州市,王营,119.8767,32.3289,2024-12-04T1800,24,40,0.3,63,3,13,67,40,
泰州市,姜堰区政府广场,120.1259,32.5099,2024-12-04T1800,24,37,0.5,32,6,60,74,37,
泰州市,周山河街区,119.9192,32.4322,2024-12-04T1800,24,43,0.4,23,8,,69,,
唐山市,雷达站,118.131,39.6363,2024-12-04T1800,33,59,0.5,57,5,13,56,55,颗粒物(PM10)
唐山市,物资局,118.1725,39.6334,2024-12-04T1800,25,40,0.4,46,6,19,55,40,
唐山市,十二中,118.1705,39.6506,2024-12-04T1800,12,36,0.4,42,2,26,53,36,
唐山市,小山,118.1869,39.622,2024-12-04T1800,17,37,0.4,42,4,20,54,37,
唐山市,冀东油田职工医院,118.4359,39.2762,2024-12-04T1800,28,48,0.3,34,5,32,56,48,
唐山市,正泰大街热力站,118.09279,39.58089,2024-12-04T1800,34,44,0.7,55,4,11,47,49,
唐山市,丰润区政府,118.1562,39.8322,2024-12-04T1800,20,42,0.5,32,7,32,51,42,
唐山市,金山小学,118.43673,39.73809,2024-12-04T1800,18,67,0.4,26,12,40,58,59,颗粒物(PM10)
唐山市,政府服务中心,118.24498,39.66941,2024-12-04T1800,14,32,0.3,26,5,37,56,32,
唐山市,消防缸窑路中队,118.2059,39.6585,2024-12-04T1800,11,41,0.4,38,7,32,60,41,
唐山市,路南电大,118.1436,39.6202,2024-12-04T1800,36,68,0.4,53,3,14,52,59,颗粒物(PM10)
天津市,勤俭道,117.1444,39.1661,2024-12-04T1800,46,83,0.8,53,7,34,47,67,颗粒物(PM10)
天津市,大直沽八号路,117.237,39.1082,2024-12-04T1800,47,86,0.6,49,6,35,49,68,颗粒物(PM10)
天津市,前进道,117.202,39.0927,2024-12-04T1800,48,86,0.5,53,7,36,54,68,颗粒物(PM10)
天津市,淮河道,117.1837,39.2133,2024-12-04T1800,64,109,0.5,69,6,30,47,87,细颗粒物(PM2.5)
天津市,跃进路,117.307,39.0877,2024-12-04T1800,60,106,0.6,53,6,33,46,82,细颗粒物(PM2.5)
天津市,第四大街,117.707,39.0343,2024-12-04T1800,37,72,0.6,67,6,13,42,61,颗粒物(PM10)
天津市,永明路,117.457,38.8394,2024-12-04T1800,49,85,0.6,78,9,9,41,68,"颗粒物(PM10),细颗粒物(PM2.5)"
天津市,汉北路,117.764,39.1587,2024-12-04T1800,22,55,0.2,61,8,13,41,53,颗粒物(PM10)
天津市,团泊洼,117.157,38.9194,2024-12-04T1800,,,,,,,,,
天津市,河西一经路,117.7918,39.2474,2024-12-04T1800,46,82,0.6,66,8,16,43,66,颗粒物(PM10)
天津市,津沽路,117.3747,38.9846,2024-12-04T1800,40,74,0.7,70,8,17,46,62,颗粒物(PM10)
天津市,宾水西道,117.1589,39.0845,2024-12-04T1800,45,74,0.6,69,6,29,49,63,细颗粒物(PM2.5)
天津市,大理道,117.1941,39.1067,2024-12-04T1800,52,97,0.5,56,8,34,55,74,颗粒物(PM10)
天津市,中山北路,117.2101,39.1699,2024-12-04T1800,49,92,0.6,58,5,32,47,71,颗粒物(PM10)
天津市,西四道,117.3876,39.1488,2024-12-04T1800,65,118,0.7,98,8,4,48,88,细颗粒物(PM2.5)
天津市,雍阳西道,117.0365,39.3828,2024-12-04T1800,57,86,0.4,50,9,41,47,78,细颗粒物(PM2.5)
天津市,辛老路,117.0296,39.0605,2024-12-04T1800,46,80,0.6,58,6,23,47,65,颗粒物(PM10)
天津市,地纬路,116.9638,38.9375,2024-12-04T1800,53,91,1.0,63,9,25,42,73,细颗粒物(PM2.5)
天津市,北环路,117.4067,40.0583,2024-12-04T1800,17,27,0.3,23,5,42,56,27,
天津市,建设路,117.3045,39.7169,2024-12-04T1800,38,68,0.6,57,7,18,42,59,颗粒物(PM10)
天津市,滨水东路,117.8199,39.3521,2024-12-04T1800,37,71,0.5,74,7,5,44,61,颗粒物(PM10)
天水市,麦积山,106.0055,34.343,2024-12-04T1800,,,,,,,,,
天水市,公园小学,105.7205,34.5786,2024-12-04T1800,18,86,0.7,46,18,57,73,68,颗粒物(PM10)
天水市,麦积国土局,105.8945,34.5538,2024-12-04T1800,37,81,0.6,33,11,71,72,66,颗粒物(PM10)
铁岭市,汇工街西,123.8139,42.3022,2024-12-04T1800,20,28,0.5,49,12,17,55,29,
铁岭市,水上乐园,123.8649,42.2923,2024-12-04T1800,24,,0.5,42,13,29,52,35,
铁岭市,银州路东段,123.8486,42.2867,2024-12-04T1800,20,55,0.5,56,19,16,47,53,颗粒物(PM10)
铁岭市,金沙江路北,123.7153,42.2217,2024-12-04T1800,21,38,0.6,45,16,25,51,38,
通化市,光明,125.9358,41.7173,2024-12-04T1800,6,30,0.7,21,16,53,64,30,
通化市,铁路,125.9446,41.7325,2024-12-04T1800,10,37,0.5,22,12,51,62,37,
通辽市,艺术职业学校,122.2532,43.6801,2024-12-04T1800,12,40,0.5,17,6,59,65,40,
通辽市,老干部活动中心,122.2584,43.6333,2024-12-04T1800,28,61,0.3,13,9,59,63,56,颗粒物(PM10)
通辽市,东方明珠社区,122.2922,43.6189,2024-12-04T1800,26,47,0.4,21,9,55,67,47,
铜川市,党校,109.0656,35.0994,2024-12-04T1800,,,,,,,,,
铜川市,王益区政府,109.0697,35.0697,2024-12-04T1800,51,86,0.9,53,10,40,69,70,细颗粒物(PM2.5)
铜川市,新区管委会,108.9344,34.9058,2024-12-04T1800,48,57,0.5,45,11,49,63,67,细颗粒物(PM2.5)
铜川市,旺旺集团,108.9543,34.8732,2024-12-04T1800,75,88,0.6,68,11,20,62,100,细颗粒物(PM2.5)
铜陵市,市第四中学,117.8177,30.9412,2024-12-04T1800,50,78,1.1,35,10,47,48,69,细颗粒物(PM2.5)
铜陵市,市公路局,117.8059,30.9273,2024-12-04T1800,41,64,0.8,36,6,41,43,58,细颗粒物(PM2.5)
铜陵市,市新民污水厂,117.7807,30.9413,2024-12-04T1800,35,70,0.9,37,7,43,42,60,颗粒物(PM10)
铜陵市,市第九中学,117.7439,30.8792,2024-12-04T1800,40,86,1.1,81,4,39,35,68,颗粒物(PM10)
铜陵市,车站新区,117.846,30.9413,2024-12-04T1800,47,79,0.7,33,6,45,47,65,"颗粒物(PM10),细颗粒物(PM2.5)"
铜陵市,市职教基地,117.8483,30.97,2024-12-04T1800,36,66,1.1,33,7,41,45,58,颗粒物(PM10)
铜仁市,铜仁卫校,109.1839,27.7344,2024-12-04T1800,55,77,0.5,15,1,64,86,75,细颗粒物(PM2.5)
铜仁市,铜仁七中,109.1753,27.6944,2024-12-04T1800,71,,0.3,14,3,71,98,95,细颗粒物(PM2.5)
吐鲁番市,市环保局,89.1904,42.9418,2024-12-04T1800,67,166,1.4,43,8,32,41,108,颗粒物(PM10)
吐鲁番市,地区环保局,89.1673,42.9559,2024-12-04T1800,79,158,1.8,39,6,36,31,105,细颗粒物(PM2.5)
威海市,华夏技校,122.1214,37.4236,2024-12-04T1800,6,12,0.5,13,7,70,72,22,
威海市,山大分校,122.0508,37.5236,2024-12-04T1800,7,20,0.4,13,9,76,77,24,
威海市,市监测站,122.1067,37.5072,2024-12-04T1800,12,24,0.9,22,6,56,61,24,
威海市,文登开发区,122.0693,37.2174,2024-12-04T1800,12,26,0.3,24,9,54,64,26,
威海市,临港区管委会,122.1379,37.3414,2024-12-04T1800,3,22,0.5,17,1,61,66,22,
潍坊市,环保局,119.1437,36.7023,2024-12-04T1800,39,66,0.8,55,11,38,54,58,颗粒物(PM10)
潍坊市,坊子邮政,119.1641,36.6523,2024-12-04T1800,41,83,0.7,56,12,35,52,67,颗粒物(PM10)
潍坊市,潍坊七中,119.0587,36.721,2024-12-04T1800,45,78,0.7,60,17,30,50,64,颗粒物(PM10)
潍坊市,高新实验学校,119.1977,36.6872,2024-12-04T1800,43,70,0.7,56,9,32,54,60,"颗粒物(PM10),细颗粒物(PM2.5)"
潍坊市,潍坊学院,119.1755,36.7149,2024-12-04T1800,42,75,0.8,42,12,45,60,63,颗粒物(PM10)
潍坊市,寒亭区实验一小,119.2041,36.7699,2024-12-04T1800,61,90,1.1,75,18,27,54,83,细颗粒物(PM2.5)
渭南市,农科所,109.5293,34.5101,2024-12-04T1800,,,,,,,,,
渭南市,日报社,109.4974,34.4877,2024-12-04T1800,65,129,0.8,90,9,12,28,90,颗粒物(PM10)
渭南市,体育馆,109.4636,34.493,2024-12-04T1800,59,119,0.7,82,12,18,30,85,颗粒物(PM10)
渭南市,高新一小,109.4259,34.5023,2024-12-04T1800,70,113,0.8,72,13,26,30,94,细颗粒物(PM2.5)
温州市,瓯海,120.634,28.0089,2024-12-04T1800,40,81,0.5,32,6,81,106,66,颗粒物(PM10)
温州市,南浦,120.6748,27.9939,2024-12-04T1800,43,74,0.5,26,6,90,114,62,颗粒物(PM10)
温州市,龙湾,120.76,27.9747,2024-12-04T1800,45,77,0.5,38,6,76,116,64,颗粒物(PM10)
温州市,市站,120.6709,28.0167,2024-12-04T1800,49,81,0.7,39,6,74,106,68,细颗粒物(PM2.5)
温州市,茶山,120.6985,27.9251,2024-12-04T1800,39,68,0.5,27,7,98,122,59,颗粒物(PM10)
文山壮族苗族自治州,州水务局,104.2533,23.3594,2024-12-04T1800,18,,0.3,,6,71,70,,
文山壮族苗族自治州,市便民服务中心,104.2319,23.3892,2024-12-04T1800,20,28,0.5,10,5,70,72,29,
乌海市,市林业局,106.8174,39.6973,2024-12-04T1800,24,24,0.4,8,8,73,76,35,
乌海市,中海勃湾学校,106.7907,39.6667,2024-12-04T1800,16,22,0.4,5,8,79,79,25,
乌海市,海北新区,106.813,39.7274,2024-12-04T1800,3,11,0.4,7,12,74,73,24,
乌海市,聚英学校,106.8288,39.6778,2024-12-04T1800,6,20,0.4,8,15,77,80,25,
乌兰察布市,集宁新区,113.1306,40.9923,2024-12-04T1800,23,,0.2,8,6,83,83,33,
乌兰察布市,光明街小学,113.1076,41.0385,2024-12-04T1800,25,32,0.2,22,12,68,80,36,
乌兰察布市,北京八中,113.1376,40.9509,2024-12-04T1800,12,16,0.3,9,13,78,78,25,
乌兰察布市,市委党校,113.1775,40.9779,2024-12-04T1800,18,18,0.2,5,8,83,81,26,
乌鲁木齐市,监测站,87.5801,43.8303,2024-12-04T1800,38,46,0.7,46,2,21,48,54,细颗粒物(PM2.5)
乌鲁木齐市,收费所,87.6046,43.768,2024-12-04T1800,16,56,0.9,,1,20,35,,
乌鲁木齐市,新疆农科院农场,87.4754,43.9469,2024-12-04T1800,37,40,1.0,16,8,48,48,53,细颗粒物(PM2.5)
乌鲁木齐市,铁路局,87.5525,43.8711,2024-12-04T1800,53,65,0.8,41,3,27,51,73,细颗粒物(PM2.5)
乌鲁木齐市,三十一中学,87.6432,43.831,2024-12-04T1800,39,55,1.2,41,2,23,40,55,细颗粒物(PM2.5)
乌鲁木齐市,米东区环保局,87.7216,44.1747,2024-12-04T1800,16,30,0.4,27,4,60,62,30,
乌鲁木齐市,培训基地,87.4651,43.4569,2024-12-04T1800,9,9,0.6,15,3,49,66,16,
乌鲁木齐市,达坂城区环保局,88.3118,43.3658,2024-12-04T1800,17,30,0.6,36,2,19,32,30,
乌鲁木齐市,红光山片区,87.6162,43.8801,2024-12-04T1800,53,,1.2,39,8,25,44,73,细颗粒物(PM2.5)
乌鲁木齐市,新师大温泉校区,87.7024,43.8004,2024-12-04T1800,39,47,0.7,35,8,28,45,55,细颗粒物(PM2.5)
乌鲁木齐市,大绿谷,87.4921,43.8411,2024-12-04T1800,48,61,1.0,51,,21,48,,
无锡市,雪浪,120.269,31.4867,2024-12-04T1800,24,58,0.8,43,10,50,57,54,颗粒物(PM10)
无锡市,黄巷,120.275,31.6219,2024-12-04T1800,29,64,0.9,56,6,30,54,57,颗粒物(PM10)
无锡市,曹张,120.294,31.56,2024-12-04T1800,27,47,0.9,48,10,38,52,47,
无锡市,漆塘,120.242,31.5031,2024-12-04T1800,22,53,0.9,40,5,47,56,52,颗粒物(PM10)
无锡市,东亭,120.3489,31.5863,2024-12-04T1800,27,58,0.8,43,5,37,52,54,颗粒物(PM10)
无锡市,旺庄,120.354,31.5475,2024-12-04T1800,29,61,0.6,43,9,44,55,56,颗粒物(PM10)
无锡市,荣巷,120.245,31.5631,2024-12-04T1800,29,51,0.5,50,4,35,52,51,颗粒物(PM10)
无锡市,堰桥,120.299,31.6817,2024-12-04T1800,36,70,0.8,60,10,31,61,60,颗粒物(PM10)
无锡市,华庄,120.3142,31.4753,2024-12-04T1800,30,57,0.8,32,7,56,57,54,颗粒物(PM10)
吴忠市,教育园区,106.1532,37.9648,2024-12-04T1800,8,29,0.2,10,9,82,84,29,
吴忠市,新区二泵站,106.1856,37.9956,2024-12-04T1800,10,26,0.3,14,9,82,85,26,
吴忠市,文卫南街,106.2112,37.9768,2024-12-04T1800,10,48,0.4,10,8,80,83,48,
芜湖市,监测站,118.3606,31.3519,2024-12-04T1800,26,62,0.8,51,8,26,46,56,颗粒物(PM10)
芜湖市,科创中心,118.3714,31.4134,2024-12-04T1800,26,61,0.7,54,8,28,48,56,颗粒物(PM10)
芜湖市,四水厂,118.3673,31.3131,2024-12-04T1800,20,61,0.7,48,11,38,55,56,颗粒物(PM10)
芜湖市,市气象局,118.4209,31.3707,2024-12-04T1800,23,61,0.6,44,9,34,54,56,颗粒物(PM10)
芜湖市,清苑社区,118.4781,31.3225,2024-12-04T1800,29,48,0.7,42,8,36,49,48,
芜湖市,扬子职业技术学院,118.2746,31.2326,2024-12-04T1800,26,64,0.9,53,10,29,52,57,颗粒物(PM10)
梧州市,市逸夫小学,111.3014,23.4832,2024-12-04T1800,30,65,2.0,62,12,56,108,58,颗粒物(PM10)
梧州市,市十一中,111.3239,23.4794,2024-12-04T1800,48,,0.7,35,10,101,118,67,细颗粒物(PM2.5)
梧州市,龙圩,111.247,23.4189,2024-12-04T1800,33,66,1.0,22,12,111,114,58,颗粒物(PM10)
梧州市,龙新,111.2711,23.4835,2024-12-04T1800,33,57,0.9,46,10,72,95,54,颗粒物(PM10)
五家渠市,农水大厦,87.5475,44.1756,2024-12-04T1800,16,29,0.6,14,6,52,51,29,
五家渠市,经开区管委会,87.546,44.1912,2024-12-04T1800,28,,,11,5,55,52,,
武汉市,东湖梨园,114.3677,30.5584,2024-12-04T1800,49,,1.1,26,7,33,32,68,细颗粒物(PM2.5)
武汉市,汉阳月湖,114.2529,30.558,2024-12-04T1800,51,56,0.7,25,8,29,23,70,细颗粒物(PM2.5)
武汉市,汉口花桥,114.282,30.6189,2024-12-04T1800,42,58,,23,7,37,27,,
武汉市,武昌紫阳,114.3025,30.5332,2024-12-04T1800,50,58,0.8,24,8,32,28,69,细颗粒物(PM2.5)
武汉市,青山钢花,114.3646,30.6217,2024-12-04T1800,51,54,0.8,32,7,22,23,70,细颗粒物(PM2.5)
武汉市,沌口新区,114.1566,30.4825,2024-12-04T1800,49,60,1.1,35,7,27,27,68,细颗粒物(PM2.5)
武汉市,汉口江滩,114.3014,30.5944,2024-12-04T1800,46,55,0.8,28,7,30,26,64,细颗粒物(PM2.5)
武汉市,吴家山,114.135,30.6319,2024-12-04T1800,39,49,0.7,30,8,20,20,55,细颗粒物(PM2.5)
武汉市,沉湖七壕,113.8454,30.2917,2024-12-04T1800,30,47,0.5,16,4,31,26,47,
武汉市,民族大道182号,114.3877,30.4908,2024-12-04T1800,58,,0.6,27,7,33,31,79,细颗粒物(PM2.5)
武威市,监测站,102.6201,37.9251,2024-12-04T1800,33,66,0.5,18,10,71,69,58,颗粒物(PM10)
武威市,东关招商场,102.6486,37.9325,2024-12-04T1800,36,73,0.4,15,10,76,74,62,颗粒物(PM10)
西安市,兴庆小区,108.993,34.2629,2024-12-04T1800,15,37,0.3,27,5,66,62,37,
西安市,纺织城,109.06,34.2572,2024-12-04T1800,15,48,0.3,49,7,43,54,48,
西安市,小寨,108.9356,34.2173,2024-12-04T1800,17,62,0.4,21,9,67,64,56,颗粒物(PM10)
西安市,市人民体育场,108.954,34.2713,2024-12-04T1800,21,55,0.3,46,6,36,50,53,颗粒物(PM10)
西安市,高新西区,108.8922,34.2322,2024-12-04T1800,21,46,0.3,26,10,64,60,46,
西安市,经开区,108.935,34.3474,2024-12-04T1800,21,45,0.6,19,5,62,59,45,
西安市,长安区,108.906,34.1546,2024-12-04T1800,23,58,0.5,23,9,73,73,54,颗粒物(PM10)
西安市,临潼区,109.2186,34.3731,2024-12-04T1800,42,85,0.8,52,9,37,53,68,颗粒物(PM10)
西安市,草滩,108.869,34.378,2024-12-04T1800,14,43,0.2,41,4,39,47,43,
西安市,曲江文化产业集团,108.985,34.1978,2024-12-04T1800,18,49,0.4,26,11,65,63,49,
西安市,广运潭,109.051,34.3213,2024-12-04T1800,30,45,0.3,40,4,52,50,45,
西安市,文体局,108.6116,34.1164,2024-12-04T1800,31,52,0.5,31,11,61,71,51,颗粒物(PM10)
西安市,无线电监控中心,109.09,34.5236,2024-12-04T1800,65,79,0.6,68,13,22,42,88,细颗粒物(PM2.5)
西安市,行知小学,108.8869,34.2662,2024-12-04T1800,23,50,0.4,25,8,62,59,50,
西宁市,第五水厂,101.524,36.6867,2024-12-04T1800,,,,,,,,,
西宁市,城北区政府,101.7775,36.6428,2024-12-04T1800,68,121,0.7,63,18,53,64,92,细颗粒物(PM2.5)
