stationcode,timepoint,longitude,latitude,pm2_5,pm10,co,no2,so2,o3,o3_8h,aqi,primarypollutant,positionname,area
2566A,2024-11-06T1300,102.1879,31.914,9,29,0,7,8,49,32,29,—,州农科所,阿坝藏族羌族自治州
2568A,2024-11-06T1300,102.2502,31.8896,—,—,0.3,10,4,43,23,—,—,马师校,阿坝藏族羌族自治州
3994A,2024-11-06T1300,102.2165,31.9024,13,—,0.5,12,6,40,25,19,—,马尔康中学西区,阿坝藏族羌族自治州
2695A,2024-11-06T1300,80.292,41.1694,36,121,0.6,36,13,72,58,86,颗粒物(PM10),电视台,阿克苏地区
2696A,2024-11-06T1300,80.2613,41.1551,29,122,0.9,52,4,51,68,86,颗粒物(PM10),艺术中心,阿克苏地区
2204A,2024-11-06T1300,105.6467,38.8363,11,36,0.6,12,17,121,88,38,—,西城区西花园,阿拉善盟
2205A,2024-11-06T1300,105.6985,38.8411,—,—,—,—,—,—,84,—,—,蒙二幼,阿拉善盟
2206A,2024-11-06T1300,105.724,38.8516,26,61,0.5,14,12,108,88,56,颗粒物(PM10),环保局新楼,阿拉善盟
2708A,2024-11-06T1300,88.1264,47.8517,7,20,0.4,14,8,58,64,20,—,市站,阿勒泰地区
2630A,2024-11-06T1300,80.1161,32.5,3,14,0.5,5,5,64,55,20,—,阿里监测站,阿里地区
3192A,2024-11-06T1300,80.0903,32.5028,13,30,0.6,12,7,75,55,30,—,阿里藏医院,阿里地区
2642A,2024-11-06T1300,109.0318,32.6537,22,48,0.3,11,10,83,37,48,—,香溪洞,安康市
2644A,2024-11-06T1300,109.0072,32.6975,33,40,0.4,11,7,93,29,48,—,汉滨区检察院,安康市
4054A,2024-11-06T1300,109.0325,32.6913,31,55,0.5,11,8,96,28,53,颗粒物(PM10),市邮政管理局,安康市
2291A,2024-11-06T1300,117.0809,30.5177,36,52,0.6,24,12,107,62,52,细颗粒物(PM2.5),环科院,安庆市
2292A,2024-11-06T1300,117.0331,30.5119,36,60,0.5,24,10,110,69,55,颗粒物(PM10),马山宾馆,安庆市
2294A,2024-11-06T1300,116.9896,30.6145,24,49,0.5,15,13,115,62,49,—,安庆大学,安庆市
3173A,2024-11-06T1300,117.0598,30.5351,34,57,0.5,31,15,102,61,54,颗粒物(PM10),市人大,安庆市
3122A,2024-11-06T1300,105.9606,26.2611,32,39,0.8,9,19,90,65,46,—,伍家关,安顺市
3123A,2024-11-06T1300,105.9408,26.2431,40,54,0.6,14,24,92,64,57,细颗粒物(PM2.5),凤凰山,安顺市
3124A,2024-11-06T1300,105.9439,26.2564,41,47,0.7,10,21,98,68,58,细颗粒物(PM2.5),金钟山,安顺市
3125A,2024-11-06T1300,105.8983,26.2481,44,50,0.6,14,19,90,62,62,细颗粒物(PM2.5),娄家坡,安顺市
1818A,2024-11-06T1300,114.4839,36.0621,55,85,0.4,29,10,95,36,75,细颗粒物(PM2.5),棉研所,安阳市
1819A,2024-11-06T1300,114.3551,36.1017,53,69,0.4,20,5,87,29,73,细颗粒物(PM2.5),红庙街,安阳市
1820A,2024-11-06T1300,114.361,36.0681,50,71,0.6,17,6,93,30,69,细颗粒物(PM2.5),银杏小区,安阳市
3141A,2024-11-06T1300,114.3922,36.0878,62,80,0.4,19,7,88,27,84,细颗粒物(PM2.5),信访局,安阳市
3669A,2024-11-06T1300,114.4705,36.0637,60,104,0.4,19,5,90,39,82,细颗粒物(PM2.5),左辅环卫站,安阳市
3703A,2024-11-06T1300,114.2917,36.0949,65,94,0.4,25,6,85,28,88,细颗粒物(PM2.5),安钢职工学校,安阳市
1748A,2024-11-06T1300,123.044,41.1196,11,29,0.4,14,8,63,28,29,—,深沟寺,鞍山市
1749A,2024-11-06T1300,123.011,41.0931,12,22,0.3,18,8,58,30,22,—,太阳城,鞍山市
1750A,2024-11-06T1300,123.0485,41.1442,13,26,0.4,17,16,58,22,26,—,太平,鞍山市
1751A,2024-11-06T1300,122.9642,41.0971,16,36,0.9,33,26,42,21,36,—,铁西三道街,鞍山市
1752A,2024-11-06T1300,122.9341,41.0833,20,46,1.4,40,31,39,19,46,—,铁西工业园区,鞍山市
1753A,2024-11-06T1300,123.022,41.0821,12,20,0.4,14,9,57,29,20,—,明达新区,鞍山市
1754A,2024-11-06T1300,123.1289,41.0228,—,—,—,—,—,—,38,—,—,千山,鞍山市
2195A,2024-11-06T1300,107.4212,40.761,34,104,0.6,35,18,44,20,77,颗粒物(PM10),附二中,巴彦淖尔市
2196A,2024-11-06T1300,107.37,40.7372,24,66,0.6,30,8,50,24,58,颗粒物(PM10),市环保大楼,巴彦淖尔市
1956A,2024-11-06T1300,86.1472,41.7538,41,127,0.5,39,8,58,14,89,颗粒物(PM10),孔雀公园,巴音郭楞蒙古自治州
1957A,2024-11-06T1300,86.1972,41.7166,30,132,0.3,24,5,76,30,91,颗粒物(PM10),棉纺厂,巴音郭楞蒙古自治州
1958A,2024-11-06T1300,86.2357,41.7173,35,110,0.3,21,5,80,50,80,颗粒物(PM10),经济开发区,巴音郭楞蒙古自治州
2914A,2024-11-06T1300,106.7677,31.8794,22,29,0.4,14,5,40,56,32,—,苏山坪,巴中市
3182A,2024-11-06T1300,106.7656,31.8545,31,41,0.7,33,4,22,14,45,—,丽阳花园,巴中市
3183A,2024-11-06T1300,106.7418,31.8654,18,24,0.5,21,4,23,21,26,—,圣泉水务公司,巴中市
3616A,2024-11-06T1300,106.7616,31.8344,28,43,0.7,35,4,23,8,43,—,市中心医院,巴中市
2235A,2024-11-06T1300,122.7911,45.6077,12,22,0.2,11,4,65,36,22,—,洮北区环保局,白城市
2236A,2024-11-06T1300,122.8738,45.5725,12,14,0.4,10,4,69,39,22,—,市环保局,白城市
2231A,2024-11-06T1300,126.4219,41.9171,19,—,0.4,—,11,62,36,—,—,喜丰,白山市
2232A,2024-11-06T1300,126.4077,41.9419,10,26,0.5,9,6,57,38,26,—,环保局,白山市
2647A,2024-11-06T1300,104.1724,36.5446,62,76,1.0,33,40,52,28,84,细颗粒物(PM2.5),第三小学,白银市
2648A,2024-11-06T1300,104.1465,36.5482,63,75,1.2,29,37,59,34,85,细颗粒物(PM2.5),动力公司,白银市
2512A,2024-11-06T1300,106.6103,23.9011,33,66,—,8,10,110,34,—,—,市监测站,百色市
2513A,2024-11-06T1300,106.6538,23.8859,37,53,0.8,8,8,120,46,53,细颗粒物(PM2.5),市中心血站,百色市
3406A,2024-11-06T1300,106.6085,23.8798,30,57,0.7,8,5,116,44,54,颗粒物(PM10),祈福高中,百色市
2270A,2024-11-06T1300,117.396,32.939,26,52,0.5,18,8,86,41,51,颗粒物(PM10),工人疗养院,蚌埠市
2271A,2024-11-06T1300,117.3605,32.9427,30,59,0.4,21,9,81,40,55,颗粒物(PM10),百货大楼,蚌埠市
2273A,2024-11-06T1300,117.4185,32.8911,25,39,0.3,16,9,94,46,39,—,蚌埠学院,蚌埠市
2274A,2024-11-06T1300,117.3533,32.9673,30,58,—,20,10,83,33,—,—,淮上区政府,蚌埠市
2275A,2024-11-06T1300,117.3145,32.8977,22,44,0.3,16,8,93,46,44,—,高新区,蚌埠市
3715A,2024-11-06T1300,117.3092,32.9314,29,55,0.3,15,8,90,44,53,颗粒物(PM10),蚌埠田家炳中学,蚌埠市
1585A,2024-11-06T1300,109.8756,40.6532,32,60,0.9,42,30,41,18,55,颗粒物(PM10),市环境监测站,包头市
1587A,2024-11-06T1300,109.9991,40.5842,29,66,0.8,38,32,45,19,58,颗粒物(PM10),包头八中,包头市
1588A,2024-11-06T1300,109.8538,40.6821,38,57,1.0,44,36,—,11,—,—,青山宾馆,包头市
1589A,2024-11-06T1300,109.8642,40.6288,19,51,0.9,39,17,45,19,51,颗粒物(PM10),惠龙物流,包头市
1590A,2024-11-06T1300,110.0377,40.5546,18,41,0.7,33,16,43,20,41,—,东河鸿龙湾,包头市
3283A,2024-11-06T1300,109.9154,40.5685,19,41,0.6,32,17,53,29,41,—,滨河大厦,包头市
3419A,2024-11-06T1300,109.9447,40.6261,31,58,1.2,39,41,45,20,54,颗粒物(PM10),包头市委党校,包头市
3683A,2024-11-06T1300,109.8331,40.6576,35,57,0.7,38,23,44,17,54,颗粒物(PM10),昆区政府,包头市
1930A,2024-11-06T1300,107.185,34.3063,57,168,0.7,16,8,40,24,109,颗粒物(PM10),庙沟村,宝鸡市
1931A,2024-11-06T1300,107.0708,34.3017,96,108,0.7,19,10,62,21,127,细颗粒物(PM2.5),竹园沟,宝鸡市
1932A,2024-11-06T1300,107.1906,34.3672,103,120,0.8,26,8,56,16,135,细颗粒物(PM2.5),三陆医院,宝鸡市
1933A,2024-11-06T1300,107.1431,34.3547,102,118,0.8,31,11,44,14,134,细颗粒物(PM2.5),监测站,宝鸡市
1934A,2024-11-06T1300,107.1186,34.3739,99,111,0.9,30,12,64,20,130,细颗粒物(PM2.5),技工学校,宝鸡市
1935A,2024-11-06T1300,107.3906,34.3528,92,116,—,23,16,89,25,122,细颗粒物(PM2.5),陈仓区环保局家属楼,宝鸡市
1936A,2024-11-06T1300,107.2058,34.3497,90,106,0.6,29,11,50,13,119,细颗粒物(PM2.5),文理学院,宝鸡市
1937A,2024-11-06T1300,107.2386,34.3622,112,122,0.9,44,11,54,16,147,细颗粒物(PM2.5),三迪小学,宝鸡市
1051A,2024-11-06T1300,115.493,38.8632,60,87,1.0,52,9,42,20,82,细颗粒物(PM2.5),游泳馆,保定市
1052A,2024-11-06T1300,115.5213,38.8959,42,80,0.7,54,10,32,11,65,颗粒物(PM10),华电二区,保定市
1053A,2024-11-06T1300,115.4713,38.9108,46,65,0.6,45,9,36,14,64,细颗粒物(PM2.5),接待中心,保定市
1054A,2024-11-06T1300,115.4612,38.8416,59,79,0.6,58,12,37,16,80,细颗粒物(PM2.5),地表水厂,保定市
3581A,2024-11-06T1300,115.31981,38.95208,36,73,0.6,50,9,43,18,62,颗粒物(PM10),满城区生态环境分局,保定市
3582A,2024-11-06T1300,115.47694,38.76408,54,80,0.8,40,12,55,18,74,细颗粒物(PM2.5),清苑区第二中学,保定市
3583A,2024-11-06T1300,115.62909,39.02311,—,87,1.1,47,10,41,13,—,—,徐水物探局,保定市
4004A,2024-11-06T1300,115.4202,38.8656,28,86,—,—,10,33,18,—,—,双鹰农机,保定市
4034A,2024-11-06T1300,115.5150,38.8590,33,68,0.5,47,6,39,15,59,颗粒物(PM10),植保所站,保定市
2594A,2024-11-06T1300,99.1678,25.1081,6,24,0.5,11,4,68,22,24,—,市环境监测站,保山市
2595A,2024-11-06T1300,99.1711,25.1328,14,23,0.4,8,5,69,28,23,—,市环保局,保山市
1866A,2024-11-06T1300,109.2262,21.588,43,—,0.7,—,6,109,80,—,—,牛尾岭水库,北海市
1867A,2024-11-06T1300,109.1436,21.4086,37,52,0.8,8,9,128,109,53,细颗粒物(PM2.5),海滩公园,北海市
1868A,2024-11-06T1300,109.0981,21.4661,44,57,0.8,10,8,138,101,62,细颗粒物(PM2.5),新市环保局,北海市
1869A,2024-11-06T1300,109.1778,21.5233,39,67,0.6,9,9,128,98,59,颗粒物(PM10),北海工业园,北海市
3400A,2024-11-06T1300,109.1911,21.4415,41,50,0.7,7,9,129,97,58,细颗粒物(PM2.5),龙潭自来水厂,北海市
1001A,2024-11-06T1300,116.3621,39.8784,43,83,0.8,50,7,29,10,67,颗粒物(PM10),万寿西宫,北京市
1002A,2024-11-06T1300,116.2202,40.2915,20,34,0.5,21,6,49,19,34,—,定陵,北京市
1003A,2024-11-06T1300,116.4174,39.9289,43,90,0.8,48,10,28,12,70,颗粒物(PM10),东四,北京市
1004A,2024-11-06T1300,116.4072,39.8863,53,85,0.8,51,6,27,9,73,细颗粒物(PM2.5),天坛,北京市
1005A,2024-11-06T1300,116.462,39.9365,42,88,0.8,53,7,24,9,69,颗粒物(PM10),农展馆,北京市
1006A,2024-11-06T1300,116.3392,39.9295,42,83,0.8,47,10,28,9,67,颗粒物(PM10),官园,北京市
1007A,2024-11-06T1300,116.2878,39.9611,36,75,0.7,39,7,31,15,63,颗粒物(PM10),海淀万柳,北京市
1008A,2024-11-06T1300,116.6636,40.135,30,55,0.6,27,6,44,20,53,颗粒物(PM10),顺义新城,北京市
1009A,2024-11-06T1300,116.6275,40.3275,20,37,0.3,21,8,55,35,37,—,怀柔镇,北京市
1010A,2024-11-06T1300,116.2296,40.217,24,55,0.5,26,10,40,17,53,颗粒物(PM10),昌平镇,北京市
1011A,2024-11-06T1300,116.3966,39.9821,46,101,1.1,55,6,21,9,76,颗粒物(PM10),奥体中心,北京市
1012A,2024-11-06T1300,116.184,39.9136,32,76,0.8,36,7,35,18,63,颗粒物(PM10),古城,北京市
3281A,2024-11-06T1300,115.9718,40.4529,18,31,0.2,19,1,43,19,31,—,延庆夏都,北京市
3417A,2024-11-06T1300,117.0709,40.1465,17,36,0.5,18,5,52,25,36,—,平谷新城,北京市
3418A,2024-11-06T1300,116.8336,40.4095,17,39,0.4,16,5,54,26,39,—,密云新城,北京市
3671A,2024-11-06T1300,116.088,39.9726,17,50,0.4,36,7,42,30,50,—,门头沟三家店,北京市
3672A,2024-11-06T1300,116.1541,39.8204,28,61,0.5,42,5,30,15,56,颗粒物(PM10),丰台云岗,北京市
3673A,2024-11-06T1300,116.6804,39.9081,38,76,0.8,33,7,38,15,63,颗粒物(PM10),通州东关,北京市
3674A,2024-11-06T1300,115.9577,39.7603,18,44,0.3,24,2,42,27,44,—,房山燕山,北京市
3675A,2024-11-06T1300,116.4672,39.7733,46,85,0.6,42,3,31,12,68,颗粒物(PM10),大兴旧宫,北京市
3694A,2024-11-06T1300,115.986,40.4563,16,31,0.3,23,3,38,17,31,—,延庆石河营,北京市
3695A,2024-11-06T1300,116.6151,40.3053,22,38,0.5,21,5,45,36,38,—,怀柔新城,北京市
3696A,2024-11-06T1300,116.2545,39.8768,40,90,0.8,54,6,26,10,70,颗粒物(PM10),丰台小屯,北京市
3697A,2024-11-06T1300,116.84,40.3844,18,39,0.4,15,3,49,17,39,—,密云镇,北京市
1761A,2024-11-06T1300,123.8275,41.3064,13,14,0.5,10,11,59,29,19,—,大峪,本溪市
1762A,2024-11-06T1300,123.7567,41.3325,3,20,0.4,7,9,67,34,21,—,溪湖,本溪市
1763A,2024-11-06T1300,123.7169,41.3094,9,11,0.5,9,7,64,32,20,—,彩屯,本溪市
1764A,2024-11-06T1300,123.7669,41.2864,3,—,0.5,10,9,64,33,20,—,东明,本溪市
1765A,2024-11-06T1300,123.7992,41.2664,12,190,0.5,12,6,59,38,120,颗粒物(PM10),新立屯,本溪市
1766A,2024-11-06T1300,123.8142,41.3472,3,29,0.6,8,8,64,28,29,—,威宁,本溪市
2587A,2024-11-06T1300,105.2864,27.3125,38,51,0.6,—,—,63,51,—,—,八中,毕节市
2588A,2024-11-06T1300,105.31,27.2944,35,41,0.6,14,16,67,51,50,—,师专,毕节市
3537A,2024-11-06T1300,105.3631,27.3533,37,45,0.7,11,12,79,59,53,细颗粒物(PM2.5),长征村,毕节市
1629A,2024-11-06T1300,118.0018,37.3617,12,34,0.3,16,11,80,30,34,—,第二水厂,滨州市
1630A,2024-11-06T1300,117.9776,37.393,9,36,0.4,20,9,78,31,36,—,北中新校,滨州市
3514A,2024-11-06T1300,117.9378,37.3956,19,34,0.4,19,8,86,41,34,—,中海酒店,滨州市
3515A,2024-11-06T1300,117.9378,37.3553,12,31,0.4,16,9,84,42,31,—,开发区一中,滨州市
3516A,2024-11-06T1300,118.0917,37.694,14,32,0.5,20,8,78,31,32,—,金海六路,滨州市
4028A,2024-11-06T1300,117.9956,37.3753,17,—,—,19,9,86,34,—,—,滨州市西街道办事处,滨州市
2311A,2024-11-06T1300,115.8072,33.8399,12,62,0.4,15,8,100,44,56,颗粒物(PM10),污水处理厂,亳州市
2312A,2024-11-06T1300,115.7789,33.8518,38,75,0.4,13,6,99,49,63,颗粒物(PM10),三国揽胜宫,亳州市
3332A,2024-11-06T1300,115.7633,33.8034,28,63,0.4,17,6,101,53,57,颗粒物(PM10),亳州学院,亳州市
2693A,2024-11-06T1300,82.0485,44.8556,20,39,0.5,20,8,26,19,39,—,市党校,博尔塔拉蒙古自治州
2694A,2024-11-06T1300,82.0806,44.8969,26,56,0.4,19,4,33,26,53,颗粒物(PM10),市环保局,博尔塔拉蒙古自治州
1071A,2024-11-06T1300,116.8842,38.2991,24,61,0.4,50,9,76,27,56,颗粒物(PM10),沧县城建局,沧州市
1072A,2024-11-06T1300,116.8584,38.3254,29,50,—,17,—,—,6,—,—,电视转播站,沧州市
1073A,2024-11-06T1300,116.8709,38.3228,—,—,—,—,—,—,33,—,—,市环保局,沧州市
3324A,2024-11-06T1300,116.8136,38.3004,32,48,0.2,14,9,79,31,48,—,河北水利电力学院,沧州市
2622A,2024-11-06T1300,97.1806,31.1273,3,12,0.5,6,8,73,47,23,—,昌都监测站,昌都市
3719A,2024-11-06T1300,97.1714,31.1406,3,—,0.5,3,7,79,50,25,—,昌都会议中心,昌都市
2690A,2024-11-06T1300,88.1236,43.8886,8,16,0.5,6,9,79,64,25,—,天山天池,昌吉回族自治州
2692A,2024-11-06T1300,87.2717,44.0297,36,74,1.1,56,10,36,26,62,颗粒物(PM10),新区政务中心,昌吉回族自治州
3613A,2024-11-06T1300,87.3095,44.0142,53,119,1.2,67,9,28,23,85,颗粒物(PM10),亚心广场,昌吉回族自治州
1119A,2024-11-06T1300,125.3325,43.9166,8,24,0.2,14,7,50,25,24,—,食品厂,长春市
1120A,2024-11-06T1300,125.2863,43.9027,12,23,—,13,8,51,30,—,—,客车厂,长春市
1121A,2024-11-06T1300,125.2841,43.8463,10,18,0.2,14,23,53,27,18,—,邮电学院,长春市
1122A,2024-11-06T1300,125.3716,43.8772,9,28,0.4,9,10,60,33,28,—,劳动公园,长春市
1123A,2024-11-06T1300,125.3297,43.8805,13,32,0.2,9,8,53,30,32,—,园林处,长春市
1124A,2024-11-06T1300,125.4605,43.79,8,8,0.2,4,7,57,30,18,—,净月潭,长春市
1125A,2024-11-06T1300,125.7194,43.515,6,11,0.7,6,6,46,23,15,—,甩湾子,长春市
1126A,2024-11-06T1300,125.3863,43.8447,10,21,0.3,11,9,54,29,21,—,经开区环卫处,长春市
1127A,2024-11-06T1300,125.245,43.7783,3,21,0.4,9,6,54,30,21,—,高新区管委会,长春市
1128A,2024-11-06T1300,125.1761,43.8325,8,12,0.3,4,6,52,26,17,—,岱山公园,长春市
1335A,2024-11-06T1300,113.0833,28.2325,28,55,0.5,16,2,127,66,53,颗粒物(PM10),经开区环保局,长沙市
1336A,2024-11-06T1300,112.8872,28.2189,50,80,0.5,12,6,131,67,69,细颗粒物(PM2.5),高开区环保局,长沙市
1337A,2024-11-06T1300,113.0792,28.2053,43,66,0.6,17,5,128,66,60,细颗粒物(PM2.5),马坡岭,长沙市
1338A,2024-11-06T1300,112.9394,28.19,51,94,0.6,19,5,132,81,72,颗粒物(PM10),湖南师范大学,长沙市
1339A,2024-11-06T1300,113.0178,28.1322,50,78,0.6,18,6,132,70,69,细颗粒物(PM2.5),雨花区环保局,长沙市
1340A,2024-11-06T1300,112.9792,28.2597,52,108,0.7,17,4,124,59,79,颗粒物(PM10),伍家岭,长沙市
1341A,2024-11-06T1300,113.0014,28.1944,48,85,0.7,19,6,123,71,68,颗粒物(PM10),火车新站,长沙市
1342A,2024-11-06T1300,112.9844,28.1178,48,80,0.4,21,6,129,67,67,细颗粒物(PM2.5),天心区环保局,长沙市
1343A,2024-11-06T1300,112.8908,28.1308,51,91,0.8,16,9,149,79,71,颗粒物(PM10),湖南中医药大学,长沙市
1344A,2024-11-06T1300,112.9581,28.3611,43,65,0.5,16,11,127,64,60,细颗粒物(PM2.5),沙坪,长沙市
1727A,2024-11-06T1300,113.1147,36.1547,29,72,0.5,22,14,95,37,61,颗粒物(PM10),清华站,长治市
1728A,2024-11-06T1300,113.1031,36.1989,—,57,0.6,20,15,90,28,—,—,监测站,长治市
1730A,2024-11-06T1300,113.0886,36.2125,34,73,0.6,19,10,86,31,62,颗粒物(PM10),审计局,长治市
1731A,2024-11-06T1300,113.0844,36.1856,35,77,0.6,20,12,96,28,64,颗粒物(PM10),长治八中,长治市
2845A,2024-11-06T1300,113.1569,36.1911,36,59,0.6,28,11,94,72,55,颗粒物(PM10),德盛苑,长治市
3568A,2024-11-06T1300,113.06,36.0464,31,68,0.4,23,13,104,74,59,颗粒物(PM10),向阳小学,长治市
3569A,2024-11-06T1300,112.8792,36.3144,36,57,1.2,20,10,99,40,54,颗粒物(PM10),屯留一中,长治市
3570A,2024-11-06T1300,113.235,36.3489,61,86,0.9,36,17,86,39,83,细颗粒物(PM2.5),潞城四中,长治市
1854A,2024-11-06T1300,111.6975,28.9703,78,119,0.8,21,10,137,52,104,细颗粒物(PM2.5),市二中,常德市
1857A,2024-11-06T1300,111.7158,29.1456,—,—,—,—,—,—,—,—,—,白鹤山,常德市
3138A,2024-11-06T1300,111.7153,29.0289,60,90,0.9,19,10,137,70,82,细颗粒物(PM2.5),武陵区永安,常德市
3139A,2024-11-06T1300,111.6892,28.9881,73,131,1.0,20,11,141,53,98,细颗粒物(PM2.5),鼎城区玉霞,常德市
3140A,2024-11-06T1300,111.6625,29.0531,70,126,0.8,21,10,142,68,94,细颗粒物(PM2.5),武陵区长庚,常德市
1196A,2024-11-06T1300,119.9633,31.762,15,35,0.4,16,9,103,65,35,—,市监测站,常州市
1200A,2024-11-06T1300,119.9468,31.7069,17,33,0.4,10,14,93,63,33,—,武进监测站,常州市
1201A,2024-11-06T1300,119.9255,31.9087,14,36,0.3,13,9,103,54,36,—,安家,常州市
3002A,2024-11-06T1300,119.9805,31.8174,15,29,0.5,11,1,99,61,31,—,行政中心,常州市
3003A,2024-11-06T1300,120.0522,31.7748,12,41,0.3,21,8,106,53,41,—,经开区,常州市
3010A,2024-11-06T1300,119.9025,31.7964,19,32,0.5,14,8,96,63,32,—,钟楼,常州市
3429A,2024-11-06T1300,119.8598,31.7066,15,34,0.3,10,8,99,56,34,—,武进经发区,常州市
3430A,2024-11-06T1300,119.5826,31.7245,20,32,0.3,12,7,107,65,34,—,金坛城区,常州市
2220A,2024-11-06T1300,120.4318,41.5881,18,19,0.7,13,22,54,25,26,—,西梁,朝阳市
2221A,2024-11-06T1300,120.4521,41.5646,19,43,0.6,12,22,57,25,43,—,河畔小区,朝阳市
2222A,2024-11-06T1300,120.4176,41.5648,18,26,0.7,12,21,58,25,26,—,八里堡,朝阳市
2223A,2024-11-06T1300,120.3806,41.5969,19,—,1.3,14,19,55,—,—,—,农业园区,朝阳市
1705A,2024-11-06T1300,116.6367,23.6719,29,61,0.3,6,5,—,79,—,—,西园路,潮州市
3026A,2024-11-06T1300,116.6183,23.6608,21,30,0.7,7,6,99,77,31,—,市政府,潮州市
4036A,2024-11-06T1300,116.6461,23.6761,27,42,0.7,7,8,97,79,42,—,金山,潮州市
2472A,2024-11-06T1300,113.0073,25.9061,29,69,1.0,13,25,119,72,60,颗粒物(PM10),马头岭,郴州市
2473A,2024-11-06T1300,113.0116,25.8226,46,60,0.8,10,20,130,69,64,细颗粒物(PM2.5),市职中,郴州市
2474A,2024-11-06T1300,113.0161,25.8001,50,74,—,13,19,126,89,—,—,兴隆步行街,郴州市
2475A,2024-11-06T1300,113.0383,25.8071,45,61,0.7,10,21,130,86,63,细颗粒物(PM2.5),市审计局,郴州市
2476A,2024-11-06T1300,113.0348,25.7759,39,73,0.7,10,17,123,79,62,颗粒物(PM10),市环保局,郴州市
1431A,2024-11-06T1300,103.9728,30.7236,33,60,0.5,27,4,34,19,55,颗粒物(PM10),金泉两河,成都市
1432A,2024-11-06T1300,104.176,30.6872,24,47,0.5,38,3,41,14,47,—,十里店,成都市
1433A,2024-11-06T1300,104.079,30.5706,28,58,0.4,28,2,48,24,54,颗粒物(PM10),三瓦窑,成都市
1434A,2024-11-06T1300,104.1114,30.63,28,46,0.4,32,4,48,20,46,—,沙河铺,成都市
1437A,2024-11-06T1300,104.0786,30.6531,48,78,0.8,46,7,20,22,67,细颗粒物(PM2.5),君平街,成都市
1438A,2024-11-06T1300,103.613,31.0283,—,—,—,—,—,—,—,—,—,灵岩寺,成都市
2880A,2024-11-06T1300,104.0239,30.65639,38,65,0.7,41,5,20,19,58,颗粒物(PM10),大石西路,成都市
3136A,2024-11-06T1300,104.2725,30.5589,12,27,0.4,14,3,68,46,27,—,龙泉驿区区政府,成都市
3357A,2024-11-06T1300,104.0106,30.6931,39,58,0.5,34,3,20,13,55,细颗粒物(PM2.5),金博路,成都市
3359A,2024-11-06T1300,104.0578,30.5225,29,44,0.6,22,2,42,22,44,—,华阳,成都市
3487A,2024-11-06T1300,104.2394,30.5319,34,51,0.6,30,2,43,25,51,颗粒物(PM10),车城东七路,成都市
3488A,2024-11-06T1300,104.3853,30.7453,13,26,0.5,13,4,66,24,26,—,青白江技师分院,成都市
3489A,2024-11-06T1300,104.0789,30.4072,42,56,0.6,34,4,35,19,59,细颗粒物(PM2.5),科学城,成都市
4011A,2024-11-06T1300,103.8506,30.6947,34,52,0.5,21,6,52,40,51,颗粒物(PM10),光华大道三段,成都市
1062A,2024-11-06T1300,117.9531,40.9081,3,7,0.2,16,26,49,18,16,—,铁路,承德市
1063A,2024-11-06T1300,117.9392,40.9763,3,34,0.5,23,8,35,17,34,—,中国银行,承德市
1064A,2024-11-06T1300,117.9503,40.928,7,38,0.3,17,10,56,20,38,—,开发区,承德市
1065A,2024-11-06T1300,117.8051,40.9655,3,20,1.5,21,48,45,13,20,—,文化中心,承德市
1066A,2024-11-06T1300,117.9268,41.0026,9,24,0.5,21,9,35,17,24,—,离宫,承德市
2314A,2024-11-06T1300,117.47,30.6618,23,54,0.5,14,8,117,60,52,颗粒物(PM10),池州学院,池州市
3237A,2024-11-06T1300,117.4918,30.6617,28,49,0.4,14,8,117,58,49,—,展览馆,池州市
3333A,2024-11-06T1300,117.5627,30.695,26,48,0.4,14,7,114,55,48,—,第八中学,池州市
3334A,2024-11-06T1300,117.5038,30.6243,22,50,0.3,13,5,119,64,50,—,第十二中学,池州市
1744A,2024-11-06T1300,118.9233,42.2816,18,41,0.5,19,12,60,20,41,—,松山一中,赤峰市
1745A,2024-11-06T1300,118.9576,42.2728,18,34,0.4,16,7,65,25,34,—,哈达街,赤峰市
1746A,2024-11-06T1300,118.8788,42.2554,20,20,0.3,15,7,67,24,29,—,天义路,赤峰市
3058A,2024-11-06T1300,119.2658,42.0353,55,79,1.2,20,34,54,25,75,细颗粒物(PM2.5),银河街,赤峰市
3286A,2024-11-06T1300,118.9359,42.3147,23,28,0.8,25,10,64,23,33,—,桥北物流园区,赤峰市
2521A,2024-11-06T1300,107.3476,22.4136,37,56,0.7,6,6,133,68,53,"颗粒物(PM10),细颗粒物(PM2.5)",市环保局江州分局,崇左市
2522A,2024-11-06T1300,107.3702,22.3707,40,47,0.6,6,7,140,67,57,细颗粒物(PM2.5),城南新区,崇左市
2298A,2024-11-06T1300,118.3093,32.3153,15,34,0.2,13,3,99,—,34,—,老年大学,滁州市
2299A,2024-11-06T1300,118.3244,32.2786,18,29,0.3,14,8,98,51,31,—,人大宾馆,滁州市
3207A,2024-11-06T1300,118.3118,32.3038,20,29,0.3,14,6,98,50,31,—,市政府原办公楼,滁州市
3331A,2024-11-06T1300,118.3267,32.2634,15,36,0.3,11,5,98,54,36,—,图书馆,滁州市
2605A,2024-11-06T1300,101.5482,25.0441,37,49,0.7,8,6,71,25,53,细颗粒物(PM2.5),州环境监测站,楚雄彝族自治州
2606A,2024-11-06T1300,101.538,25.0492,39,48,0.8,10,6,68,24,55,细颗粒物(PM2.5),市经济开发区,楚雄彝族自治州
2548A,2024-11-06T1300,107.5277,31.2827,27,38,0.7,22,6,23,7,39,—,达州职业技术学院,达州市
2549A,2024-11-06T1300,107.5086,31.2186,19,49,0.5,33,7,20,7,49,—,市环境监测站,达州市
2550A,2024-11-06T1300,107.4988,31.2132,27,48,0.7,32,10,24,10,48,—,凤凰小区,达州市
2551A,2024-11-06T1300,107.5082,31.1986,32,39,0.6,27,6,38,16,46,—,达县机关宾馆,达州市
2552A,2024-11-06T1300,107.4644,31.2124,27,51,0.7,35,7,24,9,51,颗粒物(PM10),市政中心,达州市
2614A,2024-11-06T1300,100.1542,25.7054,35,—,0.6,11,6,62,28,50,—,大理市环境监测站,大理白族自治州
2615A,2024-11-06T1300,100.2171,25.5811,9,33,0.5,9,7,64,38,33,—,大理古城,大理白族自治州
1109A,2024-11-06T1300,121.612,38.9741,12,25,0.7,30,11,58,43,25,—,甘井子,大连市
1110A,2024-11-06T1300,121.565,38.9511,15,28,0.5,33,10,49,31,28,—,周水子,大连市
1111A,2024-11-06T1300,121.5637,38.8845,9,21,0.5,16,9,66,39,21,—,星海三站,大连市
1112A,2024-11-06T1300,121.6302,38.9117,12,27,0.1,32,12,50,42,27,—,青泥洼桥,大连市
1113A,2024-11-06T1300,121.6251,38.8638,8,16,0.3,17,12,70,54,22,—,傅家庄,大连市
1114A,2024-11-06T1300,121.5213,38.8661,6,21,0.6,14,9,66,41,21,—,七贤岭,大连市
1115A,2024-11-06T1300,121.2529,38.8061,6,19,0.5,18,10,69,51,22,—,旅顺,大连市
1116A,2024-11-06T1300,121.7485,39.1311,11,18,0.4,14,5,68,48,22,—,金州,大连市
1117A,2024-11-06T1300,121.7811,39.0496,11,21,0.2,16,6,57,55,21,—,开发区,大连市
1118A,2024-11-06T1300,121.9762,39.0631,6,13,0.4,10,7,76,65,24,—,双D港,大连市
1789A,2024-11-06T1300,124.81117,46.03138,19,30,0.3,3,3,58,32,30,—,大同区,大庆市
1790A,2024-11-06T1300,125.129,46.533,32,44,0.5,6,4,54,32,46,—,龙凤区,大庆市
1791A,2024-11-06T1300,124.902,46.408,27,41,0.3,11,8,58,34,41,—,红岗区,大庆市
1792A,2024-11-06T1300,125.153,46.586,35,—,—,9,6,57,35,—,—,萨尔图区,大庆市
1793A,2024-11-06T1300,124.9042,46.6215,51,52,0.3,7,6,53,36,70,细颗粒物(PM2.5),让胡路区,大庆市
3481A,2024-11-06T1300,125.141,46.634,24,48,0.3,7,5,52,32,48,—,萨区政府监测点,大庆市
1721A,2024-11-06T1300,113.3819,40.1097,20,35,0.4,27,14,61,21,35,—,果树场,大同市
1723A,2024-11-06T1300,113.2994,40.0758,36,82,0.9,40,21,56,26,66,颗粒物(PM10),云冈宾馆,大同市
1724A,2024-11-06T1300,113.3444,40.0917,22,52,0.7,35,18,56,24,51,颗粒物(PM10),大同大学,大同市
1725A,2024-11-06T1300,113.2661,40.1269,42,88,0.7,38,25,60,24,69,颗粒物(PM10),安家小村,大同市
1726A,2024-11-06T1300,113.2711,40.0844,28,78,0.7,37,19,59,24,64,颗粒物(PM10),教育学院,大同市
3282A,2024-11-06T1300,113.3397,40.0597,—,—,0.4,35,—,60,28,—,—,大同市卫生学校,大同市
3565A,2024-11-06T1300,113.1367,40.1122,39,85,0.6,35,22,65,26,68,颗粒物(PM10),云冈站,大同市
3566A,2024-11-06T1300,113.1186,40.2556,44,83,0.7,34,69,61,29,67,颗粒物(PM10),图书馆,大同市
3567A,2024-11-06T1300,113.5931,40.0461,12,62,0.6,31,23,54,31,56,颗粒物(PM10),区一中,大同市
3676A,2024-11-06T1300,113.2802,40.0995,34,89,0.7,35,21,61,26,70,颗粒物(PM10),第二人民医院,大同市
2269A,2024-11-06T1300,124.1069,50.4097,7,—,0.2,3,4,48,40,15,—,科技局,大兴安岭地区
3663A,2024-11-06T1300,124.1164,50.4278,3,6,0.3,5,3,45,36,15,—,红旗社区,大兴安岭地区
1600A,2024-11-06T1300,124.3303,40.0625,8,18,—,4,—,60,47,—,—,江湾东路,丹东市
1601A,2024-11-06T1300,124.4256,40.1503,10,11,0.3,4,5,64,51,20,—,临江后街,丹东市
1602A,2024-11-06T1300,124.3933,40.1461,3,13,0.4,3,4,63,53,20,—,元宝山,丹东市
1603A,2024-11-06T1300,124.3633,40.1092,6,19,0.3,4,5,63,48,20,—,民主桥,丹东市
3541A,2024-11-06T1300,109.5726,19.5167,26,41,0.7,8,7,95,86,41,—,第一中学子站,儋州市
3542A,2024-11-06T1300,109.5567,19.5187,20,41,0.7,10,7,106,90,41,—,东坡学校子站,儋州市
2616A,2024-11-06T1300,98.5842,24.428,8,22,0.6,15,5,54,23,22,—,德宏州监测站,德宏傣族景颇族自治州
3677A,2024-11-06T1300,98.5881,24.4368,10,24,0.8,16,5,45,20,24,—,芒市人民政府综合楼,德宏傣族景颇族自治州
1901A,2024-11-06T1300,104.4239,31.1208,20,45,0.6,10,1,63,37,45,—,东山公园,德阳市
1902A,2024-11-06T1300,104.3826,31.1317,32,61,0.7,24,2,37,40,56,颗粒物(PM10),西小区,德阳市
1904A,2024-11-06T1300,104.3553,31.1091,28,47,0.4,20,3,42,35,47,—,耐火材料厂,德阳市
3639A,2024-11-06T1300,104.4019,31.1244,21,47,0.7,23,2,39,35,47,—,市教育局,德阳市
1622A,2024-11-06T1300,116.3032,37.4674,34,68,0.6,33,23,85,39,59,颗粒物(PM10),儿童乐园,德州市
1624A,2024-11-06T1300,116.2991,37.4451,24,53,0.6,25,19,88,39,52,颗粒物(PM10),监理站,德州市
3066A,2024-11-06T1300,116.2721,37.4379,22,58,0.6,25,23,85,35,54,颗粒物(PM10),九衢泉纯净水厂,德州市
3371A,2024-11-06T1300,116.3728,37.4403,24,66,0.7,26,18,74,33,58,颗粒物(PM10),开发区人民医院,德州市
3372A,2024-11-06T1300,116.3572,37.4094,24,58,0.7,31,15,—,23,—,—,太阳城中学,德州市
3511A,2024-11-06T1300,116.5652,37.3319,24,41,0.6,24,15,72,35,41,—,陵城艺术中心,德州市
2621A,2024-11-06T1300,99.7056,27.8317,24,47,0.4,17,8,64,42,47,—,迪庆州站,迪庆藏族自治州
3180A,2024-11-06T1300,99.7136,27.8094,3,41,0.7,21,8,59,41,41,—,质量技术监督局,迪庆藏族自治州
2663A,2024-11-06T1300,104.6241,35.5734,27,66,0.3,8,3,69,61,58,颗粒物(PM10),东关小学,定西市
2664A,2024-11-06T1300,104.6194,35.5934,30,47,0.3,6,7,71,61,47,—,供电公司,定西市
1389A,2024-11-06T1300,113.7547,23.0494,35,52,0.8,14,9,149,119,51,颗粒物(PM10),莞城梨川,东莞市
1390A,2024-11-06T1300,113.7944,23.0128,36,52,0.8,13,11,152,118,52,细颗粒物(PM2.5),东城石井,东莞市
1391A,2024-11-06T1300,113.7383,22.9658,34,54,0.8,13,9,154,113,52,颗粒物(PM10),南城西平,东莞市
3319A,2024-11-06T1300,113.7338,23.0381,32,48,0.8,11,8,145,118,48,—,万江金泰,东莞市
3626A,2024-11-06T1300,113.7533,23.0202,36,55,0.8,10,9,148,115,53,颗粒物(PM10),南城元岭,东莞市
3627A,2024-11-06T1300,113.7875,23.0457,36,56,0.8,14,10,154,119,53,颗粒物(PM10),东城主山,东莞市
1666A,2024-11-06T1300,118.6614,37.4309,19,36,0.5,23,6,82,31,36,—,市环保局,东营市
3036A,2024-11-06T1300,118.6904,37.4338,22,44,0.5,22,9,78,31,44,—,开发区管委会,东营市
3365A,2024-11-06T1300,118.5719,37.565,24,48,0.4,25,11,89,32,48,—,垦利区民丰路,东营市
3498A,2024-11-06T1300,118.5055,37.8612,17,44,0.4,16,—,76,31,—,—,河口城区,东营市
3646A,2024-11-06T1300,118.4978,37.4623,12,56,0.4,28,7,80,36,53,颗粒物(PM10),胜利站,东营市
3734A,2024-11-06T1300,118.35,37.26,22,46,0.4,26,7,75,30,46,—,理想之城,东营市
1591A,2024-11-06T1300,110.0023,39.8129,29,73,0.7,32,15,71,43,62,颗粒物(PM10),综合楼,鄂尔多斯市
1592A,2024-11-06T1300,109.9486,39.8261,29,58,0.7,40,20,60,42,54,颗粒物(PM10),巴音孟克林场办事处,鄂尔多斯市
1593A,2024-11-06T1300,109.7736,39.5986,17,44,0.6,18,11,87,26,44,—,康泽苑,鄂尔多斯市
1594A,2024-11-06T1300,109.8119,39.5989,14,41,0.6,21,13,80,23,41,—,华泰汽车城,鄂尔多斯市
1595A,2024-11-06T1300,109.9734,39.7884,24,68,0.8,33,16,61,30,59,颗粒物(PM10),奥林花园,鄂尔多斯市
2436A,2024-11-06T1300,114.8938,30.3994,24,47,0.7,24,12,104,63,47,—,市政府,鄂州市
2437A,2024-11-06T1300,114.8989,30.3714,43,—,0.5,—,—,—,62,—,—,赵家坝,鄂州市
3654A,2024-11-06T1300,114.8094,30.4089,27,63,1.0,25,16,115,81,57,颗粒物(PM10),精准医疗中心,鄂州市
2454A,2024-11-06T1300,109.4978,30.2981,31,52,0.6,18,6,67,25,51,颗粒物(PM10),湖北民院,恩施土家族苗族自治州
2455A,2024-11-06T1300,109.4707,30.2798,31,50,0.6,19,8,69,24,50,—,州电力总公司,恩施土家族苗族自治州
3549A,2024-11-06T1300,109.5061,30.3772,28,43,0.7,14,5,70,26,43,—,龙凤新区,恩施土家族苗族自治州
2499A,2024-11-06T1300,108.3411,21.6158,52,58,0.7,13,6,125,108,72,细颗粒物(PM2.5),沙万,防城港市
2500A,2024-11-06T1300,108.3514,21.7731,—,—,0.9,—,7,118,94,—,—,防城档案局,防城港市
2501A,2024-11-06T1300,108.3506,21.6414,48,65,0.8,14,6,127,114,67,细颗粒物(PM2.5),大海花园,防城港市
1371A,2024-11-06T1300,113.1294,23.0067,35,63,0.8,26,8,162,126,57,颗粒物(PM10),湾梁,佛山市
1372A,2024-11-06T1300,113.1083,23.0478,38,66,0.7,24,9,169,122,62,臭氧1小时,华材职中,佛山市
1373A,2024-11-06T1300,113.144,23.0453,33,67,0.6,20,8,164,124,59,颗粒物(PM10),南海气象局,佛山市
1374A,2024-11-06T1300,113.2881,22.8094,31,59,0.9,18,8,154,112,55,颗粒物(PM10),顺德苏岗,佛山市
1376A,2024-11-06T1300,112.8383,22.8678,39,62,—,15,8,172,120,—,—,高明孔堂,佛山市
1377A,2024-11-06T1300,112.8836,23.1588,41,53,0.7,16,9,158,122,58,细颗粒物(PM2.5),三水监测站,佛山市
1378A,2024-11-06T1300,112.867,23.185,39,42,0.7,15,11,151,109,55,细颗粒物(PM2.5),三水云东海,佛山市
3625A,2024-11-06T1300,113.2544,22.7642,36,58,0.7,21,8,160,118,54,颗粒物(PM10),容桂街道办,佛山市
1280A,2024-11-06T1300,119.3903,26.0543,—,—,—,—,—,—,110,—,—,鼓山,福州市
1282A,2024-11-06T1300,119.2681,26.0504,7,31,0.3,7,3,121,104,38,—,师大,福州市
1283A,2024-11-06T1300,119.2984,26.1028,10,30,0.3,14,1,118,99,37,—,五四北路,福州市
1284A,2024-11-06T1300,119.2648,26.0768,9,25,0.3,5,1,122,103,39,—,杨桥西路,福州市
1285A,2024-11-06T1300,119.317,26.0746,8,35,0.4,8,3,109,90,35,—,紫阳,福州市
3048A,2024-11-06T1300,119.5799,26.0936,—,—,—,—,—,—,124,—,—,九龙,福州市
3526A,2024-11-06T1300,119.5189,25.9664,9,22,0.1,8,3,113,98,36,—,吴航,福州市
1755A,2024-11-06T1300,123.7977,41.8491,12,18,0.7,12,5,62,31,20,—,望花区,抚顺市
1756A,2024-11-06T1300,123.9161,41.8822,7,21,0.3,13,6,60,25,21,—,顺城区,抚顺市
1757A,2024-11-06T1300,124.0436,41.8611,3,—,0.3,5,7,59,34,19,—,东洲区,抚顺市
1758A,2024-11-06T1300,123.9247,41.8642,8,18,0.1,11,9,59,28,19,—,新抚区,抚顺市
1759A,2024-11-06T1300,124.0972,41.8961,6,—,0.3,2,7,64,40,20,—,大伙房水库,抚顺市
1760A,2024-11-06T1300,123.7086,41.8391,15,32,0.6,12,10,62,30,32,—,沈抚新城,抚顺市
2376A,2024-11-06T1300,116.2127,28.0814,25,54,0.4,5,6,111,67,52,颗粒物(PM10),桐源党溪,抚州市
2377A,2024-11-06T1300,116.3544,27.9831,17,48,—,14,—,106,69,—,—,市站,抚州市
2378A,2024-11-06T1300,116.3565,27.963,21,50,0.4,8,7,115,47,50,—,血防站,抚州市
2379A,2024-11-06T1300,116.3564,28.0007,20,43,0.8,5,8,117,71,43,—,采茶剧团,抚州市
2380A,2024-11-06T1300,116.385,27.9647,20,49,0.6,9,9,110,67,49,—,医学分院,抚州市
2207A,2024-11-06T1300,121.6094,41.998,11,31,0.3,12,15,75,28,31,—,工业园区,阜新市
2208A,2024-11-06T1300,121.6697,42.0279,15,25,0.5,22,16,62,25,25,—,长青街,阜新市
2209A,2024-11-06T1300,121.6673,42.0705,14,33,0.3,15,13,62,42,33,—,农业园区,阜新市
2210A,2024-11-06T1300,121.6717,42.0224,24,42,0.6,25,24,56,26,42,—,东苑,阜新市
2211A,2024-11-06T1300,121.6506,42.0498,18,45,—,12,14,66,29,—,—,玉龙新城,阜新市
2301A,2024-11-06T1300,115.8277,32.8929,48,69,0.5,22,11,99,50,67,细颗粒物(PM2.5),市监测站,阜阳市
2303A,2024-11-06T1300,115.8554,32.8605,50,89,0.6,24,10,100,45,70,颗粒物(PM10),开发区,阜阳市
2875A,2024-11-06T1300,115.784,32.8892,44,71,—,20,10,97,45,—,—,阜阳职业技术学院,阜阳市
3468A,2024-11-06T1300,115.7901,32.8613,48,71,0.4,19,10,103,52,67,细颗粒物(PM2.5),市规划展馆,阜阳市
3469A,2024-11-06T1300,115.836,32.9183,45,68,0.4,18,10,100,43,63,细颗粒物(PM2.5),枣园社区,阜阳市
2669A,2024-11-06T1300,102.9099,34.9841,8,15,0.3,5,4,70,23,22,—,州政府,甘南藏族自治州
3380A,2024-11-06T1300,102.8914,34.9617,12,—,0.8,17,12,68,21,22,—,甘肃民族师范学院,甘南藏族自治州
2570A,2024-11-06T1300,101.9603,30.0475,9,14,0.2,8,6,45,17,15,—,水桥子,甘孜藏族自治州
3065A,2024-11-06T1300,101.9533,29.9972,3,8,0.2,8,3,54,34,17,—,州环保局,甘孜藏族自治州
3414A,2024-11-06T1300,115.8347,28.932,23,46,0.7,14,11,111,71,46,—,桑海产业园,赣江新区
2362A,2024-11-06T1300,114.9017,25.9149,3,6,1.6,8,123,129,72,41,—,通天岩,赣州市
2363A,2024-11-06T1300,114.9367,25.8664,32,47,0.7,9,1,122,106,47,—,地委,赣州市
2364A,2024-11-06T1300,114.9461,25.8481,36,57,0.7,8,4,121,104,54,颗粒物(PM10),气象台,赣州市
2365A,2024-11-06T1300,114.9322,25.8333,27,44,0.6,10,6,127,112,44,—,市图书馆,赣州市
2366A,2024-11-06T1300,114.8905,25.8471,26,42,0.7,9,7,119,110,42,—,华坚鞋城,赣州市
3109A,2024-11-06T1300,115.0093,25.8613,19,45,0.7,6,5,102,88,45,—,赣县区卫计委,赣州市
2683A,2024-11-06T1300,106.2319,36.1417,3,13,0.4,5,6,80,36,25,—,马园,固原市
2684A,2024-11-06T1300,106.2792,36.0022,14,20,0.4,18,6,79,34,25,—,监测站,固原市
2685A,2024-11-06T1300,106.2375,36.0211,10,15,0.3,9,4,78,34,25,—,新区,固原市
3522A,2024-11-06T1300,106.2177,35.9959,8,18,0.3,6,5,92,78,29,—,原州区十五小,固原市
2543A,2024-11-06T1300,106.6308,30.5278,—,—,—,—,—,—,—,—,—,小平旧居,广安市
2544A,2024-11-06T1300,106.6303,30.4576,20,42,0.5,13,4,66,37,42,—,市委,广安市
2545A,2024-11-06T1300,106.6271,30.4663,25,32,0.5,14,3,64,29,36,—,友谊中学,广安市
2547A,2024-11-06T1300,106.6388,30.4551,17,34,0.3,15,5,63,37,34,—,广电花园,广安市
2902A,2024-11-06T1300,106.6351,30.4865,20,41,0.6,13,4,64,39,41,—,北辰小学,广安市
2523A,2024-11-06T1300,105.8945,32.4535,10,32,0.4,21,5,5,26,32,—,黑石坡,广元市
2524A,2024-11-06T1300,105.821,32.4444,24,33,1.1,29,11,21,14,35,—,老城,广元市
2526A,2024-11-06T1300,105.8628,32.4287,16,26,0.7,33,1,22,12,26,—,监测站,广元市
3617A,2024-11-06T1300,105.8047,32.4166,58,99,1.5,38,59,15,13,79,细颗粒物(PM2.5),经开区,广元市
1345A,2024-11-06T1300,113.2347,23.1423,37,66,1.1,20,8,152,118,58,颗粒物(PM10),广雅中学,广州市
1346A,2024-11-06T1300,113.2612,23.105,53,80,0.7,17,6,164,133,73,细颗粒物(PM2.5),市五中,广州市
1348A,2024-11-06T1300,113.3478,23.0916,34,47,0.6,14,8,152,125,49,—,广东商学院,广州市
1349A,2024-11-06T1300,113.4332,23.1047,33,51,0.7,13,5,137,111,51,颗粒物(PM10),市八十六中,广州市
1350A,2024-11-06T1300,113.3505,22.9483,8,36,0.6,19,7,159,122,50,—,番禺中学,广州市
1351A,2024-11-06T1300,113.2146,23.3916,33,49,1.1,12,7,143,126,49,—,花都师范,广州市
1352A,2024-11-06T1300,113.2597,23.1331,34,58,0.6,11,6,153,122,54,颗粒物(PM10),市监测站,广州市
1353A,2024-11-06T1300,113.5618,23.312,31,48,0.7,10,6,130,117,48,—,九龙镇镇龙,广州市
1354A,2024-11-06T1300,113.2765,23.1544,40,63,0.7,15,6,157,123,57,"颗粒物(PM10),细颗粒物(PM2.5)",麓湖,广州市
1355A,2024-11-06T1300,113.443,23.3035,28,41,0.7,11,7,146,124,46,—,帽峰山森林公园,广州市
2846A,2024-11-06T1300,113.3221,23.1322,38,53,0.9,10,7,151,119,54,细颗粒物(PM2.5),体育西,广州市
3298A,2024-11-06T1300,113.5717,23.5491,36,45,0.7,9,8,130,126,52,细颗粒物(PM2.5),从化街口,广州市
3299A,2024-11-06T1300,113.3472,23.3692,34,65,0.8,10,8,148,132,58,颗粒物(PM10),白云竹料,广州市
3300A,2024-11-06T1300,113.2981,23.237,36,57,0.9,18,8,150,126,54,颗粒物(PM10),白云嘉禾,广州市
3301A,2024-11-06T1300,113.4256,23.1716,32,47,0.7,11,7,143,122,47,—,黄埔科学城,广州市
3302A,2024-11-06T1300,113.3942,23.0483,29,86,0.6,15,7,149,114,68,颗粒物(PM10),番禺大学城,广州市
3303A,2024-11-06T1300,113.4922,22.8168,41,73,0.8,22,10,165,108,62,颗粒物(PM10),南沙黄阁,广州市
3304A,2024-11-06T1300,113.5342,22.7896,—,64,0.8,19,—,172,106,—,—,南沙街,广州市
3443A,2024-11-06T1300,113.2902,23.5544,33,48,0.7,9,9,138,124,48,—,花都梯面,广州市
3445A,2024-11-06T1300,113.7858,23.7478,33,44,0.8,8,—,130,126,—,—,从化良口,广州市
3446A,2024-11-06T1300,113.8051,23.2614,34,47,0.7,12,8,132,115,49,—,增城荔城,广州市
2505A,2024-11-06T1300,109.568,23.1478,—,—,—,—,—,—,—,—,—,德智高中,贵港市
2506A,2024-11-06T1300,109.6047,23.0666,50,78,—,—,9,159,109,—,—,江南子站,贵港市
2507A,2024-11-06T1300,109.6014,23.0948,48,74,0.9,11,9,152,106,67,细颗粒物(PM2.5),贵城子站,贵港市
2508A,2024-11-06T1300,109.5669,23.1065,46,61,0.7,12,11,141,106,64,细颗粒物(PM2.5),荷城子站,贵港市
3405A,2024-11-06T1300,109.5886,23.1172,41,63,0.8,10,9,145,106,58,细颗粒物(PM2.5),新世纪学校,贵港市
1439A,2024-11-06T1300,106.6899,26.5998,29,39,0.7,11,5,123,79,42,—,马鞍山,贵阳市
1440A,2024-11-06T1300,106.6971,26.5694,41,48,0.4,12,5,135,106,58,细颗粒物(PM2.5),市环保站,贵阳市
1441A,2024-11-06T1300,106.6243,26.6266,27,36,0.5,12,5,117,100,39,—,鉴湖路,贵阳市
1442A,2024-11-06T1300,106.7487,26.6343,36,39,0.5,9,6,126,95,52,细颗粒物(PM2.5),燕子冲,贵阳市
1443A,2024-11-06T1300,106.6555,26.4365,29,46,0.5,13,6,134,88,46,—,碧云窝,贵阳市
1444A,2024-11-06T1300,106.694,26.5161,34,61,0.7,16,5,123,100,56,颗粒物(PM10),中院村,贵阳市
1445A,2024-11-06T1300,106.7109,26.6027,41,48,0.7,13,5,129,95,58,细颗粒物(PM2.5),红边门,贵阳市
1446A,2024-11-06T1300,106.7164,26.5699,36,51,0.5,12,6,129,92,52,细颗粒物(PM2.5),新华路,贵阳市
1447A,2024-11-06T1300,106.674,26.5424,34,56,0.5,20,4,119,90,53,颗粒物(PM10),太慈桥,贵阳市
1552A,2024-11-06T1300,106.805,26.3003,36,58,0.6,5,—,51,90,—,—,桐木岭,贵阳市
1862A,2024-11-06T1300,110.4144,25.3167,38,80,0.6,11,5,148,138,65,颗粒物(PM10),电子科大尧山校区,桂林市
1863A,2024-11-06T1300,110.2819,25.2697,58,74,0.8,14,10,151,139,79,细颗粒物(PM2.5),监测站,桂林市
1864A,2024-11-06T1300,110.3089,25.2708,48,56,0.7,11,9,158,144,67,细颗粒物(PM2.5),龙隐路小学,桂林市
1865A,2024-11-06T1300,110.2869,25.2178,41,61,0.9,13,9,149,133,58,细颗粒物(PM2.5),八中,桂林市
3403A,2024-11-06T1300,110.1764,25.2381,39,61,0.6,15,9,153,144,56,颗粒物(PM10),创业大厦,桂林市
3531A,2024-11-06T1300,110.296,25.1253,46,66,—,14,11,156,136,—,—,旅游学院,桂林市
2674A,2024-11-06T1300,100.2561,34.4714,—,20,0.6,5,16,78,39,—,—,玛沁县大武镇,果洛藏族自治州
1129A,2024-11-06T1300,126.5422,45.755,52,68,0.3,10,9,74,59,72,细颗粒物(PM2.5),岭北,哈尔滨市
1130A,2024-11-06T1300,126.561,45.8167,50,—,—,16,8,48,26,—,—,松北商大,哈尔滨市
1131A,2024-11-06T1300,126.979,45.5419,20,32,0.6,7,9,43,17,32,—,阿城会宁,哈尔滨市
1132A,2024-11-06T1300,126.599,45.7222,38,64,0.5,13,6,52,28,57,颗粒物(PM10),南岗学府路,哈尔滨市
1133A,2024-11-06T1300,126.689,45.7733,44,54,0.5,12,7,51,29,62,细颗粒物(PM2.5),太平宏伟公园,哈尔滨市
1134A,2024-11-06T1300,126.635,45.7667,39,63,0.5,18,7,50,29,57,颗粒物(PM10),道外承德广场,哈尔滨市
1135A,2024-11-06T1300,126.685,45.7319,40,53,0.3,10,—,56,30,—,—,香坊红旗大街,哈尔滨市
1136A,2024-11-06T1300,126.6411,45.7258,38,46,0.5,13,8,51,25,54,细颗粒物(PM2.5),动力和平路,哈尔滨市
1137A,2024-11-06T1300,126.593,45.7478,43,53,0.2,12,11,48,25,60,细颗粒物(PM2.5),道里建国路,哈尔滨市
1138A,2024-11-06T1300,126.615,45.61,37,51,2.5,—,6,53,23,—,—,平房东轻厂,哈尔滨市
1139A,2024-11-06T1300,126.595,45.9855,47,60,0.5,17,5,54,28,65,细颗粒物(PM2.5),呼兰师专,哈尔滨市
1140A,2024-11-06T1300,126.6206,45.6842,38,48,0.4,16,6,46,23,54,细颗粒物(PM2.5),省农科院,哈尔滨市
2688A,2024-11-06T1300,93.5128,42.8172,48,135,0.4,34,9,59,52,93,颗粒物(PM10),地区监测站,哈密市
2689A,2024-11-06T1300,93.4961,42.8328,50,137,0.7,39,10,60,38,94,颗粒物(PM10),哈密师范学校,哈密市
2671A,2024-11-06T1300,100.9048,36.9639,19,19,0.5,7,14,90,57,29,—,海晏县西海镇,海北藏族自治州
3867A,2024-11-06T1300,102.0738,36.5056,39,72,1.0,35,26,76,34,61,颗粒物(PM10),平安区公安北苑,海东市
1409A,2024-11-06T1300,110.576,19.9507,—,—,—,—,—,—,—,—,—,东寨港,海口市
1410A,2024-11-06T1300,110.3232,20.0574,33,52,0.6,11,6,138,108,51,颗粒物(PM10),海南大学,海口市
1411A,2024-11-06T1300,110.283,20.0053,35,47,0.5,12,8,136,106,50,—,秀英海南医院,海口市
1412A,2024-11-06T1300,110.338,19.9969,36,52,0.6,12,9,139,106,52,细颗粒物(PM2.5),海南师范大学,海口市
1413A,2024-11-06T1300,110.33,20.0356,34,48,0.5,10,6,137,106,49,—,龙华路环保局宿舍,海口市
3539A,2024-11-06T1300,110.5111,19.9736,37,54,0.5,8,8,146,108,53,细颗粒物(PM2.5),桂林洋子站,海口市
2673A,2024-11-06T1300,100.6188,36.2866,16,—,0.4,7,13,72,35,23,—,共和县恰卜恰镇,海南藏族自治州
2676A,2024-11-06T1300,97.3731,37.3753,12,29,0.4,9,10,83,70,29,—,德令哈市,海西蒙古族藏族自治州
1048A,2024-11-06T1300,114.5302,36.6116,48,72,0.5,12,7,81,28,67,细颗粒物(PM2.5),东污水处理厂,邯郸市
1049A,2024-11-06T1300,114.4918,36.5713,48,76,0.4,19,4,78,26,67,细颗粒物(PM2.5),矿院,邯郸市
1050A,2024-11-06T1300,114.484,36.6133,48,76,0.4,22,7,76,28,67,细颗粒物(PM2.5),丛台公园,邯郸市
3458A,2024-11-06T1300,114.7895,36.5593,34,81,0.8,14,9,103,43,66,颗粒物(PM10),香泉濮院小区,邯郸市
3579A,2024-11-06T1300,114.50634,36.77178,45,82,0.3,19,8,86,24,66,颗粒物(PM10),永年区实验高中,邯郸市
3580A,2024-11-06T1300,114.20016,36.44293,43,69,1.1,28,15,60,33,60,"颗粒物(PM10),细颗粒物(PM2.5)",峰峰矿区临水派出所,邯郸市
2634A,2024-11-06T1300,106.9893,33.1842,28,33,0.5,9,6,63,33,40,—,汉川机床厂子校,汉中市
2635A,2024-11-06T1300,107.0154,33.0706,26,52,0.6,10,10,59,22,51,颗粒物(PM10),市监测站,汉中市
2636A,2024-11-06T1300,107.0089,33.1138,21,50,0.6,10,10,61,17,50,—,鑫源开发区,汉中市
2637A,2024-11-06T1300,107.007,33.0323,23,42,0.6,13,8,64,28,42,—,南郑大河坎水厂,汉中市
1223A,2024-11-06T1300,120.2072,30.2111,19,34,0.3,22,7,81,59,34,—,滨江,杭州市
1224A,2024-11-06T1300,120.0633,30.2747,17,31,0.5,22,7,90,37,31,—,西溪,杭州市
1226A,2024-11-06T1300,120.3461,30.3153,16,33,0.5,23,8,90,51,33,—,下沙,杭州市
1227A,2024-11-06T1300,120.1269,30.2456,16,31,0.4,18,8,98,51,31,—,卧龙桥,杭州市
1228A,2024-11-06T1300,120.1903,30.2692,19,32,0.4,18,6,87,53,32,—,浙江农大,杭州市
1230A,2024-11-06T1300,120.1197,30.3119,—,—,0.4,—,9,101,41,—,—,和睦小学,杭州市
1231A,2024-11-06T1300,120.3019,30.4183,12,29,0.3,18,6,98,66,31,—,临平镇,杭州市
1232A,2024-11-06T1300,120.2697,30.1819,16,30,0.5,16,7,99,67,31,—,城厢镇,杭州市
1233A,2024-11-06T1300,120.0883,30.1808,13,29,0.4,22,—,95,54,—,—,云栖,杭州市
3557A,2024-11-06T1300,119.9464,30.0494,10,20,0.5,17,7,95,43,30,—,镇二中,杭州市
3558A,2024-11-06T1300,119.7183,30.2367,22,30,0.5,23,—,103,36,—,—,市府大楼,杭州市
3656A,2024-11-06T1300,120.1556,30.2864,16,35,0.2,22,8,96,63,35,—,消防大队,杭州市
1270A,2024-11-06T1300,117.1959,31.7848,—,—,0.5,26,—,—,48,—,—,明珠广场,合肥市
1271A,2024-11-06T1300,117.3072,31.8764,17,48,0.5,22,6,81,43,48,—,三里街,合肥市
1272A,2024-11-06T1300,117.2588,31.8707,29,51,0.7,20,10,93,63,51,颗粒物(PM10),琥珀山庄,合肥市
1273A,2024-11-06T1300,117.1604,31.9052,22,68,0.4,21,5,77,46,59,颗粒物(PM10),董铺水库,合肥市
1274A,2024-11-06T1300,117.25,31.8571,26,46,0.6,22,10,88,60,46,—,长江中路,合肥市
1275A,2024-11-06T1300,117.266,31.9436,17,46,0.7,12,4,96,55,46,—,庐阳区,合肥市
1276A,2024-11-06T1300,117.336,31.8586,21,46,0.3,20,6,86,51,46,—,瑶海区,合肥市
1277A,2024-11-06T1300,117.3027,31.7964,22,56,0.5,22,7,85,40,53,颗粒物(PM10),包河区,合肥市
1278A,2024-11-06T1300,117.2776,31.7385,19,51,0.6,14,7,87,51,51,颗粒物(PM10),滨湖新区,合肥市
1279A,2024-11-06T1300,117.1318,31.8403,21,48,0.6,19,2,84,56,48,—,高新区,合肥市
3464A,2024-11-06T1300,117.3803,31.9147,20,40,0.4,14,8,94,47,40,—,高教基地,合肥市
3614A,2024-11-06T1300,79.924,37.0877,31,132,0.7,9,8,84,61,91,颗粒物(PM10),地区环保局,和田地区
3615A,2024-11-06T1300,79.9131,37.113,59,143,0.4,16,10,82,38,97,颗粒物(PM10),市环保局,和田地区
2516A,2024-11-06T1300,108.2011,24.715,39,64,0.7,8,6,130,74,57,颗粒物(PM10),东仁乐园,河池市
2517A,2024-11-06T1300,108.0497,24.6947,43,86,0.6,11,10,144,72,68,颗粒物(PM10),市环保站,河池市
2518A,2024-11-06T1300,108.0983,24.6989,43,79,0.7,14,8,132,66,65,颗粒物(PM10),市疾控中心,河池市
1696A,2024-11-06T1300,114.6778,23.7569,32,41,0.7,9,7,120,111,46,—,源西,河源市
1697A,2024-11-06T1300,114.6944,23.7586,32,54,0.7,13,4,131,122,52,颗粒物(PM10),东埔,河源市
1698A,2024-11-06T1300,114.6892,23.7233,34,51,0.7,9,4,130,120,51,颗粒物(PM10),老城,河源市
1718A,2024-11-06T1300,115.4208,35.2464,38,74,0.5,19,7,104,53,62,颗粒物(PM10),气象局,菏泽市
1719A,2024-11-06T1300,115.4747,35.2375,41,67,0.5,23,10,96,52,59,颗粒物(PM10),市政协,菏泽市
3374A,2024-11-06T1300,115.5564,35.0891,34,63,0.2,23,10,85,42,57,颗粒物(PM10),定陶老年大学,菏泽市
3647A,2024-11-06T1300,115.4702,35.2706,39,77,0.4,27,13,100,56,64,颗粒物(PM10),菏泽医专,菏泽市
2514A,2024-11-06T1300,111.5264,24.4172,62,75,0.8,13,7,152,107,84,细颗粒物(PM2.5),环保小区,贺州市
2515A,2024-11-06T1300,111.5608,24.4078,48,67,0.8,11,9,155,102,67,细颗粒物(PM2.5),政协大楼,贺州市
3534A,2024-11-06T1300,111.4744,24.4553,60,84,0.7,13,8,143,104,82,细颗粒物(PM2.5),西湾,贺州市
2385A,2024-11-06T1300,114.17,35.9019,47,95,0.5,30,11,80,26,73,颗粒物(PM10),市监测站,鹤壁市
2386A,2024-11-06T1300,114.2956,35.7511,34,92,0.6,23,13,84,28,71,颗粒物(PM10),市交警支队,鹤壁市
2387A,2024-11-06T1300,114.2878,35.7306,38,126,0.6,19,7,87,31,88,颗粒物(PM10),迎宾馆,鹤壁市
3474A,2024-11-06T1300,114.2617,35.6822,60,81,0.5,24,8,79,28,82,细颗粒物(PM2.5),大新区,鹤壁市
3596A,2024-11-06T1300,114.1572,35.9603,53,84,0.6,19,12,89,42,73,细颗粒物(PM2.5),南山宾馆,鹤壁市
2244A,2024-11-06T1300,130.2537,47.3416,8,—,0.4,2,12,60,50,19,—,哈啤分公司,鹤岗市
2245A,2024-11-06T1300,130.2684,47.3086,10,—,0.2,5,11,58,50,19,—,斯达机电,鹤岗市
2246A,2024-11-06T1300,130.3114,47.3388,25,—,0.2,2,11,59,51,36,—,东山纸板厂,鹤岗市
2247A,2024-11-06T1300,130.1097,47.3382,6,7,0.5,4,8,68,63,22,—,五号水库,鹤岗市
2263A,2024-11-06T1300,127.4833,50.2524,9,18,0.3,4,7,52,42,18,—,交通局,黑河市
2264A,2024-11-06T1300,127.5144,50.2341,17,46,0.3,—,4,52,49,—,—,环保局,黑河市
2265A,2024-11-06T1300,127.5291,50.2472,16,43,0.5,12,8,41,37,43,—,大黑河岛,黑河市
1074A,2024-11-06T1300,115.6838,37.7541,22,65,0.4,19,16,91,46,58,颗粒物(PM10),电机北厂,衡水市
1075A,2024-11-06T1300,115.6303,37.7316,20,70,0.4,29,16,90,45,60,颗粒物(PM10),市监测站,衡水市
3188A,2024-11-06T1300,115.6683,37.7217,29,53,0.4,—,20,88,38,—,—,市城管局,衡水市
3459A,2024-11-06T1300,115.5989,37.5491,35,52,0.5,19,9,94,36,51,颗粒物(PM10),地表水厂,衡水市
2456A,2024-11-06T1300,112.5003,26.9167,33,44,0.5,8,9,101,68,48,—,原169医院,衡阳市
2457A,2024-11-06T1300,112.6194,26.9258,44,60,0.7,5,—,134,74,—,—,衡阳化工总厂,衡阳市
2458A,2024-11-06T1300,112.6211,26.8956,40,52,0.8,16,9,134,83,57,细颗粒物(PM2.5),珠晖区环保局,衡阳市
2459A,2024-11-06T1300,112.6197,26.8733,26,67,0.8,12,—,136,94,—,—,市委党校,衡阳市
2460A,2024-11-06T1300,112.6006,26.8919,39,69,0.8,12,11,138,95,60,颗粒物(PM10),市监测站,衡阳市
2461A,2024-11-06T1300,112.5664,26.9056,44,55,0.8,13,8,137,83,62,细颗粒物(PM2.5),真空机电公司,衡阳市
3399A,2024-11-06T1300,112.6703,26.882,32,54,0.8,14,11,141,97,52,颗粒物(PM10),师范学院,衡阳市
2608A,2024-11-06T1300,103.3772,23.3993,—,—,0.6,11,5,69,55,—,—,污水处理厂,红河哈尼族彝族自治州
2609A,2024-11-06T1300,103.3861,23.35,41,53,0.5,8,5,79,66,58,细颗粒物(PM2.5),监测站,红河哈尼族彝族自治州
3038A,2024-11-06T1300,103.3758,23.368,28,45,0.6,6,8,74,59,45,—,州图书馆,红河哈尼族彝族自治州
1090A,2024-11-06T1300,111.6507,40.7517,22,39,0.6,33,15,62,32,39,—,呼市一监,呼和浩特市
1091A,2024-11-06T1300,111.6572,40.8033,23,48,0.5,33,15,58,27,48,—,小召,呼和浩特市
1094A,2024-11-06T1300,111.7516,40.8369,20,49,0.6,27,12,59,24,49,—,如意水处理厂,呼和浩特市
1095A,2024-11-06T1300,111.7276,40.8062,21,32,0.7,28,13,60,28,32,—,二十九中,呼和浩特市
1096A,2024-11-06T1300,111.5512,40.7866,27,43,0.6,32,15,57,21,43,—,工大金川校区,呼和浩特市
1097A,2024-11-06T1300,111.717,40.7612,21,54,0.6,38,19,58,32,52,颗粒物(PM10),化肥厂生活区,呼和浩特市
3698A,2024-11-06T1300,111.5968,40.8178,24,58,0.6,35,13,53,20,54,颗粒物(PM10),红旗小学,呼和浩特市
3699A,2024-11-06T1300,111.6518,40.8389,23,44,0.7,33,12,57,23,44,—,海东办,呼和浩特市
2192A,2024-11-06T1300,119.7594,49.2261,8,24,0.3,11,5,46,27,24,—,区环保局,呼伦贝尔市
3061A,2024-11-06T1300,119.7512,49.1577,7,15,0.2,4,6,56,34,18,—,国华电力东,呼伦贝尔市
1250A,2024-11-06T1300,120.0751,30.8669,12,23,0.5,15,8,100,56,32,—,城西水厂,湖州市
2873A,2024-11-06T1300,120.0875,30.8955,12,24,0.5,17,8,101,61,32,—,仁皇山新区,湖州市
2907A,2024-11-06T1300,120.1844,30.8596,19,30,0.6,14,8,91,67,30,—,吴兴区站,湖州市
3562A,2024-11-06T1300,120.4148,30.8538,12,19,0.3,18,4,87,62,28,—,南浔区站,湖州市
1607A,2024-11-06T1300,120.9092,40.7136,16,29,0.4,7,12,71,32,29,—,龙港区,葫芦岛市
1608A,2024-11-06T1300,120.8392,40.7514,12,31,0.1,14,28,59,27,31,—,化工街,葫芦岛市
1609A,2024-11-06T1300,120.8341,40.7073,21,33,0.4,12,19,64,30,33,—,新区,葫芦岛市
1610A,2024-11-06T1300,120.8695,40.7677,24,57,0.5,14,22,63,28,54,颗粒物(PM10),东城区,葫芦岛市
2482A,2024-11-06T1300,109.5981,27.5721,40,58,1.0,13,13,123,100,57,细颗粒物(PM2.5),林科所,怀化市
2483A,2024-11-06T1300,109.9453,27.5444,37,54,0.7,15,15,121,86,53,细颗粒物(PM2.5),河西地税局,怀化市
2484A,2024-11-06T1300,109.9781,27.5342,37,62,0.6,9,11,130,98,56,颗粒物(PM10),市四医院,怀化市
2485A,2024-11-06T1300,109.9972,27.5578,36,63,0.6,12,5,129,84,57,颗粒物(PM10),监测楼,怀化市
2486A,2024-11-06T1300,110.0394,27.583,43,60,0.6,11,10,124,74,60,细颗粒物(PM2.5),市委党校,怀化市
1210A,2024-11-06T1300,119.036,33.5981,24,24,0.5,16,6,96,46,35,—,钵池山,淮安市
1211A,2024-11-06T1300,119.007,33.575,25,34,0.4,16,8,96,42,36,—,北京南路,淮安市
1212A,2024-11-06T1300,118.989,33.6067,17,31,0.6,20,10,93,37,31,—,市监测站,淮安市
1213A,2024-11-06T1300,119.135,33.5039,20,37,0.5,20,8,92,42,37,—,楚州区监测站,淮安市
1214A,2024-11-06T1300,119.0186,33.6297,30,—,0.6,30,6,91,38,43,—,淮阴区监测站,淮安市
3426A,2024-11-06T1300,118.8755,33.2894,18,24,0.5,20,6,95,53,30,—,新华书店,淮安市
2282A,2024-11-06T1300,116.8004,33.975,45,75,0.6,18,7,94,43,63,"颗粒物(PM10),细颗粒物(PM2.5)",监测站,淮北市
2283A,2024-11-06T1300,116.8091,33.9007,—,—,0.3,28,9,—,25,—,—,烈山区政府,淮北市
3330A,2024-11-06T1300,116.8873,33.9836,42,71,0.5,18,8,97,41,61,颗粒物(PM10),杜集区检察院,淮北市
4017A,2024-11-06T1300,116.7923,33.9535,39,66,0.5,20,10,98,46,58,颗粒物(PM10),市博物馆,淮北市
2277A,2024-11-06T1300,116.8305,32.7727,35,55,0.4,20,10,97,52,53,颗粒物(PM10),潘集区政府,淮南市
2278A,2024-11-06T1300,117.0067,32.6524,43,60,0.5,14,12,101,64,60,细颗粒物(PM2.5),师范学院,淮南市
2279A,2024-11-06T1300,116.8569,32.5951,23,43,0.5,16,10,94,51,43,—,谢家集区政府,淮南市
2280A,2024-11-06T1300,116.8281,32.633,30,56,0.4,12,11,103,58,53,颗粒物(PM10),八公山区政府,淮南市
2281A,2024-11-06T1300,116.6325,32.6201,30,38,0.1,15,6,75,40,43,—,焦岗湖风景区管理处,淮南市
2894A,2024-11-06T1300,117.0566,32.6531,33,53,0.4,10,8,101,56,52,颗粒物(PM10),经济技术开发区消防队,淮南市
3329A,2024-11-06T1300,117.0108,32.5893,14,40,0.3,14,4,99,69,40,—,山南新区,淮南市
2446A,2024-11-06T1300,114.9028,30.4742,25,60,0.6,17,14,122,80,55,颗粒物(PM10),职工中心,黄冈市
2929A,2024-11-06T1300,114.8858,30.4519,27,52,0.6,21,14,121,86,51,颗粒物(PM10),红卫路,黄冈市
3398A,2024-11-06T1300,114.9136,30.4445,23,66,0.7,15,15,126,88,58,颗粒物(PM10),市林业局,黄冈市
2672A,2024-11-06T1300,102.0199,35.5102,—,—,—,—,—,—,69,—,—,同仁县隆务镇,黄南藏族自治州
2295A,2024-11-06T1300,118.2903,29.6963,15,37,0.2,6,8,114,53,37,—,延安路89号,黄山市
2296A,2024-11-06T1300,118.327,29.7178,3,43,0.2,9,6,109,60,43,—,黄山东路89号,黄山市
2297A,2024-11-06T1300,118.1371,30.2756,14,28,0.3,9,9,106,43,34,—,黄山区政府5号楼,黄山市
2423A,2024-11-06T1300,115.0601,30.2313,17,53,0.8,19,27,125,76,52,颗粒物(PM10),沈家营,黄石市
2424A,2024-11-06T1300,115.0817,30.2006,20,53,0.5,11,12,139,87,52,颗粒物(PM10),陈家湾,黄石市
2426A,2024-11-06T1300,114.8988,30.2019,18,45,0.8,9,9,143,99,45,—,铁山,黄石市
2427A,2024-11-06T1300,115.0307,30.2092,13,52,0.7,18,17,126,87,51,颗粒物(PM10),团城山,黄石市
3149A,2024-11-06T1300,115.0235,30.1578,19,36,0.7,15,9,137,95,43,—,笔架山北路,黄石市
1392A,2024-11-06T1300,114.4183,23.0528,35,49,0.9,6,7,138,115,50,—,河南岸金山湖子站,惠州市
1393A,2024-11-06T1300,114.4053,23.0822,33,51,0.9,9,7,138,121,51,颗粒物(PM10),下埔横江三路子站,惠州市
1394A,2024-11-06T1300,114.4103,23.1142,36,48,0.8,9,8,147,125,52,细颗粒物(PM2.5),江北云山西路子站,惠州市
1395A,2024-11-06T1300,114.4645,22.7833,34,55,0.6,8,9,128,107,53,颗粒物(PM10),惠阳区承修路船湖子站,惠州市
1396A,2024-11-06T1300,114.5317,22.7422,36,53,0.6,10,4,138,112,52,"颗粒物(PM10),细颗粒物(PM2.5)",大亚湾管委会子站,惠州市
3314A,2024-11-06T1300,114.4338,22.8134,34,39,0.6,10,8,138,118,49,—,惠阳秋长,惠州市
3452A,2024-11-06T1300,114.6517,22.775,24,57,0.6,8,8,123,106,54,颗粒物(PM10),大亚湾霞涌,惠州市
2240A,2024-11-06T1300,130.9762,45.3001,3,13,0.1,2,6,49,45,16,—,环保局,鸡西市
2243A,2024-11-06T1300,130.9429,45.3039,3,7,0.1,3,4,51,45,16,—,第一中学,鸡西市
3707A,2024-11-06T1300,131.0207,45.3073,3,—,0.3,2,5,56,52,18,—,欧美日汽修厂,鸡西市
3709A,2024-11-06T1300,130.9967,45.3106,3,10,0.2,4,3,50,48,16,—,市政设施管理处,鸡西市
2367A,2024-11-06T1300,114.9754,27.0803,20,52,0.6,20,12,122,82,51,颗粒物(PM10),红声器材厂,吉安市
2368A,2024-11-06T1300,114.9658,27.0999,22,45,0.6,18,—,120,82,—,—,市森林工业局,吉安市
2369A,2024-11-06T1300,114.99,27.1312,21,42,0.5,22,14,124,84,42,—,市环境监测站,吉安市
2370A,2024-11-06T1300,115.0093,27.0968,21,52,0.6,17,12,125,78,51,颗粒物(PM10),青原区法院,吉安市
1772A,2024-11-06T1300,126.54,43.8622,13,24,0.4,8,5,57,35,24,—,哈达湾,吉林市
1773A,2024-11-06T1300,126.5844,43.8358,16,16,0.4,11,5,54,31,23,—,东局子,吉林市
1774A,2024-11-06T1300,126.5052,43.8245,20,22,0.5,6,5,57,29,29,—,电力学院,吉林市
1775A,2024-11-06T1300,126.6133,43.8972,20,33,0.5,13,10,53,28,33,—,江北,吉林市
1776A,2024-11-06T1300,126.555,43.8306,15,18,0.4,6,8,57,34,22,—,江南公园,吉林市
1778A,2024-11-06T1300,126.7061,43.7133,10,10,0.4,3,7,59,44,19,—,丰满,吉林市
2868A,2024-11-06T1300,126.4739,43.953,11,22,0.4,6,6,55,34,22,—,九站,吉林市
1299A,2024-11-06T1300,116.9862,36.6114,3,14,0.6,10,6,98,55,31,—,科干所,济南市
1300A,2024-11-06T1300,116.9376,36.665,3,15,0.5,24,4,86,31,27,—,农科所,济南市
1301A,2024-11-06T1300,117.1265,36.6734,15,34,0.4,29,5,74,40,34,—,开发区,济南市
1303A,2024-11-06T1300,117.0624,36.6868,7,29,0.4,25,3,80,34,29,—,省种子仓库,济南市
1304A,2024-11-06T1300,116.9489,36.6447,3,20,0.4,13,4,96,38,30,—,机床二厂,济南市
1305A,2024-11-06T1300,117.0495,36.663,7,15,0.7,23,4,90,40,29,—,市监测站,济南市
1306A,2024-11-06T1300,116.7675,36.5484,17,20,0.6,22,8,89,54,28,—,长清党校,济南市
1616A,2024-11-06T1300,117.6795,36.229,17,29,1.1,25,11,79,33,29,—,技术学院,济南市
1961A,2024-11-06T1300,117.532,36.6868,3,10,0.9,14,8,82,38,26,—,东山小学,济南市
3059A,2024-11-06T1300,117.7161,36.2049,9,22,0.3,17,8,89,34,28,—,泰兴公司,济南市
3064A,2024-11-06T1300,117.6867,36.2171,12,36,0.7,26,10,83,33,36,—,莱芜战役纪念馆,济南市
3494A,2024-11-06T1300,117.1673,36.9782,3,20,0.3,16,6,69,29,22,—,济阳区政府,济南市
3495A,2024-11-06T1300,117.1171,36.63,3,24,0.3,30,4,82,63,26,—,锦屏中学,济南市
3682A,2024-11-06T1300,116.9814,36.6819,3,17,0.5,14,2,88,33,28,—,济南四建,济南市
1653A,2024-11-06T1300,116.6251,35.4302,19,34,0.6,17,10,93,36,34,—,火炬城,济宁市
1655A,2024-11-06T1300,116.5491,35.4042,24,42,0.6,20,11,90,36,42,—,电化厂,济宁市
3500A,2024-11-06T1300,116.5814,35.3707,27,39,0.6,21,9,90,36,39,—,北湖一中,济宁市
3501A,2024-11-06T1300,116.8249,35.5593,10,62,0.6,26,10,81,33,56,颗粒物(PM10),服务中心,济宁市
3678A,2024-11-06T1300,116.5907,35.4054,24,43,0.7,18,7,90,39,43,—,市第七中学,济宁市
2255A,2024-11-06T1300,130.2751,46.8028,10,14,0.4,5,4,53,40,17,—,佳纺,佳木斯市
2256A,2024-11-06T1300,130.3995,46.8307,3,6,0.4,2,—,—,46,—,—,发电厂,佳木斯市
2257A,2024-11-06T1300,130.3258,46.7975,9,19,0.3,6,8,49,34,19,—,环保局,佳木斯市
2258A,2024-11-06T1300,130.3648,46.8032,11,—,0.3,6,5,52,41,17,—,十一中,佳木斯市
2259A,2024-11-06T1300,130.3794,46.7588,—,—,0.1,—,1,49,45,—,—,四丰,佳木斯市
1252A,2024-11-06T1300,120.7436,30.778,6,17,0,16,8,86,63,27,—,清河小学,嘉兴市
1253A,2024-11-06T1300,120.726,30.7478,7,20,0.4,12,5,85,63,27,—,嘉兴学院,嘉兴市
2872A,2024-11-06T1300,120.7846,30.7525,7,27,0.2,17,6,93,68,30,—,南湖区残联,嘉兴市
3407A,2024-11-06T1300,120.6916,30.7739,9,18,0.3,9,9,91,62,29,—,秀洲住建,嘉兴市
1945A,2024-11-06T1300,98.2908,39.7711,17,48,0.8,27,41,67,53,48,—,气象局,嘉峪关市
2884A,2024-11-06T1300,98.2672,39.7978,9,39,0.7,22,24,75,46,39,—,酒钢宾馆,嘉峪关市
3248A,2024-11-06T1300,98.2643,39.7724,8,38,0.6,—,16,69,49,—,—,雄关区,嘉峪关市
1383A,2024-11-06T1300,113.1064,22.6058,42,73,0.7,19,7,179,127,74,臭氧1小时,北街,江门市
1384A,2024-11-06T1300,113.0731,22.5835,31,102,0.6,20,8,178,123,76,颗粒物(PM10),西区,江门市
1385A,2024-11-06T1300,113.0219,22.5311,45,68,0.5,24,5,173,124,67,臭氧1小时,圭峰西,江门市
1386A,2024-11-06T1300,113.0828,22.5947,45,68,0.6,19,8,178,124,73,臭氧1小时,东湖,江门市
3311A,2024-11-06T1300,113.1075,22.5647,34,66,0.7,22,7,177,125,72,臭氧1小时,江海富民,江门市
3449A,2024-11-06T1300,113.05,22.4667,45,70,0.6,21,6,181,123,77,臭氧1小时,新会银湖,江门市
1828A,2024-11-06T1300,113.227,35.2125,55,92,0.2,26,7,89,42,75,细颗粒物(PM2.5),市环保局,焦作市
1830A,2024-11-06T1300,113.1992,35.2590,47,76,0.8,19,14,99,75,65,细颗粒物(PM2.5),影视城,焦作市
3169A,2024-11-06T1300,113.2725,35.2067,44,71,0.4,22,6,83,32,62,细颗粒物(PM2.5),太极体育中心,焦作市
3335A,2024-11-06T1300,113.3137,35.2641,66,78,0.5,22,23,90,48,89,细颗粒物(PM2.5),马村街道办,焦作市
3336A,2024-11-06T1300,113.2465,35.2373,—,—,—,—,—,—,49,—,—,焦作技师学院,焦作市
3477A,2024-11-06T1300,113.1656,35.2539,46,71,0.4,12,11,94,55,64,细颗粒物(PM2.5),中站许衡医院,焦作市
3981A,2024-11-06T1300,113.2449,35.1803,45,105,0.3,30,3,—,18,—,—,原李万街道办,焦作市
1708A,2024-11-06T1300,116.3701,23.5345,31,69,0.7,15,9,125,88,60,颗粒物(PM10),新兴,揭阳市
1709A,2024-11-06T1300,116.3264,23.5443,28,83,0.7,10,10,124,89,67,颗粒物(PM10),西马,揭阳市
1710A,2024-11-06T1300,116.3611,23.5626,30,66,0.9,11,12,127,86,58,颗粒物(PM10),东兴,揭阳市
1711A,2024-11-06T1300,116.4151,23.5294,32,53,0.6,12,9,125,90,52,颗粒物(PM10),渔湖,揭阳市
3320A,2024-11-06T1300,116.403,23.5699,34,64,0.7,13,14,127,87,57,颗粒物(PM10),曲溪,揭阳市
1944A,2024-11-06T1300,102.1692,38.5167,90,176,0.3,57,284,89,46,119,细颗粒物(PM2.5),天庆家园,金昌市
3170A,2024-11-06T1300,102.1864,38.5253,97,201,0.7,46,182,82,56,128,细颗粒物(PM2.5),市委党校,金昌市
4022A,2024-11-06T1300,102.1647,38.5371,—,—,0.7,—,215,81,47,—,—,金川区人防中心,金昌市
1262A,2024-11-06T1300,119.647,29.077,24,46,0.4,23,5,111,54,46,—,十五中,金华市
1263A,2024-11-06T1300,119.686,29.1029,22,46,0.5,17,5,109,48,46,—,监测站,金华市
3659A,2024-11-06T1300,119.656,29.1131,18,44,0.7,26,6,107,48,44,—,气象局,金华市
1767A,2024-11-06T1300,121.1115,41.0879,20,60,0.4,17,12,56,26,55,颗粒物(PM10),南山,锦州市
1768A,2024-11-06T1300,121.0533,40.8434,24,—,0.5,13,10,61,27,35,—,开发区,锦州市
1769A,2024-11-06T1300,121.1836,41.1119,17,52,0.5,12,11,56,26,51,颗粒物(PM10),百股街道,锦州市
1770A,2024-11-06T1300,121.1178,41.1222,20,43,0.6,16,11,56,27,43,—,天安街道,锦州市
1771A,2024-11-06T1300,121.1303,41.1386,22,62,0.5,18,11,54,27,56,颗粒物(PM10),北湖公园,锦州市
2160A,2024-11-06T1300,112.85,35.5051,29,60,0.7,18,9,115,39,55,颗粒物(PM10),自来水公司,晋城市
2161A,2024-11-06T1300,112.8318,35.4936,36,51,0.5,21,8,112,45,52,细颗粒物(PM2.5),白云商贸,晋城市
2162A,2024-11-06T1300,112.8508,35.4887,31,54,0.6,20,—,112,41,—,—,市环保局,晋城市
2163A,2024-11-06T1300,112.8676,35.4897,19,54,0.6,21,8,113,38,52,颗粒物(PM10),技术学院,晋城市
2165A,2024-11-06T1300,112.8453,35.546,—,—,0.6,—,13,110,49,—,—,白马寺,晋城市
3620A,2024-11-06T1300,112.8271,35.4828,34,57,0.8,17,9,99,40,54,颗粒物(PM10),泽州一中,晋城市
2171A,2024-11-06T1300,112.7532,37.6945,53,90,0.7,37,16,79,39,73,细颗粒物(PM2.5),锦纶小区,晋中市
2173A,2024-11-06T1300,112.7249,37.7067,35,87,0.8,42,14,69,29,69,颗粒物(PM10),南都小区,晋中市
2174A,2024-11-06T1300,112.6991,37.6982,32,85,0.9,38,13,73,31,68,颗粒物(PM10),榆次区政府,晋中市
2865A,2024-11-06T1300,112.7195,37.6828,48,102,1.3,33,17,75,36,76,颗粒物(PM10),榆次三中,晋中市
2439A,2024-11-06T1300,112.2014,31.0481,54,82,0.5,19,15,120,61,74,细颗粒物(PM2.5),竹园小学,荆门市
2440A,2024-11-06T1300,112.1969,30.9891,—,—,—,24,13,127,83,—,—,掇刀,荆门市
2441A,2024-11-06T1300,112.2213,31.0386,57,95,0.5,22,14,125,69,78,细颗粒物(PM2.5),石化一小,荆门市
3012A,2024-11-06T1300,112.1849,31.0362,50,86,0.4,25,11,126,81,69,细颗粒物(PM2.5),西山林语,荆门市
3547A,2024-11-06T1300,112.1632,31.0138,57,90,0.6,24,14,129,76,78,细颗粒物(PM2.5),龙泉中学南校,荆门市
1844A,2024-11-06T1300,112.2494,30.3197,58,—,0.7,28,12,118,67,79,细颗粒物(PM2.5),市图书馆,荆州市
1845A,2024-11-06T1300,112.2008,30.3544,54,71,0.7,—,10,128,59,—,—,市委党校,荆州市
3194A,2024-11-06T1300,112.2747,30.3122,54,62,0.7,26,15,121,62,74,细颗粒物(PM2.5),管委会,荆州市
3548A,2024-11-06T1300,112.1655,30.3364,50,94,0.7,—,12,133,61,—,—,学苑路,荆州市
2342A,2024-11-06T1300,117.3102,29.3867,—,—,—,—,—,—,—,—,—,王港中学,景德镇市
2343A,2024-11-06T1300,117.2117,29.2933,17,30,0.2,6,6,102,74,32,—,老干部活动中心,景德镇市
2344A,2024-11-06T1300,117.1894,29.2789,14,44,0.1,6,7,100,73,44,—,兽医站,景德镇市
2345A,2024-11-06T1300,117.1547,29.2617,11,32,0.4,7,8,94,69,32,—,台达陶瓷,景德镇市
2346A,2024-11-06T1300,117.2461,29.2956,14,24,0.2,4,6,101,54,32,—,陶研所,景德镇市
1803A,2024-11-06T1300,115.9872,29.6815,28,65,0.6,19,9,116,71,58,颗粒物(PM10),十里,九江市
1804A,2024-11-06T1300,115.9584,29.7046,23,48,0.7,16,9,109,71,48,—,茅山头,九江市
1805A,2024-11-06T1300,115.9877,29.7295,19,55,0.4,17,11,119,80,53,颗粒物(PM10),西园,九江市
1806A,2024-11-06T1300,116.0172,29.6547,25,54,0.7,17,12,110,75,52,颗粒物(PM10),五七二七厂,九江市
1808A,2024-11-06T1300,115.9114,29.6038,34,48,0.6,18,20,118,74,49,—,综合工业园,九江市
1809A,2024-11-06T1300,116.0721,29.7535,29,54,0.7,20,11,111,71,52,颗粒物(PM10),石化总厂,九江市
1810A,2024-11-06T1300,115.9773,29.5698,16,23,1.5,4,7,127,117,40,—,庐山气象台,九江市
3190A,2024-11-06T1300,116.0254,29.6994,21,45,0.5,17,12,108,69,45,—,外国语学校,九江市
2658A,2024-11-06T1300,98.5061,39.7443,31,95,0.7,27,38,74,46,73,颗粒物(PM10),仓门街子站,酒泉市
2659A,2024-11-06T1300,98.4989,39.7256,38,132,0.9,47,43,60,45,91,颗粒物(PM10),油田生活基地,酒泉市
2698A,2024-11-06T1300,76.0072,39.4467,48,205,1.1,54,13,41,10,128,颗粒物(PM10),巡警大队,喀什地区
2699A,2024-11-06T1300,75.9755,39.4694,—,—,0.9,—,6,42,10,—,—,吾办,喀什地区
4027A,2024-11-06T1300,75.9483,39.4689,55,279,1.2,55,6,44,16,165,颗粒物(PM10),老干局,喀什地区
1824A,2024-11-06T1300,114.3389,34.7781,60,67,0.5,22,7,103,40,82,细颗粒物(PM2.5),肿瘤医院,开封市
1826A,2024-11-06T1300,114.2885,34.7965,63,65,0.4,20,4,107,52,85,细颗粒物(PM2.5),世纪星幼儿园,开封市
3147A,2024-11-06T1300,114.3438,34.8106,65,74,0.6,18,5,109,44,88,细颗粒物(PM2.5),龙亭公园,开封市
3210A,2024-11-06T1300,114.3644,34.7964,62,76,0.4,18,7,105,46,84,细颗粒物(PM2.5),汴京公园,开封市
3473A,2024-11-06T1300,114.2485,34.8306,59,87,0.4,20,7,107,50,80,细颗粒物(PM2.5),技师学院,开封市
3592A,2024-11-06T1300,114.4644,34.7556,66,102,0.5,24,6,103,40,89,细颗粒物(PM2.5),祥符区生态环境局,开封市
1951A,2024-11-06T1300,84.895,45.6094,12,73,0.6,30,8,16,21,62,颗粒物(PM10),长征新村,克拉玛依市
1952A,2024-11-06T1300,84.8988,45.5893,24,64,0.7,34,3,18,9,57,颗粒物(PM10),南林小区,克拉玛依市
1954A,2024-11-06T1300,84.905,44.3396,27,54,0.6,20,35,66,81,52,颗粒物(PM10),独山子区,克拉玛依市
1955A,2024-11-06T1300,85.6979,46.098,12,34,0.5,19,4,39,20,34,—,乌尔禾区商贸楼,克拉玛依市
3612A,2024-11-06T1300,85.1045,45.6899,20,59,0.4,23,9,25,12,55,颗粒物(PM10),白碱滩区新站,克拉玛依市
2697A,2024-11-06T1300,76.1454,39.7142,84,191,0.8,30,80,60,77,121,颗粒物(PM10),市人民政府,克孜勒苏柯尔克孜自治州
3665A,2024-11-06T1300,76.1658,39.7157,59,164,1.0,48,25,—,76,107,颗粒物(PM10),克州文化中心,克孜勒苏柯尔克孜自治州
1450A,2024-11-06T1300,102.8204,24.8886,29,36,0.5,7,4,86,71,42,—,呈贡新区,昆明市
1451A,2024-11-06T1300,102.6251,24.9608,—,—,—,—,—,—,—,—,—,西山森林公园,昆明市
1452A,2024-11-06T1300,102.7252,25.0902,30,36,0.7,19,7,76,46,43,—,龙泉镇,昆明市
1453A,2024-11-06T1300,102.7266,25.0375,37,51,0.7,22,7,73,53,53,细颗粒物(PM2.5),东风东路,昆明市
1454A,2024-11-06T1300,102.6742,25.0669,—,—,0.7,24,4,80,51,—,—,金鼎山,昆明市
1455A,2024-11-06T1300,102.6644,25.0401,33,44,0.5,16,5,82,53,48,—,碧鸡广场,昆明市
3179A,2024-11-06T1300,102.7494,25.0119,35,41,0.5,15,7,86,52,50,—,官渡区博物馆,昆明市
3375A,2024-11-06T1300,102.8017,24.8336,30,36,0.5,9,4,86,59,43,—,青年创业园,昆明市
3550A,2024-11-06T1300,102.7997,24.9786,31,44,0.5,13,6,92,61,45,—,昆明学院,昆明市
3551A,2024-11-06T1300,102.5967,24.6736,24,—,0.7,6,1,96,61,35,—,晋宁区生态环境分局,昆明市
3552A,2024-11-06T1300,102.6678,24.9856,32,41,0.5,9,5,94,61,46,—,云天化总部,昆明市
1456A,2024-11-06T1300,91.1319,29.6514,16,17,0.3,7,5,107,79,34,—,八廓街,拉萨市
1457A,2024-11-06T1300,91.1221,29.6747,16,43,0.2,16,7,97,74,43,—,市环保局,拉萨市
1458A,2024-11-06T1300,91.0874,29.6475,9,15,0.4,13,5,88,71,28,—,区监测站,拉萨市
1459A,2024-11-06T1300,91.1774,29.6541,9,12,0.6,7,2,99,73,31,—,西藏大学,拉萨市
1460A,2024-11-06T1300,90.9798,29.6588,7,14,0.3,11,8,91,79,29,—,区辐射站,拉萨市
1461A,2024-11-06T1300,91.0834,29.6292,3,11,0.4,14,4,84,71,27,—,拉萨火车站,拉萨市
2520A,2024-11-06T1300,109.2203,23.7256,52,67,0.8,13,6,160,127,72,细颗粒物(PM2.5),来宾技工学校,来宾市
3535A,2024-11-06T1300,109.1781,23.7297,52,74,0.9,11,6,158,131,72,细颗粒物(PM2.5),兴宾区政府,来宾市
4002A,2024-11-06T1300,109.2416,23.7461,50,72,0.8,9,3,158,121,69,细颗粒物(PM2.5),中南小学,来宾市
1476A,2024-11-06T1300,103.631,36.1031,51,107,1.3,68,25,59,23,79,颗粒物(PM10),兰炼宾馆,兰州市
1477A,2024-11-06T1300,104.1373,35.9454,—,—,—,—,—,—,—,—,—,榆中兰大校区,兰州市
1478A,2024-11-06T1300,103.8412,36.0726,37,61,1.0,40,26,52,16,56,颗粒物(PM10),生物制品所,兰州市
1479A,2024-11-06T1300,103.831,36.0464,47,74,1.1,47,17,41,14,65,细颗粒物(PM2.5),铁路设计院,兰州市
3186A,2024-11-06T1300,103.7158,36.1058,55,102,1.3,55,21,45,14,76,颗粒物(PM10),教育港,兰州市
3241A,2024-11-06T1300,103.7439,36.0842,29,63,1.1,47,22,45,17,57,颗粒物(PM10),百合公园,兰州市
3242A,2024-11-06T1300,103.9611,35.998,40,67,0.5,22,24,74,34,59,颗粒物(PM10),和平,兰州市
3245A,2024-11-06T1300,103.6633,36.533,38,71,0.6,18,24,83,38,61,颗粒物(PM10),新区管委会,兰州新区
3246A,2024-11-06T1300,103.6975,36.4789,52,98,0.7,24,25,72,30,74,颗粒物(PM10),舟曲中学,兰州新区
1067A,2024-11-06T1300,116.6708,39.5111,58,84,0.7,65,8,30,12,79,细颗粒物(PM2.5),药材公司,廊坊市
1068A,2024-11-06T1300,116.7214,39.5589,52,95,0.7,58,8,32,9,73,颗粒物(PM10),开发区,廊坊市
1070A,2024-11-06T1300,116.7244,39.5269,66,87,0.7,55,10,32,12,89,细颗粒物(PM2.5),北华航天学院,廊坊市
2919A,2024-11-06T1300,116.7022,39.5453,54,78,0.7,56,9,35,12,74,细颗粒物(PM2.5),河北工业大学,廊坊市
2535A,2024-11-06T1300,103.7723,29.5462,51,63,0.8,31,5,25,35,70,细颗粒物(PM2.5),花湖湾,乐山市
2536A,2024-11-06T1300,103.7627,29.5844,61,62,0.6,30,6,36,29,83,细颗粒物(PM2.5),牛耳桥,乐山市
2537A,2024-11-06T1300,103.7508,29.6006,49,58,0.7,23,7,50,38,68,细颗粒物(PM2.5),市第三水厂,乐山市
2538A,2024-11-06T1300,103.7571,29.5664,50,58,0.8,30,6,29,35,69,细颗粒物(PM2.5),市监测站,乐山市
3361A,2024-11-06T1300,103.7311,29.5628,58,67,0.7,26,6,42,33,79,细颗粒物(PM2.5),理工大学,乐山市
2598A,2024-11-06T1300,100.2143,26.8576,13,21,1.0,6,7,77,50,25,—,西南郊,丽江市
2599A,2024-11-06T1300,100.2497,26.8802,18,26,0.5,8,11,70,54,26,—,丽江古城,丽江市
2600A,2024-11-06T1300,100.2203,26.8906,19,34,0.7,8,9,72,55,34,—,市中心,丽江市
1267A,2024-11-06T1300,119.914,28.4514,13,44,0.2,14,1,113,50,44,—,监测站大楼,丽水市
1268A,2024-11-06T1300,119.93,28.4586,16,36,0.3,15,6,114,49,36,—,莲都小学,丽水市
1269A,2024-11-06T1300,119.879,28.4231,22,31,0.3,12,6,116,48,37,—,余庄前,丽水市
1173A,2024-11-06T1300,119.176,34.5885,14,31,0.3,20,10,84,40,31,—,市环境监测站,连云港市
3000A,2024-11-06T1300,119.3581,34.6972,7,14,0.2,14,7,91,39,29,—,德源药业,连云港市
3007A,2024-11-06T1300,119.178,34.844,17,53,1.0,25,12,81,33,52,颗粒物(PM10),新城一中,连云港市
3008A,2024-11-06T1300,119.3608,34.7519,14,19,0.2,10,10,93,46,30,—,胡沟管理处,连云港市
3009A,2024-11-06T1300,119.1478,34.5911,12,27,0.6,23,9,84,35,27,—,矿山设计院,连云港市
3434A,2024-11-06T1300,119.2413,34.6539,9,20,0.3,11,8,98,44,31,—,工贸学校,连云港市
3664A,2024-11-06T1300,119.4172,34.7341,14,23,0.4,11,8,93,53,30,—,连云街道,连云港市
2571A,2024-11-06T1300,102.3431,27.8099,11,25,1.0,8,10,51,20,25,—,青龙寺,凉山彝族自治州
2572A,2024-11-06T1300,102.2721,27.8415,35,51,1.4,14,14,40,16,51,颗粒物(PM10),邛海宾馆,凉山彝族自治州
2573A,2024-11-06T1300,102.2625,27.898,32,43,1.3,13,11,45,18,46,—,西昌市政府,凉山彝族自治州
2574A,2024-11-06T1300,102.2685,27.8851,40,64,1.1,15,13,44,21,57,"颗粒物(PM10),细颗粒物(PM2.5)",凉山州政府,凉山彝族自治州
2575A,2024-11-06T1300,102.237,27.8914,30,58,1.1,17,17,44,15,54,颗粒物(PM10),长安,凉山彝族自治州
2212A,2024-11-06T1300,123.2,41.1953,20,23,0.3,11,9,58,26,29,—,宏伟区,辽阳市
2213A,2024-11-06T1300,123.1683,41.2495,17,26,0.3,10,7,56,25,26,—,新华园,辽阳市
2214A,2024-11-06T1300,123.2354,41.2639,13,—,—,—,18,52,22,—,—,滨河路,辽阳市
2215A,2024-11-06T1300,123.149,41.2991,14,—,0.5,7,14,55,21,20,—,铁西工业园,辽阳市
2227A,2024-11-06T1300,125.1358,42.8845,11,29,0.4,7,6,65,34,29,—,环保局,辽源市
3239A,2024-11-06T1300,125.0764,42.9078,3,8,0.4,6,6,64,35,20,—,银鹰制药,辽源市
1625A,2024-11-06T1300,115.9848,36.4372,17,47,0.7,16,13,83,40,47,—,区政府,聊城市
2878A,2024-11-06T1300,116.0072,36.4343,27,51,0.6,17,13,87,40,51,颗粒物(PM10),聊大东校,聊城市
3200A,2024-11-06T1300,115.9819,36.4978,—,—,—,24,11,83,35,—,—,监控中心,聊城市
3513A,2024-11-06T1300,116.0445,36.4361,8,47,0.6,30,8,82,36,47,—,九州社区,聊城市
4018A,2024-11-06T1300,116.0567,36.4608,23,59,0.5,22,10,84,46,55,颗粒物(PM10),星美广场,聊城市
2632A,2024-11-06T1300,94.3681,29.6376,3,15,0.3,4,7,75,71,24,—,林芝监测站,林芝市
2633A,2024-11-06T1300,94.3616,29.6616,8,10,0.4,4,6,75,69,24,—,林芝人民医院,林芝市
2603A,2024-11-06T1300,100.0781,23.8982,20,32,0.6,14,8,55,25,32,—,市环保局,临沧市
2604A,2024-11-06T1300,100.0894,23.8822,31,35,0.6,10,8,58,22,45,—,市气象局,临沧市
1733A,2024-11-06T1300,111.5531,36.0783,53,80,1.1,37,17,81,24,73,细颗粒物(PM2.5),临钢医院,临汾市
1734A,2024-11-06T1300,111.5028,36.0714,52,90,1.1,37,19,84,31,72,细颗粒物(PM2.5),技工学校,临汾市
1736A,2024-11-06T1300,111.5018,36.0855,47,72,1.0,30,19,94,33,65,细颗粒物(PM2.5),市委,临汾市
3018A,2024-11-06T1300,111.505,36.1014,48,82,1.0,33,18,88,31,67,细颗粒物(PM2.5),唐尧大酒店,临汾市
3668A,2024-11-06T1300,111.5036,36.0414,43,80,1.0,38,16,82,26,65,颗粒物(PM10),城南,临汾市
2667A,2024-11-06T1300,103.2069,35.5993,13,51,0.6,18,10,82,22,51,颗粒物(PM10),环保局,临夏回族自治州
2668A,2024-11-06T1300,103.2417,35.6057,18,35,0.4,15,9,82,33,35,—,建设大厦,临夏回族自治州
1618A,2024-11-06T1300,118.3429,35.0532,28,48,0.4,—,8,81,39,—,—,沂河小区,临沂市
1619A,2024-11-06T1300,118.295,35.0583,19,24,0.6,22,6,78,36,28,—,鲁南制药厂,临沂市
1620A,2024-11-06T1300,118.2794,34.9976,21,29,0.6,24,8,86,40,30,—,新光毛纺厂,临沂市
1621A,2024-11-06T1300,118.3956,35.0888,15,36,0.6,20,5,83,35,36,—,河东保险公司,临沂市
3370A,2024-11-06T1300,118.3564,35.0215,24,39,0.4,28,8,83,36,39,—,十里堡居委,临沂市
3496A,2024-11-06T1300,118.3604,35.1084,19,27,0.5,25,5,87,41,28,—,南坊新区,临沂市
3860A,2024-11-06T1300,118.3920,35.0300,21,34,0.4,27,5,81,31,34,—,皇山花园小区,临沂市
1870A,2024-11-06T1300,109.4856,24.3895,50,63,0.6,8,10,143,129,69,细颗粒物(PM2.5),柳东小学,柳州市
1871A,2024-11-06T1300,109.4157,24.3277,50,69,0.7,11,10,143,126,69,细颗粒物(PM2.5),环保监测站,柳州市
1872A,2024-11-06T1300,109.389,24.341,50,74,1.0,10,9,141,121,69,细颗粒物(PM2.5),河西水厂,柳州市
1873A,2024-11-06T1300,109.4311,24.2921,44,62,0.7,9,10,147,136,62,细颗粒物(PM2.5),市四中,柳州市
1874A,2024-11-06T1300,109.4006,24.3631,57,71,0.8,8,8,—,112,—,—,市九中,柳州市
1875A,2024-11-06T1300,109.4958,24.3134,45,79,1.0,15,12,149,140,65,颗粒物(PM10),古亭山,柳州市
3402A,2024-11-06T1300,109.5422,24.3996,44,72,0.8,19,11,138,127,62,细颗粒物(PM2.5),市二中,柳州市
2307A,2024-11-06T1300,116.5079,31.737,23,65,0.6,24,8,96,58,58,颗粒物(PM10),监测大楼,六安市
2308A,2024-11-06T1300,116.4738,31.7643,28,76,0.7,22,8,100,48,63,颗粒物(PM10),皖西学院,六安市
2309A,2024-11-06T1300,116.4996,31.7905,27,57,0.7,25,6,98,44,54,颗粒物(PM10),朝阳厂,六安市
2310A,2024-11-06T1300,116.5567,31.7886,35,76,0.6,23,8,97,44,63,颗粒物(PM10),开发区,六安市
2576A,2024-11-06T1300,104.8,26.5892,37,42,0.6,8,5,66,55,53,细颗粒物(PM2.5),窑上,六盘水市
2577A,2024-11-06T1300,104.83,26.5917,29,35,0.6,11,6,72,63,42,—,黄土坡,六盘水市
2578A,2024-11-06T1300,104.89,26.5939,—,—,0.5,10,3,78,69,—,—,水钢,六盘水市
2579A,2024-11-06T1300,104.8475,26.5894,29,36,0.6,13,8,70,64,42,—,民中,六盘水市
2580A,2024-11-06T1300,104.9544,26.5506,28,41,0.4,10,7,83,72,41,—,双水,六盘水市
2335A,2024-11-06T1300,117.0189,25.1181,—,—,—,—,—,—,—,—,—,龙岩师专,龙岩市
2336A,2024-11-06T1300,117.0217,25.1033,21,28,0.5,8,2,107,96,34,—,龙岩市监测站,龙岩市
2337A,2024-11-06T1300,117.0258,25.0661,20,28,0.6,4,2,109,99,35,—,闽西职业技术学院,龙岩市
2338A,2024-11-06T1300,117.0196,25.0306,19,37,0.6,6,5,107,100,37,—,龙岩学院,龙岩市
2665A,2024-11-06T1300,105.0822,33.3261,—,—,—,—,—,—,—,—,—,汉王镇固水子,陇南市
2885A,2024-11-06T1300,104.9339,33.3826,22,43,0.6,12,10,54,26,43,—,滨江中学,陇南市
3247A,2024-11-06T1300,104.955,33.371,20,48,0.8,13,9,55,38,48,—,市总工会,陇南市
2487A,2024-11-06T1300,111.9589,27.8901,36,51,1.6,16,8,128,99,52,细颗粒物(PM2.5),电视发射台,娄底市
2488A,2024-11-06T1300,111.9975,27.725,48,51,0.5,10,5,137,82,67,细颗粒物(PM2.5),市监测站,娄底市
2489A,2024-11-06T1300,112.0194,27.7314,—,—,—,15,5,131,84,—,—,市委党校,娄底市
2490A,2024-11-06T1300,111.9561,27.7569,30,31,0.7,12,12,132,76,43,—,涟钢,娄底市
2491A,2024-11-06T1300,111.9892,27.7044,36,59,0.7,13,7,132,64,55,颗粒物(PM10),市政府,娄底市
1893A,2024-11-06T1300,105.4324,28.9634,54,81,0.4,22,5,5,5,74,细颗粒物(PM2.5),九狮山,泸州市
1894A,2024-11-06T1300,105.4427,28.9063,59,93,0.7,33,5,9,19,80,细颗粒物(PM2.5),小市上码头,泸州市
1895A,2024-11-06T1300,105.4241,28.8573,67,68,0.8,21,5,20,16,90,细颗粒物(PM2.5),兰田宪桥,泸州市
1896A,2024-11-06T1300,105.4379,28.8833,70,93,0.8,27,6,12,19,94,细颗粒物(PM2.5),市环监站,泸州市
3490A,2024-11-06T1300,105.3617,28.7703,53,58,0.7,24,6,20,7,73,细颗粒物(PM2.5),纳溪区环保局,泸州市
2183A,2024-11-06T1300,111.1406,37.5211,14,37,0.5,23,5,68,24,37,—,环保局,吕梁市
2185A,2024-11-06T1300,111.1297,37.5136,18,56,0.6,24,6,67,22,53,颗粒物(PM10),自来水公司,吕梁市
2867A,2024-11-06T1300,111.1283,37.51,18,—,0.6,28,6,67,24,—,—,马茂庄小学,吕梁市
1812A,2024-11-06T1300,112.3931,34.6516,66,100,0.6,51,10,54,19,89,细颗粒物(PM2.5),市委党校,洛阳市
1814A,2024-11-06T1300,112.4657,34.6871,56,112,0.5,39,11,76,25,81,颗粒物(PM10),豫西宾馆,洛阳市
1815A,2024-11-06T1300,112.494,34.6886,72,90,0.2,37,10,59,19,97,细颗粒物(PM2.5),河南林校,洛阳市
1816A,2024-11-06T1300,112.3844,34.623,58,99,0.5,39,14,62,24,79,细颗粒物(PM2.5),开发区管委会,洛阳市
1817A,2024-11-06T1300,112.4267,34.6258,58,102,0.3,47,10,—,15,—,—,市委新办公区,洛阳市
3340A,2024-11-06T1300,112.6005,34.6326,56,116,0.3,47,12,48,16,83,颗粒物(PM10),伊滨,洛阳市
3341A,2024-11-06T1300,112.4951,34.6332,58,87,0.5,43,11,62,21,79,细颗粒物(PM2.5),中移产业园,洛阳市
3593A,2024-11-06T1300,112.5736,34.8993,65,91,0.4,30,14,72,28,88,细颗粒物(PM2.5),吉利监测站,洛阳市
3635A,2024-11-06T1300,112.3677,34.662,62,103,0.6,42,10,63,21,84,细颗粒物(PM2.5),河科大西苑校区,洛阳市
3636A,2024-11-06T1300,112.4388,34.6781,47,98,0.5,39,10,64,18,74,颗粒物(PM10),英才小学,洛阳市
2399A,2024-11-06T1300,114.051,33.5699,71,115,0.5,22,10,109,46,95,细颗粒物(PM2.5),三五一五工厂,漯河市
2400A,2024-11-06T1300,114.0055,33.5698,66,116,0.5,20,10,112,53,89,细颗粒物(PM2.5),漯河大学,漯河市
2401A,2024-11-06T1300,114.0138,33.5828,63,107,0.5,16,10,110,51,85,细颗粒物(PM2.5),市水利局,漯河市
2402A,2024-11-06T1300,114.0261,33.5698,69,98,0.5,17,10,113,57,93,细颗粒物(PM2.5),市广电局,漯河市
3478A,2024-11-06T1300,113.9749,33.5664,62,116,0.6,11,8,112,50,84,细颗粒物(PM2.5),市图书馆,漯河市
3479A,2024-11-06T1300,114.0967,33.5906,60,112,0.5,16,12,110,41,82,细颗粒物(PM2.5),召陵区卫健委,漯河市
1798A,2024-11-06T1300,118.5092,31.6837,11,34,0.5,11,4,92,60,34,—,湖东路四小,马鞍山市
1799A,2024-11-06T1300,118.5024,31.6449,14,30,0.6,19,8,90,49,30,—,开发区,马鞍山市
1800A,2024-11-06T1300,118.5228,31.7231,15,—,0.5,16,8,92,62,29,—,慈湖,马鞍山市
1802A,2024-11-06T1300,118.6245,31.7241,12,19,0.7,13,7,96,62,30,—,濮塘,马鞍山市
3633A,2024-11-06T1300,118.4918,31.6809,14,34,0.5,13,5,90,61,34,—,雨山,马鞍山市
1686A,2024-11-06T1300,111.0286,21.4688,24,44,0.5,10,7,129,93,44,—,电白南海,茂名市
1687A,2024-11-06T1300,110.9294,21.6533,27,44,0.7,8,7,118,91,44,—,茂石化七小,茂名市
1688A,2024-11-06T1300,110.9107,21.6687,22,31,0.6,6,12,127,86,40,—,健康路,茂名市
1689A,2024-11-06T1300,110.8592,21.6828,39,53,0.7,8,11,126,72,55,细颗粒物(PM2.5),高岭,茂名市
3450A,2024-11-06T1300,111.01,21.5165,27,39,0.7,10,10,121,95,39,—,电白水东,茂名市
2539A,2024-11-06T1300,104.0308,30.0478,41,—,0.5,5,3,42,36,58,细颗粒物(PM2.5),黑龙滩水库,眉山市
2540A,2024-11-06T1300,103.8416,30.0874,56,57,0.6,33,10,24,16,77,细颗粒物(PM2.5),气象局,眉山市
3137A,2024-11-06T1300,103.8578,30.0744,44,70,0.6,36,9,26,26,62,细颗粒物(PM2.5),市委党校,眉山市
3148A,2024-11-06T1300,103.8291,30.0564,51,74,0.8,41,8,25,30,70,细颗粒物(PM2.5),区人社局,眉山市
1690A,2024-11-06T1300,116.1231,24.3284,32,39,0.7,8,8,126,100,46,—,梅江月梅,梅州市
1691A,2024-11-06T1300,116.0797,24.2719,30,44,—,9,6,120,102,—,—,梅县新城,梅州市
1692A,2024-11-06T1300,116.1248,24.2654,28,40,0.5,11,7,119,93,40,—,环境监控中心,梅州市
3315A,2024-11-06T1300,116.1233,24.2991,29,36,0.6,8,6,118,94,42,—,梅龙,梅州市
1878A,2024-11-06T1300,104.7778,31.4741,26,30,0.6,16,3,56,32,38,—,富乐山,绵阳市
1879A,2024-11-06T1300,104.7563,31.4535,26,43,0.4,20,3,55,29,43,—,市人大,绵阳市
1880A,2024-11-06T1300,104.6697,31.4668,17,29,0.6,21,3,54,15,29,—,高新区自来水公司,绵阳市
1881A,2024-11-06T1300,104.7287,31.5075,33,44,0.6,29,5,31,23,48,—,三水厂,绵阳市
3491A,2024-11-06T1300,104.69,31.5322,23,43,0.6,13,5,49,18,43,—,西科大附属小学,绵阳市
3492A,2024-11-06T1300,104.5648,31.5343,31,—,0.6,8,7,67,42,45,—,安州区旅游局,绵阳市
1784A,2024-11-06T1300,129.61,44.561,23,34,0.3,9,4,52,44,34,—,环保大楼,牡丹江市
1785A,2024-11-06T1300,129.6115,44.5782,22,39,0.2,9,7,52,41,39,—,文化广场,牡丹江市
1786A,2024-11-06T1300,129.5904,44.5963,38,—,0.3,5,4,60,50,54,细颗粒物(PM2.5),第一医院,牡丹江市
1787A,2024-11-06T1300,129.6364,44.6075,12,20,0.3,3,6,56,46,20,—,机车工厂,牡丹江市
1788A,2024-11-06T1300,129.6386,44.5462,34,42,0.2,5,4,58,48,49,—,第一中学,牡丹江市
2531A,2024-11-06T1300,105.0703,29.61,39,—,—,19,10,34,23,—,—,市监测站,内江市
2532A,2024-11-06T1300,105.0717,29.5947,27,29,0.8,16,7,48,31,39,—,东兴区政府,内江市
2533A,2024-11-06T1300,105.0653,29.5817,40,41,0.6,26,6,38,28,57,细颗粒物(PM2.5),内江二中,内江市
2534A,2024-11-06T1300,105.0406,29.5822,35,50,0.5,30,5,37,18,50,—,内江日报社,内江市
2628A,2024-11-06T1300,92.0657,31.4846,38,69,0.6,18,6,73,34,60,颗粒物(PM10),那曲监测站,那曲市
3128A,2024-11-06T1300,92.0506,31.4797,24,77,0.6,16,6,70,37,64,颗粒物(PM10),那曲会议中心,那曲市
1290A,2024-11-06T1300,115.8931,28.6843,27,52,0.5,16,12,113,74,51,颗粒物(PM10),省外办,南昌市
1291A,2024-11-06T1300,115.8886,28.7003,24,51,0.5,10,8,115,76,51,颗粒物(PM10),省林业公司,南昌市
1292A,2024-11-06T1300,115.8126,28.7442,19,46,0.5,16,11,126,90,46,—,林科所,南昌市
1294A,2024-11-06T1300,115.8518,28.687,28,33,0.4,13,10,118,82,40,—,建工学校,南昌市
1295A,2024-11-06T1300,115.8921,28.6424,22,39,0.4,14,9,126,85,40,—,象湖,南昌市
1296A,2024-11-06T1300,115.7423,28.7996,3,49,0.5,12,2,101,51,49,—,武术学校,南昌市
1298A,2024-11-06T1300,115.9314,28.6842,27,40,0.5,9,8,108,71,40,—,省站,南昌市
3046A,2024-11-06T1300,115.9084,28.6062,24,52,0.3,18,7,116,80,51,颗粒物(PM10),机电学校,南昌市
3690A,2024-11-06T1300,115.9721,28.7031,17,43,0.5,12,7,111,74,43,—,外国语学校,南昌市
1905A,2024-11-06T1300,106.056,30.8064,25,—,0.4,10,1,36,28,36,—,西山风景区,南充市
1906A,2024-11-06T1300,106.0789,30.8023,31,45,0.4,16,3,35,18,45,—,南充市委,南充市
1907A,2024-11-06T1300,106.1031,30.8217,34,48,0.5,14,3,31,18,49,—,南充炼油厂,南充市
1908A,2024-11-06T1300,106.1064,30.7856,37,47,0.4,21,3,30,27,53,细颗粒物(PM2.5),高坪区监测站,南充市
1909A,2024-11-06T1300,106.0642,30.7636,27,46,0.5,20,3,29,23,46,—,嘉陵区环保局,南充市
1910A,2024-11-06T1300,106.1087,30.8388,—,—,—,17,4,28,22,—,—,市环境监测站,南充市
1151A,2024-11-06T1300,118.8086,32.1065,9,23,0,18,4,83,44,26,—,迈皋桥,南京市
1152A,2024-11-06T1300,118.7538,32.0551,7,19,0.2,22,5,86,50,27,—,草场门,南京市
1153A,2024-11-06T1300,118.7794,32.0745,14,29,0.4,7,4,92,53,29,—,山西路,南京市
1154A,2024-11-06T1300,118.7752,32.0023,9,17,0.4,14,4,85,46,27,—,中华门,南京市
1155A,2024-11-06T1300,118.8109,32.0309,9,22,0.3,7,4,82,51,26,—,瑞金路,南京市
1156A,2024-11-06T1300,118.7997,32.0754,3,24,0.3,28,6,73,37,24,—,玄武湖,南京市
1157A,2024-11-06T1300,118.6414,32.0931,13,26,0.6,20,7,79,37,26,—,浦口,南京市
1158A,2024-11-06T1300,118.7356,31.9996,—,—,—,16,7,85,45,—,—,奥体中心,南京市
1159A,2024-11-06T1300,118.9125,32.1028,9,29,0.3,16,6,89,46,29,—,仙林大学城,南京市
3422A,2024-11-06T1300,118.8436,31.9198,3,13,0.5,6,5,92,50,29,—,江宁彩虹桥,南京市
3423A,2024-11-06T1300,119.0138,31.6494,7,19,0.3,12,4,98,54,31,—,溧水永阳,南京市
3424A,2024-11-06T1300,118.879,31.3302,15,—,0.3,14,7,95,59,30,—,高淳老职中,南京市
3427A,2024-11-06T1300,118.8554,32.3578,3,25,—,16,4,—,26,—,—,六合雄州,南京市
1401A,2024-11-06T1300,108.3103,22.7881,46,70,1.2,13,7,160,114,64,细颗粒物(PM2.5),二十一中,南宁市
1402A,2024-11-06T1300,108.3141,22.8528,49,70,1.0,11,7,149,102,68,细颗粒物(PM2.5),北湖,南宁市
1403A,2024-11-06T1300,108.3206,22.8225,50,—,0.8,—,—,141,97,—,—,市监测站,南宁市
1404A,2024-11-06T1300,108.3829,22.8037,47,54,0.7,12,7,148,124,65,细颗粒物(PM2.5),大自然花园,南宁市
1405A,2024-11-06T1300,108.4394,22.7904,50,59,0.7,10,6,130,112,69,细颗粒物(PM2.5),仙葫,南宁市
1406A,2024-11-06T1300,108.2397,22.8467,47,63,0.9,9,8,155,90,65,细颗粒物(PM2.5),区农职院,南宁市
1407A,2024-11-06T1300,108.3275,22.735,42,63,0.8,14,6,145,116,59,细颗粒物(PM2.5),英华嘉园,南宁市
1408A,2024-11-06T1300,108.2257,22.7757,44,70,0.8,17,7,152,61,62,细颗粒物(PM2.5),沙井镇街道办,南宁市
3401A,2024-11-06T1300,108.4834,22.7618,50,65,0.8,10,8,146,124,69,细颗粒物(PM2.5),红星社区,南宁市
2331A,2024-11-06T1300,118.0966,26.6761,—,—,—,—,—,—,117,—,—,茫荡山,南平市
2332A,2024-11-06T1300,118.1681,26.6369,19,24,0.3,6,3,106,93,34,—,南平市监测站,南平市
2333A,2024-11-06T1300,118.1825,26.6489,16,20,0.3,6,3,108,95,34,—,南平铝业有限公司,南平市
2334A,2024-11-06T1300,118.1756,26.6272,16,43,0.4,9,5,110,98,43,—,南平七中,南平市
1168A,2024-11-06T1300,120.9098,31.9663,8,25,0.3,4,7,99,70,31,—,狼山街道,南通市
1169A,2024-11-06T1300,120.86,32.0005,10,29,0.3,12,6,94,66,30,—,虹桥,南通市
1170A,2024-11-06T1300,120.87,32.02,11,22,0.4,12,7,97,70,31,—,城中,南通市
1171A,2024-11-06T1300,120.94,31.93,—,—,0.4,—,6,46,51,—,—,星湖花园,南通市
1172A,2024-11-06T1300,120.81,32.0417,6,21,0.3,11,4,93,55,30,—,紫琅学院,南通市
3291A,2024-11-06T1300,121.067,32.062,7,19,0.3,13,3,96,67,30,—,通州监测站,南通市
3432A,2024-11-06T1300,120.9348,31.9883,3,24,0.3,10,3,102,71,32,—,环境教育馆,南通市
2404A,2024-11-06T1300,112.5224,33.0122,63,88,0.8,18,8,115,69,85,细颗粒物(PM2.5),瓦房庄,南阳市
2405A,2024-11-06T1300,112.5003,32.9735,21,92,—,20,10,113,69,—,—,汉画馆,南阳市
2406A,2024-11-06T1300,112.5573,33.027,48,90,0.7,19,8,116,64,70,颗粒物(PM10),气象站,南阳市
2407A,2024-11-06T1300,112.5481,32.9689,56,83,0.5,15,7,116,69,77,细颗粒物(PM2.5),理工学院,南阳市
4008A,2024-11-06T1300,112.5234,32.9922,57,91,0.6,19,7,114,70,78,细颗粒物(PM2.5),卧龙区政府,南阳市
1234A,2024-11-06T1300,121.8358,29.911,6,18,0.3,11,7,88,68,28,—,区环保大楼,宁波市
1235A,2024-11-06T1300,121.56,29.82,6,27,0.4,14,6,98,74,31,—,万里学院,宁波市
1236A,2024-11-06T1300,121.713,29.9572,6,22,0.4,14,—,86,76,—,—,龙赛医院,宁波市
1239A,2024-11-06T1300,121.633,29.7733,3,12,0.3,12,9,93,58,30,—,钱湖水厂,宁波市
1240A,2024-11-06T1300,121.5856,29.8635,11,17,0.6,13,8,94,68,30,—,太古小学,宁波市
1241A,2024-11-06T1300,121.524,29.8674,6,16,0.5,15,11,96,67,30,—,市环境监测中心,宁波市
2871A,2024-11-06T1300,121.6147,29.9017,11,14,0.4,18,8,93,58,30,—,万里国际学校,宁波市
3710A,2024-11-06T1300,121.5594,29.8975,8,21,0.5,16,9,94,68,30,—,白沙活动中心,宁波市
2339A,2024-11-06T1300,119.5001,26.6946,—,—,—,—,—,—,—,—,—,金涵水库,宁德市
2341A,2024-11-06T1300,119.5388,26.6612,15,31,0.4,10,3,121,86,38,—,宁德市监测站,宁德市
3209A,2024-11-06T1300,119.5231,26.6562,16,33,0.2,10,5,126,91,40,—,宁德一中,宁德市
2618A,2024-11-06T1300,98.8601,25.8567,15,25,0.5,19,6,18,24,25,—,州监测站,怒江傈僳族自治州
2619A,2024-11-06T1300,98.8546,25.8417,16,—,0.5,17,7,13,10,23,—,泸水一中,怒江傈僳族自治州
1888A,2024-11-06T1300,101.6891,26.571,—,—,0.9,19,12,53,17,—,—,弄弄坪,攀枝花市
1889A,2024-11-06T1300,101.5769,26.5928,39,55,1.7,20,18,65,22,55,细颗粒物(PM2.5),河门口,攀枝花市
1890A,2024-11-06T1300,101.7169,26.585,29,40,1.1,21,17,49,17,42,—,炳草岗,攀枝花市
1891A,2024-11-06T1300,101.7369,26.5008,58,72,1.2,23,15,52,20,79,细颗粒物(PM2.5),仁和,攀枝花市
2835A,2024-11-06T1300,101.7227,26.567,23,43,0.9,12,8,48,18,43,—,四十中小,攀枝花市
1604A,2024-11-06T1300,122.0303,41.1489,16,38,0.4,12,13,58,36,38,—,开发区,盘锦市
1605A,2024-11-06T1300,122.0485,41.0883,17,24,0.5,14,11,61,36,25,—,兴隆台,盘锦市
1606A,2024-11-06T1300,121.8297,41.1028,15,35,0.5,15,12,66,36,35,—,新生街道,盘锦市
1832A,2024-11-06T1300,113.3257,33.742,54,108,0.5,25,13,102,34,79,颗粒物(PM10),新华旅馆,平顶山市
1833A,2024-11-06T1300,113.2919,33.737,73,122,0.6,29,11,101,36,98,细颗粒物(PM2.5),规划设计院,平顶山市
1834A,2024-11-06T1300,113.182,33.774,70,112,0.7,27,12,89,23,94,细颗粒物(PM2.5),平顶山工学院,平顶山市
3204A,2024-11-06T1300,113.3025,33.73,75,114,0.5,30,—,93,32,—,—,规划局,平顶山市
3594A,2024-11-06T1300,112.8867,33.9116,56,126,0.8,31,17,95,32,88,颗粒物(PM10),石龙区,平顶山市
2656A,2024-11-06T1300,106.6692,35.5461,50,84,0.6,29,14,66,31,69,细颗粒物(PM2.5),聚贤嘉苑,平凉市
2657A,2024-11-06T1300,106.7021,35.5307,—,—,—,—,—,—,—,—,—,博物馆,平凉市
2347A,2024-11-06T1300,114.0997,27.5002,3,37,0.2,7,8,116,70,37,—,武功山,萍乡市
2348A,2024-11-06T1300,113.8385,27.6434,24,47,0.5,—,16,123,99,—,—,中医院,萍乡市
2349A,2024-11-06T1300,113.8493,27.6253,25,44,0.8,8,15,120,95,44,—,市政府车库,萍乡市
2350A,2024-11-06T1300,113.8676,27.6435,24,49,0.5,7,19,118,94,49,—,市环保局,萍乡市
2351A,2024-11-06T1300,113.866,27.6198,14,50,0.7,11,13,120,90,50,—,安源区政府,萍乡市
2319A,2024-11-06T1300,119.0141,25.4325,10,41,0.4,8,1,114,99,41,—,荔城区仓后路,莆田市
2320A,2024-11-06T1300,119.0015,25.4553,8,39,0.2,5,2,114,102,39,—,莆田市监测站,莆田市
2321A,2024-11-06T1300,119.1119,25.4561,7,36,0.3,5,2,114,100,36,—,涵江区六中,莆田市
2322A,2024-11-06T1300,119.1013,25.3215,13,77,0.2,6,2,95,88,64,颗粒物(PM10),秀屿区政府,莆田市
2323A,2024-11-06T1300,118.981,25.4792,—,—,—,—,—,—,—,—,—,东圳水库,莆田市
2392A,2024-11-06T1300,115.0312,35.7636,52,67,0.4,14,10,114,50,72,细颗粒物(PM2.5),环保局,濮阳市
2394A,2024-11-06T1300,115.0574,35.7609,52,82,0.4,22,11,112,50,72,细颗粒物(PM2.5),油田运输公司,濮阳市
2395A,2024-11-06T1300,115.0866,35.7754,57,94,0.3,21,11,106,49,78,细颗粒物(PM2.5),油田物探公司,濮阳市
3021A,2024-11-06T1300,115,35.7668,40,92,0.5,21,—,97,34,—,—,濮水河管理处,濮阳市
2601A,2024-11-06T1300,100.98,22.7633,28,34,0.6,8,5,59,46,40,—,市环保局,普洱市
2602A,2024-11-06T1300,100.9817,22.8322,18,34,0.6,11,7,52,29,34,—,普洱第二中学,普洱市
2262A,2024-11-06T1300,131.0518,45.8751,3,—,0.8,5,9,63,52,20,—,新一中,七台河市
3345A,2024-11-06T1300,131.0577,45.7879,3,10,0.7,8,7,51,39,16,—,中波台,七台河市
3637A,2024-11-06T1300,131.0176,45.7761,11,—,—,—,6,55,38,—,—,人民广场,七台河市
3684A,2024-11-06T1300,130.8781,45.8222,16,51,0.4,17,11,47,37,51,颗粒物(PM10),新建矿广场,七台河市
1779A,2024-11-06T1300,123.9305,47.3636,15,25,0.3,—,5,58,34,—,—,安居小区,齐齐哈尔市
1780A,2024-11-06T1300,123.9488,47.3386,3,14,0.3,6,2,46,34,15,—,中心广场,齐齐哈尔市
1781A,2024-11-06T1300,123.9483,47.3227,13,—,0.5,6,3,51,31,19,—,农牧车辆厂,齐齐哈尔市
1783A,2024-11-06T1300,123.945,47.2988,11,18,0.2,6,2,52,33,18,—,市环境监测站,齐齐哈尔市
3662A,2024-11-06T1300,123.6333,47.2075,15,22,0.1,8,5,53,39,22,—,富区青少年活动中心,齐齐哈尔市
2591A,2024-11-06T1300,107.9783,26.5747,53,68,0.5,17,6,119,71,73,细颗粒物(PM2.5),市环境监测站,黔东南苗族侗族自治州
2881A,2024-11-06T1300,107.8908,26.5311,44,58,0.7,14,5,133,80,62,细颗粒物(PM2.5),凯里学院,黔东南苗族侗族自治州
2593A,2024-11-06T1300,107.5228,26.2403,34,51,0.4,10,6,138,92,51,颗粒物(PM10),小围寨,黔南布依族苗族自治州
3538A,2024-11-06T1300,107.5175,26.2978,34,51,0.6,10,5,137,79,51,颗粒物(PM10),沙坝,黔南布依族苗族自治州
2589A,2024-11-06T1300,104.9022,25.0925,28,41,0.5,9,5,82,39,41,—,场坝街,黔西南布依族苗族自治州
2590A,2024-11-06T1300,104.8811,25.0992,32,38,0.4,9,3,80,37,46,—,坪东大道,黔西南布依族苗族自治州
2502A,2024-11-06T1300,108.6236,21.9667,46,75,0.9,14,9,135,94,64,细颗粒物(PM2.5),市环保站,钦州市
2503A,2024-11-06T1300,108.6549,21.9481,51,79,0.8,15,8,144,96,70,细颗粒物(PM2.5),沙埠小学,钦州市
2504A,2024-11-06T1300,108.5989,21.7431,55,103,0.9,16,9,136,88,77,颗粒物(PM10),港区一小,钦州市
3404A,2024-11-06T1300,108.5959,21.9633,55,74,1.1,13,10,135,93,75,细颗粒物(PM2.5),北职校,钦州市
1042A,2024-11-06T1300,119.5134,39.8207,14,18,0.4,13,4,47,37,20,—,北戴河环保局,秦皇岛市
1043A,2024-11-06T1300,119.7493,40.0116,9,32,0.3,18,3,59,35,32,—,第一关,秦皇岛市
1044A,2024-11-06T1300,119.5897,39.9499,—,—,—,14,5,47,32,—,—,监测站,秦皇岛市
1046A,2024-11-06T1300,119.5251,39.9041,15,32,0.3,15,4,50,23,32,—,建设大厦,秦皇岛市
3132A,2024-11-06T1300,119.610547,39.943889,8,31,0.3,20,4,52,34,31,—,文明里,秦皇岛市
1307A,2024-11-06T1300,120.6659,36.2403,33,53,0.4,17,10,90,65,52,颗粒物(PM10),仰口,青岛市
1310A,2024-11-06T1300,120.4134,36.0658,24,78,0.7,33,14,74,35,64,颗粒物(PM10),市南区东部子站,青岛市
1311A,2024-11-06T1300,120.3664,36.1032,29,56,0.4,30,14,82,37,53,颗粒物(PM10),四方区子站,青岛市
1312A,2024-11-06T1300,120.2994,36.054,27,48,0.6,32,16,73,39,48,—,市南区西部子站,青岛市
1313A,2024-11-06T1300,120.4581,36.0858,22,56,0.6,30,13,81,44,53,颗粒物(PM10),崂山区子站,青岛市
1314A,2024-11-06T1300,120.1983,35.9608,29,68,0.7,44,12,66,52,59,颗粒物(PM10),黄岛区子站,青岛市
1315A,2024-11-06T1300,120.3999,36.3083,34,66,0.6,27,13,99,37,58,颗粒物(PM10),城阳区子站,青岛市
1966A,2024-11-06T1300,120.0405,35.8735,17,41,0.4,24,11,89,55,41,—,黄岛区4号,青岛市
3362A,2024-11-06T1300,120.5014,36.4034,39,55,—,—,—,—,25,—,—,即墨2号,青岛市
3642A,2024-11-06T1300,120.3503,36.0736,27,72,0.7,26,13,80,32,61,颗粒物(PM10),市北区南部,青岛市
3643A,2024-11-06T1300,120.3948,36.1805,39,83,0.9,45,16,65,36,67,颗粒物(PM10),李沧区北部,青岛市
1702A,2024-11-06T1300,113.0426,23.691,35,42,0.9,14,6,159,142,50,—,环保大楼,清远市
1703A,2024-11-06T1300,113.0208,23.7106,35,48,0.8,9,10,147,133,50,—,凤城街办,清远市
3025A,2024-11-06T1300,113.0477,23.6344,29,49,1.0,—,9,143,121,—,—,技师学院,清远市
3318A,2024-11-06T1300,112.9903,23.7403,31,39,0.9,6,4,144,135,45,—,清新太和,清远市
3455A,2024-11-06T1300,113.076,23.7198,32,51,0.9,6,7,148,133,51,颗粒物(PM10),清城东城,清远市
2661A,2024-11-06T1300,107.6325,35.7357,79,97,0.5,15,8,83,82,105,细颗粒物(PM2.5),庆阳五中,庆阳市
2662A,2024-11-06T1300,107.6364,35.7067,63,78,0.5,23,24,81,90,85,细颗粒物(PM2.5),市环保局,庆阳市
1916A,2024-11-06T1300,103.7897,25.5035,44,—,0.7,19,2,87,57,62,细颗粒物(PM2.5),环境监测站,曲靖市
1917A,2024-11-06T1300,103.8,25.5364,37,60,0.6,15,4,81,61,55,颗粒物(PM10),烟厂办公区,曲靖市
3376A,2024-11-06T1300,103.7947,25.462,37,54,0.6,12,3,87,65,53,细颗粒物(PM2.5),南苑二区,曲靖市
3377A,2024-11-06T1300,103.7444,25.5261,—,—,0.7,11,—,87,66,—,—,曲靖师范学院,曲靖市
1264A,2024-11-06T1300,118.8692,28.9398,33,63,—,—,4,114,60,—,—,环保大楼,衢州市
1265A,2024-11-06T1300,118.8709,28.9666,32,54,0.4,18,10,118,66,52,颗粒物(PM10),实验学校,衢州市
1266A,2024-11-06T1300,118.8621,28.9808,34,58,0.4,18,9,121,68,54,颗粒物(PM10),衢州学院,衢州市
1611A,2024-11-06T1300,118.5819,24.9117,11,40,0.3,9,1,113,101,40,—,涂山街,泉州市
1612A,2024-11-06T1300,118.5972,24.8978,13,49,0.4,9,2,111,99,49,—,津头埔,泉州市
1613A,2024-11-06T1300,118.6663,24.9424,12,49,0.3,6,1,114,99,49,—,万安,泉州市
1614A,2024-11-06T1300,118.6117,24.9604,—,—,—,—,—,—,—,—,—,清源山,泉州市
3529A,2024-11-06T1300,118.6333,24.9264,13,34,0.2,5,1,113,97,36,—,城华南路,泉州市
2626A,2024-11-06T1300,88.8876,29.2718,6,12,0.4,—,5,—,58,—,—,日喀则监测站,日喀则市
3726A,2024-11-06T1300,88.8781,29.2426,3,13,0.6,4,6,93,63,30,—,林业技术推广中心,日喀则市
1659A,2024-11-06T1300,119.471,35.4209,16,19,0.4,14,6,—,22,—,—,监测站,日照市
1660A,2024-11-06T1300,119.523,35.4216,13,29,0.4,10,5,95,42,30,—,市政府广场,日照市
1661A,2024-11-06T1300,119.5587,35.4044,23,34,0.6,17,4,94,45,34,—,港务局,日照市
3507A,2024-11-06T1300,119.5328,35.4625,17,34,0.4,16,7,97,51,34,—,职业技术学院,日照市
3604A,2024-11-06T1300,119.3266,35.1044,15,31,0.5,18,8,87,57,31,—,岚山环保分局,日照市
1835A,2024-11-06T1300,111.1922,34.7752,64,71,0.5,23,14,80,55,87,细颗粒物(PM2.5),市政府,三门峡市
1836A,2024-11-06T1300,111.1587,34.7942,53,100,0.6,26,12,73,50,75,颗粒物(PM10),开发区,三门峡市
1838A,2024-11-06T1300,111.143,34.7955,47,88,0.8,—,19,—,—,—,—,风景区,三门峡市
3039A,2024-11-06T1300,111.1911,34.7829,51,74,0.5,23,16,77,52,70,细颗粒物(PM2.5),三门峡市第一小学,三门峡市
3598A,2024-11-06T1300,111.1,34.7167,57,86,0.6,20,33,78,43,78,细颗粒物(PM2.5),富达温泉假日酒店,三门峡市
2324A,2024-11-06T1300,117.6211,26.2625,22,36,0.5,6,3,119,102,38,—,三钢,三明市
2325A,2024-11-06T1300,117.635,26.2714,21,29,0.5,8,3,115,98,36,—,三明二中,三明市
2326A,2024-11-06T1300,117.6028,26.2378,22,44,0.5,7,4,118,100,44,—,三元区政府,三明市
2327A,2024-11-06T1300,117.7275,26.3108,—,—,—,—,—,—,—,—,—,洋溪,三明市
1876A,2024-11-06T1300,109.5078,18.2489,21,40,0.4,4,2,108,129,40,—,河东子站,三亚市
1877A,2024-11-06T1300,109.4964,18.2681,19,32,0.5,8,3,99,113,32,—,河西子站,三亚市
3540A,2024-11-06T1300,109.7348,18.3443,17,41,0.5,6,—,98,128,—,—,君悦子站,三亚市
2624A,2024-11-06T1300,91.7608,29.2313,3,10,0.4,5,5,89,81,28,—,山南监测站,山南市
2625A,2024-11-06T1300,91.7706,29.2436,3,11,0.5,5,4,90,86,29,—,山南人民医院,山南市
1674A,2024-11-06T1300,116.6794,23.3667,—,38,—,6,7,126,104,—,—,金平子站,汕头市
1675A,2024-11-06T1300,116.7244,23.3633,21,39,0.7,7,8,117,104,39,—,龙湖子站,汕头市
1676A,2024-11-06T1300,116.7258,23.2775,23,36,0.6,7,7,123,113,39,—,濠江子站,汕头市
1677A,2024-11-06T1300,116.7519,23.4714,20,48,0.8,10,7,123,110,48,—,澄海子站,汕头市
1678A,2024-11-06T1300,116.6092,23.2539,25,40,0.8,5,6,127,106,40,—,潮阳子站,汕头市
3444A,2024-11-06T1300,116.454,23.2684,37,50,0.8,13,8,146,115,53,细颗粒物(PM2.5),潮南峡山,汕头市
3624A,2024-11-06T1300,116.4069,23.2533,31,62,—,12,8,134,103,—,—,潮南子站,汕头市
1693A,2024-11-06T1300,115.3653,22.775,35,41,0.8,11,8,103,84,50,—,市环保局,汕尾市
1694A,2024-11-06T1300,115.3706,22.7898,36,51,0.7,10,10,113,91,52,细颗粒物(PM2.5),市政府,汕尾市
1695A,2024-11-06T1300,115.3622,22.7925,35,66,0.7,9,8,114,91,58,颗粒物(PM10),新城中学,汕尾市
2645A,2024-11-06T1300,109.9154,33.8715,39,63,0.5,12,7,111,50,57,颗粒物(PM10),监测站,商洛市
3045A,2024-11-06T1300,109.9643,33.8471,41,86,0.7,16,9,—,36,—,—,商州区中学,商洛市
2408A,2024-11-06T1300,115.6702,34.4285,49,61,0.6,25,12,102,44,68,细颗粒物(PM2.5),环境监测站,商丘市
2409A,2024-11-06T1300,115.6458,34.4045,49,63,0.6,25,7,106,58,68,细颗粒物(PM2.5),粮食局,商丘市
2410A,2024-11-06T1300,115.6293,34.3948,47,81,0.5,22,13,101,47,66,颗粒物(PM10),睢阳区环保局,商丘市
3171A,2024-11-06T1300,115.6071,34.4465,39,55,0.5,21,11,95,49,55,细颗粒物(PM2.5),梁园区档案局,商丘市
1141A,2024-11-06T1300,121.4,31.238,12,16,0.5,12,5,86,55,27,—,普陀,上海市
1142A,2024-11-06T1300,121.478,31.2036,8,20,0.4,14,7,91,68,29,—,十五厂,上海市
1143A,2024-11-06T1300,121.467,31.3008,3,16,0.5,11,8,91,62,29,—,虹口,上海市
1144A,2024-11-06T1300,121.412,31.1654,3,18,0.4,16,8,91,62,29,—,徐汇上师大,上海市
1145A,2024-11-06T1300,121.536,31.2659,10,20,0.4,10,6,91,68,29,—,杨浦四漂,上海市
1147A,2024-11-06T1300,121.425,31.2261,3,16,0.3,18,7,87,61,28,—,静安监测站,上海市
1148A,2024-11-06T1300,121.703,31.1907,7,16,0.5,10,6,90,66,29,—,浦东川沙,上海市
1149A,2024-11-06T1300,121.533,31.2284,3,13,0.4,12,7,87,68,28,—,浦东新区监测站,上海市
1150A,2024-11-06T1300,121.577,31.2071,3,14,0.4,16,5,87,73,28,—,浦东张江,上海市
3265A,2024-11-06T1300,121.4316,31.3322,3,18,0.4,9,10,88,58,28,—,宝山庙行,上海市
3266A,2024-11-06T1300,121.8791,31.4662,3,9,0.5,5,8,88,66,28,—,崇明上实东滩,上海市
3268A,2024-11-06T1300,121.3162,31.2838,9,21,0.6,16,12,87,63,28,—,嘉定南翔,上海市
3269A,2024-11-06T1300,121.3359,30.7456,3,13,0.5,12,5,88,58,28,—,金山新城,上海市
3270A,2024-11-06T1300,121.4996,31.0739,6,16,0.6,14,6,90,57,29,—,闵行浦江,上海市
3271A,2024-11-06T1300,121.2886,31.1663,3,19,0.5,16,8,90,48,29,—,青浦徐泾,上海市
3272A,2024-11-06T1300,121.2186,31.0378,3,19,0.4,16,6,90,58,29,—,松江图书馆,上海市
3273A,2024-11-06T1300,121.3902,31.2059,3,16,0.5,14,7,92,65,29,—,长宁仙霞,上海市
3274A,2024-11-06T1300,121.7965,31.0507,3,13,0.5,8,10,93,62,30,—,浦东惠南,上海市
3544A,2024-11-06T1300,121.4891,30.925,10,17,0.4,18,2,85,57,27,—,奉贤南桥新城,上海市
2381A,2024-11-06T1300,118.005,28.4572,34,35,0.2,5,5,126,83,49,—,百草园,上饶市
2382A,2024-11-06T1300,117.9756,28.4436,16,43,0.6,15,6,130,85,43,—,市监测站,上饶市
2383A,2024-11-06T1300,117.9519,28.4628,24,49,0.7,10,6,123,78,49,—,凤凰光学,上饶市
3413A,2024-11-06T1300,118.1953,28.4401,17,46,0.5,12,7,123,78,46,—,广丰区教体局,上饶市
3685A,2024-11-06T1300,117.897,28.4315,17,47,0.6,9,7,126,85,47,—,双创科技城,上饶市
1669A,2024-11-06T1300,113.5824,24.7733,32,44,0.7,3,10,128,123,46,—,市八中,韶关市
1671A,2024-11-06T1300,113.5917,24.7972,31,—,0.6,4,11,129,124,45,—,园林处,韶关市
1672A,2024-11-06T1300,113.6735,24.7791,30,44,0.5,8,10,127,109,44,—,韶关学院,韶关市
1673A,2024-11-06T1300,113.5971,24.6863,30,44,0.5,4,9,128,115,44,—,曲江监测站,韶关市
3622A,2024-11-06T1300,113.5556,24.8082,32,59,0.6,4,10,124,106,55,颗粒物(PM10),碧湖山庄,韶关市
2462A,2024-11-06T1300,111.5239,27.3033,—,—,—,—,—,—,—,—,—,市水土所,邵阳市
2463A,2024-11-06T1300,111.4733,27.2317,35,53,0.7,8,11,152,71,52,颗粒物(PM10),市一中,邵阳市
2464A,2024-11-06T1300,111.5283,27.2442,32,60,0.8,12,11,146,79,55,颗粒物(PM10),市化工厂,邵阳市
2465A,2024-11-06T1300,111.4503,27.2537,41,45,0.6,13,10,145,94,58,细颗粒物(PM2.5),市罐头厂,邵阳市
2466A,2024-11-06T1300,111.4328,27.2272,41,69,0.8,10,10,145,76,60,颗粒物(PM10),市环保局,邵阳市
1247A,2024-11-06T1300,120.6053,29.9928,13,27,0.3,17,10,107,48,34,—,城东开发委,绍兴市
2921A,2024-11-06T1300,120.5483,30.0003,13,30,—,14,6,104,54,—,—,树下王站,绍兴市
3408A,2024-11-06T1300,120.5683,29.9361,13,22,0.4,15,8,111,49,35,—,绍兴中专,绍兴市
3409A,2024-11-06T1300,120.4906,30.0861,13,33,0.5,16,8,98,61,33,—,柯桥区政府,绍兴市
3410A,2024-11-06T1300,120.8752,30.0249,10,18,0.1,17,9,103,47,33,—,重华小学,绍兴市
3411A,2024-11-06T1300,120.8369,30.0137,8,15,0.5,4,6,103,45,33,—,上虞中学,绍兴市
3560A,2024-11-06T1300,120.4722,30.0415,17,29,0.6,14,6,100,52,32,—,柯桥妇保,绍兴市
3658A,2024-11-06T1300,120.6153,30.0764,18,30,0.7,17,10,106,63,34,—,袍江中学,绍兴市
1356A,2024-11-06T1300,114.1063,22.5545,38,59,0.7,15,5,156,116,55,颗粒物(PM10),通心岭子站,深圳市
1357A,2024-11-06T1300,114.117,22.5625,37,61,0.6,18,6,153,98,56,颗粒物(PM10),洪湖,深圳市
1358A,2024-11-06T1300,113.987,22.5417,49,54,0.8,14,6,152,110,68,细颗粒物(PM2.5),华侨城,深圳市
1359A,2024-11-06T1300,113.9181,22.5171,35,75,0.7,21,7,159,107,63,颗粒物(PM10),南海子站,深圳市
1360A,2024-11-06T1300,114.2458,22.5689,41,57,0.9,14,9,131,103,58,细颗粒物(PM2.5),盐田,深圳市
1361A,2024-11-06T1300,114.2283,22.7244,37,53,0.7,13,8,153,122,53,细颗粒物(PM2.5),龙岗,深圳市
1363A,2024-11-06T1300,114.494,22.5422,28,43,0.7,11,8,151,116,48,—,南澳,深圳市
1364A,2024-11-06T1300,114.41,22.6342,34,53,0.7,13,6,147,118,52,颗粒物(PM10),葵涌,深圳市
1365A,2024-11-06T1300,114.297,22.5978,39,64,0.7,13,8,160,123,57,颗粒物(PM10),梅沙,深圳市
1366A,2024-11-06T1300,114.0678,22.738,35,76,0.7,15,6,154,105,63,颗粒物(PM10),观澜,深圳市
3305A,2024-11-06T1300,114.0731,22.559,33,47,0.7,17,8,147,106,48,—,莲花,深圳市
3306A,2024-11-06T1300,114.0261,22.6198,38,55,0.7,13,6,157,112,54,细颗粒物(PM2.5),民治,深圳市
3307A,2024-11-06T1300,114.1871,22.6451,39,54,0.6,15,7,157,113,55,细颗粒物(PM2.5),横岗,深圳市
3447A,2024-11-06T1300,114.3551,22.7151,41,59,—,12,6,145,122,—,—,坪山,深圳市
3623A,2024-11-06T1300,113.8953,22.5861,39,68,0.7,23,7,181,118,77,臭氧1小时,西乡,深圳市
1098A,2024-11-06T1300,123.6836,41.9339,—,—,—,—,—,—,—,—,—,森林路,沈阳市
1099A,2024-11-06T1300,123.505,41.7406,21,28,0.5,20,9,58,32,30,—,浑南东路,沈阳市
1100A,2024-11-06T1300,123.4231,41.6989,15,26,0.6,24,10,50,28,26,—,新秀街,沈阳市
1102A,2024-11-06T1300,123.5903,41.8411,13,—,0.4,11,7,62,34,20,—,东陵路,沈阳市
1103A,2024-11-06T1300,123.4264,41.8467,19,37,0.8,36,12,43,23,37,—,陵东街,沈阳市
1104A,2024-11-06T1300,123.4114,41.7653,27,42,0.9,34,23,41,29,42,—,文化路,沈阳市
1105A,2024-11-06T1300,123.4678,41.7867,15,24,0.7,19,10,56,32,24,—,小河沿,沈阳市
1106A,2024-11-06T1300,123.4017,41.7972,29,38,1.2,37,23,38,22,42,—,太原街,沈阳市
1108A,2024-11-06T1300,123.3783,41.9228,18,45,—,25,15,44,18,—,—,京沈街,沈阳市
2897A,2024-11-06T1300,123.2444,41.7347,19,32,0.6,27,10,48,24,32,—,沈辽西路,沈阳市
2900A,2024-11-06T1300,123.5953,41.9086,19,—,0.5,19,9,59,38,28,—,裕农路,沈阳市
2428A,2024-11-06T1300,111.0419,32.395,22,42,0.6,17,10,106,89,42,—,武当山,十堰市
2429A,2024-11-06T1300,110.78,32.6494,59,60,0.6,21,10,87,41,80,细颗粒物(PM2.5),滨河新村,十堰市
2430A,2024-11-06T1300,110.7258,32.6389,50,94,0.6,20,8,98,45,72,颗粒物(PM10),刘家沟,十堰市
2431A,2024-11-06T1300,110.8839,32.5714,54,57,0.6,19,11,106,47,74,细颗粒物(PM2.5),铁二处,十堰市
3545A,2024-11-06T1300,110.8054,32.8401,34,—,0.6,15,8,105,59,49,—,郧阳区金沙路,十堰市
2709A,2024-11-06T1300,86.0497,44.2967,43,91,0.9,35,14,48,40,71,颗粒物(PM10),艾青诗歌馆,石河子市
3442A,2024-11-06T1300,86.047,44.2331,—,—,0.7,—,11,—,58,—,—,南区管委会,石河子市
4051A,2024-11-06T1300,86.0791,44.3017,43,87,0.5,22,11,71,42,69,颗粒物(PM10),世纪广场,石河子市
1029A,2024-11-06T1300,114.4422,38.0444,25,62,—,33,—,39,15,—,—,职工医院,石家庄市
1030A,2024-11-06T1300,114.6063,38.0266,43,60,0.9,44,8,42,18,60,细颗粒物(PM2.5),高新区,石家庄市
1031A,2024-11-06T1300,114.4898,38.1328,53,85,1.0,48,8,47,18,73,细颗粒物(PM2.5),西北水源,石家庄市
1032A,2024-11-06T1300,114.4586,38.0058,39,42,0.8,34,9,46,18,55,细颗粒物(PM2.5),西南高教,石家庄市
1033A,2024-11-06T1300,114.5331,38.0178,28,63,1.0,40,11,42,17,57,颗粒物(PM10),世纪公园,石家庄市
1034A,2024-11-06T1300,114.509,38.0457,43,94,0.9,44,9,45,18,72,颗粒物(PM10),人民会堂,石家庄市
1035A,2024-11-06T1300,114.3524,37.8911,29,63,1.3,33,13,48,73,57,颗粒物(PM10),封龙山,石家庄市
2862A,2024-11-06T1300,114.5481,38.0378,42,84,1.1,49,11,44,18,67,颗粒物(PM10),22中南校区,石家庄市
3456A,2024-11-06T1300,114.289,38.0906,32,76,0.8,38,8,38,14,63,颗粒物(PM10),鹿泉一中,石家庄市
3573A,2024-11-06T1300,114.8506765,38.0322033,69,121,1.6,54,27,44,14,93,细颗粒物(PM2.5),藁城区实验学校,石家庄市
3574A,2024-11-06T1300,114.0504658,38.0591645,25,65,0.9,41,11,38,15,58,颗粒物(PM10),井陉矿区区委大楼,石家庄市
4024A,2024-11-06T1300,114.6549,37.9020,37,67,1.0,42,14,39,15,59,颗粒物(PM10),栾城区星河路,石家庄市
1947A,2024-11-06T1300,106.3394,38.817,—,—,—,—,—,—,—,—,—,沙湖旅游区,石嘴山市
1948A,2024-11-06T1300,106.3668,39.0145,39,67,1.1,28,59,50,30,59,颗粒物(PM10),大武口朝阳西街,石嘴山市
1949A,2024-11-06T1300,106.7704,39.2282,25,39,0.4,25,15,57,28,39,—,惠农南大街,石嘴山市
1950A,2024-11-06T1300,106.7099,39.1325,40,57,0.5,28,17,80,42,57,细颗粒物(PM2.5),红果子镇惠新街,石嘴山市
3520A,2024-11-06T1300,106.3495,38.9836,31,57,0.7,31,52,55,38,54,颗粒物(PM10),妇女儿童医院,石嘴山市
3521A,2024-11-06T1300,106.7492,39.2069,—,53,0.4,17,8,64,29,—,—,石大公路,石嘴山市
2248A,2024-11-06T1300,131.1511,46.6937,13,—,0.6,10,12,51,48,19,—,双合村,双鸭山市
2249A,2024-11-06T1300,131.1652,46.6191,3,14,0.4,7,13,56,45,18,—,南小市,双鸭山市
2250A,2024-11-06T1300,131.1524,46.6554,22,—,0.5,7,8,56,50,32,—,环保局,双鸭山市
2251A,2024-11-06T1300,131.12,46.5656,3,6,0.4,10,16,40,35,13,—,苗圃,双鸭山市
2166A,2024-11-06T1300,112.4397,39.3522,30,66,0.6,30,14,62,25,58,颗粒物(PM10),平朔,朔州市
2167A,2024-11-06T1300,112.4575,39.3617,32,73,0.7,31,19,61,26,62,颗粒物(PM10),朔唯,朔州市
2168A,2024-11-06T1300,112.4258,39.3197,26,68,0.8,25,17,54,24,59,颗粒物(PM10),区政府,朔州市
2169A,2024-11-06T1300,112.4072,39.3278,29,64,0.8,27,19,66,27,57,颗粒物(PM10),市环保局,朔州市
2170A,2024-11-06T1300,112.4272,39.3681,22,77,0.6,29,16,60,19,64,颗粒物(PM10),市二中,朔州市
3571A,2024-11-06T1300,112.2931,39.53,16,92,0.6,26,12,73,26,71,颗粒物(PM10),一水厂,朔州市
2225A,2024-11-06T1300,124.4002,43.1713,8,20,0.1,9,4,59,37,20,—,一商场,四平市
2226A,2024-11-06T1300,124.388,43.193,13,15,0.1,4,2,63,34,20,—,境园,四平市
3486A,2024-11-06T1300,124.4036,43.1411,17,22,0.1,9,3,62,31,25,—,植物园,四平市
3713A,2024-11-06T1300,124.3419,43.1666,8,12,0.2,5,4,58,30,19,—,世纪城,四平市
2233A,2024-11-06T1300,124.8006,45.1214,15,19,—,5,3,57,35,—,—,江南,松原市
2234A,2024-11-06T1300,124.7965,45.1722,10,—,0.3,6,1,55,38,18,—,江北,松原市
1160A,2024-11-06T1300,120.561,31.2472,10,13,0.5,15,9,94,59,30,—,上方山,苏州市
1162A,2024-11-06T1300,120.591,31.3019,10,20,0.4,10,8,92,57,29,—,彩香,苏州市
1163A,2024-11-06T1300,120.596,31.3264,7,18,0.4,18,8,92,52,29,—,轧钢厂,苏州市
1164A,2024-11-06T1300,120.613,31.2703,7,17,—,—,6,91,57,—,—,吴中区,苏州市
1165A,2024-11-06T1300,120.543,31.2994,8,14,0.4,13,7,92,56,29,—,苏州新区,苏州市
1166A,2024-11-06T1300,120.669,31.3097,10,21,0.4,16,6,94,61,30,—,苏州工业园区,苏州市
1167A,2024-11-06T1300,120.641,31.3708,9,26,0.3,22,6,91,60,29,—,相城区,苏州市
3289A,2024-11-06T1300,120.743,31.3188,10,20,0.4,15,8,94,62,30,—,方洲路,苏州市
3290A,2024-11-06T1300,120.5031,31.2774,10,19,0.2,20,8,86,57,27,—,木渎中学,苏州市
3425A,2024-11-06T1300,120.624,31.1733,6,19,0.4,4,9,94,70,30,—,越秀幼儿园,苏州市
3431A,2024-11-06T1300,120.6505,31.416,10,24,0.4,14,8,92,55,29,—,高铁新城,苏州市
1220A,2024-11-06T1300,118.293,33.9528,26,38,0.5,11,2,89,42,38,—,宿迁学院,宿迁市
1221A,2024-11-06T1300,118.2442,33.9592,29,46,0.4,14,4,95,50,46,—,宿迁中学,宿迁市
2996A,2024-11-06T1300,118.283,33.965,30,42,0.5,14,6,91,43,43,—,市供电局,宿迁市
3191A,2024-11-06T1300,118.3225,33.9447,26,40,0.6,17,4,90,42,40,—,宿豫区政府,宿迁市
3187A,2024-11-06T1300,116.9509,33.666,48,75,0.3,20,8,106,50,67,细颗粒物(PM2.5),远航博物馆,宿州市
3463A,2024-11-06T1300,116.9708,33.591,49,81,0.5,21,9,103,51,68,细颗粒物(PM2.5),社会福利中心,宿州市
3634A,2024-11-06T1300,116.9884,33.6305,44,72,0.2,19,9,108,55,62,细颗粒物(PM2.5),宿州学院,宿州市
3701A,2024-11-06T1300,116.9648,33.6252,47,75,0.4,—,—,112,56,—,—,皖北煤电集团,宿州市
2266A,2024-11-06T1300,126.9785,46.6365,43,59,0.7,9,2,60,33,60,细颗粒物(PM2.5),人和东街,绥化市
2267A,2024-11-06T1300,126.964,46.6528,43,52,0.6,8,5,56,30,60,细颗粒物(PM2.5),党政办公中心,绥化市
2451A,2024-11-06T1300,113.3583,31.7275,43,76,0.7,18,13,130,50,63,颗粒物(PM10),市委党校,随州市
2452A,2024-11-06T1300,113.3833,31.6908,47,65,0.8,24,10,128,54,65,细颗粒物(PM2.5),市林业局,随州市
2453A,2024-11-06T1300,113.3983,31.7308,38,60,0.6,14,11,131,48,55,颗粒物(PM10),市立交桥水厂,随州市
2527A,2024-11-06T1300,105.5453,30.5678,22,29,0.6,16,7,36,29,32,—,石溪浩,遂宁市
2528A,2024-11-06T1300,105.5582,30.5232,16,36,—,21,6,33,30,—,—,市监测站,遂宁市
2529A,2024-11-06T1300,105.5861,30.5366,24,37,0.3,20,8,31,27,37,—,行政中心,遂宁市
2530A,2024-11-06T1300,105.5918,30.4728,19,39,0.4,24,6,29,26,39,—,美宁食品公司,遂宁市
2706A,2024-11-06T1300,82.9994,46.7432,27,46,0.0,23,3,40,19,46,—,东门外小游园,塔城地区
1255A,2024-11-06T1300,121.273,28.6459,12,18,0.4,10,3,98,72,31,—,黄岩环保大楼,台州市
1256A,2024-11-06T1300,121.419,28.6542,3,21,0.4,16,6,112,81,35,—,台州环保大楼,台州市
1257A,2024-11-06T1300,121.377,28.5773,8,22,0.4,14,5,110,84,35,—,路桥田洋王,台州市
3564A,2024-11-06T1300,121.2568,28.6681,6,21,0.3,9,4,105,76,33,—,台州科技职业学院,台州市
1081A,2024-11-06T1300,112.522,37.8873,46,91,1.4,56,26,49,25,71,颗粒物(PM10),尖草坪,太原市
1083A,2024-11-06T1300,112.434,38.0108,38,61,0.5,21,10,71,40,56,颗粒物(PM10),上兰,太原市
1084A,2024-11-06T1300,112.469,37.7124,42,68,0.8,40,22,60,22,59,"颗粒物(PM10),细颗粒物(PM2.5)",晋源,太原市
1085A,2024-11-06T1300,112.5583,37.7394,47,100,0.9,44,22,65,22,75,颗粒物(PM10),小店,太原市
1086A,2024-11-06T1300,112.5369,37.8692,46,97,1.2,47,22,51,24,74,颗粒物(PM10),桃园,太原市
1087A,2024-11-06T1300,112.57,37.8195,57,107,0.9,43,20,63,26,79,颗粒物(PM10),坞城,太原市
1088A,2024-11-06T1300,112.549,37.9854,48,92,0.7,34,14,69,24,71,颗粒物(PM10),南寨,太原市
3618A,2024-11-06T1300,112.4719,37.7831,36,79,1.1,36,25,68,40,65,颗粒物(PM10),金胜,太原市
4010A,2024-11-06T1300,112.5608,37.8807,41,86,0.8,48,17,56,25,68,颗粒物(PM10),育英中学,太原市
1656A,2024-11-06T1300,117.1437,36.1937,17,34,1.0,20,9,82,43,34,—,监测站,泰安市
1657A,2024-11-06T1300,117.0885,36.2017,18,38,1.1,22,12,79,40,38,—,人口学校,泰安市
1658A,2024-11-06T1300,117.1089,36.1758,24,39,0.9,—,—,75,30,—,—,电力学校,泰安市
3502A,2024-11-06T1300,117.1812,36.2275,19,32,0.7,15,8,85,52,32,—,国网新校,泰安市
3503A,2024-11-06T1300,117.0313,36.2018,22,34,0.7,—,7,73,25,—,—,交通技校,泰安市
3504A,2024-11-06T1300,117.0829,36.13,17,24,0.8,16,5,83,30,26,—,山东第一医科大学,泰安市
1206A,2024-11-06T1300,119.905,32.4878,7,19,0.3,16,6,93,53,30,—,公园路,泰州市
1207A,2024-11-06T1300,119.9189,32.4625,12,20,0.5,16,5,93,60,30,—,莲花,泰州市
1209A,2024-11-06T1300,119.888,32.4639,9,16,0.3,14,7,100,52,32,—,留学生创业园,泰州市
2997A,2024-11-06T1300,119.8767,32.3289,9,26,0.3,17,5,101,47,32,—,王营,泰州市
3295A,2024-11-06T1300,120.1259,32.5099,3,14,0.3,12,7,98,56,31,—,姜堰区政府广场,泰州市
3435A,2024-11-06T1300,119.9192,32.4322,8,16,0.3,15,8,96,70,30,—,周山河街区,泰州市
1037A,2024-11-06T1300,118.131,39.6363,10,30,0.8,23,8,62,26,30,—,雷达站,唐山市
1038A,2024-11-06T1300,118.1725,39.6334,13,45,0.8,24,11,61,25,45,—,物资局,唐山市
1040A,2024-11-06T1300,118.1705,39.6506,10,29,0.7,20,7,52,20,29,—,十二中,唐山市
1041A,2024-11-06T1300,118.1869,39.622,11,34,0.8,15,11,58,22,34,—,小山,唐山市
3457A,2024-11-06T1300,118.4359,39.2762,3,21,0.5,18,8,62,34,21,—,冀东油田职工医院,唐山市
3575A,2024-11-06T1300,118.09279,39.58089,6,39,0.5,18,7,57,21,39,—,正泰大街热力站,唐山市
3576A,2024-11-06T1300,118.1562,39.8322,3,40,0.7,18,10,57,22,40,—,丰润区政府,唐山市
3577A,2024-11-06T1300,118.43673,39.73809,3,39,0.8,17,16,58,34,39,—,金山小学,唐山市
3578A,2024-11-06T1300,118.24498,39.66941,3,34,0.8,19,10,60,24,34,—,政府服务中心,唐山市
3692A,2024-11-06T1300,118.2059,39.6585,9,36,0.8,17,10,58,23,36,—,消防缸窑路中队,唐山市
3693A,2024-11-06T1300,118.1436,39.6202,17,31,0.7,20,8,58,24,31,—,路南电大,唐山市
1015A,2024-11-06T1300,117.1444,39.1661,50,88,1.2,53,15,42,13,69,"颗粒物(PM10),细颗粒物(PM2.5)",勤俭道,天津市
1017A,2024-11-06T1300,117.237,39.1082,60,104,1.2,64,12,39,12,82,细颗粒物(PM2.5),大直沽八号路,天津市
1018A,2024-11-06T1300,117.202,39.0927,74,—,—,66,11,41,14,—,—,前进道,天津市
1019A,2024-11-06T1300,117.1837,39.2133,52,97,0.8,69,10,40,12,74,颗粒物(PM10),淮河道,天津市
1021A,2024-11-06T1300,117.307,39.0877,57,103,1.2,60,11,41,12,78,细颗粒物(PM2.5),跃进路,天津市
1023A,2024-11-06T1300,117.707,39.0343,60,111,0.8,74,12,24,12,82,细颗粒物(PM2.5),第四大街,天津市
1024A,2024-11-06T1300,117.457,38.8394,—,—,0.7,—,15,54,21,—,—,永明路,天津市
1026A,2024-11-06T1300,117.764,39.1587,26,57,0.7,39,14,30,13,54,颗粒物(PM10),汉北路,天津市
1027A,2024-11-06T1300,117.157,38.9194,—,—,—,—,—,—,—,—,—,团泊洼,天津市
2858A,2024-11-06T1300,117.7918,39.2474,31,66,0.8,42,15,41,21,58,颗粒物(PM10),河西一经路,天津市
2859A,2024-11-06T1300,117.3747,38.9846,64,109,1.0,60,14,50,16,87,细颗粒物(PM2.5),津沽路,天津市
2860A,2024-11-06T1300,117.1589,39.0845,48,75,0.7,60,7,44,13,67,细颗粒物(PM2.5),宾水西道,天津市
2922A,2024-11-06T1300,117.1941,39.1067,66,108,0.9,66,11,42,15,89,细颗粒物(PM2.5),大理道,天津市
3020A,2024-11-06T1300,117.2101,39.1699,48,89,1.1,73,9,35,14,70,颗粒物(PM10),中山北路,天津市
3051A,2024-11-06T1300,117.3876,39.1488,49,94,1.4,64,12,41,12,72,颗粒物(PM10),西四道,天津市
3325A,2024-11-06T1300,117.0365,39.3828,52,93,0.5,82,11,21,12,72,"颗粒物(PM10),细颗粒物(PM2.5)",雍阳西道,天津市
3326A,2024-11-06T1300,117.0296,39.0605,69,119,0.7,59,10,58,19,93,细颗粒物(PM2.5),辛老路,天津市
3327A,2024-11-06T1300,116.9638,38.9375,44,67,0.7,25,9,63,20,62,细颗粒物(PM2.5),地纬路,天津市
3460A,2024-11-06T1300,117.4067,40.0583,19,40,1.3,32,15,52,35,40,—,北环路,天津市
3461A,2024-11-06T1300,117.3045,39.7169,35,67,0.9,37,15,42,17,59,颗粒物(PM10),建设路,天津市
3462A,2024-11-06T1300,117.8199,39.3521,38,83,0.9,35,17,56,25,67,颗粒物(PM10),滨水东路,天津市
2649A,2024-11-06T1300,106.0055,34.343,—,—,—,—,—,—,—,—,—,麦积山,天水市
2650A,2024-11-06T1300,105.7205,34.5786,24,39,0.5,19,6,42,11,39,—,公园小学,天水市
2651A,2024-11-06T1300,105.8945,34.5538,14,36,0.7,22,12,47,20,36,—,麦积国土局,天水市
2216A,2024-11-06T1300,123.8139,42.3022,10,15,0.5,6,4,62,26,20,—,汇工街西,铁岭市
2217A,2024-11-06T1300,123.8649,42.2923,7,21,0.5,8,5,61,33,21,—,水上乐园,铁岭市
2218A,2024-11-06T1300,123.8486,42.2867,13,17,0.4,8,8,52,24,19,—,银州路东段,铁岭市
2219A,2024-11-06T1300,123.7153,42.2217,15,30,0.3,11,10,54,27,30,—,金沙江路北,铁岭市
2229A,2024-11-06T1300,125.9358,41.7173,6,17,0.6,14,8,55,38,18,—,光明,通化市
2230A,2024-11-06T1300,125.9446,41.7325,9,11,0.5,13,7,57,38,18,—,铁路,通化市
2191A,2024-11-06T1300,122.2532,43.6801,3,16,0.3,7,5,63,38,20,—,艺术职业学校,通辽市
3706A,2024-11-06T1300,122.2584,43.6333,17,19,0.2,14,10,61,40,25,—,老干部活动中心,通辽市
3708A,2024-11-06T1300,122.2922,43.6189,19,—,1.1,11,11,62,42,28,—,东方明珠社区,通辽市
1922A,2024-11-06T1300,109.0656,35.0994,—,—,—,—,—,—,—,—,—,党校,铜川市
1923A,2024-11-06T1300,109.0697,35.0697,57,69,1.2,32,13,95,40,78,细颗粒物(PM2.5),王益区政府,铜川市
1924A,2024-11-06T1300,108.9344,34.9058,79,109,1.2,29,21,102,56,105,细颗粒物(PM2.5),新区管委会,铜川市
3651A,2024-11-06T1300,108.9543,34.8732,100,114,1.4,23,22,108,63,132,细颗粒物(PM2.5),旺旺集团,铜川市
2285A,2024-11-06T1300,117.8177,30.9412,31,65,0.5,14,6,114,68,58,颗粒物(PM10),市第四中学,铜陵市
2286A,2024-11-06T1300,117.8059,30.9273,33,56,—,12,5,—,50,—,—,市公路局,铜陵市
2287A,2024-11-06T1300,117.7807,30.9413,21,39,0.6,14,8,113,72,39,—,市新民污水厂,铜陵市
2288A,2024-11-06T1300,117.7439,30.8792,25,67,0.5,18,4,104,58,59,颗粒物(PM10),市第九中学,铜陵市
2289A,2024-11-06T1300,117.846,30.9413,30,56,0.3,14,7,111,61,53,颗粒物(PM10),车站新区,铜陵市
2290A,2024-11-06T1300,117.8483,30.97,16,62,0.6,14,7,113,66,56,颗粒物(PM10),市职教基地,铜陵市
