area,positionname,stationcode,timepoint,longitude,latitude,pm2_5,pm10,co,no2,so2,o3,o3_8h,aqi,primarypollutant
阿坝藏族羌族自治州,州农科所,2566A,2024-11-06T1400,102.1879,31.914,7,17,0,5,8,56,36,18,—
阿坝藏族羌族自治州,马师校,2568A,2024-11-06T1400,102.2502,31.8896,12,—,0.3,7,4,48,28,—,—
阿坝藏族羌族自治州,马尔康中学西区,3994A,2024-11-06T1400,102.2165,31.9024,11,14,0.5,10,6,47,29,16,—
阿克苏地区,电视台,2695A,2024-11-06T1400,80.292,41.1694,32,105,0.6,33,12,81,58,78,颗粒物(PM10)
阿克苏地区,艺术中心,2696A,2024-11-06T1400,80.2613,41.1551,30,113,0.8,44,3,66,68,82,颗粒物(PM10)
阿拉善盟,西城区西花园,2204A,2024-11-06T1400,105.6467,38.8363,20,32,0.6,—,17,129,95,—,—
阿拉善盟,蒙二幼,2205A,2024-11-06T1400,105.6985,38.8411,—,—,—,—,—,—,84,—,—
阿拉善盟,环保局新楼,2206A,2024-11-06T1400,105.724,38.8516,27,59,0.5,14,14,115,91,55,颗粒物(PM10)
阿勒泰地区,市站,2708A,2024-11-06T1400,88.1264,47.8517,14,24,0.4,14,10,45,64,24,—
阿里地区,阿里监测站,2630A,2024-11-06T1400,80.1161,32.5,3,12,0.5,6,6,77,57,25,—
阿里地区,阿里藏医院,3192A,2024-11-06T1400,80.0903,32.5028,9,16,0.5,8,6,86,58,27,—
安康市,香溪洞,2642A,2024-11-06T1400,109.0318,32.6537,21,36,0.3,9,9,94,45,36,—
安康市,汉滨区检察院,2644A,2024-11-06T1400,109.0072,32.6975,29,38,0.4,10,8,112,41,42,—
安康市,市邮政管理局,4054A,2024-11-06T1400,109.0325,32.6913,23,42,0.5,10,8,107,40,42,—
安庆市,环科院,2291A,2024-11-06T1400,117.0809,30.5177,36,62,0.6,24,12,118,71,56,颗粒物(PM10)
安庆市,马山宾馆,2292A,2024-11-06T1400,117.0331,30.5119,36,65,0.5,24,9,120,77,58,颗粒物(PM10)
安庆市,安庆大学,2294A,2024-11-06T1400,116.9896,30.6145,23,43,0.5,14,12,126,73,43,—
安庆市,市人大,3173A,2024-11-06T1400,117.0598,30.5351,35,60,0.5,29,15,116,69,55,颗粒物(PM10)
安顺市,伍家关,3122A,2024-11-06T1400,105.9606,26.2611,29,36,0.7,10,17,93,71,42,—
安顺市,凤凰山,3123A,2024-11-06T1400,105.9408,26.2431,29,41,0.5,10,15,102,72,42,—
安顺市,金钟山,3124A,2024-11-06T1400,105.9439,26.2564,32,35,0.6,9,16,104,76,46,—
安顺市,娄家坡,3125A,2024-11-06T1400,105.8983,26.2481,39,42,0.6,11,17,100,69,55,细颗粒物(PM2.5)
安阳市,棉研所,1818A,2024-11-06T1400,114.4839,36.0621,57,80,0.4,27,10,107,49,78,细颗粒物(PM2.5)
安阳市,红庙街,1819A,2024-11-06T1400,114.3551,36.1017,56,80,0.4,18,5,96,40,77,细颗粒物(PM2.5)
安阳市,银杏小区,1820A,2024-11-06T1400,114.361,36.0681,53,67,0.6,16,5,102,43,73,细颗粒物(PM2.5)
安阳市,信访局,3141A,2024-11-06T1400,114.3922,36.0878,64,88,0.4,15,7,97,39,87,细颗粒物(PM2.5)
安阳市,左辅环卫站,3669A,2024-11-06T1400,114.4705,36.0637,60,110,0.4,16,5,102,53,82,细颗粒物(PM2.5)
安阳市,安钢职工学校,3703A,2024-11-06T1400,114.2917,36.0949,66,81,0.4,25,7,93,40,89,细颗粒物(PM2.5)
鞍山市,深沟寺,1748A,2024-11-06T1400,123.044,41.1196,13,31,0.4,15,8,63,34,31,—
鞍山市,太阳城,1749A,2024-11-06T1400,123.011,41.0931,14,26,0.5,22,14,61,36,26,—
鞍山市,太平,1750A,2024-11-06T1400,123.0485,41.1442,18,34,0.4,24,17,55,28,34,—
鞍山市,铁西三道街,1751A,2024-11-06T1400,122.9642,41.0971,19,42,1.2,32,25,47,27,42,—
鞍山市,铁西工业园区,1752A,2024-11-06T1400,122.9341,41.0833,16,41,1.6,38,30,45,23,41,—
鞍山市,明达新区,1753A,2024-11-06T1400,123.022,41.0821,15,24,0.7,18,15,60,36,24,—
鞍山市,千山,1754A,2024-11-06T1400,123.1289,41.0228,7,16,0.5,13,—,63,46,—,—
巴彦淖尔市,附二中,2195A,2024-11-06T1400,107.4212,40.761,35,89,0.6,32,22,56,27,70,颗粒物(PM10)
巴彦淖尔市,市环保大楼,2196A,2024-11-06T1400,107.37,40.7372,33,88,0.6,33,12,56,28,69,颗粒物(PM10)
巴音郭楞蒙古自治州,孔雀公园,1956A,2024-11-06T1400,86.1472,41.7538,26,120,0.4,20,6,86,25,85,颗粒物(PM10)
巴音郭楞蒙古自治州,棉纺厂,1957A,2024-11-06T1400,86.1972,41.7166,37,136,0.3,14,3,97,40,93,颗粒物(PM10)
巴音郭楞蒙古自治州,经济开发区,1958A,2024-11-06T1400,86.2357,41.7173,31,111,0.3,19,4,90,55,81,颗粒物(PM10)
巴中市,苏山坪,2914A,2024-11-06T1400,106.7677,31.8794,24,35,0.4,18,5,38,56,35,—
巴中市,丽阳花园,3182A,2024-11-06T1400,106.7656,31.8545,26,36,0.6,32,4,21,14,38,—
巴中市,圣泉水务公司,3183A,2024-11-06T1400,106.7418,31.8654,21,28,0.5,26,4,18,21,30,—
巴中市,市中心医院,3616A,2024-11-06T1400,106.7616,31.8344,29,46,0.8,38,4,21,11,46,—
白城市,洮北区环保局,2235A,2024-11-06T1400,122.7911,45.6077,8,17,0.2,10,5,66,42,21,—
白城市,市环保局,2236A,2024-11-06T1400,122.8738,45.5725,12,17,0.4,9,4,69,45,22,—
白山市,喜丰,2231A,2024-11-06T1400,126.4219,41.9171,16,44,0.4,3,8,67,41,44,—
白山市,环保局,2232A,2024-11-06T1400,126.4077,41.9419,15,29,0.5,6,5,63,42,29,—
白银市,第三小学,2647A,2024-11-06T1400,104.1724,36.5446,60,62,0.9,25,31,81,35,82,细颗粒物(PM2.5)
白银市,动力公司,2648A,2024-11-06T1400,104.1465,36.5482,57,65,1.0,22,24,78,37,78,细颗粒物(PM2.5)
百色市,市监测站,2512A,2024-11-06T1400,106.6103,23.9011,33,50,—,8,—,117,50,—,—
百色市,市中心血站,2513A,2024-11-06T1400,106.6538,23.8859,38,69,0.8,8,7,127,60,60,颗粒物(PM10)
百色市,祈福高中,3406A,2024-11-06T1400,106.6085,23.8798,29,46,0.7,8,5,124,57,46,—
蚌埠市,工人疗养院,2270A,2024-11-06T1400,117.396,32.939,26,48,0.4,15,8,99,50,48,—
蚌埠市,百货大楼,2271A,2024-11-06T1400,117.3605,32.9427,24,53,0.4,17,8,95,49,52,颗粒物(PM10)
蚌埠市,蚌埠学院,2273A,2024-11-06T1400,117.4185,32.8911,26,36,0.3,16,8,98,56,38,—
蚌埠市,淮上区政府,2274A,2024-11-06T1400,117.3533,32.9673,31,51,0.3,16,10,97,45,51,颗粒物(PM10)
蚌埠市,高新区,2275A,2024-11-06T1400,117.3145,32.8977,23,48,0.3,18,8,98,57,48,—
蚌埠市,蚌埠田家炳中学,3715A,2024-11-06T1400,117.3092,32.9314,26,55,0.3,20,9,95,53,53,颗粒物(PM10)
包头市,市环境监测站,1585A,2024-11-06T1400,109.8756,40.6532,22,42,0.8,36,22,58,24,42,—
包头市,包头八中,1587A,2024-11-06T1400,109.9991,40.5842,33,72,1.0,37,40,51,25,61,颗粒物(PM10)
包头市,青山宾馆,1588A,2024-11-06T1400,109.8538,40.6821,—,—,—,—,23,—,12,—,—
包头市,惠龙物流,1589A,2024-11-06T1400,109.8642,40.6288,17,45,0.7,38,16,56,26,45,—
包头市,东河鸿龙湾,1590A,2024-11-06T1400,110.0377,40.5546,23,40,0.7,30,16,52,26,40,—
包头市,滨河大厦,3283A,2024-11-06T1400,109.9154,40.5685,19,34,0.7,34,18,56,36,34,—
包头市,包头市委党校,3419A,2024-11-06T1400,109.9447,40.6261,25,52,1.2,37,40,54,27,51,颗粒物(PM10)
包头市,昆区政府,3683A,2024-11-06T1400,109.8331,40.6576,37,44,0.7,36,18,56,24,53,细颗粒物(PM2.5)
宝鸡市,庙沟村,1930A,2024-11-06T1400,107.185,34.3063,58,74,0.7,15,8,53,27,79,细颗粒物(PM2.5)
宝鸡市,竹园沟,1931A,2024-11-06T1400,107.0708,34.3017,93,109,0.7,17,8,65,28,123,细颗粒物(PM2.5)
宝鸡市,三陆医院,1932A,2024-11-06T1400,107.1906,34.3672,107,111,0.8,29,8,68,24,140,细颗粒物(PM2.5)
宝鸡市,监测站,1933A,2024-11-06T1400,107.1431,34.3547,97,117,0.7,21,8,68,22,128,细颗粒物(PM2.5)
宝鸡市,技工学校,1934A,2024-11-06T1400,107.1186,34.3739,98,109,0.9,30,8,75,28,129,细颗粒物(PM2.5)
宝鸡市,陈仓区环保局家属楼,1935A,2024-11-06T1400,107.3906,34.3528,89,117,0.7,21,14,108,40,118,细颗粒物(PM2.5)
宝鸡市,文理学院,1936A,2024-11-06T1400,107.2058,34.3497,97,107,0.6,29,10,67,20,128,细颗粒物(PM2.5)
宝鸡市,三迪小学,1937A,2024-11-06T1400,107.2386,34.3622,106,127,0.8,34,13,78,25,139,细颗粒物(PM2.5)
保定市,游泳馆,1051A,2024-11-06T1400,115.493,38.8632,60,88,—,45,12,60,26,—,—
保定市,华电二区,1052A,2024-11-06T1400,115.5213,38.8959,50,72,0.7,45,13,54,18,69,细颗粒物(PM2.5)
保定市,接待中心,1053A,2024-11-06T1400,115.4713,38.9108,54,85,0.6,49,10,43,19,74,细颗粒物(PM2.5)
保定市,地表水厂,1054A,2024-11-06T1400,115.4612,38.8416,64,112,0.5,42,14,60,23,87,细颗粒物(PM2.5)
保定市,满城区生态环境分局,3581A,2024-11-06T1400,115.31981,38.95208,36,85,0.8,51,11,56,25,68,颗粒物(PM10)
保定市,清苑区第二中学,3582A,2024-11-06T1400,115.47694,38.76408,49,85,0.6,33,10,68,26,68,"颗粒物(PM10),细颗粒物(PM2.5)"
保定市,徐水物探局,3583A,2024-11-06T1400,115.62909,39.02311,51,94,1.0,38,11,62,20,72,颗粒物(PM10)
保定市,双鹰农机,4004A,2024-11-06T1400,115.4202,38.8656,—,—,0.7,—,—,50,24,—,—
保定市,植保所站,4034A,2024-11-06T1400,115.5150,38.8590,40,85,0.5,40,8,60,22,68,颗粒物(PM10)
保山市,市环境监测站,2594A,2024-11-06T1400,99.1678,25.1081,3,19,0.5,9,5,66,29,21,—
保山市,市环保局,2595A,2024-11-06T1400,99.1711,25.1328,13,17,0.4,6,5,68,34,22,—
北海市,牛尾岭水库,1866A,2024-11-06T1400,109.2262,21.588,41,—,0.7,—,5,112,86,—,—
北海市,海滩公园,1867A,2024-11-06T1400,109.1436,21.4086,37,45,0.8,7,9,131,112,53,细颗粒物(PM2.5)
北海市,新市环保局,1868A,2024-11-06T1400,109.0981,21.4661,46,60,0.8,11,8,140,107,64,细颗粒物(PM2.5)
北海市,北海工业园,1869A,2024-11-06T1400,109.1778,21.5233,34,69,0.5,8,8,130,103,60,颗粒物(PM10)
北海市,龙潭自来水厂,3400A,2024-11-06T1400,109.1911,21.4415,36,44,0.7,6,8,129,103,52,细颗粒物(PM2.5)
北京市,万寿西宫,1001A,2024-11-06T1400,116.3621,39.8784,39,74,0.7,43,6,37,14,62,颗粒物(PM10)
北京市,定陵,1002A,2024-11-06T1400,116.2202,40.2915,20,34,0.5,21,5,32,21,34,—
北京市,东四,1003A,2024-11-06T1400,116.4174,39.9289,35,72,0.7,34,8,44,17,61,颗粒物(PM10)
北京市,天坛,1004A,2024-11-06T1400,116.4072,39.8863,44,70,0.6,40,4,39,14,62,细颗粒物(PM2.5)
北京市,农展馆,1005A,2024-11-06T1400,116.462,39.9365,41,74,0.6,2,5,39,14,62,颗粒物(PM10)
北京市,官园,1006A,2024-11-06T1400,116.3392,39.9295,40,75,0.6,42,9,37,14,63,颗粒物(PM10)
北京市,海淀万柳,1007A,2024-11-06T1400,116.2878,39.9611,38,77,0.6,37,6,40,19,64,颗粒物(PM10)
北京市,顺义新城,1008A,2024-11-06T1400,116.6636,40.135,27,48,0.5,27,5,46,26,48,—
北京市,怀柔镇,1009A,2024-11-06T1400,116.6275,40.3275,20,37,0.2,21,6,56,36,37,—
北京市,昌平镇,1010A,2024-11-06T1400,116.2296,40.217,22,52,0.4,24,8,48,22,51,颗粒物(PM10)
北京市,奥体中心,1011A,2024-11-06T1400,116.3966,39.9821,50,105,0.9,51,6,29,13,78,颗粒物(PM10)
北京市,古城,1012A,2024-11-06T1400,116.184,39.9136,39,86,0.8,36,7,44,22,68,颗粒物(PM10)
北京市,延庆夏都,3281A,2024-11-06T1400,115.9718,40.4529,17,29,0.2,18,1,45,24,29,—
北京市,平谷新城,3417A,2024-11-06T1400,117.0709,40.1465,15,31,0.5,15,4,59,32,31,—
北京市,密云新城,3418A,2024-11-06T1400,116.8336,40.4095,15,34,0.3,12,3,61,32,34,—
北京市,门头沟三家店,3671A,2024-11-06T1400,116.088,39.9726,24,62,0.4,43,8,44,32,56,颗粒物(PM10)
北京市,丰台云岗,3672A,2024-11-06T1400,116.1541,39.8204,37,75,0.4,37,5,43,20,63,颗粒物(PM10)
北京市,通州东关,3673A,2024-11-06T1400,116.6804,39.9081,34,67,0.6,30,5,47,21,59,颗粒物(PM10)
北京市,房山燕山,3674A,2024-11-06T1400,115.9577,39.7603,26,59,0.3,28,3,46,30,55,颗粒物(PM10)
北京市,大兴旧宫,3675A,2024-11-06T1400,116.4672,39.7733,45,81,0.4,41,2,38,16,66,颗粒物(PM10)
北京市,延庆石河营,3694A,2024-11-06T1400,115.986,40.4563,15,30,0.3,23,3,39,22,30,—
北京市,怀柔新城,3695A,2024-11-06T1400,116.6151,40.3053,20,34,0.4,21,4,50,36,34,—
北京市,丰台小屯,3696A,2024-11-06T1400,116.2545,39.8768,39,81,0.6,48,5,33,13,66,颗粒物(PM10)
北京市,密云镇,3697A,2024-11-06T1400,116.84,40.3844,16,34,0.4,13,3,56,24,34,—
本溪市,大峪,1761A,2024-11-06T1400,123.8275,41.3064,12,—,0.5,8,10,64,36,20,—
本溪市,溪湖,1762A,2024-11-06T1400,123.7567,41.3325,6,20,0.3,7,8,69,42,22,—
本溪市,彩屯,1763A,2024-11-06T1400,123.7169,41.3094,11,14,0.5,12,8,64,38,20,—
本溪市,东明,1764A,2024-11-06T1400,123.7669,41.2864,3,13,0.5,10,8,67,41,21,—
本溪市,新立屯,1765A,2024-11-06T1400,123.7992,41.2664,12,—,0.5,11,6,64,46,—,—
本溪市,威宁,1766A,2024-11-06T1400,123.8142,41.3472,3,16,0.6,5,8,69,36,22,—
毕节市,八中,2587A,2024-11-06T1400,105.2864,27.3125,39,51,0.6,—,10,70,55,—,—
毕节市,师专,2588A,2024-11-06T1400,105.31,27.2944,34,41,0.6,13,11,74,55,49,—
毕节市,长征村,3537A,2024-11-06T1400,105.3631,27.3533,39,46,0.7,11,13,88,63,55,细颗粒物(PM2.5)
滨州市,第二水厂,1629A,2024-11-06T1400,118.0018,37.3617,19,36,0.4,19,12,84,40,36,—
滨州市,北中新校,1630A,2024-11-06T1400,117.9776,37.393,12,31,0.4,18,8,88,41,31,—
滨州市,中海酒店,3514A,2024-11-06T1400,117.9378,37.3956,17,31,0.4,15,8,97,53,31,—
滨州市,开发区一中,3515A,2024-11-06T1400,117.9378,37.3553,19,41,0.4,17,13,96,51,41,—
滨州市,金海六路,3516A,2024-11-06T1400,118.0917,37.694,—,—,0.4,18,—,83,41,—,—
滨州市,滨州市西街道办事处,4028A,2024-11-06T1400,117.9956,37.3753,19,31,—,22,10,94,46,—,—
亳州市,污水处理厂,2311A,2024-11-06T1400,115.8072,33.8399,23,54,0.4,13,8,108,58,52,颗粒物(PM10)
亳州市,三国揽胜宫,2312A,2024-11-06T1400,115.7789,33.8518,32,62,0.4,11,5,107,59,56,颗粒物(PM10)
亳州市,亳州学院,3332A,2024-11-06T1400,115.7633,33.8034,16,54,0.3,15,6,112,64,52,颗粒物(PM10)
博尔塔拉蒙古自治州,市党校,2693A,2024-11-06T1400,82.0485,44.8556,37,51,0.6,24,11,23,21,53,细颗粒物(PM2.5)
博尔塔拉蒙古自治州,市环保局,2694A,2024-11-06T1400,82.0806,44.8969,26,58,0.4,16,5,36,28,54,颗粒物(PM10)
沧州市,沧县城建局,1071A,2024-11-06T1400,116.8842,38.2991,25,53,0.4,36,6,88,38,52,颗粒物(PM10)
沧州市,电视转播站,1072A,2024-11-06T1400,116.8584,38.3254,29,47,—,16,—,93,6,—,—
沧州市,市环保局,1073A,2024-11-06T1400,116.8709,38.3228,—,—,—,—,—,—,33,—,—
沧州市,河北水利电力学院,3324A,2024-11-06T1400,116.8136,38.3004,24,51,0.2,10,7,89,42,51,颗粒物(PM10)
昌都市,昌都监测站,2622A,2024-11-06T1400,97.1806,31.1273,3,16,0.5,4,8,83,50,26,—
昌都市,昌都会议中心,3719A,2024-11-06T1400,97.1714,31.1406,3,6,0.5,3,6,86,55,27,—
昌吉回族自治州,天山天池,2690A,2024-11-06T1400,88.1236,43.8886,3,15,0.5,5,9,90,68,29,—
昌吉回族自治州,新区政务中心,2692A,2024-11-06T1400,87.2717,44.0297,—,—,1.1,—,—,31,26,—,—
昌吉回族自治州,亚心广场,3613A,2024-11-06T1400,87.3095,44.0142,58,136,1.0,66,8,36,23,93,颗粒物(PM10)
长春市,食品厂,1119A,2024-11-06T1400,125.3325,43.9166,10,20,0.2,14,6,51,31,20,—
长春市,客车厂,1120A,2024-11-06T1400,125.2863,43.9027,12,15,—,13,8,54,37,—,—
长春市,邮电学院,1121A,2024-11-06T1400,125.2841,43.8463,10,17,0.2,12,9,56,34,18,—
长春市,劳动公园,1122A,2024-11-06T1400,125.3716,43.8772,9,27,0.4,11,10,61,39,27,—
长春市,园林处,1123A,2024-11-06T1400,125.3297,43.8805,12,24,0.3,11,7,53,36,24,—
长春市,净月潭,1124A,2024-11-06T1400,125.4605,43.79,8,17,0.2,6,7,57,37,18,—
长春市,甩湾子,1125A,2024-11-06T1400,125.7194,43.515,7,10,0.7,7,6,47,29,15,—
长春市,经开区环卫处,1126A,2024-11-06T1400,125.3863,43.8447,8,15,0.3,12,10,56,35,18,—
长春市,高新区管委会,1127A,2024-11-06T1400,125.245,43.7783,6,24,0.5,10,7,55,36,24,—
长春市,岱山公园,1128A,2024-11-06T1400,125.1761,43.8325,10,22,0.4,7,6,52,32,22,—
长沙市,经开区环保局,1335A,2024-11-06T1400,113.0833,28.2325,34,57,0.5,16,3,145,82,54,颗粒物(PM10)
长沙市,高开区环保局,1336A,2024-11-06T1400,112.8872,28.2189,42,66,0.4,9,6,144,80,59,细颗粒物(PM2.5)
长沙市,马坡岭,1337A,2024-11-06T1400,113.0792,28.2053,40,58,0.5,15,5,141,82,57,细颗粒物(PM2.5)
长沙市,湖南师范大学,1338A,2024-11-06T1400,112.9394,28.19,40,73,0.6,13,4,149,93,62,颗粒物(PM10)
长沙市,雨花区环保局,1339A,2024-11-06T1400,113.0178,28.1322,46,75,0.5,14,6,147,84,64,细颗粒物(PM2.5)
长沙市,伍家岭,1340A,2024-11-06T1400,112.9792,28.2597,46,72,0.7,14,5,148,74,64,细颗粒物(PM2.5)
长沙市,火车新站,1341A,2024-11-06T1400,113.0014,28.1944,46,71,0.6,14,6,144,84,64,细颗粒物(PM2.5)
长沙市,天心区环保局,1342A,2024-11-06T1400,112.9844,28.1178,40,70,0.4,19,6,143,80,60,颗粒物(PM10)
长沙市,湖南中医药大学,1343A,2024-11-06T1400,112.8908,28.1308,42,82,0.7,13,9,160,92,66,颗粒物(PM10)
长沙市,沙坪,1344A,2024-11-06T1400,112.9581,28.3611,41,60,0.5,12,10,144,79,58,细颗粒物(PM2.5)
长治市,清华站,1727A,2024-11-06T1400,113.1147,36.1547,24,57,0.5,15,12,110,52,54,颗粒物(PM10)
长治市,监测站,1728A,2024-11-06T1400,113.1031,36.1989,24,47,0.5,10,12,111,42,47,—
长治市,审计局,1730A,2024-11-06T1400,113.0886,36.2125,27,53,0.5,10,7,108,44,52,颗粒物(PM10)
长治市,长治八中,1731A,2024-11-06T1400,113.0844,36.1856,23,55,0.5,13,9,113,42,53,颗粒物(PM10)
长治市,德盛苑,2845A,2024-11-06T1400,113.1569,36.1911,19,39,0.5,17,8,112,72,39,—
长治市,向阳小学,3568A,2024-11-06T1400,113.06,36.0464,26,50,0.4,20,11,113,80,50,—
长治市,屯留一中,3569A,2024-11-06T1400,112.8792,36.3144,29,50,1.2,16,8,113,53,50,—
长治市,潞城四中,3570A,2024-11-06T1400,113.235,36.3489,50,78,0.6,29,9,103,52,69,细颗粒物(PM2.5)
常德市,市二中,1854A,2024-11-06T1400,111.6975,28.9703,58,104,0.7,14,7,153,68,79,细颗粒物(PM2.5)
常德市,白鹤山,1857A,2024-11-06T1400,111.7158,29.1456,—,—,—,—,—,—,—,—,—
常德市,武陵区永安,3138A,2024-11-06T1400,111.7153,29.0289,53,108,0.9,16,10,153,82,79,颗粒物(PM10)
常德市,鼎城区玉霞,3139A,2024-11-06T1400,111.6892,28.9881,55,105,0.9,14,8,155,70,78,颗粒物(PM10)
常德市,武陵区长庚,3140A,2024-11-06T1400,111.6625,29.0531,58,105,0.8,18,7,160,81,79,细颗粒物(PM2.5)
常州市,市监测站,1196A,2024-11-06T1400,119.9633,31.762,18,40,0.3,15,8,111,73,40,—
常州市,武进监测站,1200A,2024-11-06T1400,119.9468,31.7069,17,32,0.4,8,13,105,70,33,—
常州市,安家,1201A,2024-11-06T1400,119.9255,31.9087,16,36,0.3,14,8,106,65,36,—
常州市,行政中心,3002A,2024-11-06T1400,119.9805,31.8174,24,35,0.5,12,1,104,69,35,—
常州市,经开区,3003A,2024-11-06T1400,120.0522,31.7748,17,44,0.3,20,8,109,64,44,—
常州市,钟楼,3010A,2024-11-06T1400,119.9025,31.7964,15,33,0.5,13,8,104,70,33,—
常州市,武进经发区,3429A,2024-11-06T1400,119.8598,31.7066,17,37,0.3,9,8,108,66,37,—
常州市,金坛城区,3430A,2024-11-06T1400,119.5826,31.7245,17,29,0.3,10,6,113,74,36,—
朝阳市,西梁,2220A,2024-11-06T1400,120.4318,41.5881,15,20,0.5,9,14,63,33,22,—
朝阳市,河畔小区,2221A,2024-11-06T1400,120.4521,41.5646,—,—,—,8,12,65,32,—,—
朝阳市,八里堡,2222A,2024-11-06T1400,120.4176,41.5648,18,31,0.7,9,12,66,32,31,—
朝阳市,农业园区,2223A,2024-11-06T1400,120.3806,41.5969,19,105,1.3,15,17,60,—,78,颗粒物(PM10)
潮州市,西园路,1705A,2024-11-06T1400,116.6367,23.6719,27,42,0.3,—,4,93,79,—,—
潮州市,市政府,3026A,2024-11-06T1400,116.6183,23.6608,19,34,0.6,7,6,99,80,34,—
潮州市,金山,4036A,2024-11-06T1400,116.6461,23.6761,25,34,0.7,6,8,97,80,36,—
郴州市,马头岭,2472A,2024-11-06T1400,113.0073,25.9061,25,56,0.9,13,25,121,82,53,颗粒物(PM10)
郴州市,市职中,2473A,2024-11-06T1400,113.0116,25.8226,39,50,0.8,9,25,136,83,55,细颗粒物(PM2.5)
郴州市,兴隆步行街,2474A,2024-11-06T1400,113.0161,25.8001,48,72,0.7,13,25,132,96,67,细颗粒物(PM2.5)
郴州市,市审计局,2475A,2024-11-06T1400,113.0383,25.8071,43,51,0.7,8,27,138,95,60,细颗粒物(PM2.5)
郴州市,市环保局,2476A,2024-11-06T1400,113.0348,25.7759,31,65,0.7,8,24,125,93,58,颗粒物(PM10)
成都市,金泉两河,1431A,2024-11-06T1400,103.9728,30.7236,26,58,0.5,25,3,39,20,54,颗粒物(PM10)
成都市,十里店,1432A,2024-11-06T1400,104.176,30.6872,10,26,0.4,20,3,70,22,26,—
成都市,三瓦窑,1433A,2024-11-06T1400,104.079,30.5706,37,46,0.4,25,2,56,28,53,细颗粒物(PM2.5)
成都市,沙河铺,1434A,2024-11-06T1400,104.1114,30.63,20,30,0.4,23,4,66,28,30,—
成都市,君平街,1437A,2024-11-06T1400,104.0786,30.6531,42,76,0.7,46,6,20,22,63,颗粒物(PM10)
成都市,灵岩寺,1438A,2024-11-06T1400,103.613,31.0283,—,—,—,—,—,—,—,—,—
成都市,大石西路,2880A,2024-11-06T1400,104.0239,30.65639,44,72,0.7,41,4,20,19,62,细颗粒物(PM2.5)
成都市,龙泉驿区区政府,3136A,2024-11-06T1400,104.2725,30.5589,17,19,0.4,10,3,78,46,25,—
成都市,金博路,3357A,2024-11-06T1400,104.0106,30.6931,40,69,0.5,32,3,27,16,60,颗粒物(PM10)
成都市,华阳,3359A,2024-11-06T1400,104.0578,30.5225,29,44,0.5,14,2,53,22,44,—
成都市,车城东七路,3487A,2024-11-06T1400,104.2394,30.5319,25,37,0.5,15,2,69,25,37,—
成都市,青白江技师分院,3488A,2024-11-06T1400,104.3853,30.7453,3,19,0.5,9,5,81,33,26,—
成都市,科学城,3489A,2024-11-06T1400,104.0789,30.4072,36,50,0.6,29,4,—,21,—,—
成都市,光华大道三段,4011A,2024-11-06T1400,103.8506,30.6947,38,62,0.5,22,5,55,40,56,颗粒物(PM10)
承德市,铁路,1062A,2024-11-06T1400,117.9531,40.9081,3,12,0.3,19,10,47,24,15,—
承德市,中国银行,1063A,2024-11-06T1400,117.9392,40.9763,3,10,0.4,15,8,54,24,17,—
承德市,开发区,1064A,2024-11-06T1400,117.9503,40.928,7,29,0.3,16,9,59,27,29,—
承德市,文化中心,1065A,2024-11-06T1400,117.8051,40.9655,7,25,1.2,16,33,54,20,25,—
承德市,离宫,1066A,2024-11-06T1400,117.9268,41.0026,13,16,0.5,21,11,38,22,19,—
池州市,池州学院,2314A,2024-11-06T1400,117.47,30.6618,26,59,0.5,16,9,122,73,55,颗粒物(PM10)
池州市,展览馆,3237A,2024-11-06T1400,117.4918,30.6617,31,53,0.4,15,8,121,72,52,颗粒物(PM10)
池州市,第八中学,3333A,2024-11-06T1400,117.5627,30.695,30,53,0.4,15,7,119,68,52,颗粒物(PM10)
池州市,第十二中学,3334A,2024-11-06T1400,117.5038,30.6243,23,53,0.4,15,5,125,77,52,颗粒物(PM10)
赤峰市,松山一中,1744A,2024-11-06T1400,118.9233,42.2816,8,21,0.4,12,10,72,28,23,—
赤峰市,哈达街,1745A,2024-11-06T1400,118.9576,42.2728,9,15,0.4,14,6,73,35,23,—
赤峰市,天义路,1746A,2024-11-06T1400,118.8788,42.2554,10,—,0.3,11,7,75,33,24,—
赤峰市,银河街,3058A,2024-11-06T1400,119.2658,42.0353,36,56,0.5,14,18,66,32,53,颗粒物(PM10)
赤峰市,桥北物流园区,3286A,2024-11-06T1400,118.9359,42.3147,16,25,1.0,20,26,68,31,25,—
崇左市,市环保局江州分局,2521A,2024-11-06T1400,107.3476,22.4136,34,60,0.7,5,5,140,81,55,颗粒物(PM10)
崇左市,城南新区,2522A,2024-11-06T1400,107.3702,22.3707,40,56,0.6,5,8,148,82,57,细颗粒物(PM2.5)
滁州市,老年大学,2298A,2024-11-06T1400,118.3093,32.3153,12,31,0.2,12,3,106,—,34,—
滁州市,人大宾馆,2299A,2024-11-06T1400,118.3244,32.2786,16,26,0.3,13,7,103,61,33,—
滁州市,市政府原办公楼,3207A,2024-11-06T1400,118.3118,32.3038,15,24,0.3,13,5,103,61,33,—
滁州市,图书馆,3331A,2024-11-06T1400,118.3267,32.2634,13,29,0.2,11,5,103,64,33,—
楚雄彝族自治州,州环境监测站,2605A,2024-11-06T1400,101.5482,25.0441,39,42,0.7,8,6,74,35,55,细颗粒物(PM2.5)
楚雄彝族自治州,市经济开发区,2606A,2024-11-06T1400,101.538,25.0492,38,41,0.7,9,7,72,33,54,细颗粒物(PM2.5)
达州市,达州职业技术学院,2548A,2024-11-06T1400,107.5277,31.2827,27,35,0.6,26,5,25,10,39,—
达州市,市环境监测站,2549A,2024-11-06T1400,107.5086,31.2186,19,39,0.5,29,6,38,11,39,—
达州市,凤凰小区,2550A,2024-11-06T1400,107.4988,31.2132,27,36,0.5,26,8,42,15,39,—
达州市,达县机关宾馆,2551A,2024-11-06T1400,107.5082,31.1986,25,34,0.6,26,5,52,21,36,—
达州市,市政中心,2552A,2024-11-06T1400,107.4644,31.2124,19,38,0.5,27,6,50,15,38,—
大理白族自治州,大理市环境监测站,2614A,2024-11-06T1400,100.1542,25.7054,34,34,0.6,8,6,72,35,49,—
大理白族自治州,大理古城,2615A,2024-11-06T1400,100.2171,25.5811,27,34,0.5,9,9,73,42,39,—
大连市,甘井子,1109A,2024-11-06T1400,121.612,38.9741,14,27,0.7,34,12,59,46,27,—
大连市,周水子,1110A,2024-11-06T1400,121.565,38.9511,17,31,0.6,44,13,42,34,31,—
大连市,星海三站,1111A,2024-11-06T1400,121.5637,38.8845,10,21,0.5,15,9,69,44,22,—
大连市,青泥洼桥,1112A,2024-11-06T1400,121.6302,38.9117,10,22,0.1,18,11,67,46,22,—
大连市,傅家庄,1113A,2024-11-06T1400,121.6251,38.8638,9,17,0.3,17,10,72,58,23,—
大连市,七贤岭,1114A,2024-11-06T1400,121.5213,38.8661,8,22,0.6,15,8,66,46,22,—
大连市,旅顺,1115A,2024-11-06T1400,121.2529,38.8061,6,19,0.5,15,9,78,54,25,—
大连市,金州,1116A,2024-11-06T1400,121.7485,39.1311,14,21,0.4,18,6,66,53,21,—
大连市,开发区,1117A,2024-11-06T1400,121.7811,39.0496,10,21,0.2,18,8,59,56,21,—
大连市,双D港,1118A,2024-11-06T1400,121.9762,39.0631,7,12,0.4,10,7,79,67,25,—
大庆市,大同区,1789A,2024-11-06T1400,124.81117,46.03138,20,31,0.3,4,2,60,38,31,—
大庆市,龙凤区,1790A,2024-11-06T1400,125.129,46.533,33,39,0.5,4,3,54,36,48,—
大庆市,红岗区,1791A,2024-11-06T1400,124.902,46.408,28,36,0.3,7,6,59,39,40,—
大庆市,萨尔图区,1792A,2024-11-06T1400,125.153,46.586,15,39,0.2,12,6,53,39,39,—
大庆市,让胡路区,1793A,2024-11-06T1400,124.9042,46.6215,36,—,0.2,4,4,54,39,52,细颗粒物(PM2.5)
大庆市,萨区政府监测点,3481A,2024-11-06T1400,125.141,46.634,12,20,0.2,6,5,52,36,20,—
大同市,果树场,1721A,2024-11-06T1400,113.3819,40.1097,17,46,0.4,24,11,70,29,46,—
大同市,云冈宾馆,1723A,2024-11-06T1400,113.2994,40.0758,20,58,0.7,31,17,69,33,54,颗粒物(PM10)
大同市,大同大学,1724A,2024-11-06T1400,113.3444,40.0917,22,47,0.6,28,14,70,32,47,—
大同市,安家小村,1725A,2024-11-06T1400,113.2661,40.1269,28,68,0.5,25,18,78,35,59,颗粒物(PM10)
大同市,教育学院,1726A,2024-11-06T1400,113.2711,40.0844,26,64,0.5,30,14,71,35,57,颗粒物(PM10)
大同市,大同市卫生学校,3282A,2024-11-06T1400,113.3397,40.0597,—,—,0.4,—,—,—,29,—,—
大同市,云冈站,3565A,2024-11-06T1400,113.1367,40.1122,39,77,0.5,31,16,74,34,64,颗粒物(PM10)
大同市,图书馆,3566A,2024-11-06T1400,113.1186,40.2556,37,61,0.5,31,19,74,37,56,颗粒物(PM10)
大同市,区一中,3567A,2024-11-06T1400,113.5931,40.0461,14,51,0.5,27,19,63,37,51,颗粒物(PM10)
大同市,第二人民医院,3676A,2024-11-06T1400,113.2802,40.0995,26,74,0.5,27,17,75,35,62,颗粒物(PM10)
大兴安岭地区,科技局,2269A,2024-11-06T1400,124.1069,50.4097,8,—,0.2,2,4,54,40,17,—
大兴安岭地区,红旗社区,3663A,2024-11-06T1400,124.1164,50.4278,3,6,0.3,3,3,50,36,16,—
丹东市,江湾东路,1600A,2024-11-06T1400,124.3303,40.0625,11,19,—,6,10,61,51,—,—
丹东市,临江后街,1601A,2024-11-06T1400,124.4256,40.1503,9,11,0.3,5,4,64,54,20,—
丹东市,元宝山,1602A,2024-11-06T1400,124.3933,40.1461,3,12,0.4,4,4,64,55,20,—
丹东市,民主桥,1603A,2024-11-06T1400,124.3633,40.1092,6,18,0.3,8,5,61,50,20,—
儋州市,第一中学子站,3541A,2024-11-06T1400,109.5726,19.5167,27,44,0.7,7,7,96,86,44,—
儋州市,东坡学校子站,3542A,2024-11-06T1400,109.5567,19.5187,22,42,0.7,9,7,103,90,42,—
德宏傣族景颇族自治州,德宏州监测站,2616A,2024-11-06T1400,98.5842,24.428,9,15,0.6,15,5,57,29,18,—
德宏傣族景颇族自治州,芒市人民政府综合楼,3677A,2024-11-06T1400,98.5881,24.4368,8,18,0.7,15,4,48,24,18,—
德阳市,东山公园,1901A,2024-11-06T1400,104.4239,31.1208,18,42,0.6,10,2,68,42,42,—
德阳市,西小区,1902A,2024-11-06T1400,104.3826,31.1317,28,53,0.6,18,1,52,40,52,颗粒物(PM10)
德阳市,耐火材料厂,1904A,2024-11-06T1400,104.3553,31.1091,19,38,0.4,18,3,51,35,38,—
德阳市,市教育局,3639A,2024-11-06T1400,104.4019,31.1244,19,45,0.6,16,2,57,35,45,—
德州市,儿童乐园,1622A,2024-11-06T1400,116.3032,37.4674,24,51,0.5,26,14,84,48,51,颗粒物(PM10)
德州市,监理站,1624A,2024-11-06T1400,116.2991,37.4451,19,36,0.5,23,13,86,48,36,—
德州市,九衢泉纯净水厂,3066A,2024-11-06T1400,116.2721,37.4379,19,46,0.5,22,15,82,44,46,—
德州市,开发区人民医院,3371A,2024-11-06T1400,116.3728,37.4403,17,41,0.6,19,14,83,42,41,—
德州市,太阳城中学,3372A,2024-11-06T1400,116.3572,37.4094,19,41,0.5,27,13,—,26,—,—
德州市,陵城艺术中心,3511A,2024-11-06T1400,116.5652,37.3319,22,39,0.6,25,14,78,42,39,—
迪庆藏族自治州,迪庆州站,2621A,2024-11-06T1400,99.7056,27.8317,15,20,0.2,9,7,83,44,26,—
迪庆藏族自治州,质量技术监督局,3180A,2024-11-06T1400,99.7136,27.8094,6,34,0.4,12,7,81,41,34,—
定西市,东关小学,2663A,2024-11-06T1400,104.6241,35.5734,28,50,0.3,7,4,78,61,50,—
定西市,供电公司,2664A,2024-11-06T1400,104.6194,35.5934,27,42,0.3,6,7,79,61,42,—
东莞市,莞城梨川,1389A,2024-11-06T1400,113.7547,23.0494,31,47,0.8,13,9,147,124,47,—
东莞市,东城石井,1390A,2024-11-06T1400,113.7944,23.0128,34,50,0.8,12,11,158,124,50,—
东莞市,南城西平,1391A,2024-11-06T1400,113.7383,22.9658,34,55,0.7,13,7,160,122,53,颗粒物(PM10)
东莞市,万江金泰,3319A,2024-11-06T1400,113.7338,23.0381,30,43,0.8,10,8,142,123,45,—
东莞市,南城元岭,3626A,2024-11-06T1400,113.7533,23.0202,31,47,0.7,7,9,140,120,47,—
东莞市,东城主山,3627A,2024-11-06T1400,113.7875,23.0457,34,51,0.7,13,10,155,126,51,颗粒物(PM10)
东营市,市环保局,1666A,2024-11-06T1400,118.6614,37.4309,14,36,0.5,24,5,85,43,36,—
东营市,开发区管委会,3036A,2024-11-06T1400,118.6904,37.4338,17,43,0.5,20,8,84,41,43,—
东营市,垦利区民丰路,3365A,2024-11-06T1400,118.5719,37.565,17,39,0.3,21,10,89,43,39,—
东营市,河口城区,3498A,2024-11-06T1400,118.5055,37.8612,17,36,—,17,—,78,42,—,—
东营市,胜利站,3646A,2024-11-06T1400,118.4978,37.4623,12,42,0.3,25,7,83,46,42,—
东营市,理想之城,3734A,2024-11-06T1400,118.35,37.26,27,29,0.4,21,6,82,40,39,—
鄂尔多斯市,综合楼,1591A,2024-11-06T1400,110.0023,39.8129,27,66,0.6,30,16,76,50,58,颗粒物(PM10)
鄂尔多斯市,巴音孟克林场办事处,1592A,2024-11-06T1400,109.9486,39.8261,22,56,0.6,34,17,71,48,53,颗粒物(PM10)
鄂尔多斯市,康泽苑,1593A,2024-11-06T1400,109.7736,39.5986,19,44,0.4,16,10,95,38,44,—
鄂尔多斯市,华泰汽车城,1594A,2024-11-06T1400,109.8119,39.5989,17,39,0.5,17,12,93,34,39,—
鄂尔多斯市,奥林花园,1595A,2024-11-06T1400,109.9734,39.7884,22,58,0.7,33,16,70,38,54,颗粒物(PM10)
鄂州市,市政府,2436A,2024-11-06T1400,114.8938,30.3994,19,38,0.6,16,8,121,74,38,—
鄂州市,赵家坝,2437A,2024-11-06T1400,114.8989,30.3714,20,39,0.5,19,10,135,76,43,—
鄂州市,精准医疗中心,3654A,2024-11-06T1400,114.8094,30.4089,25,57,1.1,23,14,129,89,54,颗粒物(PM10)
恩施土家族苗族自治州,湖北民院,2454A,2024-11-06T1400,109.4978,30.2981,32,55,0.6,13,6,100,35,53,颗粒物(PM10)
恩施土家族苗族自治州,州电力总公司,2455A,2024-11-06T1400,109.4707,30.2798,29,46,0.6,15,8,99,35,46,—
恩施土家族苗族自治州,龙凤新区,3549A,2024-11-06T1400,109.5061,30.3772,29,42,0.8,17,6,81,34,42,—
防城港市,沙万,2499A,2024-11-06T1400,108.3411,21.6158,51,97,0.7,12,6,138,109,74,颗粒物(PM10)
防城港市,防城档案局,2500A,2024-11-06T1400,108.3514,21.7731,48,—,0.9,—,7,133,100,—,—
防城港市,大海花园,2501A,2024-11-06T1400,108.3506,21.6414,47,84,0.7,12,5,140,114,67,颗粒物(PM10)
佛山市,湾梁,1371A,2024-11-06T1400,113.1294,23.0067,33,56,0.8,23,8,171,135,64,臭氧1小时
佛山市,华材职中,1372A,2024-11-06T1400,113.1083,23.0478,36,58,0.6,21,9,171,129,64,臭氧1小时
佛山市,南海气象局,1373A,2024-11-06T1400,113.144,23.0453,32,64,0.6,17,8,169,132,62,臭氧1小时
佛山市,顺德苏岗,1374A,2024-11-06T1400,113.2881,22.8094,31,61,0.8,16,8,166,121,58,臭氧1小时
佛山市,高明孔堂,1376A,2024-11-06T1400,112.8383,22.8678,41,61,0.7,19,8,181,133,77,臭氧1小时
佛山市,三水监测站,1377A,2024-11-06T1400,112.8836,23.1588,41,51,0.7,17,9,164,131,58,细颗粒物(PM2.5)
佛山市,三水云东海,1378A,2024-11-06T1400,112.867,23.185,37,40,0.7,14,12,156,122,53,细颗粒物(PM2.5)
佛山市,容桂街道办,3625A,2024-11-06T1400,113.2544,22.7642,31,48,0.7,19,8,174,127,68,臭氧1小时
福州市,鼓山,1280A,2024-11-06T1400,119.3903,26.0543,—,—,—,—,—,—,110,—,—
福州市,师大,1282A,2024-11-06T1400,119.2681,26.0504,3,19,0.3,6,2,120,107,38,—
福州市,五四北路,1283A,2024-11-06T1400,119.2984,26.1028,3,13,0.3,12,1,117,102,37,—
福州市,杨桥西路,1284A,2024-11-06T1400,119.2648,26.0768,3,22,0.3,4,1,122,106,39,—
福州市,紫阳,1285A,2024-11-06T1400,119.317,26.0746,3,29,0.4,6,3,110,92,35,—
福州市,九龙,3048A,2024-11-06T1400,119.5799,26.0936,—,—,—,—,—,—,125,—,—
福州市,吴航,3526A,2024-11-06T1400,119.5189,25.9664,7,18,0.1,8,3,114,100,36,—
抚顺市,望花区,1755A,2024-11-06T1400,123.7977,41.8491,12,15,0.7,14,6,62,38,20,—
抚顺市,顺城区,1756A,2024-11-06T1400,123.9161,41.8822,8,21,0.3,14,5,63,32,21,—
抚顺市,东洲区,1757A,2024-11-06T1400,124.0436,41.8611,7,8,0.3,9,7,58,42,19,—
抚顺市,新抚区,1758A,2024-11-06T1400,123.9247,41.8642,9,22,0.1,12,9,61,35,22,—
抚顺市,大伙房水库,1759A,2024-11-06T1400,124.0972,41.8961,7,12,0.3,3,7,64,45,20,—
抚顺市,沈抚新城,1760A,2024-11-06T1400,123.7086,41.8391,14,29,0.4,10,8,65,38,29,—
抚州市,桐源党溪,2376A,2024-11-06T1400,116.2127,28.0814,22,47,0.4,5,6,117,78,47,—
抚州市,市站,2377A,2024-11-06T1400,116.3544,27.9831,17,45,0.7,14,—,111,78,—,—
抚州市,血防站,2378A,2024-11-06T1400,116.3565,27.963,16,44,0.4,6,4,123,60,44,—
抚州市,采茶剧团,2379A,2024-11-06T1400,116.3564,28.0007,20,42,0.9,5,8,121,80,42,—
抚州市,医学分院,2380A,2024-11-06T1400,116.385,27.9647,17,46,0.6,7,8,116,76,46,—
阜新市,工业园区,2207A,2024-11-06T1400,121.6094,41.998,11,25,0.3,10,13,78,37,25,—
阜新市,长青街,2208A,2024-11-06T1400,121.6697,42.0279,15,25,0.5,20,16,70,33,25,—
阜新市,农业园区,2209A,2024-11-06T1400,121.6673,42.0705,12,23,0.3,12,14,72,46,23,—
阜新市,东苑,2210A,2024-11-06T1400,121.6717,42.0224,23,36,0.5,18,19,64,32,36,—
阜新市,玉龙新城,2211A,2024-11-06T1400,121.6506,42.0498,17,32,0.4,10,14,82,40,32,—
阜阳市,市监测站,2301A,2024-11-06T1400,115.8277,32.8929,36,58,0.5,16,9,110,61,54,颗粒物(PM10)
阜阳市,开发区,2303A,2024-11-06T1400,115.8554,32.8605,45,77,0.6,23,9,102,56,64,颗粒物(PM10)
阜阳市,阜阳职业技术学院,2875A,2024-11-06T1400,115.784,32.8892,39,44,0.4,14,9,107,59,55,细颗粒物(PM2.5)
阜阳市,市规划展馆,3468A,2024-11-06T1400,115.7901,32.8613,38,58,0.4,17,9,110,63,54,"颗粒物(PM10),细颗粒物(PM2.5)"
阜阳市,枣园社区,3469A,2024-11-06T1400,115.836,32.9183,41,49,0.4,17,9,106,58,58,细颗粒物(PM2.5)
甘南藏族自治州,州政府,2669A,2024-11-06T1400,102.9099,34.9841,11,16,0.3,3,2,75,32,24,—
甘南藏族自治州,甘肃民族师范学院,3380A,2024-11-06T1400,102.8914,34.9617,9,—,0.7,11,8,76,31,24,—
甘孜藏族自治州,水桥子,2570A,2024-11-06T1400,101.9603,30.0475,3,7,0.2,5,6,54,23,17,—
甘孜藏族自治州,州环保局,3065A,2024-11-06T1400,101.9533,29.9972,3,12,0.2,7,4,59,39,19,—
赣江新区,桑海产业园,3414A,2024-11-06T1400,115.8347,28.932,20,41,0.7,15,12,118,78,41,—
赣州市,通天岩,2362A,2024-11-06T1400,114.9017,25.9149,3,23,1.6,8,122,132,87,42,—
赣州市,地委,2363A,2024-11-06T1400,114.9367,25.8664,31,49,0.6,8,2,123,106,49,—
赣州市,气象台,2364A,2024-11-06T1400,114.9461,25.8481,33,54,0.6,4,4,122,104,52,颗粒物(PM10)
赣州市,市图书馆,2365A,2024-11-06T1400,114.9322,25.8333,25,41,0.7,9,5,129,112,41,—
赣州市,华坚鞋城,2366A,2024-11-06T1400,114.8905,25.8471,18,46,0.7,9,6,120,110,46,—
赣州市,赣县区卫计委,3109A,2024-11-06T1400,115.0093,25.8613,29,41,0.6,6,6,106,91,42,—
固原市,马园,2683A,2024-11-06T1400,106.2319,36.1417,3,14,0.5,5,6,83,45,26,—
固原市,监测站,2684A,2024-11-06T1400,106.2792,36.0022,13,18,0.4,14,5,84,42,27,—
固原市,新区,2685A,2024-11-06T1400,106.2375,36.0211,9,15,0.3,7,4,82,42,26,—
固原市,原州区十五小,3522A,2024-11-06T1400,106.2177,35.9959,8,18,0.3,6,5,94,78,30,—
广安市,小平旧居,2543A,2024-11-06T1400,106.6308,30.5278,—,—,—,—,—,—,—,—,—
广安市,市委,2544A,2024-11-06T1400,106.6303,30.4576,20,42,0.5,18,3,62,42,42,—
广安市,友谊中学,2545A,2024-11-06T1400,106.6271,30.4663,26,38,0.5,18,3,64,34,38,—
广安市,广电花园,2547A,2024-11-06T1400,106.6388,30.4551,21,35,0.3,18,5,61,42,35,—
广安市,北辰小学,2902A,2024-11-06T1400,106.6351,30.4865,22,40,0.6,15,4,69,45,40,—
广元市,黑石坡,2523A,2024-11-06T1400,105.8945,32.4535,15,22,0.5,24,5,6,26,22,—
广元市,老城,2524A,2024-11-06T1400,105.821,32.4444,26,51,1.1,31,24,23,16,51,颗粒物(PM10)
广元市,监测站,2526A,2024-11-06T1400,105.8628,32.4287,30,34,0.9,34,4,28,15,43,—
广元市,经开区,3617A,2024-11-06T1400,105.8047,32.4166,61,102,1.8,39,89,15,13,83,细颗粒物(PM2.5)
广州市,广雅中学,1345A,2024-11-06T1400,113.2347,23.1423,34,62,1.1,19,8,156,124,56,颗粒物(PM10)
广州市,市五中,1346A,2024-11-06T1400,113.2612,23.105,41,68,0.7,15,6,165,139,59,颗粒物(PM10)
广州市,广东商学院,1348A,2024-11-06T1400,113.3478,23.0916,31,44,0.6,14,7,152,130,48,—
广州市,市八十六中,1349A,2024-11-06T1400,113.4332,23.1047,31,50,0.6,12,5,140,117,50,—
广州市,番禺中学,1350A,2024-11-06T1400,113.3505,22.9483,9,35,0.6,21,7,157,129,50,—
广州市,花都师范,1351A,2024-11-06T1400,113.2146,23.3916,30,46,1.1,11,6,137,128,46,—
广州市,市监测站,1352A,2024-11-06T1400,113.2597,23.1331,33,53,0.6,10,6,155,128,52,颗粒物(PM10)
广州市,九龙镇镇龙,1353A,2024-11-06T1400,113.5618,23.312,32,46,0.7,9,6,129,119,46,—
广州市,麓湖,1354A,2024-11-06T1400,113.2765,23.1544,38,59,0.7,14,6,160,132,55,颗粒物(PM10)
广州市,帽峰山森林公园,1355A,2024-11-06T1400,113.443,23.3035,26,39,0.7,10,7,147,129,46,—
广州市,体育西,2846A,2024-11-06T1400,113.3221,23.1322,35,49,0.9,10,7,150,124,50,—
广州市,从化街口,3298A,2024-11-06T1400,113.5717,23.5491,34,44,0.7,9,8,130,126,49,—
广州市,白云竹料,3299A,2024-11-06T1400,113.3472,23.3692,32,59,0.8,9,8,146,135,55,颗粒物(PM10)
广州市,白云嘉禾,3300A,2024-11-06T1400,113.2981,23.237,34,56,0.9,16,8,153,130,53,颗粒物(PM10)
广州市,黄埔科学城,3301A,2024-11-06T1400,113.4256,23.1716,32,46,0.7,10,6,146,126,46,—
广州市,番禺大学城,3302A,2024-11-06T1400,113.3942,23.0483,27,125,0.6,13,7,146,122,88,颗粒物(PM10)
广州市,南沙黄阁,3303A,2024-11-06T1400,113.4922,22.8168,37,71,0.7,21,10,164,120,61,颗粒物(PM10)
广州市,南沙街,3304A,2024-11-06T1400,113.5342,22.7896,41,69,0.8,17,—,176,119,—,—
广州市,花都梯面,3443A,2024-11-06T1400,113.2902,23.5544,31,45,0.7,8,9,139,128,45,—
广州市,从化良口,3445A,2024-11-06T1400,113.7858,23.7478,32,43,—,7,—,131,126,—,—
广州市,增城荔城,3446A,2024-11-06T1400,113.8051,23.2614,33,44,0.7,12,8,132,118,48,—
贵港市,德智高中,2505A,2024-11-06T1400,109.568,23.1478,—,—,—,—,—,—,—,—,—
贵港市,江南子站,2506A,2024-11-06T1400,109.6047,23.0666,44,68,0.8,11,9,164,120,62,细颗粒物(PM2.5)
贵港市,贵城子站,2507A,2024-11-06T1400,109.6014,23.0948,42,70,0.9,10,8,152,114,60,颗粒物(PM10)
贵港市,荷城子站,2508A,2024-11-06T1400,109.5669,23.1065,41,63,0.7,12,11,140,111,58,细颗粒物(PM2.5)
贵港市,新世纪学校,3405A,2024-11-06T1400,109.5886,23.1172,44,61,0.8,10,9,146,113,62,细颗粒物(PM2.5)
贵阳市,马鞍山,1439A,2024-11-06T1400,106.6899,26.5998,19,36,0.6,10,5,128,92,40,—
贵阳市,市环保站,1440A,2024-11-06T1400,106.6971,26.5694,34,39,0.4,12,5,146,113,49,—
贵阳市,鉴湖路,1441A,2024-11-06T1400,106.6243,26.6266,22,24,0.5,10,4,117,107,37,—
贵阳市,燕子冲,1442A,2024-11-06T1400,106.7487,26.6343,22,22,0.4,7,5,129,104,41,—
贵阳市,碧云窝,1443A,2024-11-06T1400,106.6555,26.4365,24,39,0.5,11,6,141,102,45,—
贵阳市,中院村,1444A,2024-11-06T1400,106.694,26.5161,27,36,0.7,14,4,131,106,41,—
贵阳市,红边门,1445A,2024-11-06T1400,106.7109,26.6027,29,41,0.6,12,5,132,102,42,—
贵阳市,新华路,1446A,2024-11-06T1400,106.7164,26.5699,34,39,0.5,9,5,136,101,49,—
贵阳市,太慈桥,1447A,2024-11-06T1400,106.674,26.5424,24,27,0.4,16,4,131,99,41,—
贵阳市,桐木岭,1552A,2024-11-06T1400,106.805,26.3003,36,61,0.6,4,7,16,92,56,颗粒物(PM10)
桂林市,电子科大尧山校区,1862A,2024-11-06T1400,110.4144,25.3167,32,—,0.6,10,5,148,138,47,—
桂林市,监测站,1863A,2024-11-06T1400,110.2819,25.2697,49,70,0.7,13,11,151,139,68,细颗粒物(PM2.5)
桂林市,龙隐路小学,1864A,2024-11-06T1400,110.3089,25.2708,44,52,0.7,10,10,159,144,62,细颗粒物(PM2.5)
桂林市,八中,1865A,2024-11-06T1400,110.2869,25.2178,34,56,0.8,12,10,149,134,53,颗粒物(PM10)
桂林市,创业大厦,3403A,2024-11-06T1400,110.1764,25.2381,36,53,0.5,15,8,152,144,52,"颗粒物(PM10),细颗粒物(PM2.5)"
桂林市,旅游学院,3531A,2024-11-06T1400,110.296,25.1253,39,58,—,14,10,153,138,—,—
果洛藏族自治州,玛沁县大武镇,2674A,2024-11-06T1400,100.2561,34.4714,3,12,0.5,2,15,84,46,27,—
哈尔滨市,岭北,1129A,2024-11-06T1400,126.5422,45.755,53,89,0.4,11,9,73,63,73,细颗粒物(PM2.5)
哈尔滨市,松北商大,1130A,2024-11-06T1400,126.561,45.8167,43,58,0.4,14,8,54,32,60,细颗粒物(PM2.5)
哈尔滨市,阿城会宁,1131A,2024-11-06T1400,126.979,45.5419,20,29,0.6,9,8,46,23,29,—
哈尔滨市,南岗学府路,1132A,2024-11-06T1400,126.599,45.7222,45,70,0.5,15,6,55,33,63,细颗粒物(PM2.5)
哈尔滨市,太平宏伟公园,1133A,2024-11-06T1400,126.689,45.7733,54,62,0.5,15,8,54,34,74,细颗粒物(PM2.5)
哈尔滨市,道外承德广场,1134A,2024-11-06T1400,126.635,45.7667,49,70,0.6,20,6,54,34,68,细颗粒物(PM2.5)
哈尔滨市,香坊红旗大街,1135A,2024-11-06T1400,126.685,45.7319,58,80,0.4,10,8,63,37,79,细颗粒物(PM2.5)
哈尔滨市,动力和平路,1136A,2024-11-06T1400,126.6411,45.7258,52,70,0.6,17,8,54,31,72,细颗粒物(PM2.5)
哈尔滨市,道里建国路,1137A,2024-11-06T1400,126.593,45.7478,52,60,0.3,17,11,48,29,72,细颗粒物(PM2.5)
哈尔滨市,平房东轻厂,1138A,2024-11-06T1400,126.615,45.61,37,57,0.5,11,6,55,30,54,颗粒物(PM10)
哈尔滨市,呼兰师专,1139A,2024-11-06T1400,126.595,45.9855,30,50,0.8,24,5,—,30,—,—
哈尔滨市,省农科院,1140A,2024-11-06T1400,126.6206,45.6842,43,66,0.5,16,6,50,28,60,细颗粒物(PM2.5)
哈密市,地区监测站,2688A,2024-11-06T1400,93.5128,42.8172,45,92,0.5,28,8,66,53,71,颗粒物(PM10)
哈密市,哈密师范学校,2689A,2024-11-06T1400,93.4961,42.8328,46,110,0.6,33,10,65,41,80,颗粒物(PM10)
海北藏族自治州,海晏县西海镇,2671A,2024-11-06T1400,100.9048,36.9639,17,18,0.3,3,12,94,63,30,—
海东市,平安区公安北苑,3867A,2024-11-06T1400,102.0738,36.5056,23,—,0.7,22,16,102,43,33,—
海口市,东寨港,1409A,2024-11-06T1400,110.576,19.9507,—,—,—,—,—,—,—,—,—
海口市,海南大学,1410A,2024-11-06T1400,110.3232,20.0574,35,55,0.6,11,6,153,116,53,颗粒物(PM10)
海口市,秀英海南医院,1411A,2024-11-06T1400,110.283,20.0053,37,49,0.5,12,8,151,113,53,细颗粒物(PM2.5)
海口市,海南师范大学,1412A,2024-11-06T1400,110.338,19.9969,36,54,0.6,14,8,145,113,52,"颗粒物(PM10),细颗粒物(PM2.5)"
海口市,龙华路环保局宿舍,1413A,2024-11-06T1400,110.33,20.0356,35,49,0.5,10,6,153,114,50,—
海口市,桂林洋子站,3539A,2024-11-06T1400,110.5111,19.9736,37,55,0.5,8,8,157,116,53,"颗粒物(PM10),细颗粒物(PM2.5)"
海南藏族自治州,共和县恰卜恰镇,2673A,2024-11-06T1400,100.6188,36.2866,15,—,0.3,10,14,74,41,24,—
海西蒙古族藏族自治州,德令哈市,2676A,2024-11-06T1400,97.3731,37.3753,11,27,0.4,8,10,90,73,29,—
邯郸市,东污水处理厂,1048A,2024-11-06T1400,114.5302,36.6116,48,68,0.5,10,6,91,40,67,细颗粒物(PM2.5)
邯郸市,矿院,1049A,2024-11-06T1400,114.4918,36.5713,46,72,0.3,16,4,90,41,64,细颗粒物(PM2.5)
邯郸市,丛台公园,1050A,2024-11-06T1400,114.484,36.6133,45,57,0.4,18,6,88,39,63,细颗粒物(PM2.5)
邯郸市,香泉濮院小区,3458A,2024-11-06T1400,114.7895,36.5593,35,77,0.8,13,8,109,56,64,颗粒物(PM10)
邯郸市,永年区实验高中,3579A,2024-11-06T1400,114.50634,36.77178,52,87,0.2,18,8,94,36,72,细颗粒物(PM2.5)
邯郸市,峰峰矿区临水派出所,3580A,2024-11-06T1400,114.20016,36.44293,47,69,0.6,25,12,75,38,65,细颗粒物(PM2.5)
汉中市,汉川机床厂子校,2634A,2024-11-06T1400,106.9893,33.1842,28,28,0.5,10,6,67,38,40,—
汉中市,市监测站,2635A,2024-11-06T1400,107.0154,33.0706,25,34,0.5,7,10,69,30,36,—
汉中市,鑫源开发区,2636A,2024-11-06T1400,107.0089,33.1138,22,27,0.6,8,10,70,25,32,—
汉中市,南郑大河坎水厂,2637A,2024-11-06T1400,107.007,33.0323,24,35,0.6,15,9,67,35,35,—
杭州市,滨江,1223A,2024-11-06T1400,120.2072,30.2111,21,38,0.3,20,8,90,64,38,—
杭州市,西溪,1224A,2024-11-06T1400,120.0633,30.2747,17,31,0.4,21,6,98,48,31,—
杭州市,下沙,1226A,2024-11-06T1400,120.3461,30.3153,15,29,0.4,22,7,99,63,31,—
杭州市,卧龙桥,1227A,2024-11-06T1400,120.1269,30.2456,18,31,0.4,18,8,103,63,33,—
杭州市,浙江农大,1228A,2024-11-06T1400,120.1903,30.2692,19,32,0.4,16,5,94,63,32,—
杭州市,和睦小学,1230A,2024-11-06T1400,120.1197,30.3119,20,29,0.4,15,—,107,57,—,—
杭州市,临平镇,1231A,2024-11-06T1400,120.3019,30.4183,13,29,0.3,18,6,103,75,33,—
杭州市,城厢镇,1232A,2024-11-06T1400,120.2697,30.1819,18,32,0.5,18,6,98,73,32,—
杭州市,云栖,1233A,2024-11-06T1400,120.0883,30.1808,14,29,0.4,25,—,99,65,—,—
杭州市,镇二中,3557A,2024-11-06T1400,119.9464,30.0494,10,27,0.5,18,6,97,55,31,—
杭州市,市府大楼,3558A,2024-11-06T1400,119.7183,30.2367,26,39,—,—,8,106,51,—,—
杭州市,消防大队,3656A,2024-11-06T1400,120.1556,30.2864,17,36,0.3,21,8,104,74,36,—
合肥市,明珠广场,1270A,2024-11-06T1400,117.1959,31.7848,22,46,—,—,8,97,57,—,—
合肥市,三里街,1271A,2024-11-06T1400,117.3072,31.8764,19,44,0.5,19,6,89,50,44,—
合肥市,琥珀山庄,1272A,2024-11-06T1400,117.2588,31.8707,26,48,0.7,20,10,98,69,48,—
合肥市,董铺水库,1273A,2024-11-06T1400,117.1604,31.9052,19,48,0.4,18,6,84,54,48,—
合肥市,长江中路,1274A,2024-11-06T1400,117.25,31.8571,25,46,0.5,23,10,94,66,46,—
合肥市,庐阳区,1275A,2024-11-06T1400,117.266,31.9436,14,36,0.6,11,3,100,64,36,—
合肥市,瑶海区,1276A,2024-11-06T1400,117.336,31.8586,15,44,0.3,19,6,89,58,44,—
合肥市,包河区,1277A,2024-11-06T1400,117.3027,31.7964,19,44,0.5,17,6,88,50,44,—
合肥市,滨湖新区,1278A,2024-11-06T1400,117.2776,31.7385,14,53,0.6,16,7,91,60,52,颗粒物(PM10)
合肥市,高新区,1279A,2024-11-06T1400,117.1318,31.8403,18,46,0.6,18,2,90,62,46,—
合肥市,高教基地,3464A,2024-11-06T1400,117.3803,31.9147,17,35,0.4,13,8,98,58,35,—
和田地区,地区环保局,3614A,2024-11-06T1400,79.924,37.0877,38,120,0.6,14,7,96,65,85,颗粒物(PM10)
和田地区,市环保局,3615A,2024-11-06T1400,79.9131,37.113,55,129,0.3,12,8,104,45,90,颗粒物(PM10)
河池市,东仁乐园,2516A,2024-11-06T1400,108.2011,24.715,39,58,0.7,8,6,132,85,55,细颗粒物(PM2.5)
河池市,市环保站,2517A,2024-11-06T1400,108.0497,24.6947,40,87,0.7,12,9,151,86,69,颗粒物(PM10)
河池市,市疾控中心,2518A,2024-11-06T1400,108.0983,24.6989,41,73,0.6,13,8,140,82,62,颗粒物(PM10)
河源市,源西,1696A,2024-11-06T1400,114.6778,23.7569,31,46,0.7,8,7,118,113,46,—
河源市,东埔,1697A,2024-11-06T1400,114.6944,23.7586,28,50,0.6,10,4,128,124,50,—
河源市,老城,1698A,2024-11-06T1400,114.6892,23.7233,28,45,0.6,7,4,125,122,45,—
菏泽市,气象局,1718A,2024-11-06T1400,115.4208,35.2464,40,72,0.5,16,6,110,64,61,颗粒物(PM10)
菏泽市,市政协,1719A,2024-11-06T1400,115.4747,35.2375,36,72,0.4,20,8,105,62,61,颗粒物(PM10)
菏泽市,定陶老年大学,3374A,2024-11-06T1400,115.5564,35.0891,34,66,0.3,22,10,97,52,58,颗粒物(PM10)
菏泽市,菏泽医专,3647A,2024-11-06T1400,115.4702,35.2706,27,70,0.3,27,12,107,67,60,颗粒物(PM10)
贺州市,环保小区,2514A,2024-11-06T1400,111.5264,24.4172,56,61,0.8,12,7,158,114,77,细颗粒物(PM2.5)
贺州市,政协大楼,2515A,2024-11-06T1400,111.5608,24.4078,41,60,0.7,11,9,161,114,58,细颗粒物(PM2.5)
贺州市,西湾,3534A,2024-11-06T1400,111.4744,24.4553,54,78,0.6,13,8,148,110,74,细颗粒物(PM2.5)
鹤壁市,市监测站,2385A,2024-11-06T1400,114.17,35.9019,47,93,0.4,26,8,92,38,72,颗粒物(PM10)
鹤壁市,市交警支队,2386A,2024-11-06T1400,114.2956,35.7511,38,93,0.5,24,10,88,39,72,颗粒物(PM10)
鹤壁市,迎宾馆,2387A,2024-11-06T1400,114.2878,35.7306,37,106,0.6,24,3,93,44,78,颗粒物(PM10)
鹤壁市,大新区,3474A,2024-11-06T1400,114.2617,35.6822,63,93,0.5,24,8,87,39,85,细颗粒物(PM2.5)
鹤壁市,南山宾馆,3596A,2024-11-06T1400,114.1572,35.9603,52,98,0.6,18,11,98,51,74,颗粒物(PM10)
鹤岗市,哈啤分公司,2244A,2024-11-06T1400,130.2537,47.3416,8,8,0.4,1,12,59,52,19,—
鹤岗市,斯达机电,2245A,2024-11-06T1400,130.2684,47.3086,8,11,0.2,5,10,57,52,18,—
鹤岗市,东山纸板厂,2246A,2024-11-06T1400,130.3114,47.3388,27,36,0.1,3,11,57,52,39,—
鹤岗市,五号水库,2247A,2024-11-06T1400,130.1097,47.3382,3,7,0.5,2,7,68,64,22,—
黑河市,交通局,2263A,2024-11-06T1400,127.4833,50.2524,11,16,0.3,5,7,55,44,18,—
黑河市,环保局,2264A,2024-11-06T1400,127.5144,50.2341,10,10,0.3,—,6,50,49,—,—
黑河市,大黑河岛,2265A,2024-11-06T1400,127.5291,50.2472,11,24,0.5,15,4,36,37,24,—
衡水市,电机北厂,1074A,2024-11-06T1400,115.6838,37.7541,19,65,0.4,19,8,94,56,58,颗粒物(PM10)
衡水市,市监测站,1075A,2024-11-06T1400,115.6303,37.7316,25,62,0.4,28,8,94,54,56,颗粒物(PM10)
衡水市,市城管局,3188A,2024-11-06T1400,115.6683,37.7217,25,70,0.4,20,13,92,51,60,颗粒物(PM10)
衡水市,地表水厂,3459A,2024-11-06T1400,115.5989,37.5491,32,50,0.5,19,9,101,48,50,—
衡阳市,原169医院,2456A,2024-11-06T1400,112.5003,26.9167,32,46,0.5,8,7,103,74,46,—
衡阳市,衡阳化工总厂,2457A,2024-11-06T1400,112.6194,26.9258,32,48,0.6,4,8,137,87,48,—
衡阳市,珠晖区环保局,2458A,2024-11-06T1400,112.6211,26.8956,35,49,0.7,15,9,138,92,50,—
衡阳市,市委党校,2459A,2024-11-06T1400,112.6197,26.8733,22,55,—,10,11,142,102,—,—
衡阳市,市监测站,2460A,2024-11-06T1400,112.6006,26.8919,35,57,0.7,11,10,143,103,54,颗粒物(PM10)
衡阳市,真空机电公司,2461A,2024-11-06T1400,112.5664,26.9056,39,49,0.8,12,8,143,95,55,细颗粒物(PM2.5)
衡阳市,师范学院,3399A,2024-11-06T1400,112.6703,26.882,—,41,0.7,13,11,147,105,—,—
红河哈尼族彝族自治州,污水处理厂,2608A,2024-11-06T1400,103.3772,23.3993,43,—,0.6,8,4,77,55,60,细颗粒物(PM2.5)
红河哈尼族彝族自治州,监测站,2609A,2024-11-06T1400,103.3861,23.35,37,44,0.4,7,5,85,66,53,细颗粒物(PM2.5)
红河哈尼族彝族自治州,州图书馆,3038A,2024-11-06T1400,103.3758,23.368,26,39,0.6,6,7,78,59,39,—
呼和浩特市,呼市一监,1090A,2024-11-06T1400,111.6507,40.7517,26,46,0.7,34,19,64,38,46,—
呼和浩特市,小召,1091A,2024-11-06T1400,111.6572,40.8033,26,51,0.6,35,16,60,33,51,颗粒物(PM10)
呼和浩特市,如意水处理厂,1094A,2024-11-06T1400,111.7516,40.8369,26,60,0.6,32,14,61,32,55,颗粒物(PM10)
呼和浩特市,二十九中,1095A,2024-11-06T1400,111.7276,40.8062,25,40,0.7,29,14,63,34,40,—
呼和浩特市,工大金川校区,1096A,2024-11-06T1400,111.5512,40.7866,32,44,0.6,32,17,63,30,46,—
呼和浩特市,化肥厂生活区,1097A,2024-11-06T1400,111.717,40.7612,23,57,0.7,35,19,64,38,54,颗粒物(PM10)
呼和浩特市,红旗小学,3698A,2024-11-06T1400,111.5968,40.8178,28,61,0.6,34,15,60,27,56,颗粒物(PM10)
呼和浩特市,海东办,3699A,2024-11-06T1400,111.6518,40.8389,26,46,0.8,33,13,62,30,46,—
呼伦贝尔市,区环保局,2192A,2024-11-06T1400,119.7594,49.2261,9,20,0.3,9,5,53,32,20,—
呼伦贝尔市,国华电力东,3061A,2024-11-06T1400,119.7512,49.1577,11,12,0.2,4,6,59,41,19,—
湖州市,城西水厂,1250A,2024-11-06T1400,120.0751,30.8669,14,27,0.5,17,8,105,68,33,—
湖州市,仁皇山新区,2873A,2024-11-06T1400,120.0875,30.8955,13,25,0.5,17,7,109,74,35,—
湖州市,吴兴区站,2907A,2024-11-06T1400,120.1844,30.8596,17,26,0.6,13,8,96,74,30,—
湖州市,南浔区站,3562A,2024-11-06T1400,120.4148,30.8538,10,16,0.3,19,4,90,68,29,—
葫芦岛市,龙港区,1607A,2024-11-06T1400,120.9092,40.7136,16,33,0.5,9,13,81,41,33,—
葫芦岛市,化工街,1608A,2024-11-06T1400,120.8392,40.7514,17,27,0.0,13,22,74,35,27,—
葫芦岛市,新区,1609A,2024-11-06T1400,120.8341,40.7073,21,30,0.5,14,17,85,39,30,—
葫芦岛市,东城区,1610A,2024-11-06T1400,120.8695,40.7677,23,51,0.5,13,14,81,37,51,颗粒物(PM10)
怀化市,林科所,2482A,2024-11-06T1400,109.5981,27.5721,36,53,0.9,13,11,129,105,52,"颗粒物(PM10),细颗粒物(PM2.5)"
怀化市,河西地税局,2483A,2024-11-06T1400,109.9453,27.5444,42,69,0.6,13,11,131,92,60,颗粒物(PM10)
怀化市,市四医院,2484A,2024-11-06T1400,109.9781,27.5342,26,68,0.6,8,10,133,103,59,颗粒物(PM10)
怀化市,监测楼,2485A,2024-11-06T1400,109.9972,27.5578,29,49,0.5,10,3,134,91,49,—
怀化市,市委党校,2486A,2024-11-06T1400,110.0394,27.583,41,59,0.6,10,6,129,83,58,细颗粒物(PM2.5)
淮安市,钵池山,1210A,2024-11-06T1400,119.036,33.5981,24,31,0.5,18,6,100,59,35,—
淮安市,北京南路,1211A,2024-11-06T1400,119.007,33.575,24,39,0.4,18,8,102,57,39,—
淮安市,市监测站,1212A,2024-11-06T1400,118.989,33.6067,19,31,0.5,20,10,102,50,32,—
淮安市,楚州区监测站,1213A,2024-11-06T1400,119.135,33.5039,21,39,0.5,20,8,100,54,39,—
淮安市,淮阴区监测站,1214A,2024-11-06T1400,119.0186,33.6297,30,36,0.6,28,7,98,49,43,—
淮安市,新华书店,3426A,2024-11-06T1400,118.8755,33.2894,18,28,0.5,20,6,102,63,32,—
淮北市,监测站,2282A,2024-11-06T1400,116.8004,33.975,45,64,0.5,17,6,102,56,63,细颗粒物(PM2.5)
淮北市,烈山区政府,2283A,2024-11-06T1400,116.8091,33.9007,42,65,—,29,8,94,40,—,—
淮北市,杜集区检察院,3330A,2024-11-06T1400,116.8873,33.9836,41,72,0.4,16,6,105,54,61,颗粒物(PM10)
淮北市,市博物馆,4017A,2024-11-06T1400,116.7923,33.9535,41,66,0.5,18,9,106,58,58,"颗粒物(PM10),细颗粒物(PM2.5)"
淮南市,潘集区政府,2277A,2024-11-06T1400,116.8305,32.7727,30,52,0.4,21,10,102,63,51,颗粒物(PM10)
淮南市,师范学院,2278A,2024-11-06T1400,117.0067,32.6524,34,46,0.4,12,12,108,74,49,—
淮南市,谢家集区政府,2279A,2024-11-06T1400,116.8569,32.5951,20,47,0.4,16,9,100,61,47,—
淮南市,八公山区政府,2280A,2024-11-06T1400,116.8281,32.633,21,41,0.3,12,11,107,69,41,—
淮南市,焦岗湖风景区管理处,2281A,2024-11-06T1400,116.6325,32.6201,24,33,0.1,14,6,81,50,35,—
淮南市,经济技术开发区消防队,2894A,2024-11-06T1400,117.0566,32.6531,20,52,0.4,10,7,106,66,51,颗粒物(PM10)
淮南市,山南新区,3329A,2024-11-06T1400,117.0108,32.5893,10,39,0.3,13,4,107,76,39,—
黄冈市,职工中心,2446A,2024-11-06T1400,114.9028,30.4742,23,54,0.6,15,14,136,90,52,颗粒物(PM10)
黄冈市,红卫路,2929A,2024-11-06T1400,114.8858,30.4519,24,51,—,18,—,—,87,—,—
黄冈市,市林业局,3398A,2024-11-06T1400,114.9136,30.4445,22,60,0.6,13,13,139,96,55,颗粒物(PM10)
黄南藏族自治州,同仁县隆务镇,2672A,2024-11-06T1400,102.0199,35.5102,—,—,—,—,—,—,52,—,—
黄山市,延安路89号,2295A,2024-11-06T1400,118.2903,29.6963,23,40,0.2,5,8,116,65,40,—
黄山市,黄山东路89号,2296A,2024-11-06T1400,118.327,29.7178,22,39,0.2,9,6,112,70,39,—
黄山市,黄山区政府5号楼,2297A,2024-11-06T1400,118.1371,30.2756,19,38,0.3,9,9,110,56,38,—
黄石市,沈家营,2423A,2024-11-06T1400,115.0601,30.2313,16,51,0.7,16,24,135,86,51,颗粒物(PM10)
黄石市,陈家湾,2424A,2024-11-06T1400,115.0817,30.2006,24,42,0.5,10,11,149,95,47,—
黄石市,铁山,2426A,2024-11-06T1400,114.8988,30.2019,21,40,0.7,10,10,150,108,47,—
黄石市,团城山,2427A,2024-11-06T1400,115.0307,30.2092,12,50,0.7,17,12,138,89,50,—
黄石市,笔架山北路,3149A,2024-11-06T1400,115.0235,30.1578,17,33,0.7,13,9,145,102,46,—
惠州市,河南岸金山湖子站,1392A,2024-11-06T1400,114.4183,23.0528,32,44,0.8,5,7,133,118,46,—
惠州市,下埔横江三路子站,1393A,2024-11-06T1400,114.4053,23.0822,31,47,0.9,8,6,138,124,47,—
惠州市,江北云山西路子站,1394A,2024-11-06T1400,114.4103,23.1142,34,44,0.8,8,8,145,129,49,—
惠州市,惠阳区承修路船湖子站,1395A,2024-11-06T1400,114.4645,22.7833,33,50,0.6,8,9,131,111,50,—
惠州市,大亚湾管委会子站,1396A,2024-11-06T1400,114.5317,22.7422,35,50,0.6,10,4,142,117,50,—
惠州市,惠阳秋长,3314A,2024-11-06T1400,114.4338,22.8134,32,36,0.6,10,8,138,121,46,—
惠州市,大亚湾霞涌,3452A,2024-11-06T1400,114.6517,22.775,23,56,0.6,8,7,119,108,53,颗粒物(PM10)
鸡西市,环保局,2240A,2024-11-06T1400,130.9762,45.3001,3,11,0.1,2,6,50,46,16,—
鸡西市,第一中学,2243A,2024-11-06T1400,130.9429,45.3039,3,8,0.1,3,5,52,46,17,—
鸡西市,欧美日汽修厂,3707A,2024-11-06T1400,131.0207,45.3073,3,6,0.3,3,4,55,53,18,—
鸡西市,市政设施管理处,3709A,2024-11-06T1400,130.9967,45.3106,3,9,0.2,3,2,52,49,17,—
吉安市,红声器材厂,2367A,2024-11-06T1400,114.9754,27.0803,21,46,0.5,20,13,130,89,46,—
吉安市,市森林工业局,2368A,2024-11-06T1400,114.9658,27.0999,25,44,0.5,15,15,129,90,44,—
吉安市,市环境监测站,2369A,2024-11-06T1400,114.99,27.1312,20,42,0.5,22,12,130,91,42,—
吉安市,青原区法院,2370A,2024-11-06T1400,115.0093,27.0968,18,49,0.5,16,12,130,86,49,—
吉林市,哈达湾,1772A,2024-11-06T1400,126.54,43.8622,18,27,0.4,7,6,62,40,27,—
吉林市,东局子,1773A,2024-11-06T1400,126.5844,43.8358,18,21,0.4,11,4,58,36,26,—
吉林市,电力学院,1774A,2024-11-06T1400,126.5052,43.8245,22,26,0.5,6,5,60,36,32,—
吉林市,江北,1775A,2024-11-06T1400,126.6133,43.8972,18,27,0.5,11,9,57,34,27,—
吉林市,江南公园,1776A,2024-11-06T1400,126.555,43.8306,22,25,0.4,9,7,60,38,32,—
吉林市,丰满,1778A,2024-11-06T1400,126.7061,43.7133,14,14,0.4,3,7,62,48,20,—
吉林市,九站,2868A,2024-11-06T1400,126.4739,43.953,13,25,0.4,8,6,56,39,25,—
济南市,科干所,1299A,2024-11-06T1400,116.9862,36.6114,3,9,0.6,14,6,—,59,—,—
济南市,农科所,1300A,2024-11-06T1400,116.9376,36.665,3,15,0.6,28,4,82,40,26,—
济南市,开发区,1301A,2024-11-06T1400,117.1265,36.6734,10,24,0.4,25,4,84,47,27,—
济南市,省种子仓库,1303A,2024-11-06T1400,117.0624,36.6868,3,19,0.3,18,2,91,44,29,—
济南市,机床二厂,1304A,2024-11-06T1400,116.9489,36.6447,3,27,0.4,19,4,90,48,29,—
济南市,市监测站,1305A,2024-11-06T1400,117.0495,36.663,3,17,0.6,16,4,98,50,31,—
济南市,长清党校,1306A,2024-11-06T1400,116.7675,36.5484,20,24,0.7,22,9,94,63,30,—
济南市,技术学院,1616A,2024-11-06T1400,117.6795,36.229,17,22,0.8,20,8,86,43,27,—
济南市,东山小学,1961A,2024-11-06T1400,117.532,36.6868,3,27,0.8,21,9,77,47,27,—
济南市,泰兴公司,3059A,2024-11-06T1400,117.7161,36.2049,14,22,0.4,18,9,92,45,29,—
济南市,莱芜战役纪念馆,3064A,2024-11-06T1400,117.6867,36.2171,12,31,0.6,24,8,88,43,31,—
济南市,济阳区政府,3494A,2024-11-06T1400,117.1673,36.9782,3,27,0.3,18,5,70,37,27,—
济南市,锦屏中学,3495A,2024-11-06T1400,117.1171,36.63,3,17,0.3,29,5,90,68,29,—
济南市,济南四建,3682A,2024-11-06T1400,116.9814,36.6819,3,—,0.5,13,2,89,43,28,—
济宁市,火炬城,1653A,2024-11-06T1400,116.6251,35.4302,22,35,0.5,18,10,95,48,35,—
济宁市,电化厂,1655A,2024-11-06T1400,116.5491,35.4042,12,20,0.5,18,9,97,48,31,—
济宁市,北湖一中,3500A,2024-11-06T1400,116.5814,35.3707,17,33,0.5,17,6,102,48,33,—
济宁市,服务中心,3501A,2024-11-06T1400,116.8249,35.5593,9,46,0.6,21,10,88,43,46,—
济宁市,市第七中学,3678A,2024-11-06T1400,116.5907,35.4054,19,43,0.6,13,5,102,51,43,—
佳木斯市,佳纺,2255A,2024-11-06T1400,130.2751,46.8028,9,11,0.4,9,5,50,42,16,—
佳木斯市,发电厂,2256A,2024-11-06T1400,130.3995,46.8307,3,6,—,2,4,53,47,—,—
佳木斯市,环保局,2257A,2024-11-06T1400,130.3258,46.7975,6,14,0.3,6,8,50,38,16,—
佳木斯市,十一中,2258A,2024-11-06T1400,130.3648,46.8032,8,—,0.4,6,4,53,45,17,—
佳木斯市,四丰,2259A,2024-11-06T1400,130.3794,46.7588,—,—,0.1,—,1,49,45,—,—
嘉兴市,清河小学,1252A,2024-11-06T1400,120.7436,30.778,3,15,0,16,8,90,70,29,—
嘉兴市,嘉兴学院,1253A,2024-11-06T1400,120.726,30.7478,7,20,0.4,13,4,86,69,27,—
嘉兴市,南湖区残联,2872A,2024-11-06T1400,120.7846,30.7525,7,26,0.2,17,6,97,74,31,—
嘉兴市,秀洲住建,3407A,2024-11-06T1400,120.6916,30.7739,10,22,0.2,12,8,89,69,28,—
嘉峪关市,气象局,1945A,2024-11-06T1400,98.2908,39.7711,17,127,0.8,25,43,74,53,89,颗粒物(PM10)
嘉峪关市,酒钢宾馆,2884A,2024-11-06T1400,98.2672,39.7978,17,46,1.1,28,52,78,52,46,—
嘉峪关市,雄关区,3248A,2024-11-06T1400,98.2643,39.7724,6,34,1.0,—,28,75,55,—,—
江门市,北街,1383A,2024-11-06T1400,113.1064,22.6058,41,72,0.7,18,7,195,138,94,臭氧1小时
江门市,西区,1384A,2024-11-06T1400,113.0731,22.5835,31,73,0.5,19,7,195,135,94,臭氧1小时
江门市,圭峰西,1385A,2024-11-06T1400,113.0219,22.5311,43,72,0.5,22,5,192,136,90,臭氧1小时
江门市,东湖,1386A,2024-11-06T1400,113.0828,22.5947,44,66,0.6,17,7,195,136,94,臭氧1小时
江门市,江海富民,3311A,2024-11-06T1400,113.1075,22.5647,31,68,0.7,20,7,192,136,90,臭氧1小时
江门市,新会银湖,3449A,2024-11-06T1400,113.05,22.4667,43,59,0.5,19,6,196,137,95,臭氧1小时
焦作市,市环保局,1828A,2024-11-06T1400,113.227,35.2125,64,88,0.3,28,6,99,54,87,细颗粒物(PM2.5)
焦作市,影视城,1830A,2024-11-06T1400,113.1992,35.2590,76,77,0.9,19,15,110,82,102,细颗粒物(PM2.5)
焦作市,太极体育中心,3169A,2024-11-06T1400,113.2725,35.2067,49,98,0.4,25,6,95,45,74,颗粒物(PM10)
焦作市,马村街道办,3335A,2024-11-06T1400,113.3137,35.2641,68,93,0.4,23,16,99,57,92,细颗粒物(PM2.5)
焦作市,焦作技师学院,3336A,2024-11-06T1400,113.2465,35.2373,—,—,—,—,—,—,50,—,—
焦作市,中站许衡医院,3477A,2024-11-06T1400,113.1656,35.2539,51,93,0.4,14,11,103,64,72,颗粒物(PM10)
焦作市,原李万街道办,3981A,2024-11-06T1400,113.2449,35.1803,53,124,0.3,29,3,76,30,87,颗粒物(PM10)
揭阳市,新兴,1708A,2024-11-06T1400,116.3701,23.5345,28,48,0.7,14,8,120,93,48,—
揭阳市,西马,1709A,2024-11-06T1400,116.3264,23.5443,26,47,0.7,9,9,128,96,47,—
揭阳市,东兴,1710A,2024-11-06T1400,116.3611,23.5626,27,50,0.9,9,11,123,92,50,—
揭阳市,渔湖,1711A,2024-11-06T1400,116.4151,23.5294,30,49,0.7,12,9,120,95,49,—
揭阳市,曲溪,3320A,2024-11-06T1400,116.403,23.5699,34,54,0.8,14,15,124,92,52,颗粒物(PM10)
金昌市,天庆家园,1944A,2024-11-06T1400,102.1692,38.5167,94,176,0.5,44,88,124,57,124,细颗粒物(PM2.5)
金昌市,市委党校,3170A,2024-11-06T1400,102.1864,38.5253,99,194,0.9,33,27,112,61,130,细颗粒物(PM2.5)
金昌市,金川区人防中心,4022A,2024-11-06T1400,102.1647,38.5371,133,208,0.8,—,72,116,58,176,细颗粒物(PM2.5)
金华市,十五中,1262A,2024-11-06T1400,119.647,29.077,23,42,0.4,22,5,116,66,42,—
金华市,监测站,1263A,2024-11-06T1400,119.686,29.1029,20,44,0.5,17,5,112,62,44,—
金华市,气象局,3659A,2024-11-06T1400,119.656,29.1131,16,40,0.6,25,6,112,62,40,—
锦州市,南山,1767A,2024-11-06T1400,121.1115,41.0879,22,46,0.4,20,19,57,34,46,—
锦州市,开发区,1768A,2024-11-06T1400,121.0533,40.8434,24,—,0.6,15,10,87,36,35,—
锦州市,百股街道,1769A,2024-11-06T1400,121.1836,41.1119,19,83,0.5,15,20,56,32,67,颗粒物(PM10)
锦州市,天安街道,1770A,2024-11-06T1400,121.1178,41.1222,22,39,0.6,18,17,55,32,39,—
锦州市,北湖公园,1771A,2024-11-06T1400,121.1303,41.1386,23,28,0.5,19,17,54,32,33,—
晋城市,自来水公司,2160A,2024-11-06T1400,112.85,35.5051,24,59,0.7,19,9,125,54,55,颗粒物(PM10)
晋城市,白云商贸,2161A,2024-11-06T1400,112.8318,35.4936,34,75,0.5,21,8,124,59,63,颗粒物(PM10)
晋城市,市环保局,2162A,2024-11-06T1400,112.8508,35.4887,29,51,0.6,—,8,123,60,—,—
晋城市,技术学院,2163A,2024-11-06T1400,112.8676,35.4897,24,57,0.6,20,7,126,54,54,颗粒物(PM10)
晋城市,白马寺,2165A,2024-11-06T1400,112.8453,35.546,35,75,0.6,14,12,122,49,63,颗粒物(PM10)
晋城市,泽州一中,3620A,2024-11-06T1400,112.8271,35.4828,39,56,0.8,18,8,114,53,55,细颗粒物(PM2.5)
晋中市,锦纶小区,2171A,2024-11-06T1400,112.7532,37.6945,46,95,1.1,36,14,93,48,73,颗粒物(PM10)
晋中市,南都小区,2173A,2024-11-06T1400,112.7249,37.7067,35,78,0.8,33,13,93,40,64,颗粒物(PM10)
晋中市,榆次区政府,2174A,2024-11-06T1400,112.6991,37.6982,34,90,0.7,41,12,84,38,70,颗粒物(PM10)
晋中市,榆次三中,2865A,2024-11-06T1400,112.7195,37.6828,51,95,1.0,34,16,88,46,73,颗粒物(PM10)
荆门市,竹园小学,2439A,2024-11-06T1400,112.2014,31.0481,58,82,0.6,19,16,136,73,79,细颗粒物(PM2.5)
荆门市,掇刀,2440A,2024-11-06T1400,112.1969,30.9891,61,—,0.5,22,12,141,92,—,—
荆门市,石化一小,2441A,2024-11-06T1400,112.2213,31.0386,64,93,0.6,21,16,137,80,87,细颗粒物(PM2.5)
荆门市,西山林语,3012A,2024-11-06T1400,112.1849,31.0362,53,86,0.4,24,11,140,90,73,细颗粒物(PM2.5)
荆门市,龙泉中学南校,3547A,2024-11-06T1400,112.1632,31.0138,56,89,0.6,22,14,150,87,77,细颗粒物(PM2.5)
荆州市,市图书馆,1844A,2024-11-06T1400,112.2494,30.3197,56,62,0.7,26,10,131,75,77,细颗粒物(PM2.5)
荆州市,市委党校,1845A,2024-11-06T1400,112.2008,30.3544,51,57,0.7,18,8,146,74,70,细颗粒物(PM2.5)
荆州市,管委会,3194A,2024-11-06T1400,112.2747,30.3122,52,58,0.7,24,15,133,73,72,细颗粒物(PM2.5)
荆州市,学苑路,3548A,2024-11-06T1400,112.1655,30.3364,48,90,—,16,12,143,76,—,—
景德镇市,王港中学,2342A,2024-11-06T1400,117.3102,29.3867,—,—,—,—,—,—,—,—,—
景德镇市,老干部活动中心,2343A,2024-11-06T1400,117.2117,29.2933,13,24,0.2,6,6,108,79,34,—
景德镇市,兽医站,2344A,2024-11-06T1400,117.1894,29.2789,19,41,0.1,6,7,103,77,41,—
景德镇市,台达陶瓷,2345A,2024-11-06T1400,117.1547,29.2617,12,30,0.4,9,6,96,73,30,—
景德镇市,陶研所,2346A,2024-11-06T1400,117.2461,29.2956,9,22,0.2,5,5,107,64,34,—
九江市,十里,1803A,2024-11-06T1400,115.9872,29.6815,26,43,0.6,19,9,127,79,43,—
九江市,茅山头,1804A,2024-11-06T1400,115.9584,29.7046,24,52,0.6,17,9,118,78,51,颗粒物(PM10)
九江市,西园,1805A,2024-11-06T1400,115.9877,29.7295,19,54,0.4,19,10,126,87,52,颗粒物(PM10)
九江市,五七二七厂,1806A,2024-11-06T1400,116.0172,29.6547,25,52,0.7,16,11,120,82,51,颗粒物(PM10)
九江市,综合工业园,1808A,2024-11-06T1400,115.9114,29.6038,32,49,0.5,18,17,127,83,49,—
九江市,石化总厂,1809A,2024-11-06T1400,116.0721,29.7535,28,51,0.7,21,12,122,78,51,颗粒物(PM10)
九江市,庐山气象台,1810A,2024-11-06T1400,115.9773,29.5698,17,20,1.4,3,6,132,120,42,—
九江市,外国语学校,3190A,2024-11-06T1400,116.0254,29.6994,22,43,0.5,16,13,123,77,43,—
酒泉市,仓门街子站,2658A,2024-11-06T1400,98.5061,39.7443,29,95,0.6,23,65,80,46,73,颗粒物(PM10)
酒泉市,油田生活基地,2659A,2024-11-06T1400,98.4989,39.7256,35,114,0.6,32,61,73,45,82,颗粒物(PM10)
喀什地区,巡警大队,2698A,2024-11-06T1400,76.0072,39.4467,38,168,0.7,31,9,79,20,109,颗粒物(PM10)
喀什地区,吾办,2699A,2024-11-06T1400,75.9755,39.4694,55,182,0.8,28,5,—,11,116,颗粒物(PM10)
喀什地区,老干局,4027A,2024-11-06T1400,75.9483,39.4689,39,203,0.8,29,5,87,25,127,颗粒物(PM10)
开封市,肿瘤医院,1824A,2024-11-06T1400,114.3389,34.7781,57,82,0.5,22,8,114,54,78,细颗粒物(PM2.5)
开封市,世纪星幼儿园,1826A,2024-11-06T1400,114.2885,34.7965,65,67,0.4,18,4,122,65,88,细颗粒物(PM2.5)
开封市,龙亭公园,3147A,2024-11-06T1400,114.3438,34.8106,67,73,0.6,16,5,120,58,90,细颗粒物(PM2.5)
开封市,汴京公园,3210A,2024-11-06T1400,114.3644,34.7964,63,86,0.4,17,7,116,59,85,细颗粒物(PM2.5)
开封市,技师学院,3473A,2024-11-06T1400,114.2485,34.8306,60,87,0.3,17,6,122,65,82,细颗粒物(PM2.5)
开封市,祥符区生态环境局,3592A,2024-11-06T1400,114.4644,34.7556,67,103,0.5,20,6,117,54,90,细颗粒物(PM2.5)
克拉玛依市,长征新村,1951A,2024-11-06T1400,84.895,45.6094,19,62,0.5,24,8,25,21,56,颗粒物(PM10)
克拉玛依市,南林小区,1952A,2024-11-06T1400,84.8988,45.5893,22,58,0.6,21,3,32,11,54,颗粒物(PM10)
克拉玛依市,独山子区,1954A,2024-11-06T1400,84.905,44.3396,28,58,0.7,19,23,75,81,54,颗粒物(PM10)
克拉玛依市,乌尔禾区商贸楼,1955A,2024-11-06T1400,85.6979,46.098,21,38,0.5,16,5,52,24,38,—
克拉玛依市,白碱滩区新站,3612A,2024-11-06T1400,85.1045,45.6899,16,55,0.4,18,9,40,13,53,颗粒物(PM10)
克孜勒苏柯尔克孜自治州,市人民政府,2697A,2024-11-06T1400,76.1454,39.7142,73,176,0.8,22,27,89,77,113,颗粒物(PM10)
克孜勒苏柯尔克孜自治州,克州文化中心,3665A,2024-11-06T1400,76.1658,39.7157,64,159,0.9,30,19,91,76,105,颗粒物(PM10)
昆明市,呈贡新区,1450A,2024-11-06T1400,102.8204,24.8886,33,—,0.6,10,4,84,74,48,—
昆明市,西山森林公园,1451A,2024-11-06T1400,102.6251,24.9608,—,—,—,—,—,—,—,—,—
昆明市,龙泉镇,1452A,2024-11-06T1400,102.7252,25.0902,29,53,0.7,19,7,79,50,52,颗粒物(PM10)
昆明市,东风东路,1453A,2024-11-06T1400,102.7266,25.0375,34,47,0.7,17,7,76,57,49,—
昆明市,金鼎山,1454A,2024-11-06T1400,102.6742,25.0669,30,53,0.6,—,—,89,56,—,—
昆明市,碧鸡广场,1455A,2024-11-06T1400,102.6644,25.0401,30,39,0.5,16,4,86,57,43,—
昆明市,官渡区博物馆,3179A,2024-11-06T1400,102.7494,25.0119,33,54,0.5,13,6,88,59,52,颗粒物(PM10)
昆明市,青年创业园,3375A,2024-11-06T1400,102.8017,24.8336,28,34,0.5,8,4,90,65,40,—
昆明市,昆明学院,3550A,2024-11-06T1400,102.7997,24.9786,28,40,0.5,16,6,92,70,40,—
昆明市,晋宁区生态环境分局,3551A,2024-11-06T1400,102.5967,24.6736,29,—,0.7,7,2,93,69,42,—
昆明市,云天化总部,3552A,2024-11-06T1400,102.6678,24.9856,29,38,0.4,8,4,99,66,42,—
拉萨市,八廓街,1456A,2024-11-06T1400,91.1319,29.6514,—,—,—,—,—,—,79,—,—
拉萨市,市环保局,1457A,2024-11-06T1400,91.1221,29.6747,13,28,0.2,14,7,106,77,34,—
拉萨市,区监测站,1458A,2024-11-06T1400,91.0874,29.6475,7,12,0.4,11,5,98,71,31,—
拉萨市,西藏大学,1459A,2024-11-06T1400,91.1774,29.6541,7,8,0.6,5,2,108,76,34,—
拉萨市,区辐射站,1460A,2024-11-06T1400,90.9798,29.6588,7,11,0.3,13,8,93,79,30,—
拉萨市,拉萨火车站,1461A,2024-11-06T1400,91.0834,29.6292,3,11,0.4,11,5,93,73,30,—
来宾市,来宾技工学校,2520A,2024-11-06T1400,109.2203,23.7256,49,74,0.8,13,6,164,134,68,细颗粒物(PM2.5)
来宾市,兴宾区政府,3535A,2024-11-06T1400,109.1781,23.7297,49,74,0.9,11,6,165,136,68,细颗粒物(PM2.5)
来宾市,中南小学,4002A,2024-11-06T1400,109.2416,23.7461,49,74,0.8,8,3,164,128,68,细颗粒物(PM2.5)
兰州市,兰炼宾馆,1476A,2024-11-06T1400,103.631,36.1031,50,92,1.2,53,23,78,32,71,颗粒物(PM10)
兰州市,榆中兰大校区,1477A,2024-11-06T1400,104.1373,35.9454,—,—,—,—,—,—,—,—,—
兰州市,生物制品所,1478A,2024-11-06T1400,103.8412,36.0726,37,61,1.0,40,28,69,25,56,颗粒物(PM10)
兰州市,铁路设计院,1479A,2024-11-06T1400,103.831,36.0464,51,84,1.1,41,21,63,22,70,细颗粒物(PM2.5)
兰州市,教育港,3186A,2024-11-06T1400,103.7158,36.1058,50,84,1.0,41,18,56,22,69,细颗粒物(PM2.5)
兰州市,百合公园,3241A,2024-11-06T1400,103.7439,36.0842,24,66,0.9,44,20,63,24,58,颗粒物(PM10)
兰州市,和平,3242A,2024-11-06T1400,103.9611,35.998,—,—,—,19,—,98,43,—,—
兰州新区,新区管委会,3245A,2024-11-06T1400,103.6633,36.533,31,58,0.6,17,23,101,49,54,颗粒物(PM10)
兰州新区,舟曲中学,3246A,2024-11-06T1400,103.6975,36.4789,44,81,0.6,17,24,99,41,66,颗粒物(PM10)
廊坊市,药材公司,1067A,2024-11-06T1400,116.6708,39.5111,58,94,0.7,70,7,32,16,79,细颗粒物(PM2.5)
廊坊市,开发区,1068A,2024-11-06T1400,116.7214,39.5589,51,85,0.5,59,7,36,13,70,细颗粒物(PM2.5)
廊坊市,北华航天学院,1070A,2024-11-06T1400,116.7244,39.5269,49,78,0.6,56,8,40,17,68,细颗粒物(PM2.5)
廊坊市,河北工业大学,2919A,2024-11-06T1400,116.7022,39.5453,53,73,0.5,55,8,40,17,73,细颗粒物(PM2.5)
乐山市,花湖湾,2535A,2024-11-06T1400,103.7723,29.5462,45,55,0.7,18,5,53,35,63,细颗粒物(PM2.5)
乐山市,牛耳桥,2536A,2024-11-06T1400,103.7627,29.5844,58,60,—,—,5,58,29,—,—
乐山市,市第三水厂,2537A,2024-11-06T1400,103.7508,29.6006,48,62,0.6,17,6,67,38,67,细颗粒物(PM2.5)
乐山市,市监测站,2538A,2024-11-06T1400,103.7571,29.5664,45,53,0.7,17,6,60,35,63,细颗粒物(PM2.5)
乐山市,理工大学,3361A,2024-11-06T1400,103.7311,29.5628,56,64,0.7,18,6,63,33,77,细颗粒物(PM2.5)
丽江市,西南郊,2598A,2024-11-06T1400,100.2143,26.8576,21,21,1.0,5,8,84,55,30,—
丽江市,丽江古城,2599A,2024-11-06T1400,100.2497,26.8802,9,22,0.5,8,10,75,57,24,—
丽江市,市中心,2600A,2024-11-06T1400,100.2203,26.8906,15,19,0.6,7,9,78,57,25,—
丽水市,监测站大楼,1267A,2024-11-06T1400,119.914,28.4514,6,34,0.1,11,1,119,64,38,—
丽水市,莲都小学,1268A,2024-11-06T1400,119.93,28.4586,10,28,0.3,15,6,122,63,39,—
丽水市,余庄前,1269A,2024-11-06T1400,119.879,28.4231,17,23,0.3,11,7,128,65,40,—
连云港市,市环境监测站,1173A,2024-11-06T1400,119.176,34.5885,3,27,0.2,11,8,99,52,31,—
连云港市,德源药业,3000A,2024-11-06T1400,119.3581,34.6972,—,—,—,—,—,—,33,—,—
连云港市,新城一中,3007A,2024-11-06T1400,119.178,34.844,16,52,1.5,28,17,87,44,51,颗粒物(PM10)
连云港市,胡沟管理处,3008A,2024-11-06T1400,119.3608,34.7519,3,19,0.2,10,10,96,58,30,—
连云港市,矿山设计院,3009A,2024-11-06T1400,119.1478,34.5911,7,31,0.5,18,7,94,48,31,—
连云港市,工贸学校,3434A,2024-11-06T1400,119.2413,34.6539,10,22,0.3,11,8,100,54,32,—
连云港市,连云街道,3664A,2024-11-06T1400,119.4172,34.7341,13,22,0.3,10,7,96,64,30,—
凉山彝族自治州,青龙寺,2571A,2024-11-06T1400,102.3431,27.8099,8,18,0.8,5,10,73,29,23,—
凉山彝族自治州,邛海宾馆,2572A,2024-11-06T1400,102.2721,27.8415,28,40,1.1,10,12,60,22,40,—
凉山彝族自治州,西昌市政府,2573A,2024-11-06T1400,102.2625,27.898,24,35,1.0,8,8,69,25,35,—
凉山彝族自治州,凉山州政府,2574A,2024-11-06T1400,102.2685,27.8851,30,51,0.7,8,9,67,28,51,颗粒物(PM10)
凉山彝族自治州,长安,2575A,2024-11-06T1400,102.237,27.8914,29,56,0.9,15,15,60,22,53,颗粒物(PM10)
辽阳市,宏伟区,2212A,2024-11-06T1400,123.2,41.1953,19,28,0.3,10,9,59,33,28,—
辽阳市,新华园,2213A,2024-11-06T1400,123.1683,41.2495,17,—,0.4,12,8,56,32,25,—
辽阳市,滨河路,2214A,2024-11-06T1400,123.2354,41.2639,14,48,0.3,11,18,56,29,48,—
辽阳市,铁西工业园,2215A,2024-11-06T1400,123.149,41.2991,17,20,0.5,12,15,52,27,25,—
辽源市,环保局,2227A,2024-11-06T1400,125.1358,42.8845,11,31,0.4,7,6,66,41,31,—
辽源市,银鹰制药,3239A,2024-11-06T1400,125.0764,42.9078,7,8,0.4,8,6,65,43,21,—
聊城市,区政府,1625A,2024-11-06T1400,115.9848,36.4372,20,50,0.7,17,12,83,48,50,—
聊城市,聊大东校,2878A,2024-11-06T1400,116.0072,36.4343,31,46,0.6,19,11,88,50,46,—
聊城市,监控中心,3200A,2024-11-06T1400,115.9819,36.4978,24,42,0.5,22,12,86,46,42,—
聊城市,九州社区,3513A,2024-11-06T1400,116.0445,36.4361,9,46,0.6,24,9,87,46,46,—
聊城市,星美广场,4018A,2024-11-06T1400,116.0567,36.4608,17,53,0.5,18,10,94,55,52,颗粒物(PM10)
林芝市,林芝监测站,2632A,2024-11-06T1400,94.3681,29.6376,3,14,0.3,4,7,79,71,25,—
林芝市,林芝人民医院,2633A,2024-11-06T1400,94.3616,29.6616,3,8,0.4,2,6,80,69,25,—
临沧市,市环保局,2603A,2024-11-06T1400,100.0781,23.8982,24,27,0.7,12,8,56,29,35,—
临沧市,市气象局,2604A,2024-11-06T1400,100.0894,23.8822,27,—,0.6,9,8,60,27,39,—
临汾市,临钢医院,1733A,2024-11-06T1400,111.5531,36.0783,44,79,0.9,29,14,104,36,65,颗粒物(PM10)
临汾市,技工学校,1734A,2024-11-06T1400,111.5028,36.0714,44,66,0.9,25,15,108,44,62,细颗粒物(PM2.5)
临汾市,市委,1736A,2024-11-06T1400,111.5018,36.0855,43,70,0.9,25,17,110,47,60,"颗粒物(PM10),细颗粒物(PM2.5)"
临汾市,唐尧大酒店,3018A,2024-11-06T1400,111.505,36.1014,41,70,0.9,27,15,108,44,60,颗粒物(PM10)
临汾市,城南,3668A,2024-11-06T1400,111.5036,36.0414,45,74,0.9,32,15,110,40,63,细颗粒物(PM2.5)
临夏回族自治州,环保局,2667A,2024-11-06T1400,103.2069,35.5993,8,47,0.5,12,9,86,32,47,—
临夏回族自治州,建设大厦,2668A,2024-11-06T1400,103.2417,35.6057,17,30,0.3,6,8,96,41,30,—
临沂市,沂河小区,1618A,2024-11-06T1400,118.3429,35.0532,27,44,—,22,8,84,50,—,—
临沂市,鲁南制药厂,1619A,2024-11-06T1400,118.295,35.0583,21,34,0.6,26,5,80,45,34,—
临沂市,新光毛纺厂,1620A,2024-11-06T1400,118.2794,34.9976,20,24,0.6,24,8,90,51,29,—
临沂市,河东保险公司,1621A,2024-11-06T1400,118.3956,35.0888,14,34,0.6,20,5,87,45,34,—
临沂市,十里堡居委,3370A,2024-11-06T1400,118.3564,35.0215,12,22,0.3,19,6,91,47,29,—
临沂市,南坊新区,3496A,2024-11-06T1400,118.3604,35.1084,22,36,0.6,30,5,87,51,36,—
临沂市,皇山花园小区,3860A,2024-11-06T1400,118.3920,35.0300,17,29,0.3,20,4,85,42,29,—
柳州市,柳东小学,1870A,2024-11-06T1400,109.4856,24.3895,46,58,0.5,7,9,143,132,64,细颗粒物(PM2.5)
柳州市,环保监测站,1871A,2024-11-06T1400,109.4157,24.3277,48,60,0.7,10,10,144,129,67,细颗粒物(PM2.5)
柳州市,河西水厂,1872A,2024-11-06T1400,109.389,24.341,45,65,1.0,9,9,144,124,63,细颗粒物(PM2.5)
柳州市,市四中,1873A,2024-11-06T1400,109.4311,24.2921,41,79,0.7,9,9,150,139,65,颗粒物(PM10)
柳州市,市九中,1874A,2024-11-06T1400,109.4006,24.3631,59,61,0.8,7,7,146,118,80,细颗粒物(PM2.5)
柳州市,古亭山,1875A,2024-11-06T1400,109.4958,24.3134,40,80,1.0,15,11,149,142,65,颗粒物(PM10)
柳州市,市二中,3402A,2024-11-06T1400,109.5422,24.3996,38,71,0.8,14,10,144,130,61,颗粒物(PM10)
六安市,监测大楼,2307A,2024-11-06T1400,116.5079,31.737,28,53,0.6,24,8,104,68,52,颗粒物(PM10)
六安市,皖西学院,2308A,2024-11-06T1400,116.4738,31.7643,26,79,0.7,22,8,108,61,65,颗粒物(PM10)
六安市,朝阳厂,2309A,2024-11-06T1400,116.4996,31.7905,36,65,0.6,23,6,106,57,58,颗粒物(PM10)
六安市,开发区,2310A,2024-11-06T1400,116.5567,31.7886,34,66,0.5,20,7,110,56,58,颗粒物(PM10)
六盘水市,窑上,2576A,2024-11-06T1400,104.8,26.5892,33,43,0.6,8,5,69,58,48,—
六盘水市,黄土坡,2577A,2024-11-06T1400,104.83,26.5917,30,46,0.7,14,—,72,64,—,—
六盘水市,水钢,2578A,2024-11-06T1400,104.89,26.5939,46,69,0.5,10,3,82,71,64,细颗粒物(PM2.5)
六盘水市,民中,2579A,2024-11-06T1400,104.8475,26.5894,31,38,0.6,12,7,75,65,45,—
六盘水市,双水,2580A,2024-11-06T1400,104.9544,26.5506,26,34,0.4,10,6,83,74,38,—
龙岩市,龙岩师专,2335A,2024-11-06T1400,117.0189,25.1181,—,—,—,—,—,—,—,—,—
龙岩市,龙岩市监测站,2336A,2024-11-06T1400,117.0217,25.1033,19,32,0.4,8,2,110,98,35,—
龙岩市,闽西职业技术学院,2337A,2024-11-06T1400,117.0258,25.0661,19,28,0.5,3,2,112,100,35,—
龙岩市,龙岩学院,2338A,2024-11-06T1400,117.0196,25.0306,17,32,0.5,5,5,111,100,35,—
陇南市,汉王镇固水子,2665A,2024-11-06T1400,105.0822,33.3261,—,—,—,—,—,—,—,—,—
陇南市,滨江中学,2885A,2024-11-06T1400,104.9339,33.3826,18,41,0.6,11,8,58,31,41,—
陇南市,市总工会,3247A,2024-11-06T1400,104.955,33.371,11,40,0.6,10,8,61,38,40,—
娄底市,电视发射台,2487A,2024-11-06T1400,111.9589,27.8901,37,50,1.6,15,8,132,100,53,细颗粒物(PM2.5)
娄底市,市监测站,2488A,2024-11-06T1400,111.9975,27.725,41,63,0.5,9,5,140,93,58,细颗粒物(PM2.5)
娄底市,市委党校,2489A,2024-11-06T1400,112.0194,27.7314,37,63,0.5,13,4,132,94,57,颗粒物(PM10)
娄底市,涟钢,2490A,2024-11-06T1400,111.9561,27.7569,27,38,0.7,13,11,133,88,42,—
娄底市,市政府,2491A,2024-11-06T1400,111.9892,27.7044,33,50,0.7,12,8,134,78,50,—
泸州市,九狮山,1893A,2024-11-06T1400,105.4324,28.9634,44,85,0.5,22,5,8,5,68,颗粒物(PM10)
泸州市,小市上码头,1894A,2024-11-06T1400,105.4427,28.9063,68,99,0.7,31,5,12,19,92,细颗粒物(PM2.5)
泸州市,兰田宪桥,1895A,2024-11-06T1400,105.4241,28.8573,61,72,0.7,19,5,22,16,83,细颗粒物(PM2.5)
泸州市,市环监站,1896A,2024-11-06T1400,105.4379,28.8833,74,96,0.7,28,6,12,19,99,细颗粒物(PM2.5)
泸州市,纳溪区环保局,3490A,2024-11-06T1400,105.3617,28.7703,52,65,0.7,21,4,23,9,72,细颗粒物(PM2.5)
吕梁市,环保局,2183A,2024-11-06T1400,111.1406,37.5211,18,42,0.7,23,6,81,34,42,—
吕梁市,自来水公司,2185A,2024-11-06T1400,111.1297,37.5136,13,51,0.8,24,6,78,32,51,颗粒物(PM10)
吕梁市,马茂庄小学,2867A,2024-11-06T1400,111.1283,37.51,18,63,0.9,29,7,79,35,57,颗粒物(PM10)
洛阳市,市委党校,1812A,2024-11-06T1400,112.3931,34.6516,65,97,0.5,39,9,80,29,88,细颗粒物(PM2.5)
洛阳市,豫西宾馆,1814A,2024-11-06T1400,112.4657,34.6871,52,110,0.4,32,10,96,37,80,颗粒物(PM10)
洛阳市,河南林校,1815A,2024-11-06T1400,112.494,34.6886,73,91,0.1,30,10,77,29,98,细颗粒物(PM2.5)
洛阳市,开发区管委会,1816A,2024-11-06T1400,112.3844,34.623,71,107,0.5,34,13,77,33,95,细颗粒物(PM2.5)
洛阳市,市委新办公区,1817A,2024-11-06T1400,112.4267,34.6258,54,103,0.2,38,9,—,18,—,—
洛阳市,伊滨,3340A,2024-11-06T1400,112.6005,34.6326,53,126,0.3,43,14,64,24,88,颗粒物(PM10)
洛阳市,中移产业园,3341A,2024-11-06T1400,112.4951,34.6332,63,92,0.5,36,12,81,32,85,细颗粒物(PM2.5)
洛阳市,吉利监测站,3593A,2024-11-06T1400,112.5736,34.8993,66,91,0.4,30,13,77,37,89,细颗粒物(PM2.5)
洛阳市,河科大西苑校区,3635A,2024-11-06T1400,112.3677,34.662,57,94,0.5,32,8,86,32,78,细颗粒物(PM2.5)
洛阳市,英才小学,3636A,2024-11-06T1400,112.4388,34.6781,45,98,0.4,32,9,84,30,74,颗粒物(PM10)
漯河市,三五一五工厂,2399A,2024-11-06T1400,114.051,33.5699,71,105,0.5,18,8,124,61,95,细颗粒物(PM2.5)
漯河市,漯河大学,2400A,2024-11-06T1400,114.0055,33.5698,61,112,0.5,18,8,128,68,83,细颗粒物(PM2.5)
漯河市,市水利局,2401A,2024-11-06T1400,114.0138,33.5828,63,112,0.5,15,9,124,64,85,细颗粒物(PM2.5)
漯河市,市广电局,2402A,2024-11-06T1400,114.0261,33.5698,68,93,0.5,16,9,128,69,92,细颗粒物(PM2.5)
漯河市,市图书馆,3478A,2024-11-06T1400,113.9749,33.5664,57,108,0.6,12,7,126,63,79,颗粒物(PM10)
漯河市,召陵区卫健委,3479A,2024-11-06T1400,114.0967,33.5906,56,108,0.5,15,12,123,56,79,颗粒物(PM10)
马鞍山市,湖东路四小,1798A,2024-11-06T1400,118.5092,31.6837,9,32,0.5,8,4,102,68,32,—
马鞍山市,开发区,1799A,2024-11-06T1400,118.5024,31.6449,12,21,0.6,19,7,98,60,31,—
马鞍山市,慈湖,1800A,2024-11-06T1400,118.5228,31.7231,15,—,0.5,14,8,101,70,32,—
马鞍山市,濮塘,1802A,2024-11-06T1400,118.6245,31.7241,11,14,0.6,11,7,104,70,33,—
马鞍山市,雨山,3633A,2024-11-06T1400,118.4918,31.6809,11,26,0.4,10,5,100,69,32,—
茂名市,电白南海,1686A,2024-11-06T1400,111.0286,21.4688,27,53,0.6,14,7,135,102,52,颗粒物(PM10)
茂名市,茂石化七小,1687A,2024-11-06T1400,110.9294,21.6533,24,29,0.7,6,8,123,100,39,—
茂名市,健康路,1688A,2024-11-06T1400,110.9107,21.6687,22,36,0.6,6,14,136,97,43,—
茂名市,高岭,1689A,2024-11-06T1400,110.8592,21.6828,34,46,0.7,8,10,126,83,49,—
茂名市,电白水东,3450A,2024-11-06T1400,111.01,21.5165,27,34,0.7,10,9,131,101,41,—
眉山市,黑龙滩水库,2539A,2024-11-06T1400,104.0308,30.0478,44,—,0.5,4,3,56,37,62,细颗粒物(PM2.5)
眉山市,气象局,2540A,2024-11-06T1400,103.8416,30.0874,48,55,0.6,25,9,46,18,67,细颗粒物(PM2.5)
眉山市,市委党校,3137A,2024-11-06T1400,103.8578,30.0744,44,75,0.6,35,8,31,26,63,颗粒物(PM10)
眉山市,区人社局,3148A,2024-11-06T1400,103.8291,30.0564,51,70,0.9,40,5,32,30,70,细颗粒物(PM2.5)
梅州市,梅江月梅,1690A,2024-11-06T1400,116.1231,24.3284,31,37,0.7,10,9,127,105,45,—
梅州市,梅县新城,1691A,2024-11-06T1400,116.0797,24.2719,29,36,0.6,8,5,127,108,42,—
梅州市,环境监控中心,1692A,2024-11-06T1400,116.1248,24.2654,26,36,0.5,9,6,122,101,39,—
梅州市,梅龙,3315A,2024-11-06T1400,116.1233,24.2991,27,36,0.6,8,6,121,99,39,—
绵阳市,富乐山,1878A,2024-11-06T1400,104.7778,31.4741,23,28,0.5,16,2,65,37,33,—
绵阳市,市人大,1879A,2024-11-06T1400,104.7563,31.4535,26,39,0.4,16,3,68,33,39,—
绵阳市,高新区自来水公司,1880A,2024-11-06T1400,104.6697,31.4668,17,22,0.6,18,3,64,23,25,—
绵阳市,三水厂,1881A,2024-11-06T1400,104.7287,31.5075,32,45,0.6,29,5,42,26,46,—
绵阳市,西科大附属小学,3491A,2024-11-06T1400,104.69,31.5322,19,36,0.5,10,—,—,20,—,—
绵阳市,安州区旅游局,3492A,2024-11-06T1400,104.5648,31.5343,24,—,0.6,6,7,81,44,35,—
牡丹江市,环保大楼,1784A,2024-11-06T1400,129.61,44.561,22,39,0.3,9,4,53,45,39,—
牡丹江市,文化广场,1785A,2024-11-06T1400,129.6115,44.5782,29,43,0.3,10,7,53,43,43,—
牡丹江市,第一医院,1786A,2024-11-06T1400,129.5904,44.5963,40,—,0.3,6,4,61,52,57,细颗粒物(PM2.5)
牡丹江市,机车工厂,1787A,2024-11-06T1400,129.6364,44.6075,31,32,0.3,5,6,56,48,45,—
牡丹江市,第一中学,1788A,2024-11-06T1400,129.6386,44.5462,34,39,0.2,6,4,59,50,49,—
内江市,市监测站,2531A,2024-11-06T1400,105.0703,29.61,39,—,0.6,20,10,33,23,55,细颗粒物(PM2.5)
内江市,东兴区政府,2532A,2024-11-06T1400,105.0717,29.5947,24,27,0.8,16,7,48,31,35,—
内江市,内江二中,2533A,2024-11-06T1400,105.0653,29.5817,40,41,0.6,26,7,47,28,57,细颗粒物(PM2.5)
内江市,内江日报社,2534A,2024-11-06T1400,105.0406,29.5822,37,37,0.5,27,6,36,21,53,细颗粒物(PM2.5)
那曲市,那曲监测站,2628A,2024-11-06T1400,92.0657,31.4846,14,28,0.4,6,7,93,40,30,—
那曲市,那曲会议中心,3128A,2024-11-06T1400,92.0506,31.4797,3,16,0.4,5,3,89,42,28,—
南昌市,省外办,1290A,2024-11-06T1400,115.8931,28.6843,27,49,0.5,16,11,116,82,49,—
南昌市,省林业公司,1291A,2024-11-06T1400,115.8886,28.7003,17,39,0.5,11,7,120,87,39,—
南昌市,林科所,1292A,2024-11-06T1400,115.8126,28.7442,12,39,0.5,12,11,130,96,41,—
南昌市,建工学校,1294A,2024-11-06T1400,115.8518,28.687,23,31,0.3,9,10,125,91,40,—
南昌市,象湖,1295A,2024-11-06T1400,115.8921,28.6424,23,38,0.4,15,9,133,93,42,—
南昌市,武术学校,1296A,2024-11-06T1400,115.7423,28.7996,6,43,0.5,11,2,105,62,43,—
南昌市,省站,1298A,2024-11-06T1400,115.9314,28.6842,23,26,0.5,7,8,116,79,37,—
南昌市,机电学校,3046A,2024-11-06T1400,115.9084,28.6062,17,51,0.2,18,7,121,86,51,颗粒物(PM10)
南昌市,外国语学校,3690A,2024-11-06T1400,115.9721,28.7031,16,36,0.5,12,7,117,82,37,—
南充市,西山风景区,1905A,2024-11-06T1400,106.056,30.8064,29,—,0.4,10,1,35,28,42,—
南充市,南充市委,1906A,2024-11-06T1400,106.0789,30.8023,33,46,0.4,18,2,34,21,48,—
南充市,南充炼油厂,1907A,2024-11-06T1400,106.1031,30.8217,34,50,0.5,17,3,30,19,50,—
南充市,高坪区监测站,1908A,2024-11-06T1400,106.1064,30.7856,27,45,0.4,20,3,30,27,45,—
南充市,嘉陵区环保局,1909A,2024-11-06T1400,106.0642,30.7636,19,37,0.5,19,3,33,23,37,—
南充市,市环境监测站,1910A,2024-11-06T1400,106.1087,30.8388,27,48,0.4,14,4,33,24,48,—
南京市,迈皋桥,1151A,2024-11-06T1400,118.8086,32.1065,9,26,0,16,3,96,56,30,—
南京市,草场门,1152A,2024-11-06T1400,118.7538,32.0551,9,29,0.2,28,6,84,59,29,—
南京市,山西路,1153A,2024-11-06T1400,118.7794,32.0745,9,31,0.4,12,4,95,63,31,—
南京市,中华门,1154A,2024-11-06T1400,118.7752,32.0023,12,24,0.4,16,3,87,56,28,—
南京市,瑞金路,1155A,2024-11-06T1400,118.8109,32.0309,12,24,0.3,6,4,87,60,28,—
南京市,玄武湖,1156A,2024-11-06T1400,118.7997,32.0754,3,24,0.4,30,7,77,45,25,—
南京市,浦口,1157A,2024-11-06T1400,118.6414,32.0931,15,21,0.7,20,8,86,47,27,—
南京市,奥体中心,1158A,2024-11-06T1400,118.7356,31.9996,12,26,0.2,20,7,87,58,28,—
南京市,仙林大学城,1159A,2024-11-06T1400,118.9125,32.1028,12,34,0.3,14,6,99,58,34,—
南京市,江宁彩虹桥,3422A,2024-11-06T1400,118.8436,31.9198,3,19,0.5,5,5,99,61,31,—
南京市,溧水永阳,3423A,2024-11-06T1400,119.0138,31.6494,10,24,0.3,11,4,107,67,34,—
南京市,高淳老职中,3424A,2024-11-06T1400,118.879,31.3302,15,—,0.3,11,6,105,68,33,—
南京市,六合雄州,3427A,2024-11-06T1400,118.8554,32.3578,7,22,—,15,—,94,41,—,—
南宁市,二十一中,1401A,2024-11-06T1400,108.3103,22.7881,46,67,1.2,13,6,166,128,64,细颗粒物(PM2.5)
南宁市,北湖,1402A,2024-11-06T1400,108.3141,22.8528,50,73,1.0,12,7,156,112,69,细颗粒物(PM2.5)
南宁市,市监测站,1403A,2024-11-06T1400,108.3206,22.8225,48,91,—,10,8,150,109,—,—
南宁市,大自然花园,1404A,2024-11-06T1400,108.3829,22.8037,44,58,0.7,13,7,150,130,62,细颗粒物(PM2.5)
南宁市,仙葫,1405A,2024-11-06T1400,108.4394,22.7904,44,59,0.7,10,6,134,116,62,细颗粒物(PM2.5)
南宁市,区农职院,1406A,2024-11-06T1400,108.2397,22.8467,42,66,0.8,8,7,158,102,59,细颗粒物(PM2.5)
南宁市,英华嘉园,1407A,2024-11-06T1400,108.3275,22.735,40,72,0.8,14,6,150,125,61,颗粒物(PM10)
南宁市,沙井镇街道办,1408A,2024-11-06T1400,108.2257,22.7757,46,68,0.8,17,7,160,80,64,细颗粒物(PM2.5)
南宁市,红星社区,3401A,2024-11-06T1400,108.4834,22.7618,53,57,0.8,12,8,148,129,73,细颗粒物(PM2.5)
南平市,茫荡山,2331A,2024-11-06T1400,118.0966,26.6761,—,—,—,—,—,—,117,—,—
南平市,南平市监测站,2332A,2024-11-06T1400,118.1681,26.6369,19,23,0.2,4,3,109,96,35,—
南平市,南平铝业有限公司,2333A,2024-11-06T1400,118.1825,26.6489,16,27,0.3,5,3,109,98,35,—
南平市,南平七中,2334A,2024-11-06T1400,118.1756,26.6272,17,39,0.3,8,4,113,101,39,—
南通市,狼山街道,1168A,2024-11-06T1400,120.9098,31.9663,6,15,0.3,4,7,101,77,32,—
南通市,虹桥,1169A,2024-11-06T1400,120.86,32.0005,9,20,0.2,13,6,95,72,30,—
南通市,城中,1170A,2024-11-06T1400,120.87,32.02,7,22,0.4,11,6,97,75,31,—
南通市,星湖花园,1171A,2024-11-06T1400,120.94,31.93,—,—,—,8,5,52,51,—,—
南通市,紫琅学院,1172A,2024-11-06T1400,120.81,32.0417,3,14,0.2,10,4,92,64,29,—
南通市,通州监测站,3291A,2024-11-06T1400,121.067,32.062,3,14,0.2,15,2,97,72,31,—
南通市,环境教育馆,3432A,2024-11-06T1400,120.9348,31.9883,3,12,0.3,9,3,104,77,33,—
南阳市,瓦房庄,2404A,2024-11-06T1400,112.5224,33.0122,54,78,0.8,13,7,135,79,74,细颗粒物(PM2.5)
南阳市,汉画馆,2405A,2024-11-06T1400,112.5003,32.9735,19,81,0.5,16,9,132,81,66,颗粒物(PM10)
南阳市,气象站,2406A,2024-11-06T1400,112.5573,33.027,46,81,0.7,16,8,137,76,66,颗粒物(PM10)
南阳市,理工学院,2407A,2024-11-06T1400,112.5481,32.9689,49,75,0.5,13,7,131,80,68,细颗粒物(PM2.5)
南阳市,卧龙区政府,4008A,2024-11-06T1400,112.5234,32.9922,49,80,0.5,16,6,132,80,68,细颗粒物(PM2.5)
宁波市,区环保大楼,1234A,2024-11-06T1400,121.8358,29.911,6,18,0.3,12,7,88,73,28,—
宁波市,万里学院,1235A,2024-11-06T1400,121.56,29.82,3,25,0.4,14,6,98,79,31,—
宁波市,龙赛医院,1236A,2024-11-06T1400,121.713,29.9572,6,23,0.4,—,—,88,79,—,—
宁波市,钱湖水厂,1239A,2024-11-06T1400,121.633,29.7733,3,10,0.3,10,8,96,67,30,—
宁波市,太古小学,1240A,2024-11-06T1400,121.5856,29.8635,12,16,0.6,13,8,94,73,30,—
宁波市,市环境监测中心,1241A,2024-11-06T1400,121.524,29.8674,7,15,0.5,15,11,97,73,31,—
宁波市,万里国际学校,2871A,2024-11-06T1400,121.6147,29.9017,9,12,0.4,16,7,96,68,30,—
宁波市,白沙活动中心,3710A,2024-11-06T1400,121.5594,29.8975,8,20,0.5,14,9,97,75,31,—
宁德市,金涵水库,2339A,2024-11-06T1400,119.5001,26.6946,—,—,—,—,—,—,—,—,—
宁德市,宁德市监测站,2341A,2024-11-06T1400,119.5388,26.6612,14,37,0.3,9,3,127,93,40,—
宁德市,宁德一中,3209A,2024-11-06T1400,119.5231,26.6562,17,31,0.2,10,4,132,99,42,—
怒江傈僳族自治州,州监测站,2618A,2024-11-06T1400,98.8601,25.8567,16,23,0.5,15,6,24,24,23,—
怒江傈僳族自治州,泸水一中,2619A,2024-11-06T1400,98.8546,25.8417,16,18,0.5,14,7,17,10,23,—
攀枝花市,弄弄坪,1888A,2024-11-06T1400,101.6891,26.571,46,54,1.1,23,12,60,25,64,细颗粒物(PM2.5)
攀枝花市,河门口,1889A,2024-11-06T1400,101.5769,26.5928,37,52,1.5,18,17,74,30,53,细颗粒物(PM2.5)
攀枝花市,炳草岗,1890A,2024-11-06T1400,101.7169,26.585,35,52,1.0,20,12,66,25,51,颗粒物(PM10)
攀枝花市,仁和,1891A,2024-11-06T1400,101.7369,26.5008,37,46,0.9,17,10,63,27,53,细颗粒物(PM2.5)
攀枝花市,四十中小,2835A,2024-11-06T1400,101.7227,26.567,27,47,0.9,12,10,63,25,47,—
盘锦市,开发区,1604A,2024-11-06T1400,122.0303,41.1489,16,26,0.4,13,10,61,41,26,—
盘锦市,兴隆台,1605A,2024-11-06T1400,122.0485,41.0883,18,29,0.6,15,11,64,42,29,—
盘锦市,新生街道,1606A,2024-11-06T1400,121.8297,41.1028,17,32,0.4,15,13,69,42,32,—
平顶山市,新华旅馆,1832A,2024-11-06T1400,113.3257,33.742,60,92,0.5,22,12,120,48,82,细颗粒物(PM2.5)
平顶山市,规划设计院,1833A,2024-11-06T1400,113.2919,33.737,72,126,0.6,24,10,119,50,97,细颗粒物(PM2.5)
平顶山市,平顶山工学院,1834A,2024-11-06T1400,113.182,33.774,70,109,0.7,21,10,111,37,94,细颗粒物(PM2.5)
平顶山市,规划局,3204A,2024-11-06T1400,113.3025,33.73,70,119,0.5,25,10,112,48,94,细颗粒物(PM2.5)
平顶山市,石龙区,3594A,2024-11-06T1400,112.8867,33.9116,60,117,0.8,18,14,117,47,84,颗粒物(PM10)
平凉市,聚贤嘉苑,2656A,2024-11-06T1400,106.6692,35.5461,51,94,0.6,28,12,65,37,72,颗粒物(PM10)
平凉市,博物馆,2657A,2024-11-06T1400,106.7021,35.5307,—,—,—,—,—,—,—,—,—
萍乡市,武功山,2347A,2024-11-06T1400,114.0997,27.5002,3,22,0.2,7,8,121,79,38,—
萍乡市,中医院,2348A,2024-11-06T1400,113.8385,27.6434,23,48,0.6,—,16,133,100,—,—
萍乡市,市政府车库,2349A,2024-11-06T1400,113.8493,27.6253,26,45,0.8,8,12,128,99,45,—
萍乡市,市环保局,2350A,2024-11-06T1400,113.8676,27.6435,22,45,0.5,7,18,128,95,45,—
萍乡市,安源区政府,2351A,2024-11-06T1400,113.866,27.6198,20,43,0.5,9,13,130,96,43,—
莆田市,荔城区仓后路,2319A,2024-11-06T1400,119.0141,25.4325,9,36,0.4,7,1,115,100,36,—
莆田市,莆田市监测站,2320A,2024-11-06T1400,119.0015,25.4553,7,37,0.2,—,2,117,103,—,—
莆田市,涵江区六中,2321A,2024-11-06T1400,119.1119,25.4561,6,39,0.3,5,2,114,102,39,—
莆田市,秀屿区政府,2322A,2024-11-06T1400,119.1013,25.3215,11,39,0.2,7,1,93,88,39,—
莆田市,东圳水库,2323A,2024-11-06T1400,118.981,25.4792,—,—,—,—,—,—,—,—,—
濮阳市,环保局,2392A,2024-11-06T1400,115.0312,35.7636,44,56,0.4,14,8,118,63,62,细颗粒物(PM2.5)
濮阳市,油田运输公司,2394A,2024-11-06T1400,115.0574,35.7609,52,73,0.4,21,9,116,62,72,细颗粒物(PM2.5)
濮阳市,油田物探公司,2395A,2024-11-06T1400,115.0866,35.7754,49,80,0.2,18,7,112,60,68,细颗粒物(PM2.5)
濮阳市,濮水河管理处,3021A,2024-11-06T1400,115,35.7668,39,88,0.4,—,10,108,50,—,—
普洱市,市环保局,2601A,2024-11-06T1400,100.98,22.7633,28,29,0.6,7,—,58,46,—,—
普洱市,普洱第二中学,2602A,2024-11-06T1400,100.9817,22.8322,18,35,0.6,9,7,59,33,35,—
七台河市,新一中,2262A,2024-11-06T1400,131.0518,45.8751,13,—,0.8,5,9,64,55,20,—
七台河市,中波台,3345A,2024-11-06T1400,131.0577,45.7879,7,8,0.7,8,7,52,42,17,—
七台河市,人民广场,3637A,2024-11-06T1400,131.0176,45.7761,11,—,—,8,6,56,42,—,—
七台河市,新建矿广场,3684A,2024-11-06T1400,130.8781,45.8222,16,58,0.4,19,11,47,40,54,颗粒物(PM10)
齐齐哈尔市,安居小区,1779A,2024-11-06T1400,123.9305,47.3636,36,49,0.3,—,6,71,40,—,—
齐齐哈尔市,中心广场,1780A,2024-11-06T1400,123.9488,47.3386,22,—,0.3,8,2,53,34,32,—
齐齐哈尔市,农牧车辆厂,1781A,2024-11-06T1400,123.9483,47.3227,13,31,0.5,14,4,51,34,31,—
齐齐哈尔市,市环境监测站,1783A,2024-11-06T1400,123.945,47.2988,11,30,0.2,6,2,55,36,30,—
齐齐哈尔市,富区青少年活动中心,3662A,2024-11-06T1400,123.6333,47.2075,12,32,0.2,8,6,54,42,32,—
黔东南苗族侗族自治州,市环境监测站,2591A,2024-11-06T1400,107.9783,26.5747,48,62,0.5,16,6,126,80,67,细颗粒物(PM2.5)
黔东南苗族侗族自治州,凯里学院,2881A,2024-11-06T1400,107.8908,26.5311,39,48,0.6,12,5,135,89,55,细颗粒物(PM2.5)
黔南布依族苗族自治州,小围寨,2593A,2024-11-06T1400,107.5228,26.2403,34,46,0.4,9,5,142,101,49,—
黔南布依族苗族自治州,沙坝,3538A,2024-11-06T1400,107.5175,26.2978,31,48,0.6,10,5,140,91,48,—
黔西南布依族苗族自治州,场坝街,2589A,2024-11-06T1400,104.9022,25.0925,23,37,0.5,8,5,81,46,37,—
黔西南布依族苗族自治州,坪东大道,2590A,2024-11-06T1400,104.8811,25.0992,29,32,0.4,6,2,80,44,42,—
钦州市,市环保站,2502A,2024-11-06T1400,108.6236,21.9667,41,80,0.8,13,9,143,102,65,颗粒物(PM10)
钦州市,沙埠小学,2503A,2024-11-06T1400,108.6549,21.9481,50,83,0.8,14,8,151,106,69,细颗粒物(PM2.5)
钦州市,港区一小,2504A,2024-11-06T1400,108.5989,21.7431,55,99,0.9,17,9,152,96,75,"颗粒物(PM10),细颗粒物(PM2.5)"
钦州市,北职校,3404A,2024-11-06T1400,108.5959,21.9633,52,71,1.1,12,10,144,104,72,细颗粒物(PM2.5)
秦皇岛市,北戴河环保局,1042A,2024-11-06T1400,119.5134,39.8207,8,24,0.4,13,5,52,40,24,—
秦皇岛市,第一关,1043A,2024-11-06T1400,119.7493,40.0116,17,30,0.3,18,3,63,40,30,—
秦皇岛市,监测站,1044A,2024-11-06T1400,119.5897,39.9499,10,31,0.3,—,5,53,35,—,—
秦皇岛市,建设大厦,1046A,2024-11-06T1400,119.5251,39.9041,17,31,0.3,17,4,53,29,31,—
秦皇岛市,文明里,3132A,2024-11-06T1400,119.610547,39.943889,8,32,0.3,21,4,58,38,32,—
青岛市,仰口,1307A,2024-11-06T1400,120.6659,36.2403,38,64,0.4,22,10,99,70,57,颗粒物(PM10)
青岛市,市南区东部子站,1310A,2024-11-06T1400,120.4134,36.0658,24,68,0.6,34,12,78,43,59,颗粒物(PM10)
青岛市,四方区子站,1311A,2024-11-06T1400,120.3664,36.1032,29,61,0.4,26,13,96,47,56,颗粒物(PM10)
青岛市,市南区西部子站,1312A,2024-11-06T1400,120.2994,36.054,12,36,0.5,15,12,96,48,36,—
青岛市,崂山区子站,1313A,2024-11-06T1400,120.4581,36.0858,22,56,0.6,32,13,88,54,53,颗粒物(PM10)
青岛市,黄岛区子站,1314A,2024-11-06T1400,120.1983,35.9608,24,48,0.6,37,12,79,52,48,—
青岛市,城阳区子站,1315A,2024-11-06T1400,120.3999,36.3083,27,61,0.6,27,12,99,48,56,颗粒物(PM10)
青岛市,黄岛区4号,1966A,2024-11-06T1400,120.0405,35.8735,19,39,0.4,22,11,97,61,39,—
青岛市,即墨2号,3362A,2024-11-06T1400,120.5014,36.4034,36,104,—,—,9,84,36,—,—
青岛市,市北区南部,3642A,2024-11-06T1400,120.3503,36.0736,19,65,0.6,24,13,91,43,58,颗粒物(PM10)
青岛市,李沧区北部,3643A,2024-11-06T1400,120.3948,36.1805,36,85,0.9,46,15,70,41,68,颗粒物(PM10)
清远市,环保大楼,1702A,2024-11-06T1400,113.0426,23.691,33,38,0.9,12,6,161,145,52,臭氧1小时
清远市,凤城街办,1703A,2024-11-06T1400,113.0208,23.7106,33,45,0.8,8,10,148,136,48,—
清远市,技师学院,3025A,2024-11-06T1400,113.0477,23.6344,—,—,1.0,7,9,—,124,—,—
清远市,清新太和,3318A,2024-11-06T1400,112.9903,23.7403,29,37,0.9,6,4,143,137,45,—
清远市,清城东城,3455A,2024-11-06T1400,113.076,23.7198,30,49,0.8,5,6,150,136,49,—
庆阳市,庆阳五中,2661A,2024-11-06T1400,107.6325,35.7357,69,87,0.5,15,10,87,82,93,细颗粒物(PM2.5)
庆阳市,市环保局,2662A,2024-11-06T1400,107.6364,35.7067,58,73,0.5,22,21,84,90,79,细颗粒物(PM2.5)
曲靖市,环境监测站,1916A,2024-11-06T1400,103.7897,25.5035,33,40,0.6,16,2,89,66,48,—
曲靖市,烟厂办公区,1917A,2024-11-06T1400,103.8,25.5364,37,48,0.5,11,4,88,66,53,细颗粒物(PM2.5)
曲靖市,南苑二区,3376A,2024-11-06T1400,103.7947,25.462,34,52,0.6,12,3,89,71,51,颗粒物(PM10)
曲靖市,曲靖师范学院,3377A,2024-11-06T1400,103.7444,25.5261,40,48,0.7,12,6,92,76,57,细颗粒物(PM2.5)
衢州市,环保大楼,1264A,2024-11-06T1400,118.8692,28.9398,38,61,0.4,20,5,122,75,56,颗粒物(PM10)
衢州市,实验学校,1265A,2024-11-06T1400,118.8709,28.9666,29,48,0.4,20,10,123,76,48,—
衢州市,衢州学院,1266A,2024-11-06T1400,118.8621,28.9808,29,49,0.4,19,9,126,79,49,—
泉州市,涂山街,1611A,2024-11-06T1400,118.5819,24.9117,11,38,0.3,9,1,116,102,38,—
泉州市,津头埔,1612A,2024-11-06T1400,118.5972,24.8978,13,44,0.4,8,2,114,100,44,—
泉州市,万安,1613A,2024-11-06T1400,118.6663,24.9424,13,46,0.3,7,2,116,101,46,—
泉州市,清源山,1614A,2024-11-06T1400,118.6117,24.9604,—,—,—,—,—,—,—,—,—
泉州市,城华南路,3529A,2024-11-06T1400,118.6333,24.9264,13,34,0.2,5,2,115,100,36,—
日喀则市,日喀则监测站,2626A,2024-11-06T1400,88.8876,29.2718,6,12,0.4,—,5,101,58,—,—
日喀则市,林业技术推广中心,3726A,2024-11-06T1400,88.8781,29.2426,3,7,0.6,3,6,104,69,33,—
日照市,监测站,1659A,2024-11-06T1400,119.471,35.4209,12,29,0.4,16,8,—,22,—,—
日照市,市政府广场,1660A,2024-11-06T1400,119.523,35.4216,21,36,0.4,14,7,95,54,36,—
日照市,港务局,1661A,2024-11-06T1400,119.5587,35.4044,23,36,0.6,22,4,95,57,36,—
日照市,职业技术学院,3507A,2024-11-06T1400,119.5328,35.4625,17,36,0.4,18,7,100,61,36,—
日照市,岚山环保分局,3604A,2024-11-06T1400,119.3266,35.1044,16,34,0.2,12,6,97,66,34,—
三门峡市,市政府,1835A,2024-11-06T1400,111.1922,34.7752,68,68,0.5,23,18,91,61,92,细颗粒物(PM2.5)
三门峡市,开发区,1836A,2024-11-06T1400,111.1587,34.7942,57,104,0.6,24,16,84,55,78,细颗粒物(PM2.5)
三门峡市,风景区,1838A,2024-11-06T1400,111.143,34.7955,50,78,0.8,—,23,—,—,—,—
三门峡市,三门峡市第一小学,3039A,2024-11-06T1400,111.1911,34.7829,57,69,0.5,22,21,86,57,78,细颗粒物(PM2.5)
三门峡市,富达温泉假日酒店,3598A,2024-11-06T1400,111.1,34.7167,60,96,0.6,18,—,89,50,—,—
三明市,三钢,2324A,2024-11-06T1400,117.6211,26.2625,18,30,0.4,5,3,123,106,39,—
三明市,三明二中,2325A,2024-11-06T1400,117.635,26.2714,21,29,0.5,7,3,117,101,37,—
三明市,三元区政府,2326A,2024-11-06T1400,117.6028,26.2378,20,40,0.4,7,3,120,103,40,—
三明市,洋溪,2327A,2024-11-06T1400,117.7275,26.3108,—,—,—,—,—,—,—,—,—
三亚市,河东子站,1876A,2024-11-06T1400,109.5078,18.2489,17,31,0.3,4,2,101,129,32,—
三亚市,河西子站,1877A,2024-11-06T1400,109.4964,18.2681,15,29,0.4,13,3,89,113,29,—
三亚市,君悦子站,3540A,2024-11-06T1400,109.7348,18.3443,16,34,0.4,5,3,96,128,34,—
山南市,山南监测站,2624A,2024-11-06T1400,91.7608,29.2313,6,18,0.5,4,6,91,81,29,—
山南市,山南人民医院,2625A,2024-11-06T1400,91.7706,29.2436,3,7,0.5,6,4,94,86,30,—
汕头市,金平子站,1674A,2024-11-06T1400,116.6794,23.3667,24,36,—,6,7,124,104,—,—
汕头市,龙湖子站,1675A,2024-11-06T1400,116.7244,23.3633,22,38,0.7,8,8,124,107,39,—
汕头市,濠江子站,1676A,2024-11-06T1400,116.7258,23.2775,24,38,0.6,7,7,134,116,42,—
汕头市,澄海子站,1677A,2024-11-06T1400,116.7519,23.4714,18,42,0.8,11,8,119,112,42,—
汕头市,潮阳子站,1678A,2024-11-06T1400,116.6092,23.2539,23,41,0.7,6,6,124,110,41,—
汕头市,潮南峡山,3444A,2024-11-06T1400,116.454,23.2684,37,50,0.8,—,8,141,120,—,—
汕头市,潮南子站,3624A,2024-11-06T1400,116.4069,23.2533,29,64,0.6,16,8,130,108,57,颗粒物(PM10)
汕尾市,市环保局,1693A,2024-11-06T1400,115.3653,22.775,36,50,0.8,10,7,108,89,52,细颗粒物(PM2.5)
汕尾市,市政府,1694A,2024-11-06T1400,115.3706,22.7898,38,40,0.7,9,9,118,96,54,细颗粒物(PM2.5)
汕尾市,新城中学,1695A,2024-11-06T1400,115.3622,22.7925,36,49,0.7,9,8,115,94,52,细颗粒物(PM2.5)
商洛市,监测站,2645A,2024-11-06T1400,109.9154,33.8715,38,66,0.5,14,7,108,60,58,颗粒物(PM10)
商洛市,商州区中学,3045A,2024-11-06T1400,109.9643,33.8471,40,93,0.7,16,9,106,42,72,颗粒物(PM10)
商丘市,环境监测站,2408A,2024-11-06T1400,115.6702,34.4285,48,75,0.5,23,10,115,58,67,细颗粒物(PM2.5)
商丘市,粮食局,2409A,2024-11-06T1400,115.6458,34.4045,49,71,0.5,20,4,118,69,68,细颗粒物(PM2.5)
商丘市,睢阳区环保局,2410A,2024-11-06T1400,115.6293,34.3948,48,60,0.4,20,11,110,59,67,细颗粒物(PM2.5)
商丘市,梁园区档案局,3171A,2024-11-06T1400,115.6071,34.4465,43,62,0.5,19,8,107,60,60,细颗粒物(PM2.5)
上海市,普陀,1141A,2024-11-06T1400,121.4,31.238,6,17,0.5,11,5,92,64,29,—
上海市,十五厂,1142A,2024-11-06T1400,121.478,31.2036,3,18,0.4,14,7,95,73,30,—
上海市,虹口,1143A,2024-11-06T1400,121.467,31.3008,3,20,0.5,12,8,95,70,30,—
上海市,徐汇上师大,1144A,2024-11-06T1400,121.412,31.1654,3,19,0.4,17,8,93,69,30,—
上海市,杨浦四漂,1145A,2024-11-06T1400,121.536,31.2659,8,23,0.4,12,6,93,74,30,—
上海市,静安监测站,1147A,2024-11-06T1400,121.425,31.2261,6,18,0.3,18,7,90,67,29,—
上海市,浦东川沙,1148A,2024-11-06T1400,121.703,31.1907,3,19,0.5,12,6,92,72,29,—
上海市,浦东新区监测站,1149A,2024-11-06T1400,121.533,31.2284,3,15,0.4,14,8,90,72,29,—
上海市,浦东张江,1150A,2024-11-06T1400,121.577,31.2071,7,18,0.4,16,5,90,76,29,—
上海市,宝山庙行,3265A,2024-11-06T1400,121.4316,31.3322,6,20,0.4,9,10,94,67,30,—
上海市,崇明上实东滩,3266A,2024-11-06T1400,121.8791,31.4662,6,11,0.5,6,8,94,72,30,—
上海市,嘉定南翔,3268A,2024-11-06T1400,121.3162,31.2838,12,19,0.5,14,10,94,68,30,—
上海市,金山新城,3269A,2024-11-06T1400,121.3359,30.7456,3,14,0.4,13,7,90,64,29,—
上海市,闵行浦江,3270A,2024-11-06T1400,121.4996,31.0739,3,17,0.6,15,6,92,67,29,—
上海市,青浦徐泾,3271A,2024-11-06T1400,121.2886,31.1663,9,19,0.5,17,8,92,61,29,—
上海市,松江图书馆,3272A,2024-11-06T1400,121.2186,31.0378,8,25,0.5,18,6,93,66,30,—
上海市,长宁仙霞,3273A,2024-11-06T1400,121.3902,31.2059,3,18,0.5,15,7,95,71,30,—
上海市,浦东惠南,3274A,2024-11-06T1400,121.7965,31.0507,3,14,0.5,9,10,94,70,30,—
上海市,奉贤南桥新城,3544A,2024-11-06T1400,121.4891,30.925,3,16,0.4,17,2,90,64,29,—
上饶市,百草园,2381A,2024-11-06T1400,118.005,28.4572,3,34,0.3,7,8,132,92,42,—
上饶市,市监测站,2382A,2024-11-06T1400,117.9756,28.4436,16,42,0.6,15,9,136,95,43,—
上饶市,凤凰光学,2383A,2024-11-06T1400,117.9519,28.4628,18,43,0.7,10,12,130,90,43,—
上饶市,广丰区教体局,3413A,2024-11-06T1400,118.1953,28.4401,13,36,0.4,12,6,125,86,40,—
上饶市,双创科技城,3685A,2024-11-06T1400,117.897,28.4315,20,42,0.6,8,8,132,94,42,—
韶关市,市八中,1669A,2024-11-06T1400,113.5824,24.7733,25,36,0.6,2,9,125,124,40,—
韶关市,园林处,1671A,2024-11-06T1400,113.5917,24.7972,27,—,0.5,4,11,127,125,40,—
韶关市,韶关学院,1672A,2024-11-06T1400,113.6735,24.7791,27,38,0.5,7,9,130,113,41,—
韶关市,曲江监测站,1673A,2024-11-06T1400,113.5971,24.6863,27,39,0.5,3,10,126,116,40,—
韶关市,碧湖山庄,3622A,2024-11-06T1400,113.5556,24.8082,28,54,0.5,3,9,123,108,52,颗粒物(PM10)
邵阳市,市水土所,2462A,2024-11-06T1400,111.5239,27.3033,—,—,—,—,—,—,—,—,—
邵阳市,市一中,2463A,2024-11-06T1400,111.4733,27.2317,29,53,0.6,6,11,154,85,52,颗粒物(PM10)
邵阳市,市化工厂,2464A,2024-11-06T1400,111.5283,27.2442,22,46,0.7,12,11,146,94,46,—
邵阳市,市罐头厂,2465A,2024-11-06T1400,111.4503,27.2537,36,59,0.6,11,10,145,103,55,颗粒物(PM10)
邵阳市,市环保局,2466A,2024-11-06T1400,111.4328,27.2272,28,61,0.7,9,9,143,90,56,颗粒物(PM10)
绍兴市,城东开发委,1247A,2024-11-06T1400,120.6053,29.9928,19,38,0.3,21,10,108,61,38,—
绍兴市,树下王站,2921A,2024-11-06T1400,120.5483,30.0003,13,33,—,—,7,106,68,—,—
绍兴市,绍兴中专,3408A,2024-11-06T1400,120.5683,29.9361,20,32,0.4,18,8,118,63,37,—
绍兴市,柯桥区政府,3409A,2024-11-06T1400,120.4906,30.0861,16,35,0.5,18,8,98,69,35,—
绍兴市,重华小学,3410A,2024-11-06T1400,120.8752,30.0249,13,21,0.1,21,9,111,60,35,—
绍兴市,上虞中学,3411A,2024-11-06T1400,120.8369,30.0137,12,21,0.5,8,6,112,61,35,—
绍兴市,柯桥妇保,3560A,2024-11-06T1400,120.4722,30.0415,16,29,0.6,15,5,103,64,33,—
绍兴市,袍江中学,3658A,2024-11-06T1400,120.6153,30.0764,19,32,0.7,19,10,107,73,34,—
深圳市,通心岭子站,1356A,2024-11-06T1400,114.1063,22.5545,38,58,0.7,14,4,170,126,63,臭氧1小时
深圳市,洪湖,1357A,2024-11-06T1400,114.117,22.5625,36,50,0.6,23,6,156,106,52,细颗粒物(PM2.5)
深圳市,华侨城,1358A,2024-11-06T1400,113.987,22.5417,49,54,0.8,13,6,168,118,68,细颗粒物(PM2.5)
深圳市,南海子站,1359A,2024-11-06T1400,113.9181,22.5171,35,70,0.6,18,7,170,116,63,臭氧1小时
深圳市,盐田,1360A,2024-11-06T1400,114.2458,22.5689,42,56,0.9,20,9,130,103,59,细颗粒物(PM2.5)
深圳市,龙岗,1361A,2024-11-06T1400,114.2283,22.7244,31,46,0.7,11,8,148,126,47,—
深圳市,南澳,1363A,2024-11-06T1400,114.494,22.5422,33,49,0.7,12,8,163,123,54,臭氧1小时
深圳市,葵涌,1364A,2024-11-06T1400,114.41,22.6342,35,55,0.7,11,7,147,123,53,颗粒物(PM10)
深圳市,梅沙,1365A,2024-11-06T1400,114.297,22.5978,35,56,0.6,10,8,151,127,53,颗粒物(PM10)
深圳市,观澜,1366A,2024-11-06T1400,114.0678,22.738,28,62,0.6,11,6,146,111,56,颗粒物(PM10)
深圳市,莲花,3305A,2024-11-06T1400,114.0731,22.559,32,45,0.6,15,8,155,114,49,—
深圳市,民治,3306A,2024-11-06T1400,114.0261,22.6198,39,58,0.7,12,6,173,121,67,臭氧1小时
深圳市,横岗,3307A,2024-11-06T1400,114.1871,22.6451,32,45,0.6,13,7,149,120,47,—
深圳市,坪山,3447A,2024-11-06T1400,114.3551,22.7151,38,57,—,12,7,144,128,—,—
深圳市,西乡,3623A,2024-11-06T1400,113.8953,22.5861,35,57,0.7,19,7,189,130,87,臭氧1小时
沈阳市,森林路,1098A,2024-11-06T1400,123.6836,41.9339,—,—,—,—,—,—,—,—,—
沈阳市,浑南东路,1099A,2024-11-06T1400,123.505,41.7406,22,30,0.6,27,12,55,39,32,—
沈阳市,新秀街,1100A,2024-11-06T1400,123.4231,41.6989,18,33,0.8,34,12,45,33,33,—
沈阳市,东陵路,1102A,2024-11-06T1400,123.5903,41.8411,14,19,0.4,16,8,58,41,20,—
沈阳市,陵东街,1103A,2024-11-06T1400,123.4264,41.8467,20,37,0.6,37,12,42,28,37,—
沈阳市,文化路,1104A,2024-11-06T1400,123.4114,41.7653,28,43,0.8,38,20,39,32,43,—
沈阳市,小河沿,1105A,2024-11-06T1400,123.4678,41.7867,17,27,0.7,25,11,51,38,27,—
沈阳市,太原街,1106A,2024-11-06T1400,123.4017,41.7972,26,33,0.7,37,23,38,26,38,—
沈阳市,京沈街,1108A,2024-11-06T1400,123.3783,41.9228,12,26,0.4,17,13,51,25,26,—
沈阳市,沈辽西路,2897A,2024-11-06T1400,123.2444,41.7347,21,38,0.6,32,11,48,29,38,—
沈阳市,裕农路,2900A,2024-11-06T1400,123.5953,41.9086,18,18,0.4,21,9,62,43,26,—
十堰市,武当山,2428A,2024-11-06T1400,111.0419,32.395,21,46,0.6,17,10,116,92,46,—
十堰市,滨河新村,2429A,2024-11-06T1400,110.78,32.6494,46,56,0.6,18,9,102,51,64,细颗粒物(PM2.5)
十堰市,刘家沟,2430A,2024-11-06T1400,110.7258,32.6389,44,85,0.6,17,8,112,55,68,颗粒物(PM10)
十堰市,铁二处,2431A,2024-11-06T1400,110.8839,32.5714,47,56,0.5,18,11,113,57,65,细颗粒物(PM2.5)
十堰市,郧阳区金沙路,3545A,2024-11-06T1400,110.8054,32.8401,35,—,0.6,14,5,125,68,50,—
石河子市,艾青诗歌馆,2709A,2024-11-06T1400,86.0497,44.2967,33,86,0.8,19,16,76,40,68,颗粒物(PM10)
石河子市,南区管委会,3442A,2024-11-06T1400,86.047,44.2331,—,—,—,21,—,76,58,—,—
石河子市,世纪广场,4051A,2024-11-06T1400,86.0791,44.3017,42,84,0.6,18,14,81,47,67,颗粒物(PM10)
石家庄市,职工医院,1029A,2024-11-06T1400,114.4422,38.0444,33,71,0.9,38,12,46,21,61,颗粒物(PM10)
石家庄市,高新区,1030A,2024-11-06T1400,114.6063,38.0266,52,86,0.9,42,10,50,24,72,细颗粒物(PM2.5)
石家庄市,西北水源,1031A,2024-11-06T1400,114.4898,38.1328,53,63,0.9,50,8,53,24,73,细颗粒物(PM2.5)
石家庄市,西南高教,1032A,2024-11-06T1400,114.4586,38.0058,46,84,1.0,38,11,53,25,67,颗粒物(PM10)
石家庄市,世纪公园,1033A,2024-11-06T1400,114.5331,38.0178,31,62,0.9,37,11,48,23,56,颗粒物(PM10)
石家庄市,人民会堂,1034A,2024-11-06T1400,114.509,38.0457,43,77,1.0,41,10,53,24,64,颗粒物(PM10)
石家庄市,封龙山,1035A,2024-11-06T1400,114.3524,37.8911,29,81,1.3,34,14,52,73,66,颗粒物(PM10)
石家庄市,22中南校区,2862A,2024-11-06T1400,114.5481,38.0378,45,66,1.0,43,9,48,24,63,细颗粒物(PM2.5)
石家庄市,鹿泉一中,3456A,2024-11-06T1400,114.289,38.0906,38,83,0.9,40,9,43,19,67,颗粒物(PM10)
石家庄市,藁城区实验学校,3573A,2024-11-06T1400,114.8506765,38.0322033,58,101,1.0,—,18,55,22,—,—
石家庄市,井陉矿区区委大楼,3574A,2024-11-06T1400,114.0504658,38.0591645,21,61,—,34,10,54,21,—,—
石家庄市,栾城区星河路,4024A,2024-11-06T1400,114.6549,37.9020,47,91,0.9,39,19,59,22,71,颗粒物(PM10)
石嘴山市,沙湖旅游区,1947A,2024-11-06T1400,106.3394,38.817,—,—,—,—,—,—,—,—,—
石嘴山市,大武口朝阳西街,1948A,2024-11-06T1400,106.3668,39.0145,—,—,1.1,25,62,68,35,—,—
石嘴山市,惠农南大街,1949A,2024-11-06T1400,106.7704,39.2282,26,42,0.4,23,15,76,37,42,—
石嘴山市,红果子镇惠新街,1950A,2024-11-06T1400,106.7099,39.1325,40,82,0.5,30,26,91,50,66,颗粒物(PM10)
石嘴山市,妇女儿童医院,3520A,2024-11-06T1400,106.3495,38.9836,29,57,1.2,35,105,64,42,54,颗粒物(PM10)
石嘴山市,石大公路,3521A,2024-11-06T1400,106.7492,39.2069,34,54,0.5,16,9,77,38,52,颗粒物(PM10)
双鸭山市,双合村,2248A,2024-11-06T1400,131.1511,46.6937,12,—,0.6,12,12,51,48,18,—
双鸭山市,南小市,2249A,2024-11-06T1400,131.1652,46.6191,3,6,0.4,5,9,57,48,18,—
双鸭山市,环保局,2250A,2024-11-06T1400,131.1524,46.6554,17,—,0.5,10,8,55,50,25,—
双鸭山市,苗圃,2251A,2024-11-06T1400,131.12,46.5656,3,18,0.4,10,14,39,36,18,—
朔州市,平朔,2166A,2024-11-06T1400,112.4397,39.3522,35,63,0.6,36,14,62,34,57,颗粒物(PM10)
朔州市,朔唯,2167A,2024-11-06T1400,112.4575,39.3617,52,79,0.7,38,19,67,34,72,细颗粒物(PM2.5)
朔州市,区政府,2168A,2024-11-06T1400,112.4258,39.3197,30,69,0.8,29,17,56,29,60,颗粒物(PM10)
朔州市,市环保局,2169A,2024-11-06T1400,112.4072,39.3278,35,63,0.8,27,16,68,34,57,颗粒物(PM10)
朔州市,市二中,2170A,2024-11-06T1400,112.4272,39.3681,56,82,0.6,33,15,70,27,77,细颗粒物(PM2.5)
朔州市,一水厂,3571A,2024-11-06T1400,112.2931,39.53,21,84,0.6,27,12,71,35,67,颗粒物(PM10)
四平市,一商场,2225A,2024-11-06T1400,124.4002,43.1713,11,20,0.1,8,3,62,42,20,—
四平市,境园,2226A,2024-11-06T1400,124.388,43.193,3,14,0.2,4,1,67,41,21,—
四平市,植物园,3486A,2024-11-06T1400,124.4036,43.1411,12,16,0.1,7,3,67,41,21,—
四平市,世纪城,3713A,2024-11-06T1400,124.3419,43.1666,15,18,0.2,4,5,62,37,22,—
松原市,江南,2233A,2024-11-06T1400,124.8006,45.1214,—,—,0.0,5,—,—,38,—,—
松原市,江北,2234A,2024-11-06T1400,124.7965,45.1722,11,—,0.3,7,2,56,42,18,—
苏州市,上方山,1160A,2024-11-06T1400,120.561,31.2472,10,16,0.5,15,11,99,68,31,—
苏州市,彩香,1162A,2024-11-06T1400,120.591,31.3019,14,29,0.4,12,8,99,66,31,—
苏州市,轧钢厂,1163A,2024-11-06T1400,120.596,31.3264,11,26,0.4,20,8,96,64,30,—
苏州市,吴中区,1164A,2024-11-06T1400,120.613,31.2703,10,25,0.4,13,7,96,66,30,—
苏州市,苏州新区,1165A,2024-11-06T1400,120.543,31.2994,10,17,0.4,14,7,100,65,32,—
苏州市,苏州工业园区,1166A,2024-11-06T1400,120.669,31.3097,14,28,0.4,18,6,100,69,32,—
苏州市,相城区,1167A,2024-11-06T1400,120.641,31.3708,12,33,0.3,25,6,97,67,33,—
苏州市,方洲路,3289A,2024-11-06T1400,120.743,31.3188,11,21,0.4,14,8,104,68,33,—
苏州市,木渎中学,3290A,2024-11-06T1400,120.5031,31.2774,10,21,0.2,19,8,97,67,31,—
苏州市,越秀幼儿园,3425A,2024-11-06T1400,120.624,31.1733,8,16,0.4,5,9,100,76,32,—
苏州市,高铁新城,3431A,2024-11-06T1400,120.6505,31.416,13,30,0.4,14,8,97,63,31,—
宿迁市,宿迁学院,1220A,2024-11-06T1400,118.293,33.9528,25,37,0.5,11,2,93,54,37,—
宿迁市,宿迁中学,1221A,2024-11-06T1400,118.2442,33.9592,28,45,0.4,15,3,95,59,45,—
宿迁市,市供电局,2996A,2024-11-06T1400,118.283,33.965,28,38,0.5,16,6,91,53,40,—
宿迁市,宿豫区政府,3191A,2024-11-06T1400,118.3225,33.9447,27,44,0.6,19,4,94,54,44,—
宿州市,远航博物馆,3187A,2024-11-06T1400,116.9509,33.666,41,66,0.3,17,7,115,62,58,"颗粒物(PM10),细颗粒物(PM2.5)"
宿州市,社会福利中心,3463A,2024-11-06T1400,116.9708,33.591,42,71,0.4,19,8,108,62,61,颗粒物(PM10)
宿州市,宿州学院,3634A,2024-11-06T1400,116.9884,33.6305,36,63,0.2,18,8,116,66,57,颗粒物(PM10)
宿州市,皖北煤电集团,3701A,2024-11-06T1400,116.9648,33.6252,—,—,—,20,7,121,68,—,—
绥化市,人和东街,2266A,2024-11-06T1400,126.9785,46.6365,50,78,0.7,12,2,57,37,69,细颗粒物(PM2.5)
绥化市,党政办公中心,2267A,2024-11-06T1400,126.964,46.6528,51,62,—,10,5,54,34,—,—
随州市,市委党校,2451A,2024-11-06T1400,113.3583,31.7275,37,60,0.6,12,13,142,67,55,颗粒物(PM10)
随州市,市林业局,2452A,2024-11-06T1400,113.3833,31.6908,40,55,0.7,11,10,137,68,57,细颗粒物(PM2.5)
随州市,市立交桥水厂,2453A,2024-11-06T1400,113.3983,31.7308,34,50,0.6,14,11,138,65,50,—
遂宁市,石溪浩,2527A,2024-11-06T1400,105.5453,30.5678,22,27,0.6,16,6,35,30,32,—
遂宁市,市监测站,2528A,2024-11-06T1400,105.5582,30.5232,15,35,0.4,20,6,33,30,35,—
遂宁市,行政中心,2529A,2024-11-06T1400,105.5861,30.5366,19,34,0.2,14,8,40,28,34,—
遂宁市,美宁食品公司,2530A,2024-11-06T1400,105.5918,30.4728,17,37,0.3,24,6,32,26,37,—
塔城地区,东门外小游园,2706A,2024-11-06T1400,82.9994,46.7432,15,21,0.0,18,—,54,24,—,—
台州市,黄岩环保大楼,1255A,2024-11-06T1400,121.273,28.6459,13,18,0.3,10,3,104,79,33,—
台州市,台州环保大楼,1256A,2024-11-06T1400,121.419,28.6542,3,25,0.4,18,6,116,89,37,—
台州市,路桥田洋王,1257A,2024-11-06T1400,121.377,28.5773,9,25,0.4,14,5,117,90,37,—
台州市,台州科技职业学院,3564A,2024-11-06T1400,121.2568,28.6681,8,24,0.3,13,4,110,83,35,—
太原市,尖草坪,1081A,2024-11-06T1400,112.522,37.8873,52,94,0.8,45,19,74,34,72,"颗粒物(PM10),细颗粒物(PM2.5)"
太原市,上兰,1083A,2024-11-06T1400,112.434,38.0108,48,72,0.8,23,13,81,46,67,细颗粒物(PM2.5)
太原市,晋源,1084A,2024-11-06T1400,112.469,37.7124,43,68,0.7,38,19,71,31,60,细颗粒物(PM2.5)
太原市,小店,1085A,2024-11-06T1400,112.5583,37.7394,50,99,0.7,34,16,91,34,75,颗粒物(PM10)
太原市,桃园,1086A,2024-11-06T1400,112.5369,37.8692,52,101,0.9,41,17,72,32,76,颗粒物(PM10)
太原市,坞城,1087A,2024-11-06T1400,112.57,37.8195,60,104,0.8,33,17,96,37,82,细颗粒物(PM2.5)
太原市,南寨,1088A,2024-11-06T1400,112.549,37.9854,58,82,1.7,46,32,69,32,79,细颗粒物(PM2.5)
太原市,金胜,3618A,2024-11-06T1400,112.4719,37.7831,38,97,1.0,40,21,73,46,74,颗粒物(PM10)
太原市,育英中学,4010A,2024-11-06T1400,112.5608,37.8807,46,92,0.7,41,17,79,34,71,颗粒物(PM10)
泰安市,监测站,1656A,2024-11-06T1400,117.1437,36.1937,12,27,0.7,16,6,88,53,28,—
泰安市,人口学校,1657A,2024-11-06T1400,117.0885,36.2017,16,26,0.7,16,9,90,51,29,—
泰安市,电力学校,1658A,2024-11-06T1400,117.1089,36.1758,19,24,—,—,6,89,42,—,—
泰安市,国网新校,3502A,2024-11-06T1400,117.1812,36.2275,12,39,0.5,12,5,92,60,39,—
泰安市,交通技校,3503A,2024-11-06T1400,117.0313,36.2018,22,32,0.5,—,7,85,39,—,—
泰安市,山东第一医科大学,3504A,2024-11-06T1400,117.0829,36.13,19,31,0.7,17,7,87,41,31,—
泰州市,公园路,1206A,2024-11-06T1400,119.905,32.4878,9,17,0.3,17,5,97,61,31,—
泰州市,莲花,1207A,2024-11-06T1400,119.9189,32.4625,7,20,0.5,16,5,98,68,31,—
泰州市,留学生创业园,1209A,2024-11-06T1400,119.888,32.4639,9,16,0.3,15,7,104,62,33,—
泰州市,王营,2997A,2024-11-06T1400,119.8767,32.3289,3,23,0.3,17,6,104,60,33,—
泰州市,姜堰区政府广场,3295A,2024-11-06T1400,120.1259,32.5099,7,14,0.3,11,7,102,64,32,—
泰州市,周山河街区,3435A,2024-11-06T1400,119.9192,32.4322,8,15,0.3,15,8,99,75,31,—
唐山市,雷达站,1037A,2024-11-06T1400,118.131,39.6363,11,30,0.5,20,6,66,33,30,—
唐山市,物资局,1038A,2024-11-06T1400,118.1725,39.6334,10,28,0.5,18,7,70,33,28,—
唐山市,十二中,1040A,2024-11-06T1400,118.1705,39.6506,15,30,0.5,15,5,60,28,30,—
唐山市,小山,1041A,2024-11-06T1400,118.1869,39.622,3,28,0.5,9,7,67,30,28,—
唐山市,冀东油田职工医院,3457A,2024-11-06T1400,118.4359,39.2762,13,34,0.4,21,9,68,40,34,—
唐山市,正泰大街热力站,3575A,2024-11-06T1400,118.09279,39.58089,7,17,0.4,15,4,65,29,21,—
唐山市,丰润区政府,3576A,2024-11-06T1400,118.1562,39.8322,16,36,0.7,22,7,56,29,36,—
唐山市,金山小学,3577A,2024-11-06T1400,118.43673,39.73809,3,30,0.5,9,10,70,41,30,—
唐山市,政府服务中心,3578A,2024-11-06T1400,118.24498,39.66941,14,33,0.7,19,12,63,32,33,—
唐山市,消防缸窑路中队,3692A,2024-11-06T1400,118.2059,39.6585,9,32,0.7,15,9,65,32,32,—
唐山市,路南电大,3693A,2024-11-06T1400,118.1436,39.6202,16,28,0.3,15,4,65,32,28,—
天津市,勤俭道,1015A,2024-11-06T1400,117.1444,39.1661,49,86,0.6,40,12,58,20,68,"颗粒物(PM10),细颗粒物(PM2.5)"
天津市,大直沽八号路,1017A,2024-11-06T1400,117.237,39.1082,53,91,0.5,43,10,58,20,73,细颗粒物(PM2.5)
天津市,前进道,1018A,2024-11-06T1400,117.202,39.0927,48,—,0.5,39,10,65,23,—,—
天津市,淮河道,1019A,2024-11-06T1400,117.1837,39.2133,45,81,0.7,41,10,62,19,66,颗粒物(PM10)
天津市,跃进路,1021A,2024-11-06T1400,117.307,39.0877,47,85,0.7,39,9,62,20,68,颗粒物(PM10)
天津市,第四大街,1023A,2024-11-06T1400,117.707,39.0343,40,72,0.6,46,8,53,18,61,颗粒物(PM10)
天津市,永明路,1024A,2024-11-06T1400,117.457,38.8394,56,85,0.7,29,13,65,28,77,细颗粒物(PM2.5)
天津市,汉北路,1026A,2024-11-06T1400,117.764,39.1587,36,76,0.8,49,14,30,16,63,颗粒物(PM10)
天津市,团泊洼,1027A,2024-11-06T1400,117.157,38.9194,—,—,—,—,—,—,—,—,—
天津市,河西一经路,2858A,2024-11-06T1400,117.7918,39.2474,21,48,0.6,34,11,52,27,48,—
天津市,津沽路,2859A,2024-11-06T1400,117.3747,38.9846,54,92,0.7,41,13,70,25,74,细颗粒物(PM2.5)
天津市,宾水西道,2860A,2024-11-06T1400,117.1589,39.0845,48,75,0.7,44,8,61,20,67,细颗粒物(PM2.5)
天津市,大理道,2922A,2024-11-06T1400,117.1941,39.1067,46,76,0.5,37,9,68,24,64,细颗粒物(PM2.5)
天津市,中山北路,3020A,2024-11-06T1400,117.2101,39.1699,48,85,0.7,51,9,51,20,68,颗粒物(PM10)
天津市,西四道,3051A,2024-11-06T1400,117.3876,39.1488,42,79,0.9,49,10,57,19,65,颗粒物(PM10)
天津市,雍阳西道,3325A,2024-11-06T1400,117.0365,39.3828,47,84,0.4,66,8,43,17,67,颗粒物(PM10)
天津市,辛老路,3326A,2024-11-06T1400,117.0296,39.0605,43,73,0.6,30,7,74,28,62,颗粒物(PM10)
天津市,地纬路,3327A,2024-11-06T1400,116.9638,38.9375,32,49,0.6,18,8,74,29,49,—
天津市,北环路,3460A,2024-11-06T1400,117.4067,40.0583,16,34,1.0,29,12,58,40,34,—
天津市,建设路,3461A,2024-11-06T1400,117.3045,39.7169,28,54,0.6,34,11,48,22,52,颗粒物(PM10)
天津市,滨水东路,3462A,2024-11-06T1400,117.8199,39.3521,30,65,1.0,41,16,48,30,58,颗粒物(PM10)
天水市,麦积山,2649A,2024-11-06T1400,106.0055,34.343,—,—,—,—,—,—,—,—,—
天水市,公园小学,2650A,2024-11-06T1400,105.7205,34.5786,20,40,0.4,22,6,48,16,40,—
天水市,麦积国土局,2651A,2024-11-06T1400,105.8945,34.5538,16,32,—,18,11,57,26,—,—
铁岭市,汇工街西,2216A,2024-11-06T1400,123.8139,42.3022,10,17,0.5,8,4,60,33,19,—
铁岭市,水上乐园,2217A,2024-11-06T1400,123.8649,42.2923,7,21,0.5,10,5,60,39,21,—
铁岭市,银州路东段,2218A,2024-11-06T1400,123.8486,42.2867,14,18,0.4,10,8,50,29,20,—
铁岭市,金沙江路北,2219A,2024-11-06T1400,123.7153,42.2217,14,—,0.3,14,8,54,34,20,—
通化市,光明,2229A,2024-11-06T1400,125.9358,41.7173,8,14,0.6,13,8,58,41,19,—
通化市,铁路,2230A,2024-11-06T1400,125.9446,41.7325,10,11,0.4,12,5,60,41,19,—
通辽市,艺术职业学校,2191A,2024-11-06T1400,122.2532,43.6801,3,14,0.3,14,10,63,44,20,—
通辽市,老干部活动中心,3706A,2024-11-06T1400,122.2584,43.6333,20,20,0.2,16,9,61,45,29,—
通辽市,东方明珠社区,3708A,2024-11-06T1400,122.2922,43.6189,12,—,1.0,14,10,60,46,19,—
铜川市,党校,1922A,2024-11-06T1400,109.0656,35.0994,—,—,—,—,—,—,—,—,—
铜川市,王益区政府,1923A,2024-11-06T1400,109.0697,35.0697,68,87,1.3,38,15,101,51,92,细颗粒物(PM2.5)
铜川市,新区管委会,1924A,2024-11-06T1400,108.9344,34.9058,76,104,1.2,24,20,122,65,102,细颗粒物(PM2.5)
铜川市,旺旺集团,3651A,2024-11-06T1400,108.9543,34.8732,92,123,1.3,22,19,123,72,122,细颗粒物(PM2.5)
铜陵市,市第四中学,2285A,2024-11-06T1400,117.8177,30.9412,31,62,0.5,14,6,119,77,56,颗粒物(PM10)
铜陵市,市公路局,2286A,2024-11-06T1400,117.8059,30.9273,31,48,—,14,5,116,61,—,—
铜陵市,市新民污水厂,2287A,2024-11-06T1400,117.7807,30.9413,20,37,0.6,14,8,120,82,38,—
铜陵市,市第九中学,2288A,2024-11-06T1400,117.7439,30.8792,27,63,0.6,18,5,111,69,57,颗粒物(PM10)
铜陵市,车站新区,2289A,2024-11-06T1400,117.846,30.9413,31,50,0.3,14,6,117,70,50,—
铜陵市,市职教基地,2290A,2024-11-06T1400,117.8483,30.97,25,53,0.6,13,7,120,76,52,颗粒物(PM10)
铜仁市,铜仁卫校,2585A,2024-11-06T1400,109.1839,27.7344,29,45,0.4,9,1,143,70,45,—
铜仁市,铜仁七中,2586A,2024-11-06T1400,109.1753,27.6944,29,42,0.3,9,4,149,66,47,—
吐鲁番市,市环保局,2686A,2024-11-06T1400,89.1904,42.9418,35,96,0.7,20,8,92,51,73,颗粒物(PM10)
吐鲁番市,地区环保局,2687A,2024-11-06T1400,89.1673,42.9559,36,100,0.8,22,6,88,31,75,颗粒物(PM10)
