area,positionname,timepoint,longitude,latitude,pm2_5,pm10,co,no2,so2,o3,o3_8h,aqi,primarypollutant
阿坝藏族羌族自治州,州农科所,2024-11-06T1500,102.1879,31.914,3,13,0,8,8,61,41,20,
阿坝藏族羌族自治州,马师校,2024-11-06T1500,102.2502,31.8896,15,,0.3,6,4,56,35,,
阿坝藏族羌族自治州,马尔康中学西区,2024-11-06T1500,102.2165,31.9024,12,,0.4,8,6,55,33,18,
阿克苏地区,电视台,2024-11-06T1500,80.292,41.1694,30,116,0.6,33,12,90,58,83,颗粒物(PM10)
阿克苏地区,艺术中心,2024-11-06T1500,80.2613,41.1551,33,115,0.8,32,4,93,68,83,颗粒物(PM10)
阿拉善盟,西城区西花园,2024-11-06T1500,105.6467,38.8363,29,43,0.6,,16,129,103,,
阿拉善盟,蒙二幼,2024-11-06T1500,105.6985,38.8411,,,,,,,84,,
阿拉善盟,环保局新楼,2024-11-06T1500,105.724,38.8516,23,49,0.5,14,13,112,95,49,
阿勒泰地区,市站,2024-11-06T1500,88.1264,47.8517,8,24,0.4,15,14,47,64,24,
阿里地区,阿里监测站,2024-11-06T1500,80.1161,32.5,3,13,0.4,2,8,84,61,27,
阿里地区,阿里藏医院,2024-11-06T1500,80.0903,32.5028,3,9,0.4,4,6,93,63,30,
安康市,香溪洞,2024-11-06T1500,109.0318,32.6537,21,48,0.3,11,9,104,56,48,
安康市,汉滨区检察院,2024-11-06T1500,109.0072,32.6975,24,34,0.4,13,7,106,53,35,
安康市,市邮政管理局,2024-11-06T1500,109.0325,32.6913,20,37,0.5,11,7,109,53,37,
安庆市,环科院,2024-11-06T1500,117.0809,30.5177,35,64,0.6,23,12,131,82,57,颗粒物(PM10)
安庆市,马山宾馆,2024-11-06T1500,117.0331,30.5119,37,65,,23,10,132,87,,
安庆市,安庆大学,2024-11-06T1500,116.9896,30.6145,22,42,0.4,14,12,134,86,42,
安庆市,市人大,2024-11-06T1500,117.0598,30.5351,36,69,0.5,29,15,127,80,60,颗粒物(PM10)
安顺市,伍家关,2024-11-06T1500,105.9606,26.2611,33,40,0.7,10,14,92,78,48,
安顺市,凤凰山,2024-11-06T1500,105.9408,26.2431,30,43,0.5,9,14,103,79,43,
安顺市,金钟山,2024-11-06T1500,105.9439,26.2564,36,37,0.6,10,15,104,82,52,细颗粒物(PM2.5)
安顺市,娄家坡,2024-11-06T1500,105.8983,26.2481,36,40,0.6,11,13,100,77,52,细颗粒物(PM2.5)
安阳市,棉研所,2024-11-06T1500,114.4839,36.0621,58,76,0.4,27,10,113,63,79,细颗粒物(PM2.5)
安阳市,红庙街,2024-11-06T1500,114.3551,36.1017,55,73,0.4,18,6,102,52,75,细颗粒物(PM2.5)
安阳市,银杏小区,2024-11-06T1500,114.361,36.0681,56,75,0.6,16,6,109,56,77,细颗粒物(PM2.5)
安阳市,信访局,2024-11-06T1500,114.3922,36.0878,64,104,0.4,16,7,99,51,87,细颗粒物(PM2.5)
安阳市,左辅环卫站,2024-11-06T1500,114.4705,36.0637,60,,0.4,15,4,109,67,,
安阳市,安钢职工学校,2024-11-06T1500,114.2917,36.0949,65,73,0.4,26,6,99,52,88,细颗粒物(PM2.5)
鞍山市,深沟寺,2024-11-06T1500,123.044,41.1196,16,34,0.5,20,10,60,40,34,
鞍山市,太阳城,2024-11-06T1500,123.011,41.0931,17,29,0.7,28,17,57,43,29,
鞍山市,太平,2024-11-06T1500,123.0485,41.1442,21,38,0.5,26,15,52,34,38,
鞍山市,铁西三道街,2024-11-06T1500,122.9642,41.0971,24,46,1.1,36,26,47,33,46,
鞍山市,铁西工业园区,2024-11-06T1500,122.9341,41.0833,17,42,1.6,41,33,43,27,42,
鞍山市,明达新区,2024-11-06T1500,123.022,41.0821,17,26,0.7,20,16,59,42,26,
鞍山市,千山,2024-11-06T1500,123.1289,41.0228,,,,,,,37,,
巴彦淖尔市,附二中,2024-11-06T1500,107.4212,40.761,38,85,0.7,35,23,64,35,68,颗粒物(PM10)
巴彦淖尔市,市环保大楼,2024-11-06T1500,107.37,40.7372,37,86,0.6,32,16,72,35,68,颗粒物(PM10)
巴音郭楞蒙古自治州,孔雀公园,2024-11-06T1500,86.1472,41.7538,24,133,0.3,10,5,102,38,92,颗粒物(PM10)
巴音郭楞蒙古自治州,棉纺厂,2024-11-06T1500,86.1972,41.7166,36,143,0.3,11,3,103,46,97,颗粒物(PM10)
巴音郭楞蒙古自治州,经济开发区,2024-11-06T1500,86.2357,41.7173,29,123,0.3,14,3,99,59,87,颗粒物(PM10)
巴中市,苏山坪,2024-11-06T1500,106.7677,31.8794,24,34,0.4,10,4,48,56,35,
巴中市,丽阳花园,2024-11-06T1500,106.7656,31.8545,28,39,0.7,37,4,14,15,40,
巴中市,圣泉水务公司,2024-11-06T1500,106.7418,31.8654,21,29,0.5,30,4,12,21,30,
巴中市,市中心医院,2024-11-06T1500,106.7616,31.8344,33,50,0.7,37,4,25,14,50,
白城市,洮北区环保局,2024-11-06T1500,122.7911,45.6077,11,17,0.2,9,4,66,49,21,
白城市,市环保局,2024-11-06T1500,122.8738,45.5725,9,17,0.4,9,3,70,50,22,
白山市,喜丰,2024-11-06T1500,126.4219,41.9171,3,11,0.3,2,8,69,49,22,
白山市,环保局,2024-11-06T1500,126.4077,41.9419,11,18,0.4,2,5,68,48,22,
白银市,第三小学,2024-11-06T1500,104.1724,36.5446,56,,0.9,23,26,94,45,77,细颗粒物(PM2.5)
白银市,动力公司,2024-11-06T1500,104.1465,36.5482,56,63,1.0,21,20,92,46,77,细颗粒物(PM2.5)
百色市,市监测站,2024-11-06T1500,106.6103,23.9011,32,46,0.6,8,,121,68,,
百色市,市中心血站,2024-11-06T1500,106.6538,23.8859,38,64,0.7,9,7,132,74,57,颗粒物(PM10)
百色市,祈福高中,2024-11-06T1500,106.6085,23.8798,31,54,0.7,8,4,127,71,52,颗粒物(PM10)
蚌埠市,工人疗养院,2024-11-06T1500,117.396,32.939,25,41,0.5,14,8,105,62,41,
蚌埠市,百货大楼,2024-11-06T1500,117.3605,32.9427,22,58,0.4,16,8,103,60,54,颗粒物(PM10)
蚌埠市,蚌埠学院,2024-11-06T1500,117.4185,32.8911,,,0.3,17,,,63,,
蚌埠市,淮上区政府,2024-11-06T1500,117.3533,32.9673,32,56,0.3,15,9,102,58,53,颗粒物(PM10)
蚌埠市,高新区,2024-11-06T1500,117.3145,32.8977,25,46,0.3,18,8,103,69,46,
蚌埠市,蚌埠田家炳中学,2024-11-06T1500,117.3092,32.9314,26,56,0.3,20,8,101,64,53,颗粒物(PM10)
包头市,市环境监测站,2024-11-06T1500,109.8756,40.6532,16,44,0.8,37,22,63,32,44,
包头市,包头八中,2024-11-06T1500,109.9991,40.5842,34,70,1.2,40,51,54,31,60,颗粒物(PM10)
包头市,青山宾馆,2024-11-06T1500,109.8538,40.6821,38,,0.8,37,,64,22,,
包头市,惠龙物流,2024-11-06T1500,109.8642,40.6288,19,44,0.7,38,20,59,33,44,
包头市,东河鸿龙湾,2024-11-06T1500,110.0377,40.5546,22,46,0.7,31,18,59,33,46,
包头市,滨河大厦,2024-11-06T1500,109.9154,40.5685,15,29,0.7,35,18,58,44,29,
包头市,包头市委党校,2024-11-06T1500,109.9447,40.6261,22,46,1.2,40,42,56,34,46,
包头市,昆区政府,2024-11-06T1500,109.8331,40.6576,38,42,0.7,37,18,65,31,54,细颗粒物(PM2.5)
宝鸡市,庙沟村,2024-11-06T1500,107.185,34.3063,64,81,0.7,18,8,73,34,87,细颗粒物(PM2.5)
宝鸡市,竹园沟,2024-11-06T1500,107.0708,34.3017,89,92,0.7,18,8,74,35,118,细颗粒物(PM2.5)
宝鸡市,三陆医院,2024-11-06T1500,107.1906,34.3672,107,112,0.8,26,9,89,35,140,细颗粒物(PM2.5)
宝鸡市,监测站,2024-11-06T1500,107.1431,34.3547,102,121,0.7,26,9,79,31,134,细颗粒物(PM2.5)
宝鸡市,技工学校,2024-11-06T1500,107.1186,34.3739,99,100,0.9,35,9,82,37,130,细颗粒物(PM2.5)
宝鸡市,陈仓区环保局家属楼,2024-11-06T1500,107.3906,34.3528,91,104,0.8,21,13,124,57,120,细颗粒物(PM2.5)
宝鸡市,文理学院,2024-11-06T1500,107.2058,34.3497,98,108,0.6,27,11,86,31,129,细颗粒物(PM2.5)
宝鸡市,三迪小学,2024-11-06T1500,107.2386,34.3622,98,107,0.8,29,14,102,38,129,细颗粒物(PM2.5)
保定市,游泳馆,2024-11-06T1500,115.493,38.8632,,,0.5,35,130,,29,,
保定市,华电二区,2024-11-06T1500,115.5213,38.8959,53,85,0.5,31,11,74,27,73,细颗粒物(PM2.5)
保定市,接待中心,2024-11-06T1500,115.4713,38.9108,52,81,0.4,31,13,67,27,72,细颗粒物(PM2.5)
保定市,地表水厂,2024-11-06T1500,115.4612,38.8416,58,101,0.3,35,13,73,31,79,细颗粒物(PM2.5)
保定市,满城区生态环境分局,2024-11-06T1500,115.31981,38.95208,61,97,0.7,51,14,69,33,83,细颗粒物(PM2.5)
保定市,清苑区第二中学,2024-11-06T1500,115.47694,38.76408,43,67,0.5,27,10,78,35,60,细颗粒物(PM2.5)
保定市,徐水物探局,2024-11-06T1500,115.62909,39.02311,61,93,1.0,40,12,72,29,83,细颗粒物(PM2.5)
保定市,双鹰农机,2024-11-06T1500,115.4202,38.8656,46,86,0.5,34,13,71,32,68,颗粒物(PM10)
保定市,植保所站,2024-11-06T1500,115.5150,38.8590,45,75,0.3,31,6,74,31,63,"颗粒物(PM10),细颗粒物(PM2.5)"
保山市,市环境监测站,2024-11-06T1500,99.1678,25.1081,3,15,0.5,8,5,67,36,21,
保山市,市环保局,2024-11-06T1500,99.1711,25.1328,14,,0.4,6,5,70,40,22,
北海市,牛尾岭水库,2024-11-06T1500,109.2262,21.588,30,40,0.7,,5,117,94,,
北海市,海滩公园,2024-11-06T1500,109.1436,21.4086,32,43,0.9,9,9,138,117,46,
北海市,新市环保局,2024-11-06T1500,109.0981,21.4661,36,58,0.8,10,7,141,113,54,颗粒物(PM10)
北海市,北海工业园,2024-11-06T1500,109.1778,21.5233,32,71,0.5,10,8,132,110,61,颗粒物(PM10)
北海市,龙潭自来水厂,2024-11-06T1500,109.1911,21.4415,39,46,0.7,6,9,134,111,55,细颗粒物(PM2.5)
北京市,万寿西宫,2024-11-06T1500,116.3621,39.8784,41,77,0.6,44,5,41,19,64,颗粒物(PM10)
北京市,定陵,2024-11-06T1500,116.2202,40.2915,21,37,0.5,24,4,31,24,37,
北京市,东四,2024-11-06T1500,116.4174,39.9289,38,77,0.6,38,8,45,22,64,颗粒物(PM10)
北京市,天坛,2024-11-06T1500,116.4072,39.8863,46,75,0.5,43,4,42,19,64,细颗粒物(PM2.5)
北京市,农展馆,2024-11-06T1500,116.462,39.9365,43,76,0.6,42,4,46,20,63,颗粒物(PM10)
北京市,官园,2024-11-06T1500,116.3392,39.9295,,,,,,,15,,
北京市,海淀万柳,2024-11-06T1500,116.2878,39.9611,39,76,0.5,36,6,46,24,63,颗粒物(PM10)
北京市,顺义新城,2024-11-06T1500,116.6636,40.135,27,48,0.6,30,5,48,32,48,
北京市,怀柔镇,2024-11-06T1500,116.6275,40.3275,19,36,0.2,20,5,61,42,36,
北京市,昌平镇,2024-11-06T1500,116.2296,40.217,27,61,0.5,34,8,44,27,56,颗粒物(PM10)
北京市,奥体中心,2024-11-06T1500,116.3966,39.9821,47,96,0.8,41,4,41,18,73,颗粒物(PM10)
北京市,古城,2024-11-06T1500,116.184,39.9136,43,88,0.8,35,7,50,28,69,颗粒物(PM10)
北京市,延庆夏都,2024-11-06T1500,115.9718,40.4529,17,30,0.2,19,1,48,28,30,
北京市,平谷新城,2024-11-06T1500,117.0709,40.1465,16,31,0.4,16,3,61,38,31,
北京市,密云新城,2024-11-06T1500,116.8336,40.4095,17,38,0.3,16,3,59,37,38,
北京市,门头沟三家店,2024-11-06T1500,116.088,39.9726,33,75,0.5,45,8,50,35,63,颗粒物(PM10)
北京市,丰台云岗,2024-11-06T1500,116.1541,39.8204,43,80,0.4,35,6,50,26,65,颗粒物(PM10)
北京市,通州东关,2024-11-06T1500,116.6804,39.9081,39,74,0.5,30,5,55,28,62,颗粒物(PM10)
北京市,房山燕山,2024-11-06T1500,115.9577,39.7603,36,71,0.4,32,4,49,34,61,颗粒物(PM10)
北京市,大兴旧宫,2024-11-06T1500,116.4672,39.7733,45,79,0.3,44,2,43,22,65,颗粒物(PM10)
北京市,延庆石河营,2024-11-06T1500,115.986,40.4563,14,31,0.3,22,3,45,27,31,
北京市,怀柔新城,2024-11-06T1500,116.6151,40.3053,20,33,0.3,22,3,53,39,33,
北京市,丰台小屯,2024-11-06T1500,116.2545,39.8768,43,88,0.5,45,5,37,18,69,颗粒物(PM10)
北京市,密云镇,2024-11-06T1500,116.84,40.3844,17,40,0.4,16,3,54,31,40,
本溪市,大峪,2024-11-06T1500,123.8275,41.3064,13,,0.4,9,11,65,43,21,
本溪市,溪湖,2024-11-06T1500,123.7567,41.3325,7,21,0.3,8,8,70,49,22,
本溪市,彩屯,2024-11-06T1500,123.7169,41.3094,12,14,0.5,13,7,63,45,20,
本溪市,东明,2024-11-06T1500,123.7669,41.2864,3,15,0.4,10,8,69,50,22,
本溪市,新立屯,2024-11-06T1500,123.7992,41.2664,16,,0.6,13,5,63,54,,
本溪市,威宁,2024-11-06T1500,123.8142,41.3472,3,15,0.6,7,8,68,44,22,
毕节市,八中,2024-11-06T1500,105.2864,27.3125,39,51,,14,9,73,58,,
毕节市,师专,2024-11-06T1500,105.31,27.2944,36,42,0.6,14,10,77,57,52,细颗粒物(PM2.5)
毕节市,长征村,2024-11-06T1500,105.3631,27.3533,40,48,0.7,13,15,88,68,57,细颗粒物(PM2.5)
滨州市,第二水厂,2024-11-06T1500,118.0018,37.3617,14,39,0.4,19,12,84,50,39,
滨州市,北中新校,2024-11-06T1500,117.9776,37.393,14,34,0.4,22,10,93,53,34,
滨州市,中海酒店,2024-11-06T1500,117.9378,37.3956,27,46,0.5,21,14,113,67,46,
滨州市,开发区一中,2024-11-06T1500,117.9378,37.3553,19,53,0.5,23,15,102,62,52,颗粒物(PM10)
滨州市,金海六路,2024-11-06T1500,118.0917,37.694,12,41,0.3,,9,,46,,
滨州市,滨州市西街道办事处,2024-11-06T1500,117.9956,37.3753,17,29,0.5,22,10,,52,,
亳州市,污水处理厂,2024-11-06T1500,115.8072,33.8399,21,54,0.4,14,8,118,74,52,颗粒物(PM10)
亳州市,三国揽胜宫,2024-11-06T1500,115.7789,33.8518,30,56,0.4,12,5,117,71,53,颗粒物(PM10)
亳州市,亳州学院,2024-11-06T1500,115.7633,33.8034,14,52,0.3,14,6,119,75,51,颗粒物(PM10)
博尔塔拉蒙古自治州,市党校,2024-11-06T1500,82.0485,44.8556,38,66,0.6,25,21,28,22,58,颗粒物(PM10)
博尔塔拉蒙古自治州,市环保局,2024-11-06T1500,82.0806,44.8969,32,66,0.4,26,7,34,29,58,颗粒物(PM10)
沧州市,沧县城建局,2024-11-06T1500,116.8842,38.2991,23,49,0.4,28,5,84,48,49,
沧州市,电视转播站,2024-11-06T1500,116.8584,38.3254,22,44,0.4,15,7,93,6,44,
沧州市,市环保局,2024-11-06T1500,116.8709,38.3228,,,,,,,32,,
沧州市,河北水利电力学院,2024-11-06T1500,116.8136,38.3004,23,44,0.2,11,7,92,52,44,
昌都市,昌都监测站,2024-11-06T1500,97.1806,31.1273,3,7,0.6,6,8,82,55,26,
昌都市,昌都会议中心,2024-11-06T1500,97.1714,31.1406,3,9,0.4,4,7,87,60,28,
昌吉回族自治州,天山天池,2024-11-06T1500,88.1236,43.8886,3,9,0.5,5,9,93,73,30,
昌吉回族自治州,新区政务中心,2024-11-06T1500,87.2717,44.0297,54,110,0.7,38,10,,26,,
昌吉回族自治州,亚心广场,2024-11-06T1500,87.3095,44.0142,63,117,0.8,40,8,71,26,85,细颗粒物(PM2.5)
长春市,食品厂,2024-11-06T1500,125.3325,43.9166,11,22,0.2,17,7,51,37,22,
长春市,客车厂,2024-11-06T1500,125.2863,43.9027,15,,0.0,14,8,54,43,22,
长春市,邮电学院,2024-11-06T1500,125.2841,43.8463,11,20,0.2,12,9,58,42,20,
长春市,劳动公园,2024-11-06T1500,125.3716,43.8772,11,20,0.5,11,10,62,46,20,
长春市,园林处,2024-11-06T1500,125.3297,43.8805,13,22,0.3,10,8,53,42,22,
长春市,净月潭,2024-11-06T1500,125.4605,43.79,9,13,0.3,7,7,57,44,18,
长春市,甩湾子,2024-11-06T1500,125.7194,43.515,7,10,0.7,7,6,47,34,15,
长春市,经开区环卫处,2024-11-06T1500,125.3863,43.8447,10,18,0.4,14,11,55,42,18,
长春市,高新区管委会,2024-11-06T1500,125.245,43.7783,8,28,0.4,10,7,57,43,28,
长春市,岱山公园,2024-11-06T1500,125.1761,43.8325,12,17,0.3,8,6,55,38,18,
长沙市,经开区环保局,2024-11-06T1500,113.0833,28.2325,45,79,0.5,17,4,162,98,65,颗粒物(PM10)
长沙市,高开区环保局,2024-11-06T1500,112.8872,28.2189,36,56,0.4,8,6,152,94,53,颗粒物(PM10)
长沙市,马坡岭,2024-11-06T1500,113.0792,28.2053,51,64,0.6,15,6,158,100,70,细颗粒物(PM2.5)
长沙市,湖南师范大学,2024-11-06T1500,112.9394,28.19,39,72,0.6,12,5,161,107,61,颗粒物(PM10)
长沙市,雨花区环保局,2024-11-06T1500,113.0178,28.1322,43,83,0.5,13,6,158,100,67,颗粒物(PM10)
长沙市,伍家岭,2024-11-06T1500,112.9792,28.2597,44,71,0.7,13,6,158,90,62,细颗粒物(PM2.5)
长沙市,火车新站,2024-11-06T1500,113.0014,28.1944,48,70,0.6,13,7,158,99,67,细颗粒物(PM2.5)
长沙市,天心区环保局,2024-11-06T1500,112.9844,28.1178,38,66,0.3,20,6,154,95,58,颗粒物(PM10)
长沙市,湖南中医药大学,2024-11-06T1500,112.8908,28.1308,36,74,0.7,11,9,166,107,62,颗粒物(PM10)
长沙市,沙坪,2024-11-06T1500,112.9581,28.3611,39,58,0.4,12,9,152,95,55,细颗粒物(PM2.5)
长治市,清华站,2024-11-06T1500,113.1147,36.1547,22,42,0.4,16,10,109,66,42,
长治市,监测站,2024-11-06T1500,113.1031,36.1989,27,36,0.5,12,12,109,55,39,
长治市,审计局,2024-11-06T1500,113.0886,36.2125,29,59,0.5,13,7,105,56,55,颗粒物(PM10)
长治市,长治八中,2024-11-06T1500,113.0844,36.1856,27,32,0.5,16,9,109,56,39,
长治市,德盛苑,2024-11-06T1500,113.1569,36.1911,19,41,0.5,18,6,113,77,41,
长治市,向阳小学,2024-11-06T1500,113.06,36.0464,34,58,0.3,24,11,108,85,54,颗粒物(PM10)
长治市,屯留一中,2024-11-06T1500,112.8792,36.3144,30,52,1.2,18,8,114,65,51,颗粒物(PM10)
长治市,潞城四中,2024-11-06T1500,113.235,36.3489,34,59,0.4,17,9,122,66,55,颗粒物(PM10)
常德市,市二中,2024-11-06T1500,111.6975,28.9703,54,87,0.7,15,7,161,86,74,细颗粒物(PM2.5)
常德市,白鹤山,2024-11-06T1500,111.7158,29.1456,,,,,,,,,
常德市,武陵区永安,2024-11-06T1500,111.7153,29.0289,45,92,0.9,14,8,162,98,71,颗粒物(PM10)
常德市,鼎城区玉霞,2024-11-06T1500,111.6892,28.9881,54,90,0.9,13,8,164,90,74,细颗粒物(PM2.5)
常德市,武陵区长庚,2024-11-06T1500,111.6625,29.0531,52,90,0.8,19,7,166,98,72,细颗粒物(PM2.5)
常州市,市监测站,2024-11-06T1500,119.9633,31.762,22,52,0.4,16,8,112,82,51,颗粒物(PM10)
常州市,武进监测站,2024-11-06T1500,119.9468,31.7069,19,33,0.4,9,13,106,78,34,
常州市,安家,2024-11-06T1500,119.9255,31.9087,17,32,0.3,14,8,111,77,35,
常州市,行政中心,2024-11-06T1500,119.9805,31.8174,18,36,0.5,14,1,109,79,36,
常州市,经开区,2024-11-06T1500,120.0522,31.7748,25,44,0.3,20,8,116,78,44,
常州市,钟楼,2024-11-06T1500,119.9025,31.7964,17,35,0.5,15,8,106,79,35,
常州市,武进经发区,2024-11-06T1500,119.8598,31.7066,19,40,0.3,9,8,110,77,40,
常州市,金坛城区,2024-11-06T1500,119.5826,31.7245,19,33,0.3,11,6,118,84,37,
朝阳市,西梁,2024-11-06T1500,120.4318,41.5881,15,18,0.5,8,12,68,42,22,
朝阳市,河畔小区,2024-11-06T1500,120.4521,41.5646,17,93,0.6,10,12,68,39,72,颗粒物(PM10)
朝阳市,八里堡,2024-11-06T1500,120.4176,41.5648,19,25,0.7,10,14,70,40,28,
朝阳市,农业园区,2024-11-06T1500,120.3806,41.5969,18,83,1.0,12,14,68,,67,颗粒物(PM10)
潮州市,西园路,2024-11-06T1500,116.6367,23.6719,25,,0.3,,4,94,82,,
潮州市,市政府,2024-11-06T1500,116.6183,23.6608,18,32,0.7,7,6,98,83,32,
潮州市,金山,2024-11-06T1500,116.6461,23.6761,23,31,0.7,6,8,95,84,33,
郴州市,马头岭,2024-11-06T1500,113.0073,25.9061,17,50,1.0,11,20,118,92,50,
郴州市,市职中,2024-11-06T1500,113.0116,25.8226,34,45,0.7,8,19,132,97,49,
郴州市,兴隆步行街,2024-11-06T1500,113.0161,25.8001,40,64,0.7,12,22,131,104,57,"颗粒物(PM10),细颗粒物(PM2.5)"
郴州市,市审计局,2024-11-06T1500,113.0383,25.8071,38,50,0.6,8,21,137,104,54,细颗粒物(PM2.5)
郴州市,市环保局,2024-11-06T1500,113.0348,25.7759,25,60,0.6,8,24,130,107,55,颗粒物(PM10)
成都市,金泉两河,2024-11-06T1500,103.9728,30.7236,30,57,0.5,27,3,42,24,54,颗粒物(PM10)
成都市,十里店,2024-11-06T1500,104.176,30.6872,9,21,0.4,20,3,75,30,24,
成都市,三瓦窑,2024-11-06T1500,104.079,30.5706,19,39,0.3,16,2,71,36,39,
成都市,沙河铺,2024-11-06T1500,104.1114,30.63,17,36,,19,,75,36,,
成都市,君平街,2024-11-06T1500,104.0786,30.6531,31,62,0.6,45,6,26,22,56,颗粒物(PM10)
成都市,灵岩寺,2024-11-06T1500,103.613,31.0283,,,,,,,,,
成都市,大石西路,2024-11-06T1500,104.0239,30.65639,44,69,0.6,39,4,22,19,62,细颗粒物(PM2.5)
成都市,龙泉驿区区政府,2024-11-06T1500,104.2725,30.5589,17,22,0.4,12,3,72,46,25,
成都市,金博路,2024-11-06T1500,104.0106,30.6931,45,61,0.5,34,2,27,18,63,细颗粒物(PM2.5)
成都市,华阳,2024-11-06T1500,104.0578,30.5225,24,34,0.5,13,2,57,27,35,
成都市,车城东七路,2024-11-06T1500,104.2394,30.5319,25,38,0.4,12,2,67,30,38,
成都市,青白江技师分院,2024-11-06T1500,104.3853,30.7453,25,34,0.5,13,4,80,42,36,
成都市,科学城,2024-11-06T1500,104.0789,30.4072,36,50,,,,,22,,
成都市,光华大道三段,2024-11-06T1500,103.8506,30.6947,38,49,0.5,20,5,61,40,54,细颗粒物(PM2.5)
承德市,铁路,2024-11-06T1500,117.9531,40.9081,14,,0.4,16,11,53,31,20,
承德市,中国银行,2024-11-06T1500,117.9392,40.9763,3,23,0.4,13,9,57,31,23,
承德市,开发区,2024-11-06T1500,117.9503,40.928,7,26,0.4,18,10,56,33,26,
承德市,文化中心,2024-11-06T1500,117.8051,40.9655,3,38,1.7,21,50,55,27,38,
承德市,离宫,2024-11-06T1500,117.9268,41.0026,14,18,0.5,16,11,46,27,20,
池州市,池州学院,2024-11-06T1500,117.47,30.6618,28,64,0.5,17,8,129,86,57,颗粒物(PM10)
池州市,展览馆,2024-11-06T1500,117.4918,30.6617,32,55,0.4,16,7,128,86,53,颗粒物(PM10)
池州市,第八中学,2024-11-06T1500,117.5627,30.695,31,56,0.4,16,7,126,82,53,颗粒物(PM10)
池州市,第十二中学,2024-11-06T1500,117.5038,30.6243,24,55,0.4,15,6,131,91,53,颗粒物(PM10)
赤峰市,松山一中,2024-11-06T1500,118.9233,42.2816,3,20,0.7,23,23,60,35,20,
赤峰市,哈达街,2024-11-06T1500,118.9576,42.2728,8,17,0.8,25,19,51,41,17,
赤峰市,天义路,2024-11-06T1500,118.8788,42.2554,3,6,0.3,11,7,78,42,25,
赤峰市,银河街,2024-11-06T1500,119.2658,42.0353,24,44,0.8,19,21,63,39,44,
赤峰市,桥北物流园区,2024-11-06T1500,118.9359,42.3147,27,34,1.2,27,51,60,38,39,
崇左市,市环保局江州分局,2024-11-06T1500,107.3476,22.4136,33,59,0.7,6,5,138,94,55,颗粒物(PM10)
崇左市,城南新区,2024-11-06T1500,107.3702,22.3707,37,53,0.6,5,7,146,96,53,细颗粒物(PM2.5)
滁州市,老年大学,2024-11-06T1500,118.3093,32.3153,12,27,0.2,12,3,110,90,35,
滁州市,人大宾馆,2024-11-06T1500,118.3244,32.2786,14,25,0.3,14,7,106,73,34,
滁州市,市政府原办公楼,2024-11-06T1500,118.3118,32.3038,13,21,0.3,14,5,107,72,34,
滁州市,图书馆,2024-11-06T1500,118.3267,32.2634,11,26,0.1,11,,,70,,
楚雄彝族自治州,州环境监测站,2024-11-06T1500,101.5482,25.0441,41,45,0.8,9,6,72,45,58,细颗粒物(PM2.5)
楚雄彝族自治州,市经济开发区,2024-11-06T1500,101.538,25.0492,39,44,0.7,10,6,72,40,55,细颗粒物(PM2.5)
达州市,达州职业技术学院,2024-11-06T1500,107.5277,31.2827,26,33,0.7,16,4,55,16,38,
达州市,市环境监测站,2024-11-06T1500,107.5086,31.2186,17,34,0.5,25,5,69,20,34,
达州市,凤凰小区,2024-11-06T1500,107.4988,31.2132,22,39,0.5,19,7,78,24,39,
达州市,达县机关宾馆,2024-11-06T1500,107.5082,31.1986,35,36,0.6,25,5,73,29,50,
达州市,市政中心,2024-11-06T1500,107.4644,31.2124,14,50,0.8,23,10,70,23,50,
大理白族自治州,大理市环境监测站,2024-11-06T1500,100.1542,25.7054,29,43,0.6,9,6,65,42,43,
大理白族自治州,大理古城,2024-11-06T1500,100.2171,25.5811,17,30,0.5,17,6,58,47,30,
大连市,甘井子,2024-11-06T1500,121.612,38.9741,13,27,0.7,33,12,61,50,27,
大连市,周水子,2024-11-06T1500,121.565,38.9511,13,28,0.6,32,15,56,41,28,
大连市,星海三站,2024-11-06T1500,121.5637,38.8845,10,21,0.4,13,8,72,51,23,
大连市,青泥洼桥,2024-11-06T1500,121.6302,38.9117,11,23,0.2,19,11,67,53,23,
大连市,傅家庄,2024-11-06T1500,121.6251,38.8638,10,17,0.3,17,10,71,62,23,
大连市,七贤岭,2024-11-06T1500,121.5213,38.8661,8,20,0.5,15,8,69,52,22,
大连市,旅顺,2024-11-06T1500,121.2529,38.8061,6,20,0.5,14,8,88,60,28,
大连市,金州,2024-11-06T1500,121.7485,39.1311,16,26,0.4,22,8,66,59,26,
大连市,开发区,2024-11-06T1500,121.7811,39.0496,11,22,0.2,17,7,65,57,22,
大连市,双D港,2024-11-06T1500,121.9762,39.0631,7,12,0.4,11,8,80,70,25,
大庆市,大同区,2024-11-06T1500,124.81117,46.03138,20,24,0.3,4,2,59,44,29,
大庆市,龙凤区,2024-11-06T1500,125.129,46.533,18,34,0.4,4,3,55,41,34,
大庆市,红岗区,2024-11-06T1500,124.902,46.408,22,26,0.3,6,6,60,45,32,
大庆市,萨尔图区,2024-11-06T1500,125.153,46.586,21,,0.2,10,5,55,44,30,
大庆市,让胡路区,2024-11-06T1500,124.9042,46.6215,29,,0.2,5,5,56,44,42,
大庆市,萨区政府监测点,2024-11-06T1500,125.141,46.634,9,13,0.3,8,8,52,40,17,
大同市,果树场,2024-11-06T1500,113.3819,40.1097,13,47,0.4,22,10,79,39,47,
大同市,云冈宾馆,2024-11-06T1500,113.2994,40.0758,3,42,0.5,26,15,82,43,42,
大同市,大同大学,2024-11-06T1500,113.3444,40.0917,16,33,0.5,20,11,86,42,33,
大同市,安家小村,2024-11-06T1500,113.2661,40.1269,17,46,0.4,19,16,89,46,46,
大同市,教育学院,2024-11-06T1500,113.2711,40.0844,12,50,0.4,28,12,80,48,50,
大同市,大同市卫生学校,2024-11-06T1500,113.3397,40.0597,15,,,22,12,85,39,,
大同市,云冈站,2024-11-06T1500,113.1367,40.1122,18,54,0.4,22,13,97,45,52,颗粒物(PM10)
大同市,图书馆,2024-11-06T1500,113.1186,40.2556,37,60,0.5,31,18,78,45,55,颗粒物(PM10)
大同市,区一中,2024-11-06T1500,113.5931,40.0461,10,41,0.5,28,18,66,42,41,
大同市,第二人民医院,2024-11-06T1500,113.2802,40.0995,18,49,0.5,23,15,85,45,49,
大兴安岭地区,科技局,2024-11-06T1500,124.1069,50.4097,12,14,0.2,3,4,53,42,18,
大兴安岭地区,红旗社区,2024-11-06T1500,124.1164,50.4278,3,9,0.3,4,2,50,36,16,
丹东市,江湾东路,2024-11-06T1500,124.3303,40.0625,12,20,0.3,10,12,59,55,20,
丹东市,临江后街,2024-11-06T1500,124.4256,40.1503,10,14,0.3,6,5,66,58,21,
丹东市,元宝山,2024-11-06T1500,124.3933,40.1461,3,12,0.4,4,4,66,58,21,
丹东市,民主桥,2024-11-06T1500,124.3633,40.1092,6,18,0.3,6,5,65,54,21,
儋州市,第一中学子站,2024-11-06T1500,109.5726,19.5167,31,51,0.7,7,6,114,87,51,颗粒物(PM10)
儋州市,东坡学校子站,2024-11-06T1500,109.5567,19.5187,27,42,0.7,9,6,125,95,42,
德宏傣族景颇族自治州,德宏州监测站,2024-11-06T1500,98.5842,24.428,9,14,0.6,15,5,61,36,20,
德宏傣族景颇族自治州,芒市人民政府综合楼,2024-11-06T1500,98.5881,24.4368,6,15,0.7,16,4,50,30,16,
德阳市,东山公园,2024-11-06T1500,104.4239,31.1208,14,42,0.5,10,1,74,48,42,
德阳市,西小区,2024-11-06T1500,104.3826,31.1317,27,45,0.6,14,2,66,40,45,
德阳市,耐火材料厂,2024-11-06T1500,104.3553,31.1091,20,38,0.4,,3,,35,,
德阳市,市教育局,2024-11-06T1500,104.4019,31.1244,18,39,0.5,13,2,66,36,39,
德州市,儿童乐园,2024-11-06T1500,116.3032,37.4674,22,51,0.5,25,13,89,58,51,颗粒物(PM10)
德州市,监理站,2024-11-06T1500,116.2991,37.4451,22,44,0.5,23,12,91,59,44,
德州市,九衢泉纯净水厂,2024-11-06T1500,116.2721,37.4379,14,48,0.4,23,13,88,54,48,
德州市,开发区人民医院,2024-11-06T1500,116.3728,37.4403,14,36,0.6,18,11,88,53,36,
德州市,太阳城中学,2024-11-06T1500,116.3572,37.4094,17,41,0.5,26,10,91,41,41,
德州市,陵城艺术中心,2024-11-06T1500,116.5652,37.3319,9,27,0.5,19,13,84,52,27,
迪庆藏族自治州,迪庆州站,2024-11-06T1500,99.7056,27.8317,9,18,0.2,9,7,82,50,26,
迪庆藏族自治州,质量技术监督局,2024-11-06T1500,99.7136,27.8094,3,25,0.4,11,7,80,47,25,
定西市,东关小学,2024-11-06T1500,104.6241,35.5734,18,46,0.2,4,3,87,63,46,
定西市,供电公司,2024-11-06T1500,104.6194,35.5934,17,38,0.3,5,6,86,65,38,
东莞市,莞城梨川,2024-11-06T1500,113.7547,23.0494,26,41,0.8,12,9,136,128,43,
东莞市,东城石井,2024-11-06T1500,113.7944,23.0128,31,47,0.8,13,10,150,131,47,
东莞市,南城西平,2024-11-06T1500,113.7383,22.9658,32,51,0.7,12,7,155,130,51,颗粒物(PM10)
东莞市,万江金泰,2024-11-06T1500,113.7338,23.0381,27,40,0.8,9,8,134,127,42,
东莞市,南城元岭,2024-11-06T1500,113.7533,23.0202,27,42,0.7,7,8,132,124,42,
东莞市,东城主山,2024-11-06T1500,113.7875,23.0457,29,46,0.7,12,10,141,130,46,
东营市,市环保局,2024-11-06T1500,118.6614,37.4309,12,29,0.4,21,4,87,55,29,
东营市,开发区管委会,2024-11-06T1500,118.6904,37.4338,17,35,0.4,19,7,86,51,35,
东营市,垦利区民丰路,2024-11-06T1500,118.5719,37.565,12,29,0.3,19,9,92,54,29,
东营市,河口城区,2024-11-06T1500,118.5055,37.8612,15,,,18,5,87,55,,
东营市,胜利站,2024-11-06T1500,118.4978,37.4623,12,34,0.3,27,6,89,56,34,
东营市,理想之城,2024-11-06T1500,118.35,37.26,14,31,0.4,21,6,83,50,31,
鄂尔多斯市,综合楼,2024-11-06T1500,110.0023,39.8129,17,46,0.5,23,11,102,60,46,
鄂尔多斯市,巴音孟克林场办事处,2024-11-06T1500,109.9486,39.8261,17,46,0.5,28,13,89,56,46,
鄂尔多斯市,康泽苑,2024-11-06T1500,109.7736,39.5986,17,46,0.4,17,10,101,50,46,
鄂尔多斯市,华泰汽车城,2024-11-06T1500,109.8119,39.5989,19,41,0.4,16,11,99,45,41,
鄂尔多斯市,奥林花园,2024-11-06T1500,109.9734,39.7884,,46,0.7,20,11,96,49,,
鄂州市,市政府,2024-11-06T1500,114.8938,30.3994,22,35,0.6,17,8,125,85,40,
鄂州市,赵家坝,2024-11-06T1500,114.8989,30.3714,15,33,0.5,17,8,141,91,45,
鄂州市,精准医疗中心,2024-11-06T1500,114.8094,30.4089,22,48,1.0,18,15,137,99,48,
恩施土家族苗族自治州,湖北民院,2024-11-06T1500,109.4978,30.2981,37,56,,11,6,108,47,,
恩施土家族苗族自治州,州电力总公司,2024-11-06T1500,109.4707,30.2798,30,50,0.5,17,7,107,47,50,
恩施土家族苗族自治州,龙凤新区,2024-11-06T1500,109.5061,30.3772,28,43,0.7,14,6,97,45,43,
防城港市,沙万,2024-11-06T1500,108.3411,21.6158,49,63,0.6,11,6,145,115,68,细颗粒物(PM2.5)
防城港市,防城档案局,2024-11-06T1500,108.3514,21.7731,51,82,,13,6,,103,,
防城港市,大海花园,2024-11-06T1500,108.3506,21.6414,47,124,0.7,11,5,148,117,87,颗粒物(PM10)
佛山市,湾梁,2024-11-06T1500,113.1294,23.0067,32,63,0.8,22,7,171,143,64,臭氧1小时
佛山市,华材职中,2024-11-06T1500,113.1083,23.0478,35,53,0.6,23,9,169,137,62,臭氧1小时
佛山市,南海气象局,2024-11-06T1500,113.144,23.0453,32,62,0.5,15,8,168,139,60,臭氧1小时
佛山市,顺德苏岗,2024-11-06T1500,113.2881,22.8094,29,46,0.8,16,8,162,129,53,臭氧1小时
佛山市,高明孔堂,2024-11-06T1500,112.8383,22.8678,40,59,0.7,20,8,188,147,85,臭氧1小时
佛山市,三水监测站,2024-11-06T1500,112.8836,23.1588,40,46,0.7,17,9,161,139,57,细颗粒物(PM2.5)
佛山市,三水云东海,2024-11-06T1500,112.867,23.185,34,43,0.7,15,11,155,134,49,
佛山市,容桂街道办,2024-11-06T1500,113.2544,22.7642,36,46,0.7,17,8,176,137,70,臭氧1小时
福州市,鼓山,2024-11-06T1500,119.3903,26.0543,,,,,,,108,,
福州市,师大,2024-11-06T1500,119.2681,26.0504,3,11,0.3,7,3,121,110,38,
福州市,五四北路,2024-11-06T1500,119.2984,26.1028,4,,,12,,112,105,,
福州市,杨桥西路,2024-11-06T1500,119.2648,26.0768,3,16,0.3,5,1,121,110,38,
福州市,紫阳,2024-11-06T1500,119.317,26.0746,3,45,0.4,10,3,107,96,45,
福州市,九龙,2024-11-06T1500,119.5799,26.0936,,,,,,,127,,
福州市,吴航,2024-11-06T1500,119.5189,25.9664,7,18,0.1,8,3,116,104,37,
抚顺市,望花区,2024-11-06T1500,123.7977,41.8491,14,24,0.7,16,5,62,44,24,
抚顺市,顺城区,2024-11-06T1500,123.9161,41.8822,10,20,0.3,17,6,63,40,20,
抚顺市,东洲区,2024-11-06T1500,124.0436,41.8611,9,17,0.3,13,8,57,49,18,
抚顺市,新抚区,2024-11-06T1500,123.9247,41.8642,12,25,0.1,16,9,60,42,25,
抚顺市,大伙房水库,2024-11-06T1500,124.0972,41.8961,10,12,0.3,6,7,65,50,21,
抚顺市,沈抚新城,2024-11-06T1500,123.7086,41.8391,12,26,0.2,10,7,64,45,26,
抚州市,桐源党溪,2024-11-06T1500,116.2127,28.0814,16,50,0.4,4,6,122,90,50,
抚州市,市站,2024-11-06T1500,116.3544,27.9831,17,44,0.7,14,,108,88,,
抚州市,血防站,2024-11-06T1500,116.3565,27.963,17,44,0.4,6,2,123,74,44,
抚州市,采茶剧团,2024-11-06T1500,116.3564,28.0007,18,37,0.9,5,7,119,90,38,
抚州市,医学分院,2024-11-06T1500,116.385,27.9647,14,45,0.6,7,6,118,85,45,
阜新市,工业园区,2024-11-06T1500,121.6094,41.998,10,28,0.3,11,18,74,46,28,
阜新市,长青街,2024-11-06T1500,121.6697,42.0279,17,29,0.5,19,19,67,40,29,
阜新市,农业园区,2024-11-06T1500,121.6673,42.0705,14,31,0.3,13,16,72,51,31,
阜新市,东苑,2024-11-06T1500,121.6717,42.0224,24,44,0.5,17,21,63,40,44,
阜新市,玉龙新城,2024-11-06T1500,121.6506,42.0498,18,32,0.4,12,17,75,50,32,
阜阳市,市监测站,2024-11-06T1500,115.8277,32.8929,34,46,0.4,16,8,111,72,49,
阜阳市,开发区,2024-11-06T1500,115.8554,32.8605,37,79,0.5,22,8,104,68,65,颗粒物(PM10)
阜阳市,阜阳职业技术学院,2024-11-06T1500,115.784,32.8892,34,47,0.4,13,8,108,74,49,
阜阳市,市规划展馆,2024-11-06T1500,115.7901,32.8613,29,38,0.3,15,7,115,75,42,
阜阳市,枣园社区,2024-11-06T1500,115.836,32.9183,38,45,0.4,16,8,107,72,54,细颗粒物(PM2.5)
甘南藏族自治州,州政府,2024-11-06T1500,102.9099,34.9841,9,18,0.3,2,1,80,41,25,
甘南藏族自治州,甘肃民族师范学院,2024-11-06T1500,102.8914,34.9617,3,6,0.7,8,6,83,40,26,
甘孜藏族自治州,水桥子,2024-11-06T1500,101.9603,30.0475,8,,0.2,3,6,59,30,19,
甘孜藏族自治州,州环保局,2024-11-06T1500,101.9533,29.9972,3,,0.2,8,3,60,44,19,
赣江新区,桑海产业园,2024-11-06T1500,115.8347,28.932,19,51,0.7,14,12,124,88,51,颗粒物(PM10)
赣州市,通天岩,2024-11-06T1500,114.9017,25.9149,3,51,1.5,7,108,132,102,51,颗粒物(PM10)
赣州市,地委,2024-11-06T1500,114.9367,25.8664,28,48,0.6,8,1,128,110,48,
赣州市,气象台,2024-11-06T1500,114.9461,25.8481,26,40,0.6,13,4,123,107,40,
赣州市,市图书馆,2024-11-06T1500,114.9322,25.8333,23,38,0.7,10,6,130,114,41,
赣州市,华坚鞋城,2024-11-06T1500,114.8905,25.8471,25,40,0.7,10,6,122,110,40,
赣州市,赣县区卫计委,2024-11-06T1500,115.0093,25.8613,33,46,0.6,7,6,107,94,48,
固原市,马园,2024-11-06T1500,106.2319,36.1417,6,19,0.4,5,5,83,54,26,
固原市,监测站,2024-11-06T1500,106.2792,36.0022,11,14,0.4,12,5,88,52,28,
固原市,新区,2024-11-06T1500,106.2375,36.0211,10,24,0.3,10,4,82,52,26,
固原市,原州区十五小,2024-11-06T1500,106.2177,35.9959,9,22,0.3,6,5,94,78,30,
广安市,小平旧居,2024-11-06T1500,106.6308,30.5278,,,,,,,,,
广安市,市委,2024-11-06T1500,106.6303,30.4576,22,46,0.5,19,3,50,44,46,
广安市,友谊中学,2024-11-06T1500,106.6271,30.4663,27,40,0.6,22,3,48,39,40,
广安市,广电花园,2024-11-06T1500,106.6388,30.4551,22,40,0.3,20,4,48,44,40,
广安市,北辰小学,2024-11-06T1500,106.6351,30.4865,24,43,0.6,20,4,59,50,43,
广元市,黑石坡,2024-11-06T1500,105.8945,32.4535,13,30,0.5,25,5,21,26,30,
广元市,老城,2024-11-06T1500,105.821,32.4444,28,64,1.4,35,43,27,18,57,颗粒物(PM10)
广元市,监测站,2024-11-06T1500,105.8628,32.4287,41,,1.2,39,22,34,18,58,细颗粒物(PM2.5)
广元市,经开区,2024-11-06T1500,105.8047,32.4166,72,116,2.2,41,117,19,14,97,细颗粒物(PM2.5)
广州市,广雅中学,2024-11-06T1500,113.2347,23.1423,32,59,1.1,18,8,153,133,55,颗粒物(PM10)
广州市,市五中,2024-11-06T1500,113.2612,23.105,35,63,0.7,14,6,168,147,60,臭氧1小时
广州市,广东商学院,2024-11-06T1500,113.3478,23.0916,32,46,0.6,13,7,157,135,50,
广州市,市八十六中,2024-11-06T1500,113.4332,23.1047,32,50,0.6,11,4,140,122,50,
广州市,番禺中学,2024-11-06T1500,113.3505,22.9483,11,35,0.6,20,7,155,136,49,
广州市,花都师范,2024-11-06T1500,113.2146,23.3916,29,44,1.1,12,6,139,131,44,
广州市,市监测站,2024-11-06T1500,113.2597,23.1331,33,51,0.6,13,6,154,134,51,颗粒物(PM10)
广州市,九龙镇镇龙,2024-11-06T1500,113.5618,23.312,33,46,0.7,9,6,129,121,48,
广州市,麓湖,2024-11-06T1500,113.2765,23.1544,38,59,0.7,13,5,163,141,55,颗粒物(PM10)
广州市,帽峰山森林公园,2024-11-06T1500,113.443,23.3035,25,42,0.7,10,7,146,134,46,
广州市,体育西,2024-11-06T1500,113.3221,23.1322,35,49,0.9,10,7,150,131,50,
广州市,从化街口,2024-11-06T1500,113.5717,23.5491,34,44,0.7,10,8,129,127,49,
广州市,白云竹料,2024-11-06T1500,113.3472,23.3692,32,56,0.8,9,7,145,138,53,颗粒物(PM10)
广州市,白云嘉禾,2024-11-06T1500,113.2981,23.237,33,57,0.9,19,8,150,135,54,颗粒物(PM10)
广州市,黄埔科学城,2024-11-06T1500,113.4256,23.1716,31,46,0.7,10,6,148,133,47,
广州市,番禺大学城,2024-11-06T1500,113.3942,23.0483,27,,0.6,13,7,150,129,,
广州市,南沙黄阁,2024-11-06T1500,113.4922,22.8168,35,65,0.7,21,10,158,130,58,颗粒物(PM10)
广州市,南沙街,2024-11-06T1500,113.5342,22.7896,41,61,0.7,,9,159,132,,
广州市,花都梯面,2024-11-06T1500,113.2902,23.5544,30,43,0.7,8,8,140,132,44,
广州市,从化良口,2024-11-06T1500,113.7858,23.7478,31,42,,7,6,127,127,,
广州市,增城荔城,2024-11-06T1500,113.8051,23.2614,32,41,0.6,12,7,129,122,46,
贵港市,德智高中,2024-11-06T1500,109.568,23.1478,,,,,,,,,
贵港市,江南子站,2024-11-06T1500,109.6047,23.0666,43,61,0.8,,8,,123,,
贵港市,贵城子站,2024-11-06T1500,109.6014,23.0948,44,61,0.9,10,8,152,122,62,细颗粒物(PM2.5)
贵港市,荷城子站,2024-11-06T1500,109.5669,23.1065,51,68,0.7,12,11,143,117,70,细颗粒物(PM2.5)
贵港市,新世纪学校,2024-11-06T1500,109.5886,23.1172,51,63,0.8,10,9,150,121,70,细颗粒物(PM2.5)
贵阳市,马鞍山,2024-11-06T1500,106.6899,26.5998,9,22,0.6,8,4,118,102,37,
贵阳市,市环保站,2024-11-06T1500,106.6971,26.5694,22,22,0.4,9,4,133,118,42,
贵阳市,鉴湖路,2024-11-06T1500,106.6243,26.6266,22,31,0.4,10,4,116,111,37,
贵阳市,燕子冲,2024-11-06T1500,106.7487,26.6343,17,22,0.4,7,5,121,111,38,
贵阳市,碧云窝,2024-11-06T1500,106.6555,26.4365,19,36,0.4,12,5,134,113,42,
贵阳市,中院村,2024-11-06T1500,106.694,26.5161,24,34,0.7,12,4,131,112,41,
贵阳市,红边门,2024-11-06T1500,106.7109,26.6027,27,,0.6,12,4,122,110,39,
贵阳市,新华路,2024-11-06T1500,106.7164,26.5699,22,34,0.5,8,5,127,108,40,
贵阳市,太慈桥,2024-11-06T1500,106.674,26.5424,17,19,0.4,13,4,123,105,39,
贵阳市,桐木岭,2024-11-06T1500,106.805,26.3003,41,58,0.6,4,5,37,96,58,细颗粒物(PM2.5)
桂林市,电子科大尧山校区,2024-11-06T1500,110.4144,25.3167,28,58,0.6,9,5,146,138,54,颗粒物(PM10)
桂林市,监测站,2024-11-06T1500,110.2819,25.2697,45,59,0.7,13,10,150,139,63,细颗粒物(PM2.5)
桂林市,龙隐路小学,2024-11-06T1500,110.3089,25.2708,42,53,0.7,10,10,158,147,59,细颗粒物(PM2.5)
桂林市,八中,2024-11-06T1500,110.2869,25.2178,33,51,0.8,12,10,149,138,51,颗粒物(PM10)
桂林市,创业大厦,2024-11-06T1500,110.1764,25.2381,36,51,0.5,15,9,151,145,52,细颗粒物(PM2.5)
桂林市,旅游学院,2024-11-06T1500,110.296,25.1253,36,53,,14,9,148,140,,
果洛藏族自治州,玛沁县大武镇,2024-11-06T1500,100.2561,34.4714,3,8,0.4,1,16,88,54,28,
哈尔滨市,岭北,2024-11-06T1500,126.5422,45.755,48,,0.4,14,8,76,67,67,细颗粒物(PM2.5)
哈尔滨市,松北商大,2024-11-06T1500,126.561,45.8167,31,42,0.4,15,12,52,38,45,
哈尔滨市,阿城会宁,2024-11-06T1500,126.979,45.5419,28,39,0.6,9,7,52,29,40,
哈尔滨市,南岗学府路,2024-11-06T1500,126.599,45.7222,53,71,0.6,16,6,60,39,73,细颗粒物(PM2.5)
哈尔滨市,太平宏伟公园,2024-11-06T1500,126.689,45.7733,55,62,0.6,15,8,59,39,75,细颗粒物(PM2.5)
哈尔滨市,道外承德广场,2024-11-06T1500,126.635,45.7667,50,74,0.6,24,7,57,39,69,细颗粒物(PM2.5)
哈尔滨市,香坊红旗大街,2024-11-06T1500,126.685,45.7319,59,78,0.4,13,7,67,46,80,细颗粒物(PM2.5)
哈尔滨市,动力和平路,2024-11-06T1500,126.6411,45.7258,55,62,0.6,19,8,,35,,
哈尔滨市,道里建国路,2024-11-06T1500,126.593,45.7478,57,74,0.4,21,11,53,34,78,细颗粒物(PM2.5)
哈尔滨市,平房东轻厂,2024-11-06T1500,126.615,45.61,31,36,0.4,11,6,51,37,45,
哈尔滨市,呼兰师专,2024-11-06T1500,126.595,45.9855,31,39,,30,,64,38,,
哈尔滨市,省农科院,2024-11-06T1500,126.6206,45.6842,30,68,0.4,23,5,45,33,59,颗粒物(PM10)
哈密市,地区监测站,2024-11-06T1500,93.5128,42.8172,42,110,2.3,38,20,69,54,80,颗粒物(PM10)
哈密市,哈密师范学校,2024-11-06T1500,93.4961,42.8328,50,102,2.2,38,17,72,45,76,颗粒物(PM10)
海北藏族自治州,海晏县西海镇,2024-11-06T1500,100.9048,36.9639,16,,0.4,2,9,96,69,30,
海东市,平安区公安北苑,2024-11-06T1500,102.0738,36.5056,16,20,0.6,18,13,102,52,32,
海口市,东寨港,2024-11-06T1500,110.576,19.9507,,,,,,,,,
海口市,海南大学,2024-11-06T1500,110.3232,20.0574,34,55,0.6,11,6,159,125,53,颗粒物(PM10)
海口市,秀英海南医院,2024-11-06T1500,110.283,20.0053,36,52,0.5,12,7,158,122,52,细颗粒物(PM2.5)
海口市,海南师范大学,2024-11-06T1500,110.338,19.9969,34,53,0.6,11,8,157,122,52,颗粒物(PM10)
海口市,龙华路环保局宿舍,2024-11-06T1500,110.33,20.0356,34,50,0.5,9,6,158,124,50,
海口市,桂林洋子站,2024-11-06T1500,110.5111,19.9736,38,56,0.5,8,7,160,126,54,细颗粒物(PM2.5)
海南藏族自治州,共和县恰卜恰镇,2024-11-06T1500,100.6188,36.2866,14,,0.3,10,11,76,48,24,
海西蒙古族藏族自治州,德令哈市,2024-11-06T1500,97.3731,37.3753,7,27,0.4,5,10,93,77,30,
邯郸市,东污水处理厂,2024-11-06T1500,114.5302,36.6116,51,64,0.5,10,5,99,52,70,细颗粒物(PM2.5)
邯郸市,矿院,2024-11-06T1500,114.4918,36.5713,53,81,0.4,17,4,96,56,73,细颗粒物(PM2.5)
邯郸市,丛台公园,2024-11-06T1500,114.484,36.6133,52,68,0.4,19,6,94,50,72,细颗粒物(PM2.5)
邯郸市,香泉濮院小区,2024-11-06T1500,114.7895,36.5593,38,83,0.8,14,8,114,69,67,颗粒物(PM10)
邯郸市,永年区实验高中,2024-11-06T1500,114.50634,36.77178,59,91,0.2,17,6,104,48,80,细颗粒物(PM2.5)
邯郸市,峰峰矿区临水派出所,2024-11-06T1500,114.20016,36.44293,46,79,0.6,18,9,90,46,65,颗粒物(PM10)
汉中市,汉川机床厂子校,2024-11-06T1500,106.9893,33.1842,25,35,0.5,11,6,71,45,36,
汉中市,市监测站,2024-11-06T1500,107.0154,33.0706,24,39,0.5,7,10,72,38,39,
汉中市,鑫源开发区,2024-11-06T1500,107.0089,33.1138,24,32,0.6,9,10,72,34,35,
汉中市,南郑大河坎水厂,2024-11-06T1500,107.007,33.0323,22,36,0.6,14,9,72,42,36,
杭州市,滨江,2024-11-06T1500,120.2072,30.2111,21,39,0.3,23,7,92,71,39,
杭州市,西溪,2024-11-06T1500,120.0633,30.2747,17,33,0.4,21,6,102,61,33,
杭州市,下沙,2024-11-06T1500,120.3461,30.3153,15,29,0.4,23,8,103,75,33,
杭州市,卧龙桥,2024-11-06T1500,120.1269,30.2456,18,32,0.4,17,7,110,75,35,
杭州市,浙江农大,2024-11-06T1500,120.1903,30.2692,19,33,0.4,20,5,94,72,33,
杭州市,和睦小学,2024-11-06T1500,120.1197,30.3119,20,30,0.4,16,,112,73,,
杭州市,临平镇,2024-11-06T1500,120.3019,30.4183,12,27,0.2,18,6,108,84,34,
杭州市,城厢镇,2024-11-06T1500,120.2697,30.1819,17,33,0.5,20,6,101,81,33,
杭州市,云栖,2024-11-06T1500,120.0883,30.1808,14,28,0.4,23,8,105,77,33,
杭州市,镇二中,2024-11-06T1500,119.9464,30.0494,9,28,0.6,18,6,100,66,32,
杭州市,市府大楼,2024-11-06T1500,119.7183,30.2367,21,34,0.4,22,8,116,69,37,
杭州市,消防大队,2024-11-06T1500,120.1556,30.2864,19,37,0.3,21,8,109,82,37,
合肥市,明珠广场,2024-11-06T1500,117.1959,31.7848,17,39,0.4,25,8,94,66,39,
合肥市,三里街,2024-11-06T1500,117.3072,31.8764,17,39,0.5,19,6,89,58,39,
合肥市,琥珀山庄,2024-11-06T1500,117.2588,31.8707,20,36,0.6,18,10,98,75,36,
合肥市,董铺水库,2024-11-06T1500,117.1604,31.9052,14,48,0.4,18,6,86,62,48,
合肥市,长江中路,2024-11-06T1500,117.25,31.8571,25,46,0.5,23,9,96,71,46,
合肥市,庐阳区,2024-11-06T1500,117.266,31.9436,14,46,0.7,15,4,98,72,46,
合肥市,瑶海区,2024-11-06T1500,117.336,31.8586,13,34,0.3,20,7,91,65,34,
合肥市,包河区,2024-11-06T1500,117.3027,31.7964,14,41,0.4,19,5,88,61,41,
合肥市,滨湖新区,2024-11-06T1500,117.2776,31.7385,17,48,0.5,15,7,96,71,48,
合肥市,高新区,2024-11-06T1500,117.1318,31.8403,21,44,0.6,20,2,93,68,44,
合肥市,高教基地,2024-11-06T1500,117.3803,31.9147,19,36,0.4,17,8,97,69,36,
和田地区,地区环保局,2024-11-06T1500,79.924,37.0877,40,132,0.3,12,6,109,71,91,颗粒物(PM10)
和田地区,市环保局,2024-11-06T1500,79.9131,37.113,46,125,0.2,8,7,99,53,88,颗粒物(PM10)
河池市,东仁乐园,2024-11-06T1500,108.2011,24.715,40,68,0.7,7,6,136,96,59,颗粒物(PM10)
河池市,市环保站,2024-11-06T1500,108.0497,24.6947,37,83,0.6,10,9,153,101,67,颗粒物(PM10)
河池市,市疾控中心,2024-11-06T1500,108.0983,24.6989,39,65,0.6,13,8,147,99,58,颗粒物(PM10)
河源市,源西,2024-11-06T1500,114.6778,23.7569,30,45,0.6,8,7,124,116,45,
河源市,东埔,2024-11-06T1500,114.6944,23.7586,28,39,0.7,11,4,133,127,42,
河源市,老城,2024-11-06T1500,114.6892,23.7233,27,50,0.6,8,4,128,124,50,
菏泽市,气象局,2024-11-06T1500,115.4208,35.2464,39,74,0.5,16,5,114,76,62,颗粒物(PM10)
菏泽市,市政协,2024-11-06T1500,115.4747,35.2375,38,66,0.5,21,8,112,74,58,颗粒物(PM10)
菏泽市,定陶老年大学,2024-11-06T1500,115.5564,35.0891,34,61,0.2,20,9,104,64,56,颗粒物(PM10)
菏泽市,菏泽医专,2024-11-06T1500,115.4702,35.2706,33,67,0.4,27,12,112,76,59,颗粒物(PM10)
贺州市,环保小区,2024-11-06T1500,111.5264,24.4172,52,59,0.8,13,7,158,125,72,细颗粒物(PM2.5)
贺州市,政协大楼,2024-11-06T1500,111.5608,24.4078,41,63,0.7,11,8,163,126,58,细颗粒物(PM2.5)
贺州市,西湾,2024-11-06T1500,111.4744,24.4553,46,72,0.6,13,,146,117,,
鹤壁市,市监测站,2024-11-06T1500,114.17,35.9019,57,101,0.4,26,7,97,50,78,细颗粒物(PM2.5)
鹤壁市,市交警支队,2024-11-06T1500,114.2956,35.7511,50,88,0.5,24,9,101,52,69,"颗粒物(PM10),细颗粒物(PM2.5)"
鹤壁市,迎宾馆,2024-11-06T1500,114.2878,35.7306,45,116,0.5,27,3,107,60,83,颗粒物(PM10)
鹤壁市,大新区,2024-11-06T1500,114.2617,35.6822,67,112,0.5,20,8,102,52,90,细颗粒物(PM2.5)
鹤壁市,南山宾馆,2024-11-06T1500,114.1572,35.9603,56,93,0.6,19,10,104,62,77,细颗粒物(PM2.5)
鹤岗市,哈啤分公司,2024-11-06T1500,130.2537,47.3416,12,15,0.4,1,12,56,54,18,
鹤岗市,斯达机电,2024-11-06T1500,130.2684,47.3086,12,17,0.2,6,11,54,53,18,
鹤岗市,东山纸板厂,2024-11-06T1500,130.3114,47.3388,19,43,0.2,3,11,54,54,43,
鹤岗市,五号水库,2024-11-06T1500,130.1097,47.3382,7,13,0.5,3,8,64,66,20,
黑河市,交通局,2024-11-06T1500,127.4833,50.2524,12,13,0.3,16,7,48,46,18,
黑河市,环保局,2024-11-06T1500,127.5144,50.2341,14,20,0.3,14,8,45,49,20,
黑河市,大黑河岛,2024-11-06T1500,127.5291,50.2472,7,22,0.5,15,1,19,37,22,
衡水市,电机北厂,2024-11-06T1500,115.6838,37.7541,33,54,0.4,20,7,98,68,52,颗粒物(PM10)
衡水市,市监测站,2024-11-06T1500,115.6303,37.7316,28,67,0.4,26,8,98,63,59,颗粒物(PM10)
衡水市,市城管局,2024-11-06T1500,115.6683,37.7217,38,70,0.4,20,13,97,65,60,颗粒物(PM10)
衡水市,地表水厂,2024-11-06T1500,115.5989,37.5491,36,56,0.5,18,8,109,61,53,颗粒物(PM10)
衡阳市,原169医院,2024-11-06T1500,112.5003,26.9167,30,42,0.4,9,9,105,81,43,
衡阳市,衡阳化工总厂,2024-11-06T1500,112.6194,26.9258,30,44,,5,8,142,104,,
衡阳市,珠晖区环保局,2024-11-06T1500,112.6211,26.8956,33,44,0.7,15,9,142,103,48,
衡阳市,市委党校,2024-11-06T1500,112.6197,26.8733,,,0.6,11,11,143,112,,
衡阳市,市监测站,2024-11-06T1500,112.6006,26.8919,30,38,0.7,10,11,149,115,47,
衡阳市,真空机电公司,2024-11-06T1500,112.5664,26.9056,35,43,0.7,13,9,145,107,50,
衡阳市,师范学院,2024-11-06T1500,112.6703,26.882,27,39,0.7,12,10,146,115,46,
红河哈尼族彝族自治州,污水处理厂,2024-11-06T1500,103.3772,23.3993,48,,0.6,7,5,81,57,67,细颗粒物(PM2.5)
红河哈尼族彝族自治州,监测站,2024-11-06T1500,103.3861,23.35,39,46,0.5,9,5,84,66,55,细颗粒物(PM2.5)
红河哈尼族彝族自治州,州图书馆,2024-11-06T1500,103.3758,23.368,23,39,0.6,7,7,78,63,39,
呼和浩特市,呼市一监,2024-11-06T1500,111.6507,40.7517,27,39,0.7,35,19,65,45,39,
呼和浩特市,小召,2024-11-06T1500,111.6572,40.8033,28,61,0.6,39,17,62,40,56,颗粒物(PM10)
呼和浩特市,如意水处理厂,2024-11-06T1500,111.7516,40.8369,27,60,0.6,29,14,68,42,55,颗粒物(PM10)
呼和浩特市,二十九中,2024-11-06T1500,111.7276,40.8062,26,45,0.7,28,15,69,42,45,
呼和浩特市,工大金川校区,2024-11-06T1500,111.5512,40.7866,30,49,0.5,31,14,68,39,49,
呼和浩特市,化肥厂生活区,2024-11-06T1500,111.717,40.7612,24,58,0.6,35,17,68,45,54,颗粒物(PM10)
呼和浩特市,红旗小学,2024-11-06T1500,111.5968,40.8178,28,56,0.5,36,17,63,35,53,颗粒物(PM10)
呼和浩特市,海东办,2024-11-06T1500,111.6518,40.8389,28,44,0.8,32,15,68,38,44,
呼伦贝尔市,区环保局,2024-11-06T1500,119.7594,49.2261,10,20,0.3,10,5,54,38,20,
呼伦贝尔市,国华电力东,2024-11-06T1500,119.7512,49.1577,8,10,0.2,4,6,62,46,20,
湖州市,城西水厂,2024-11-06T1500,120.0751,30.8669,13,26,0.4,15,8,118,81,37,
湖州市,仁皇山新区,2024-11-06T1500,120.0875,30.8955,13,26,0.4,16,7,124,88,39,
湖州市,吴兴区站,2024-11-06T1500,120.1844,30.8596,15,24,0.5,12,8,106,83,34,
湖州市,南浔区站,2024-11-06T1500,120.4148,30.8538,9,15,0.3,21,4,91,75,29,
葫芦岛市,龙港区,2024-11-06T1500,120.9092,40.7136,13,22,0.4,6,11,71,49,23,
葫芦岛市,化工街,2024-11-06T1500,120.8392,40.7514,14,19,0.1,13,19,70,43,22,
葫芦岛市,新区,2024-11-06T1500,120.8341,40.7073,17,26,0.5,10,15,72,48,26,
葫芦岛市,东城区,2024-11-06T1500,120.8695,40.7677,21,39,0.5,11,13,73,45,39,
怀化市,林科所,2024-11-06T1500,109.5981,27.5721,31,48,0.9,13,10,129,111,48,
怀化市,河西地税局,2024-11-06T1500,109.9453,27.5444,41,65,0.6,13,12,131,102,58,"颗粒物(PM10),细颗粒物(PM2.5)"
怀化市,市四医院,2024-11-06T1500,109.9781,27.5342,22,59,0.6,8,9,133,109,55,颗粒物(PM10)
怀化市,监测楼,2024-11-06T1500,109.9972,27.5578,25,41,0.5,10,3,135,102,43,
怀化市,市委党校,2024-11-06T1500,110.0394,27.583,34,57,0.6,10,6,132,94,54,颗粒物(PM10)
淮安市,钵池山,2024-11-06T1500,119.036,33.5981,23,34,0.5,19,6,102,73,34,
淮安市,北京南路,2024-11-06T1500,119.007,33.575,24,34,0.4,20,8,105,72,35,
淮安市,市监测站,2024-11-06T1500,118.989,33.6067,22,27,0.5,22,10,106,63,34,
淮安市,楚州区监测站,2024-11-06T1500,119.135,33.5039,22,46,0.5,21,8,106,67,46,
淮安市,淮阴区监测站,2024-11-06T1500,119.0186,33.6297,30,36,0.6,33,6,97,61,43,
淮安市,新华书店,2024-11-06T1500,118.8755,33.2894,21,37,0.5,21,7,108,74,37,
淮北市,监测站,2024-11-06T1500,116.8004,33.975,50,61,0.5,18,5,108,69,69,细颗粒物(PM2.5)
淮北市,烈山区政府,2024-11-06T1500,116.8091,33.9007,44,58,,31,,105,57,,
淮北市,杜集区检察院,2024-11-06T1500,116.8873,33.9836,44,77,0.4,16,6,116,69,64,颗粒物(PM10)
淮北市,市博物馆,2024-11-06T1500,116.7923,33.9535,49,68,0.5,20,9,113,70,68,细颗粒物(PM2.5)
淮南市,潘集区政府,2024-11-06T1500,116.8305,32.7727,31,52,0.4,28,10,98,73,51,颗粒物(PM10)
淮南市,师范学院,2024-11-06T1500,117.0067,32.6524,17,47,0.4,12,12,108,84,47,
淮南市,谢家集区政府,2024-11-06T1500,116.8569,32.5951,17,36,0.4,16,9,104,72,36,
淮南市,八公山区政府,2024-11-06T1500,116.8281,32.633,21,42,0.3,13,10,113,79,42,
淮南市,焦岗湖风景区管理处,2024-11-06T1500,116.6325,32.6201,21,31,0.1,14,6,86,60,31,
淮南市,经济技术开发区消防队,2024-11-06T1500,117.0566,32.6531,15,44,0.4,12,6,106,77,44,
淮南市,山南新区,2024-11-06T1500,117.0108,32.5893,10,38,0.3,12,4,110,83,38,
黄冈市,职工中心,2024-11-06T1500,114.9028,30.4742,22,56,0.6,16,12,140,102,53,颗粒物(PM10)
黄冈市,红卫路,2024-11-06T1500,114.8858,30.4519,,,0.4,18,7,142,98,,
黄冈市,市林业局,2024-11-06T1500,114.9136,30.4445,22,65,0.6,13,11,145,106,58,颗粒物(PM10)
黄南藏族自治州,同仁县隆务镇,2024-11-06T1500,102.0199,35.5102,,0,0.9,,2,60,52,,
黄山市,延安路89号,2024-11-06T1500,118.2903,29.6963,3,42,0.2,8,8,116,78,42,
黄山市,黄山东路89号,2024-11-06T1500,118.327,29.7178,13,31,0.2,9,6,115,82,36,
黄山市,黄山区政府5号楼,2024-11-06T1500,118.1371,30.2756,3,33,0.3,9,9,112,68,35,
黄石市,沈家营,2024-11-06T1500,115.0601,30.2313,17,46,0.7,14,12,140,96,46,
黄石市,陈家湾,2024-11-06T1500,115.0817,30.2006,23,48,0.5,9,11,157,107,50,
黄石市,铁山,2024-11-06T1500,114.8988,30.2019,22,35,0.8,10,10,149,117,47,
黄石市,团城山,2024-11-06T1500,115.0307,30.2092,12,46,0.6,13,11,146,100,46,
黄石市,笔架山北路,2024-11-06T1500,115.0235,30.1578,16,33,0.7,13,9,150,110,47,
惠州市,河南岸金山湖子站,2024-11-06T1500,114.4183,23.0528,31,42,0.8,6,7,136,123,45,
惠州市,下埔横江三路子站,2024-11-06T1500,114.4053,23.0822,28,43,0.9,8,6,138,128,44,
惠州市,江北云山西路子站,2024-11-06T1500,114.4103,23.1142,32,40,0.8,9,7,144,133,46,
惠州市,惠阳区承修路船湖子站,2024-11-06T1500,114.4645,22.7833,30,46,0.6,8,9,127,114,46,
惠州市,大亚湾管委会子站,2024-11-06T1500,114.5317,22.7422,32,46,0.6,9,4,139,121,46,
惠州市,惠阳秋长,2024-11-06T1500,114.4338,22.8134,30,34,0.6,,7,135,124,,
惠州市,大亚湾霞涌,2024-11-06T1500,114.6517,22.775,21,48,0.6,8,7,115,110,48,
鸡西市,环保局,2024-11-06T1500,130.9762,45.3001,3,12,0.1,1,6,48,47,15,
鸡西市,第一中学,2024-11-06T1500,130.9429,45.3039,3,11,0.1,6,5,48,47,15,
鸡西市,欧美日汽修厂,2024-11-06T1500,131.0207,45.3073,3,8,0.3,5,6,52,53,17,
鸡西市,市政设施管理处,2024-11-06T1500,130.9967,45.3106,3,8,0.2,8,5,46,49,15,
吉安市,红声器材厂,2024-11-06T1500,114.9754,27.0803,16,48,0.5,21,12,133,98,48,
吉安市,市森林工业局,2024-11-06T1500,114.9658,27.0999,22,44,0.5,16,13,130,99,44,
吉安市,市环境监测站,2024-11-06T1500,114.99,27.1312,21,40,0.3,22,11,133,100,42,
吉安市,青原区法院,2024-11-06T1500,115.0093,27.0968,20,41,0.5,16,11,135,96,43,
吉林市,哈达湾,2024-11-06T1500,126.54,43.8622,15,24,0.4,9,5,61,47,24,
吉林市,东局子,2024-11-06T1500,126.5844,43.8358,17,19,0.4,12,5,58,41,25,
吉林市,电力学院,2024-11-06T1500,126.5052,43.8245,19,20,0.5,7,6,60,42,28,
吉林市,江北,2024-11-06T1500,126.6133,43.8972,17,25,0.5,10,9,61,42,25,
吉林市,江南公园,2024-11-06T1500,126.555,43.8306,21,23,0.4,10,8,59,45,30,
吉林市,丰满,2024-11-06T1500,126.7061,43.7133,12,12,0.3,4,8,62,52,20,
吉林市,九站,2024-11-06T1500,126.4739,43.953,11,21,0.4,8,6,59,44,21,
济南市,科干所,2024-11-06T1500,116.9862,36.6114,3,17,0.6,18,,,62,,
济南市,农科所,2024-11-06T1500,116.9376,36.665,3,17,0.6,32,5,80,49,25,
济南市,开发区,2024-11-06T1500,117.1265,36.6734,10,17,0.4,21,4,91,57,29,
济南市,省种子仓库,2024-11-06T1500,117.0624,36.6868,3,9,0.3,15,2,95,55,30,
济南市,机床二厂,2024-11-06T1500,116.9489,36.6447,3,29,0.5,22,5,88,58,29,
济南市,市监测站,2024-11-06T1500,117.0495,36.663,3,17,0.6,19,4,95,59,30,
济南市,长清党校,2024-11-06T1500,116.7675,36.5484,17,24,0.7,22,8,99,74,31,
济南市,技术学院,2024-11-06T1500,117.6795,36.229,14,27,0.9,25,9,84,53,27,
济南市,东山小学,2024-11-06T1500,117.532,36.6868,7,29,0.8,27,10,74,56,29,
济南市,泰兴公司,2024-11-06T1500,117.7161,36.2049,17,27,0.5,20,10,91,55,29,
济南市,莱芜战役纪念馆,2024-11-06T1500,117.6867,36.2171,17,34,0.7,28,9,84,52,34,
济南市,济阳区政府,2024-11-06T1500,117.1673,36.9782,3,29,0.3,26,5,64,44,29,
济南市,锦屏中学,2024-11-06T1500,117.1171,36.63,10,12,0.3,24,5,97,74,31,
济南市,济南四建,2024-11-06T1500,116.9814,36.6819,3,9,0.5,22,3,81,53,26,
济宁市,火炬城,2024-11-06T1500,116.6251,35.4302,14,32,0.4,17,10,100,59,32,
济宁市,电化厂,2024-11-06T1500,116.5491,35.4042,24,57,0.7,24,10,98,60,54,颗粒物(PM10)
济宁市,北湖一中,2024-11-06T1500,116.5814,35.3707,,,,24,,98,60,,
济宁市,服务中心,2024-11-06T1500,116.8249,35.5593,23,47,0.5,20,10,98,54,47,
济宁市,市第七中学,2024-11-06T1500,116.5907,35.4054,19,37,0.5,16,6,104,63,37,
佳木斯市,佳纺,2024-11-06T1500,130.2751,46.8028,8,9,0.4,13,6,45,44,15,
佳木斯市,发电厂,2024-11-06T1500,130.3995,46.8307,3,6,0.3,3,3,52,48,17,
佳木斯市,环保局,2024-11-06T1500,130.3258,46.7975,3,10,0.3,6,8,50,41,16,
佳木斯市,十一中,2024-11-06T1500,130.3648,46.8032,6,8,0.4,9,5,51,48,16,
佳木斯市,四丰,2024-11-06T1500,130.3794,46.7588,,,0.1,,1,48,46,,
嘉兴市,清河小学,2024-11-06T1500,120.7436,30.778,3,14,0,14,8,98,77,31,
嘉兴市,嘉兴学院,2024-11-06T1500,120.726,30.7478,3,17,0.4,10,5,95,76,30,
嘉兴市,南湖区残联,2024-11-06T1500,120.7846,30.7525,3,25,0.1,13,6,108,82,34,
嘉兴市,秀洲住建,2024-11-06T1500,120.6916,30.7739,7,15,0.2,9,8,98,77,31,
嘉峪关市,气象局,2024-11-06T1500,98.2908,39.7711,29,127,0.6,31,32,77,53,89,颗粒物(PM10)
嘉峪关市,酒钢宾馆,2024-11-06T1500,98.2672,39.7978,31,105,1.0,32,35,79,58,78,颗粒物(PM10)
嘉峪关市,雄关区,2024-11-06T1500,98.2643,39.7724,13,87,0.7,34,20,78,63,69,颗粒物(PM10)
江门市,北街,2024-11-06T1500,113.1064,22.6058,40,66,0.7,18,6,209,152,105,臭氧1小时
江门市,西区,2024-11-06T1500,113.0731,22.5835,33,61,0.6,19,7,206,148,103,臭氧1小时
江门市,圭峰西,2024-11-06T1500,113.0219,22.5311,41,69,0.5,21,5,205,150,103,臭氧1小时
江门市,东湖,2024-11-06T1500,113.0828,22.5947,43,65,0.6,17,7,207,149,104,臭氧1小时
江门市,江海富民,2024-11-06T1500,113.1075,22.5647,35,70,0.7,21,7,209,150,105,臭氧1小时
江门市,新会银湖,2024-11-06T1500,113.05,22.4667,41,55,0.5,18,6,207,154,104,臭氧1小时
焦作市,市环保局,2024-11-06T1500,113.227,35.2125,64,101,0.3,32,6,110,66,87,细颗粒物(PM2.5)
焦作市,影视城,2024-11-06T1500,113.1992,35.2590,60,90,0.8,20,12,119,89,82,细颗粒物(PM2.5)
焦作市,太极体育中心,2024-11-06T1500,113.2725,35.2067,55,116,0.5,29,5,104,59,83,颗粒物(PM10)
焦作市,马村街道办,2024-11-06T1500,113.3137,35.2641,73,83,0.3,23,13,111,68,98,细颗粒物(PM2.5)
焦作市,焦作技师学院,2024-11-06T1500,113.2465,35.2373,,,,,,,50,,
焦作市,中站许衡医院,2024-11-06T1500,113.1656,35.2539,57,105,0.4,15,9,111,74,78,"颗粒物(PM10),细颗粒物(PM2.5)"
焦作市,原李万街道办,2024-11-06T1500,113.2449,35.1803,59,133,0.4,32,2,90,45,92,颗粒物(PM10)
揭阳市,新兴,2024-11-06T1500,116.3701,23.5345,28,45,0.7,14,8,115,99,45,
揭阳市,西马,2024-11-06T1500,116.3264,23.5443,25,48,0.7,10,9,123,103,48,
揭阳市,东兴,2024-11-06T1500,116.3611,23.5626,26,43,0.9,11,12,119,98,43,
揭阳市,渔湖,2024-11-06T1500,116.4151,23.5294,26,46,0.6,11,8,114,101,46,
揭阳市,曲溪,2024-11-06T1500,116.403,23.5699,32,48,0.7,12,13,119,99,48,
金昌市,天庆家园,2024-11-06T1500,102.1692,38.5167,93,164,0.1,34,22,118,69,123,细颗粒物(PM2.5)
金昌市,市委党校,2024-11-06T1500,102.1864,38.5253,133,250,0.8,26,17,130,71,176,细颗粒物(PM2.5)
金昌市,金川区人防中心,2024-11-06T1500,102.1647,38.5371,175,266,0.8,23,16,142,74,225,细颗粒物(PM2.5)
金华市,十五中,2024-11-06T1500,119.647,29.077,20,36,0.4,21,4,117,79,37,
金华市,监测站,2024-11-06T1500,119.686,29.1029,15,38,0.4,17,5,114,76,38,
金华市,气象局,2024-11-06T1500,119.656,29.1131,14,34,0.6,26,6,113,76,36,
锦州市,南山,2024-11-06T1500,121.1115,41.0879,25,42,0.6,18,12,64,42,42,
锦州市,开发区,2024-11-06T1500,121.0533,40.8434,20,25,0.5,12,9,73,44,29,
锦州市,百股街道,2024-11-06T1500,121.1836,41.1119,14,41,0.6,16,14,59,39,41,
锦州市,天安街道,2024-11-06T1500,121.1178,41.1222,23,45,0.7,19,13,58,39,45,
锦州市,北湖公园,2024-11-06T1500,121.1303,41.1386,24,35,0.5,22,14,55,38,35,
晋城市,自来水公司,2024-11-06T1500,112.85,35.5051,31,51,0.7,23,9,127,70,51,颗粒物(PM10)
晋城市,白云商贸,2024-11-06T1500,112.8318,35.4936,41,77,0.6,23,9,125,73,64,颗粒物(PM10)
晋城市,市环保局,2024-11-06T1500,112.8508,35.4887,,,0.7,,9,123,80,,
晋城市,技术学院,2024-11-06T1500,112.8676,35.4897,31,61,0.6,22,8,127,69,56,颗粒物(PM10)
晋城市,白马寺,2024-11-06T1500,112.8453,35.546,33,51,0.6,15,13,126,49,51,颗粒物(PM10)
晋城市,泽州一中,2024-11-06T1500,112.8271,35.4828,46,76,0.8,21,9,114,66,64,细颗粒物(PM2.5)
晋中市,锦纶小区,2024-11-06T1500,112.7532,37.6945,44,83,0.8,36,14,103,58,67,颗粒物(PM10)
晋中市,南都小区,2024-11-06T1500,112.7249,37.7067,34,72,0.6,37,12,95,50,61,颗粒物(PM10)
晋中市,榆次区政府,2024-11-06T1500,112.6991,37.6982,30,80,0.7,35,11,99,49,65,颗粒物(PM10)
晋中市,榆次三中,2024-11-06T1500,112.7195,37.6828,46,92,1.0,33,15,96,58,71,颗粒物(PM10)
荆门市,竹园小学,2024-11-06T1500,112.2014,31.0481,61,88,0.6,19,19,151,86,83,细颗粒物(PM2.5)
荆门市,掇刀,2024-11-06T1500,112.1969,30.9891,60,,0.5,22,14,147,103,82,细颗粒物(PM2.5)
荆门市,石化一小,2024-11-06T1500,112.2213,31.0386,64,95,0.5,20,16,152,92,87,细颗粒物(PM2.5)
荆门市,西山林语,2024-11-06T1500,112.1849,31.0362,54,88,0.4,22,11,156,100,74,细颗粒物(PM2.5)
荆门市,龙泉中学南校,2024-11-06T1500,112.1632,31.0138,61,95,0.6,22,14,150,98,83,细颗粒物(PM2.5)
荆州市,市图书馆,2024-11-06T1500,112.2494,30.3197,54,67,0.7,23,9,142,88,74,细颗粒物(PM2.5)
荆州市,市委党校,2024-11-06T1500,112.2008,30.3544,48,58,0.7,22,8,154,92,67,细颗粒物(PM2.5)
荆州市,管委会,2024-11-06T1500,112.2747,30.3122,50,59,0.7,20,13,147,87,69,细颗粒物(PM2.5)
荆州市,学苑路,2024-11-06T1500,112.1655,30.3364,50,89,0.7,21,,152,94,,
景德镇市,王港中学,2024-11-06T1500,117.3102,29.3867,,,,,,,,,
景德镇市,老干部活动中心,2024-11-06T1500,117.2117,29.2933,12,18,0.2,6,6,110,85,35,
景德镇市,兽医站,2024-11-06T1500,117.1894,29.2789,15,40,0.1,2,7,107,83,40,
景德镇市,台达陶瓷,2024-11-06T1500,117.1547,29.2617,17,29,0.3,6,6,98,79,31,
景德镇市,陶研所,2024-11-06T1500,117.2461,29.2956,7,21,0.3,5,5,109,75,35,
九江市,十里,2024-11-06T1500,115.9872,29.6815,25,52,0.6,21,9,136,88,51,颗粒物(PM10)
九江市,茅山头,2024-11-06T1500,115.9584,29.7046,20,50,0.6,17,10,127,86,50,
九江市,西园,2024-11-06T1500,115.9877,29.7295,19,52,0.3,16,10,138,96,51,颗粒物(PM10)
九江市,五七二七厂,2024-11-06T1500,116.0172,29.6547,26,57,0.7,18,10,125,90,54,颗粒物(PM10)
九江市,综合工业园,2024-11-06T1500,115.9114,29.6038,33,43,0.5,27,16,127,92,48,
九江市,石化总厂,2024-11-06T1500,116.0721,29.7535,16,53,0.7,23,11,129,87,52,颗粒物(PM10)
九江市,庐山气象台,2024-11-06T1500,115.9773,29.5698,21,22,1.5,4,6,131,121,41,
九江市,外国语学校,2024-11-06T1500,116.0254,29.6994,25,44,0.5,18,14,128,86,44,
酒泉市,仓门街子站,2024-11-06T1500,98.5061,39.7443,35,102,0.5,19,138,90,52,76,颗粒物(PM10)
酒泉市,油田生活基地,2024-11-06T1500,98.4989,39.7256,37,117,0.5,25,35,87,46,84,颗粒物(PM10)
喀什地区,巡警大队,2024-11-06T1500,76.0072,39.4467,29,154,0.6,26,8,89,31,102,颗粒物(PM10)
喀什地区,吾办,2024-11-06T1500,75.9755,39.4694,47,154,0.6,18,4,87,23,102,颗粒物(PM10)
喀什地区,老干局,2024-11-06T1500,75.9483,39.4689,31,160,0.6,16,4,102,36,105,颗粒物(PM10)
开封市,肿瘤医院,2024-11-06T1500,114.3389,34.7781,63,75,0.5,21,8,122,69,85,细颗粒物(PM2.5)
开封市,世纪星幼儿园,2024-11-06T1500,114.2885,34.7965,64,,0.4,17,3,130,78,87,细颗粒物(PM2.5)
开封市,龙亭公园,2024-11-06T1500,114.3438,34.8106,68,70,0.6,16,4,128,74,92,细颗粒物(PM2.5)
开封市,汴京公园,2024-11-06T1500,114.3644,34.7964,62,79,0.4,16,6,124,74,84,细颗粒物(PM2.5)
开封市,技师学院,2024-11-06T1500,114.2485,34.8306,63,89,0.4,17,6,130,80,85,细颗粒物(PM2.5)
开封市,祥符区生态环境局,2024-11-06T1500,114.4644,34.7556,65,100,0.5,20,6,122,69,88,细颗粒物(PM2.5)
克拉玛依市,长征新村,2024-11-06T1500,84.895,45.6094,23,62,0.4,18,8,35,21,56,颗粒物(PM10)
克拉玛依市,南林小区,2024-11-06T1500,84.8988,45.5893,22,56,0.6,18,2,40,15,53,颗粒物(PM10)
克拉玛依市,独山子区,2024-11-06T1500,84.905,44.3396,31,61,0.6,14,15,95,81,56,颗粒物(PM10)
克拉玛依市,乌尔禾区商贸楼,2024-11-06T1500,85.6979,46.098,17,37,0.5,15,6,63,29,37,
克拉玛依市,白碱滩区新站,2024-11-06T1500,85.1045,45.6899,9,55,0.4,19,10,50,19,53,颗粒物(PM10)
克孜勒苏柯尔克孜自治州,市人民政府,2024-11-06T1500,76.1454,39.7142,57,147,0.6,13,8,111,77,99,颗粒物(PM10)
克孜勒苏柯尔克孜自治州,克州文化中心,2024-11-06T1500,76.1658,39.7157,61,145,0.7,19,12,102,76,98,颗粒物(PM10)
昆明市,呈贡新区,2024-11-06T1500,102.8204,24.8886,32,47,0.6,11,4,81,75,47,
昆明市,西山森林公园,2024-11-06T1500,102.6251,24.9608,,,,,,,,,
昆明市,龙泉镇,2024-11-06T1500,102.7252,25.0902,25,41,0.7,17,7,84,55,41,
昆明市,东风东路,2024-11-06T1500,102.7266,25.0375,31,44,0.6,14,7,85,62,45,
昆明市,金鼎山,2024-11-06T1500,102.6742,25.0669,31,45,,18,4,94,64,,
昆明市,碧鸡广场,2024-11-06T1500,102.6644,25.0401,31,39,0.5,15,4,91,63,45,
昆明市,官渡区博物馆,2024-11-06T1500,102.7494,25.0119,31,33,0.5,11,7,93,66,45,
昆明市,青年创业园,2024-11-06T1500,102.8017,24.8336,27,32,0.5,8,4,91,72,39,
昆明市,昆明学院,2024-11-06T1500,102.7997,24.9786,31,43,0.5,17,7,88,76,45,
昆明市,晋宁区生态环境分局,2024-11-06T1500,102.5967,24.6736,31,40,0.7,8,1,96,76,45,
昆明市,云天化总部,2024-11-06T1500,102.6678,24.9856,29,38,0.5,7,5,96,72,42,
拉萨市,八廓街,2024-11-06T1500,91.1319,29.6514,12,13,0.1,8,4,112,83,35,
拉萨市,市环保局,2024-11-06T1500,91.1221,29.6747,12,31,0.2,16,8,103,81,33,
拉萨市,区监测站,2024-11-06T1500,91.0874,29.6475,7,9,0.4,9,5,102,75,32,
拉萨市,西藏大学,2024-11-06T1500,91.1774,29.6541,7,8,0.6,6,2,112,81,35,
拉萨市,区辐射站,2024-11-06T1500,90.9798,29.6588,6,9,0.3,9,8,100,79,32,
拉萨市,拉萨火车站,2024-11-06T1500,91.0834,29.6292,6,8,0.3,8,5,101,77,32,
来宾市,来宾技工学校,2024-11-06T1500,109.2203,23.7256,45,68,0.8,12,6,165,140,63,细颗粒物(PM2.5)
来宾市,兴宾区政府,2024-11-06T1500,109.1781,23.7297,51,72,0.9,11,6,169,143,70,细颗粒物(PM2.5)
来宾市,中南小学,2024-11-06T1500,109.2416,23.7461,47,70,0.8,8,2,165,136,65,细颗粒物(PM2.5)
兰州市,兰炼宾馆,2024-11-06T1500,103.631,36.1031,44,70,0.8,38,16,96,43,62,细颗粒物(PM2.5)
兰州市,榆中兰大校区,2024-11-06T1500,104.1373,35.9454,,,,,,,,,
兰州市,生物制品所,2024-11-06T1500,103.8412,36.0726,35,54,0.7,36,21,88,35,52,颗粒物(PM10)
兰州市,铁路设计院,2024-11-06T1500,103.831,36.0464,54,73,1.0,37,21,78,31,74,细颗粒物(PM2.5)
兰州市,教育港,2024-11-06T1500,103.7158,36.1058,42,86,0.8,33,15,74,32,68,颗粒物(PM10)
兰州市,百合公园,2024-11-06T1500,103.7439,36.0842,25,64,0.7,36,20,85,34,57,颗粒物(PM10)
兰州市,和平,2024-11-06T1500,103.9611,35.998,105,157,0.5,,20,99,53,138,细颗粒物(PM2.5)
兰州新区,新区管委会,2024-11-06T1500,103.6633,36.533,36,68,0.5,17,18,116,60,59,颗粒物(PM10)
兰州新区,舟曲中学,2024-11-06T1500,103.6975,36.4789,43,77,0.6,16,19,112,53,64,颗粒物(PM10)
廊坊市,药材公司,2024-11-06T1500,116.6708,39.5111,54,92,0.6,58,8,53,22,74,细颗粒物(PM2.5)
廊坊市,开发区,2024-11-06T1500,116.7214,39.5589,57,99,0.5,66,7,40,18,78,细颗粒物(PM2.5)
廊坊市,北华航天学院,2024-11-06T1500,116.7244,39.5269,50,86,0.6,58,8,46,22,69,细颗粒物(PM2.5)
廊坊市,河北工业大学,2024-11-06T1500,116.7022,39.5453,61,104,0.5,62,8,43,22,83,细颗粒物(PM2.5)
乐山市,花湖湾,2024-11-06T1500,103.7723,29.5462,40,49,0.7,12,5,61,35,57,细颗粒物(PM2.5)
乐山市,牛耳桥,2024-11-06T1500,103.7627,29.5844,55,60,0.5,16,5,67,29,75,细颗粒物(PM2.5)
乐山市,市第三水厂,2024-11-06T1500,103.7508,29.6006,47,62,0.6,16,5,80,39,65,细颗粒物(PM2.5)
乐山市,市监测站,2024-11-06T1500,103.7571,29.5664,43,53,0.7,14,5,65,35,60,细颗粒物(PM2.5)
乐山市,理工大学,2024-11-06T1500,103.7311,29.5628,58,67,0.6,15,6,72,37,79,细颗粒物(PM2.5)
丽江市,西南郊,2024-11-06T1500,100.2143,26.8576,15,17,0.9,5,8,86,61,27,
丽江市,丽江古城,2024-11-06T1500,100.2497,26.8802,15,27,0.5,11,10,75,60,27,
丽江市,市中心,2024-11-06T1500,100.2203,26.8906,13,17,0.7,7,10,80,61,25,
丽水市,监测站大楼,2024-11-06T1500,119.914,28.4514,3,33,0.1,11,3,124,78,39,
丽水市,莲都小学,2024-11-06T1500,119.93,28.4586,10,26,0.3,14,6,126,78,40,
丽水市,余庄前,2024-11-06T1500,119.879,28.4231,13,18,0.2,9,6,131,83,41,
连云港市,市环境监测站,2024-11-06T1500,119.176,34.5885,3,27,0.2,11,8,99,64,31,
连云港市,德源药业,2024-11-06T1500,119.3581,34.6972,,,,,,,31,,
连云港市,新城一中,2024-11-06T1500,119.178,34.844,15,50,0.9,26,11,88,55,50,
连云港市,胡沟管理处,2024-11-06T1500,119.3608,34.7519,9,19,0.2,10,10,101,69,32,
连云港市,矿山设计院,2024-11-06T1500,119.1478,34.5911,7,22,0.5,18,7,95,61,30,
连云港市,工贸学校,2024-11-06T1500,119.2413,34.6539,12,28,0.4,13,8,100,64,32,
连云港市,连云街道,2024-11-06T1500,119.4172,34.7341,14,23,0.4,11,7,100,74,32,
凉山彝族自治州,青龙寺,2024-11-06T1500,102.3431,27.8099,7,15,0.7,4,9,79,38,25,
凉山彝族自治州,邛海宾馆,2024-11-06T1500,102.2721,27.8415,33,52,0.9,13,8,65,30,51,颗粒物(PM10)
凉山彝族自治州,西昌市政府,2024-11-06T1500,102.2625,27.898,19,27,0.9,6,6,74,34,28,
凉山彝族自治州,凉山州政府,2024-11-06T1500,102.2685,27.8851,25,40,0.5,5,8,74,37,40,
凉山彝族自治州,长安,2024-11-06T1500,102.237,27.8914,20,38,0.5,9,12,71,30,38,
辽阳市,宏伟区,2024-11-06T1500,123.2,41.1953,19,20,0.3,11,10,58,40,28,
辽阳市,新华园,2024-11-06T1500,123.1683,41.2495,17,21,0.4,16,10,54,38,25,
辽阳市,滨河路,2024-11-06T1500,123.2354,41.2639,14,19,0.3,16,16,53,36,20,
辽阳市,铁西工业园,2024-11-06T1500,123.149,41.2991,17,20,0.5,16,14,49,33,25,
辽源市,环保局,2024-11-06T1500,125.1358,42.8845,6,24,0.4,7,6,69,48,24,
辽源市,银鹰制药,2024-11-06T1500,125.0764,42.9078,3,7,0.4,9,5,68,52,22,
聊城市,区政府,2024-11-06T1500,115.9848,36.4372,20,53,0.7,21,12,80,57,52,颗粒物(PM10)
聊城市,聊大东校,2024-11-06T1500,116.0072,36.4343,16,48,0.6,20,10,88,61,48,
聊城市,监控中心,2024-11-06T1500,115.9819,36.4978,29,50,0.5,25,11,,53,,
聊城市,九州社区,2024-11-06T1500,116.0445,36.4361,14,46,0.6,25,9,83,56,46,
聊城市,星美广场,2024-11-06T1500,116.0567,36.4608,17,52,0.5,19,10,93,65,51,颗粒物(PM10)
林芝市,林芝监测站,2024-11-06T1500,94.3681,29.6376,6,15,0.3,7,6,78,71,25,
林芝市,林芝人民医院,2024-11-06T1500,94.3616,29.6616,3,17,0.3,,6,80,69,,
临沧市,市环保局,2024-11-06T1500,100.0781,23.8982,22,28,0.6,9,8,54,33,32,
临沧市,市气象局,2024-11-06T1500,100.0894,23.8822,22,,0.6,10,8,58,32,32,
临汾市,临钢医院,2024-11-06T1500,111.5531,36.0783,41,80,0.8,46,12,103,49,65,颗粒物(PM10)
临汾市,技工学校,2024-11-06T1500,111.5028,36.0714,42,61,0.8,21,13,122,59,59,细颗粒物(PM2.5)
临汾市,市委,2024-11-06T1500,111.5018,36.0855,42,73,0.7,22,14,124,62,62,颗粒物(PM10)
临汾市,唐尧大酒店,2024-11-06T1500,111.505,36.1014,41,61,0.8,24,12,118,58,58,细颗粒物(PM2.5)
临汾市,城南,2024-11-06T1500,111.5036,36.0414,43,60,0.8,28,13,127,55,60,细颗粒物(PM2.5)
临夏回族自治州,环保局,2024-11-06T1500,103.2069,35.5993,14,41,0.4,8,8,96,44,41,
临夏回族自治州,建设大厦,2024-11-06T1500,103.2417,35.6057,21,27,0.4,9,8,98,50,31,
临沂市,沂河小区,2024-11-06T1500,118.3429,35.0532,27,36,0.4,21,7,87,61,39,
临沂市,鲁南制药厂,2024-11-06T1500,118.295,35.0583,23,31,0.6,28,6,81,55,33,
临沂市,新光毛纺厂,2024-11-06T1500,118.2794,34.9976,20,27,0.6,23,8,94,62,30,
临沂市,河东保险公司,2024-11-06T1500,118.3956,35.0888,15,27,0.6,16,4,92,56,29,
临沂市,十里堡居委,2024-11-06T1500,118.3564,35.0215,9,31,0.3,18,6,92,58,31,
临沂市,南坊新区,2024-11-06T1500,118.3604,35.1084,17,34,0.6,29,6,91,61,34,
临沂市,皇山花园小区,2024-11-06T1500,118.3920,35.0300,16,24,0.3,21,4,88,52,28,
柳州市,柳东小学,2024-11-06T1500,109.4856,24.3895,44,55,0.5,7,10,146,135,62,细颗粒物(PM2.5)
柳州市,环保监测站,2024-11-06T1500,109.4157,24.3277,45,54,0.7,9,10,143,132,63,细颗粒物(PM2.5)
柳州市,河西水厂,2024-11-06T1500,109.389,24.341,40,58,0.9,8,8,141,128,57,细颗粒物(PM2.5)
柳州市,市四中,2024-11-06T1500,109.4311,24.2921,40,70,0.6,10,8,147,142,60,颗粒物(PM10)
柳州市,市九中,2024-11-06T1500,109.4006,24.3631,50,57,0.7,7,6,147,124,69,细颗粒物(PM2.5)
柳州市,古亭山,2024-11-06T1500,109.4958,24.3134,39,73,0.9,14,11,152,143,62,颗粒物(PM10)
柳州市,市二中,2024-11-06T1500,109.5422,24.3996,35,58,0.7,14,11,147,134,54,颗粒物(PM10)
六安市,监测大楼,2024-11-06T1500,116.5079,31.737,38,48,0.6,23,8,119,78,54,细颗粒物(PM2.5)
六安市,皖西学院,2024-11-06T1500,116.4738,31.7643,28,67,0.6,19,7,124,77,59,颗粒物(PM10)
六安市,朝阳厂,2024-11-06T1500,116.4996,31.7905,24,58,0.6,20,5,121,72,54,颗粒物(PM10)
六安市,开发区,2024-11-06T1500,116.5567,31.7886,36,66,0.5,16,7,126,71,58,颗粒物(PM10)
六盘水市,窑上,2024-11-06T1500,104.8,26.5892,39,,0.6,12,5,68,61,,
六盘水市,黄土坡,2024-11-06T1500,104.83,26.5917,34,44,0.7,15,,74,65,,
六盘水市,水钢,2024-11-06T1500,104.89,26.5939,50,78,0.5,11,3,83,72,69,细颗粒物(PM2.5)
六盘水市,民中,2024-11-06T1500,104.8475,26.5894,31,39,0.5,12,8,77,67,45,
六盘水市,双水,2024-11-06T1500,104.9544,26.5506,22,39,0.4,10,7,82,76,39,
龙岩市,龙岩师专,2024-11-06T1500,117.0189,25.1181,,,,,,,,,
龙岩市,龙岩市监测站,2024-11-06T1500,117.0217,25.1033,17,28,0.4,9,2,111,101,35,
龙岩市,闽西职业技术学院,2024-11-06T1500,117.0258,25.0661,19,37,0.5,3,2,114,102,37,
龙岩市,龙岩学院,2024-11-06T1500,117.0196,25.0306,16,31,0.5,6,6,112,101,35,
陇南市,汉王镇固水子,2024-11-06T1500,105.0822,33.3261,,,,,,,,,
陇南市,滨江中学,2024-11-06T1500,104.9339,33.3826,13,42,0.6,10,7,61,36,42,
陇南市,市总工会,2024-11-06T1500,104.955,33.371,12,34,0.7,7,6,67,38,34,
娄底市,电视发射台,2024-11-06T1500,111.9589,27.8901,34,54,1.6,16,8,139,107,52,颗粒物(PM10)
娄底市,市监测站,2024-11-06T1500,111.9975,27.725,37,61,0.5,9,4,145,106,56,颗粒物(PM10)
娄底市,市委党校,2024-11-06T1500,112.0194,27.7314,36,56,0.5,12,4,136,108,53,颗粒物(PM10)
娄底市,涟钢,2024-11-06T1500,111.9561,27.7569,29,51,0.9,12,11,138,101,51,颗粒物(PM10)
娄底市,市政府,2024-11-06T1500,111.9892,27.7044,32,49,0.6,12,7,137,94,49,
泸州市,九狮山,2024-11-06T1500,105.4324,28.9634,43,94,0.5,24,5,9,5,72,颗粒物(PM10)
泸州市,小市上码头,2024-11-06T1500,105.4427,28.9063,60,99,0.7,32,5,12,19,82,细颗粒物(PM2.5)
泸州市,兰田宪桥,2024-11-06T1500,105.4241,28.8573,73,75,0.7,20,4,20,16,98,细颗粒物(PM2.5)
泸州市,市环监站,2024-11-06T1500,105.4379,28.8833,80,105,0.7,30,6,11,19,107,细颗粒物(PM2.5)
泸州市,纳溪区环保局,2024-11-06T1500,105.3617,28.7703,46,55,0.7,24,3,19,11,64,细颗粒物(PM2.5)
吕梁市,环保局,2024-11-06T1500,111.1406,37.5211,15,52,0.5,27,6,74,44,51,颗粒物(PM10)
吕梁市,自来水公司,2024-11-06T1500,111.1297,37.5136,26,43,0.7,29,6,72,40,43,
吕梁市,马茂庄小学,2024-11-06T1500,111.1283,37.51,19,55,0.5,30,7,77,46,53,颗粒物(PM10)
洛阳市,市委党校,2024-11-06T1500,112.3931,34.6516,64,98,0.5,38,8,85,40,87,细颗粒物(PM2.5)
洛阳市,豫西宾馆,2024-11-06T1500,112.4657,34.6871,59,117,0.4,35,10,95,49,84,颗粒物(PM10)
洛阳市,河南林校,2024-11-06T1500,112.494,34.6886,74,94,0.1,30,10,82,39,99,细颗粒物(PM2.5)
洛阳市,开发区管委会,2024-11-06T1500,112.3844,34.623,66,107,0.4,29,14,88,44,89,细颗粒物(PM2.5)
洛阳市,市委新办公区,2024-11-06T1500,112.4267,34.6258,,,,,10,81,31,,
洛阳市,伊滨,2024-11-06T1500,112.6005,34.6326,48,122,0.3,37,12,77,34,86,颗粒物(PM10)
洛阳市,中移产业园,2024-11-06T1500,112.4951,34.6332,63,99,0.5,37,11,86,44,85,细颗粒物(PM2.5)
洛阳市,吉利监测站,2024-11-06T1500,112.5736,34.8993,69,96,0.4,31,12,82,47,93,细颗粒物(PM2.5)
洛阳市,河科大西苑校区,2024-11-06T1500,112.3677,34.662,61,103,0.5,32,8,92,43,83,细颗粒物(PM2.5)
洛阳市,英才小学,2024-11-06T1500,112.4388,34.6781,47,103,0.4,38,9,85,42,77,颗粒物(PM10)
漯河市,三五一五工厂,2024-11-06T1500,114.051,33.5699,67,100,0.5,20,8,129,76,90,细颗粒物(PM2.5)
漯河市,漯河大学,2024-11-06T1500,114.0055,33.5698,56,110,0.5,18,8,136,83,80,颗粒物(PM10)
漯河市,市水利局,2024-11-06T1500,114.0138,33.5828,53,97,0.5,14,8,132,79,74,颗粒物(PM10)
漯河市,市广电局,2024-11-06T1500,114.0261,33.5698,62,95,0.5,16,8,136,84,84,细颗粒物(PM2.5)
漯河市,市图书馆,2024-11-06T1500,113.9749,33.5664,54,110,0.6,11,6,133,77,80,颗粒物(PM10)
漯河市,召陵区卫健委,2024-11-06T1500,114.0967,33.5906,60,99,0.5,14,11,131,72,82,细颗粒物(PM2.5)
马鞍山市,湖东路四小,2024-11-06T1500,118.5092,31.6837,9,26,0.5,8,4,107,79,34,
马鞍山市,开发区,2024-11-06T1500,118.5024,31.6449,12,20,0.6,20,7,102,72,32,
马鞍山市,慈湖,2024-11-06T1500,118.5228,31.7231,15,15,0.5,16,8,102,79,32,
马鞍山市,濮塘,2024-11-06T1500,118.6245,31.7241,12,15,0.6,11,7,108,78,34,
马鞍山市,雨山,2024-11-06T1500,118.4918,31.6809,11,23,0.4,10,5,103,79,33,
茂名市,电白南海,2024-11-06T1500,111.0286,21.4688,27,51,0.6,17,6,139,110,51,颗粒物(PM10)
茂名市,茂石化七小,2024-11-06T1500,110.9294,21.6533,29,44,0.7,7,9,131,108,44,
茂名市,健康路,2024-11-06T1500,110.9107,21.6687,29,44,0.6,6,14,142,109,45,
茂名市,高岭,2024-11-06T1500,110.8592,21.6828,27,46,0.7,10,11,125,93,46,
茂名市,电白水东,2024-11-06T1500,111.01,21.5165,27,41,0.7,11,10,132,108,42,
眉山市,黑龙滩水库,2024-11-06T1500,104.0308,30.0478,38,41,0.5,3,3,71,43,54,细颗粒物(PM2.5)
眉山市,气象局,2024-11-06T1500,103.8416,30.0874,53,,0.6,23,8,58,24,73,细颗粒物(PM2.5)
眉山市,市委党校,2024-11-06T1500,103.8578,30.0744,48,73,0.6,33,7,39,26,67,细颗粒物(PM2.5)
眉山市,区人社局,2024-11-06T1500,103.8291,30.0564,51,81,0.8,36,5,42,30,70,细颗粒物(PM2.5)
梅州市,梅江月梅,2024-11-06T1500,116.1231,24.3284,27,38,0.6,7,8,122,111,39,
梅州市,梅县新城,2024-11-06T1500,116.0797,24.2719,29,44,0.6,9,6,126,113,44,
梅州市,环境监控中心,2024-11-06T1500,116.1248,24.2654,24,40,0.4,10,6,113,106,40,
梅州市,梅龙,2024-11-06T1500,116.1233,24.2991,24,31,0.6,7,6,114,105,36,
绵阳市,富乐山,2024-11-06T1500,104.7778,31.4741,21,26,0.5,18,2,64,42,30,
绵阳市,市人大,2024-11-06T1500,104.7563,31.4535,21,37,0.4,17,3,65,38,37,
绵阳市,高新区自来水公司,2024-11-06T1500,104.6697,31.4668,9,22,0.6,12,3,78,32,25,
绵阳市,三水厂,2024-11-06T1500,104.7287,31.5075,28,41,0.6,26,5,50,30,41,
绵阳市,西科大附属小学,2024-11-06T1500,104.69,31.5322,,30,0.5,,5,81,31,,
绵阳市,安州区旅游局,2024-11-06T1500,104.5648,31.5343,22,,0.5,6,7,85,50,32,
牡丹江市,环保大楼,2024-11-06T1500,129.61,44.561,23,43,0.3,10,4,52,48,43,
牡丹江市,文化广场,2024-11-06T1500,129.6115,44.5782,28,44,0.3,14,7,48,45,44,
牡丹江市,第一医院,2024-11-06T1500,129.5904,44.5963,44,,0.3,7,4,59,55,62,细颗粒物(PM2.5)
牡丹江市,机车工厂,2024-11-06T1500,129.6364,44.6075,40,44,0.3,5,5,55,50,57,细颗粒物(PM2.5)
牡丹江市,第一中学,2024-11-06T1500,129.6386,44.5462,30,34,0.2,7,4,58,52,43,
内江市,市监测站,2024-11-06T1500,105.0703,29.61,44,,0.6,20,9,35,25,62,细颗粒物(PM2.5)
内江市,东兴区政府,2024-11-06T1500,105.0717,29.5947,27,27,0.8,21,7,42,31,39,
内江市,内江二中,2024-11-06T1500,105.0653,29.5817,43,43,0.6,27,7,42,30,60,细颗粒物(PM2.5)
内江市,内江日报社,2024-11-06T1500,105.0406,29.5822,43,,0.5,30,6,30,23,60,细颗粒物(PM2.5)
那曲市,那曲监测站,2024-11-06T1500,92.0657,31.4846,3,11,0.4,5,6,95,48,30,
那曲市,那曲会议中心,2024-11-06T1500,92.0506,31.4797,,,,,,,56,,
南昌市,省外办,2024-11-06T1500,115.8931,28.6843,31,46,0.4,20,12,121,90,46,
南昌市,省林业公司,2024-11-06T1500,115.8886,28.7003,27,44,0.5,11,8,131,101,44,
南昌市,林科所,2024-11-06T1500,115.8126,28.7442,14,36,0.5,13,8,131,103,41,
南昌市,建工学校,2024-11-06T1500,115.8518,28.687,23,46,0.3,10,10,131,101,46,
南昌市,象湖,2024-11-06T1500,115.8921,28.6424,18,37,0.3,16,9,137,102,43,
南昌市,武术学校,2024-11-06T1500,115.7423,28.7996,13,31,0.5,12,2,108,74,34,
南昌市,省站,2024-11-06T1500,115.9314,28.6842,21,21,0.5,,7,117,88,,
南昌市,机电学校,2024-11-06T1500,115.9084,28.6062,22,41,0.2,19,7,124,95,41,
南昌市,外国语学校,2024-11-06T1500,115.9721,28.7031,13,30,0.4,12,7,119,91,38,
南充市,西山风景区,2024-11-06T1500,106.056,30.8064,29,,0.4,11,1,35,28,42,
南充市,南充市委,2024-11-06T1500,106.0789,30.8023,31,43,0.4,17,2,36,23,45,
南充市,南充炼油厂,2024-11-06T1500,106.1031,30.8217,33,54,0.6,22,3,29,20,52,颗粒物(PM10)
南充市,高坪区监测站,2024-11-06T1500,106.1064,30.7856,30,43,0.4,23,3,29,27,43,
南充市,嘉陵区环保局,2024-11-06T1500,106.0642,30.7636,22,36,0.5,19,3,33,23,36,
南充市,市环境监测站,2024-11-06T1500,106.1087,30.8388,37,44,0.4,14,4,35,26,53,细颗粒物(PM2.5)
南京市,迈皋桥,2024-11-06T1500,118.8086,32.1065,12,23,0,14,3,104,68,33,
南京市,草场门,2024-11-06T1500,118.7538,32.0551,12,31,0.2,26,5,96,69,31,
南京市,山西路,2024-11-06T1500,118.7794,32.0745,14,36,0.4,8,4,107,74,36,
南京市,中华门,2024-11-06T1500,118.7752,32.0023,14,24,0.4,17,3,95,67,30,
南京市,瑞金路,2024-11-06T1500,118.8109,32.0309,9,22,0.4,7,4,93,68,30,
南京市,玄武湖,2024-11-06T1500,118.7997,32.0754,3,21,0.4,28,6,86,54,27,
南京市,浦口,2024-11-06T1500,118.6414,32.0931,15,32,0.6,21,8,90,57,32,
南京市,奥体中心,2024-11-06T1500,118.7356,31.9996,12,25,0.2,20,7,95,72,30,
南京市,仙林大学城,2024-11-06T1500,118.9125,32.1028,12,29,0.3,15,6,105,70,33,
南京市,江宁彩虹桥,2024-11-06T1500,118.8436,31.9198,7,20,0.5,6,5,100,72,32,
南京市,溧水永阳,2024-11-06T1500,119.0138,31.6494,16,29,0.3,14,4,118,78,37,
南京市,高淳老职中,2024-11-06T1500,118.879,31.3302,10,16,0.3,11,5,108,78,34,
南京市,六合雄州,2024-11-06T1500,118.8554,32.3578,14,23,0.2,,8,98,56,,
南宁市,二十一中,2024-11-06T1500,108.3103,22.7881,44,67,1.2,12,5,164,137,62,细颗粒物(PM2.5)
南宁市,北湖,2024-11-06T1500,108.3141,22.8528,46,66,1.0,11,6,156,123,64,细颗粒物(PM2.5)
南宁市,市监测站,2024-11-06T1500,108.3206,22.8225,47,77,0.7,13,8,149,123,65,细颗粒物(PM2.5)
南宁市,大自然花园,2024-11-06T1500,108.3829,22.8037,43,58,0.7,13,8,152,135,60,细颗粒物(PM2.5)
南宁市,仙葫,2024-11-06T1500,108.4394,22.7904,43,57,0.7,11,6,135,120,60,细颗粒物(PM2.5)
南宁市,区农职院,2024-11-06T1500,108.2397,22.8467,41,63,0.8,9,6,163,117,58,细颗粒物(PM2.5)
南宁市,英华嘉园,2024-11-06T1500,108.3275,22.735,41,66,0.8,15,6,153,132,58,"颗粒物(PM10),细颗粒物(PM2.5)"
南宁市,沙井镇街道办,2024-11-06T1500,108.2257,22.7757,44,62,0.8,15,7,160,99,62,细颗粒物(PM2.5)
南宁市,红星社区,2024-11-06T1500,108.4834,22.7618,53,61,0.8,11,8,152,134,73,细颗粒物(PM2.5)
南平市,茫荡山,2024-11-06T1500,118.0966,26.6761,,,,,,,117,,
南平市,南平市监测站,2024-11-06T1500,118.1681,26.6369,19,22,0.2,5,4,113,100,36,
南平市,南平铝业有限公司,2024-11-06T1500,118.1825,26.6489,15,29,0.3,6,3,112,101,35,
南平市,南平七中,2024-11-06T1500,118.1756,26.6272,16,41,0.3,8,4,116,104,41,
南通市,狼山街道,2024-11-06T1500,120.9098,31.9663,3,15,0.2,2,7,100,83,32,
南通市,虹桥,2024-11-06T1500,120.86,32.0005,7,17,0.2,12,5,93,78,30,
南通市,城中,2024-11-06T1500,120.87,32.02,3,18,0.4,12,5,96,80,30,
南通市,星湖花园,2024-11-06T1500,120.94,31.93,8,12,0.4,8,5,92,55,29,
南通市,紫琅学院,2024-11-06T1500,120.81,32.0417,3,14,0.2,10,3,90,73,29,
南通市,通州监测站,2024-11-06T1500,121.067,32.062,3,19,0.2,13,2,94,79,30,
南通市,环境教育馆,2024-11-06T1500,120.9348,31.9883,3,17,0.3,8,3,102,83,32,
南阳市,瓦房庄,2024-11-06T1500,112.5224,33.0122,53,73,0.8,13,6,143,91,73,细颗粒物(PM2.5)
南阳市,汉画馆,2024-11-06T1500,112.5003,32.9735,29,80,0.4,17,9,143,95,65,颗粒物(PM10)
南阳市,气象站,2024-11-06T1500,112.5573,33.027,44,74,0.7,16,7,146,89,62,"颗粒物(PM10),细颗粒物(PM2.5)"
南阳市,理工学院,2024-11-06T1500,112.5481,32.9689,43,70,0.5,13,7,139,91,60,"颗粒物(PM10),细颗粒物(PM2.5)"
南阳市,卧龙区政府,2024-11-06T1500,112.5234,32.9922,45,77,0.5,16,6,141,91,64,颗粒物(PM10)
宁波市,区环保大楼,2024-11-06T1500,121.8358,29.911,6,18,0.3,14,6,87,78,28,
宁波市,万里学院,2024-11-06T1500,121.56,29.82,3,24,0.4,14,6,97,84,31,
宁波市,龙赛医院,2024-11-06T1500,121.713,29.9572,6,24,,,8,87,82,,
宁波市,钱湖水厂,2024-11-06T1500,121.633,29.7733,3,9,0.3,11,8,95,75,30,
宁波市,太古小学,2024-11-06T1500,121.5856,29.8635,11,14,0.5,14,8,95,79,30,
宁波市,市环境监测中心,2024-11-06T1500,121.524,29.8674,7,16,0.5,15,11,98,81,31,
宁波市,万里国际学校,2024-11-06T1500,121.6147,29.9017,9,12,0.4,17,7,96,79,30,
宁波市,白沙活动中心,2024-11-06T1500,121.5594,29.8975,7,20,0.5,16,9,95,81,30,
宁德市,金涵水库,2024-11-06T1500,119.5001,26.6946,,,,,,,,,
宁德市,宁德市监测站,2024-11-06T1500,119.5388,26.6612,13,32,0.3,9,3,128,102,40,
宁德市,宁德一中,2024-11-06T1500,119.5231,26.6562,16,28,0.2,10,4,134,108,42,
怒江傈僳族自治州,州监测站,2024-11-06T1500,98.8601,25.8567,16,23,0.5,13,6,26,24,23,
怒江傈僳族自治州,泸水一中,2024-11-06T1500,98.8546,25.8417,15,,0.5,16,7,18,10,22,
攀枝花市,弄弄坪,2024-11-06T1500,101.6891,26.571,46,56,0.9,20,14,73,35,64,细颗粒物(PM2.5)
攀枝花市,河门口,2024-11-06T1500,101.5769,26.5928,38,54,1.8,22,25,75,39,54,细颗粒物(PM2.5)
攀枝花市,炳草岗,2024-11-06T1500,101.7169,26.585,38,67,1.0,17,14,83,36,59,颗粒物(PM10)
攀枝花市,仁和,2024-11-06T1500,101.7369,26.5008,34,43,0.8,17,17,68,35,49,
攀枝花市,四十中小,2024-11-06T1500,101.7227,26.567,31,50,0.8,11,11,81,34,50,
盘锦市,开发区,2024-11-06T1500,122.0303,41.1489,18,31,0.4,16,9,61,47,31,
盘锦市,兴隆台,2024-11-06T1500,122.0485,41.0883,19,31,0.6,18,11,63,47,31,
盘锦市,新生街道,2024-11-06T1500,121.8297,41.1028,19,41,0.4,15,13,72,50,41,
平顶山市,新华旅馆,2024-11-06T1500,113.3257,33.742,57,108,0.4,16,,,55,,
平顶山市,规划设计院,2024-11-06T1500,113.2919,33.737,66,117,0.5,19,9,132,66,89,细颗粒物(PM2.5)
平顶山市,平顶山工学院,2024-11-06T1500,113.182,33.774,56,99,0.7,14,10,129,53,77,细颗粒物(PM2.5)
平顶山市,规划局,2024-11-06T1500,113.3025,33.73,67,114,0.5,20,9,130,66,90,细颗粒物(PM2.5)
平顶山市,石龙区,2024-11-06T1500,112.8867,33.9116,59,123,0.8,17,13,120,62,87,颗粒物(PM10)
平凉市,聚贤嘉苑,2024-11-06T1500,106.6692,35.5461,52,84,0.6,29,13,72,45,72,细颗粒物(PM2.5)
平凉市,博物馆,2024-11-06T1500,106.7021,35.5307,,,,,,,,,
萍乡市,武功山,2024-11-06T1500,114.0997,27.5002,3,22,0.2,7,8,126,90,40,
萍乡市,中医院,2024-11-06T1500,113.8385,27.6434,29,55,0.6,7,,145,108,,
萍乡市,市政府车库,2024-11-06T1500,113.8493,27.6253,25,46,0.9,9,10,136,107,46,
萍乡市,市环保局,2024-11-06T1500,113.8676,27.6435,28,50,0.5,9,15,138,102,50,
萍乡市,安源区政府,2024-11-06T1500,113.866,27.6198,21,47,0.8,10,14,136,104,47,
莆田市,荔城区仓后路,2024-11-06T1500,119.0141,25.4325,6,38,0.4,7,1,114,103,38,
莆田市,莆田市监测站,2024-11-06T1500,119.0015,25.4553,3,36,0.1,,2,116,106,,
莆田市,涵江区六中,2024-11-06T1500,119.1119,25.4561,6,29,0.3,4,2,115,105,36,
莆田市,秀屿区政府,2024-11-06T1500,119.1013,25.3215,10,46,0.2,6,2,93,88,46,
莆田市,东圳水库,2024-11-06T1500,118.981,25.4792,,,,,,,,,
濮阳市,环保局,2024-11-06T1500,115.0312,35.7636,51,63,0.4,15,10,134,78,70,细颗粒物(PM2.5)
濮阳市,油田运输公司,2024-11-06T1500,115.0574,35.7609,48,78,0.4,21,10,131,77,67,细颗粒物(PM2.5)
濮阳市,油田物探公司,2024-11-06T1500,115.0866,35.7754,45,76,0.3,18,7,120,72,63,"颗粒物(PM10),细颗粒物(PM2.5)"
濮阳市,濮水河管理处,2024-11-06T1500,115,35.7668,42,88,,,9,115,68,,
普洱市,市环保局,2024-11-06T1500,100.98,22.7633,27,,0.6,,5,50,47,,
普洱市,普洱第二中学,2024-11-06T1500,100.9817,22.8322,15,28,0.6,12,7,46,36,28,
七台河市,新一中,2024-11-06T1500,131.0518,45.8751,7,18,0.8,5,10,63,58,20,
七台河市,中波台,2024-11-06T1500,131.0577,45.7879,8,8,0.7,8,7,50,45,16,
七台河市,人民广场,2024-11-06T1500,131.0176,45.7761,,,0.6,9,5,,45,,
七台河市,新建矿广场,2024-11-06T1500,130.8781,45.8222,18,56,0.4,17,8,46,42,53,颗粒物(PM10)
齐齐哈尔市,安居小区,2024-11-06T1500,123.9305,47.3636,61,70,0.4,11,6,76,46,83,细颗粒物(PM2.5)
齐齐哈尔市,中心广场,2024-11-06T1500,123.9488,47.3386,50,,0.4,12,4,64,38,69,细颗粒物(PM2.5)
齐齐哈尔市,农牧车辆厂,2024-11-06T1500,123.9483,47.3227,38,92,0.6,12,5,68,40,71,颗粒物(PM10)
齐齐哈尔市,市环境监测站,2024-11-06T1500,123.945,47.2988,23,28,0.2,8,2,59,41,33,
齐齐哈尔市,富区青少年活动中心,2024-11-06T1500,123.6333,47.2075,11,37,0.2,9,6,56,45,37,
黔东南苗族侗族自治州,市环境监测站,2024-11-06T1500,107.9783,26.5747,43,56,0.5,14,6,127,92,60,细颗粒物(PM2.5)
黔东南苗族侗族自治州,凯里学院,2024-11-06T1500,107.8908,26.5311,37,51,0.6,12,5,136,103,53,细颗粒物(PM2.5)
黔南布依族苗族自治州,小围寨,2024-11-06T1500,107.5228,26.2403,29,44,0.4,8,5,138,109,44,
黔南布依族苗族自治州,沙坝,2024-11-06T1500,107.5175,26.2978,22,36,0.6,8,5,138,103,44,
黔西南布依族苗族自治州,场坝街,2024-11-06T1500,104.9022,25.0925,33,38,0.5,6,5,86,54,48,
黔西南布依族苗族自治州,坪东大道,2024-11-06T1500,104.8811,25.0992,36,,0.4,6,2,83,53,52,细颗粒物(PM2.5)
钦州市,市环保站,2024-11-06T1500,108.6236,21.9667,51,80,0.9,16,9,145,110,70,细颗粒物(PM2.5)
钦州市,沙埠小学,2024-11-06T1500,108.6549,21.9481,49,76,0.8,14,8,154,115,68,细颗粒物(PM2.5)
钦州市,港区一小,2024-11-06T1500,108.5989,21.7431,52,86,0.9,17,8,157,104,72,细颗粒物(PM2.5)
钦州市,北职校,2024-11-06T1500,108.5959,21.9633,51,72,1.0,12,10,148,114,70,细颗粒物(PM2.5)
秦皇岛市,北戴河环保局,2024-11-06T1500,119.5134,39.8207,6,25,0.4,11,4,56,43,25,
秦皇岛市,第一关,2024-11-06T1500,119.7493,40.0116,27,31,0.3,20,3,66,46,39,
秦皇岛市,监测站,2024-11-06T1500,119.5897,39.9499,10,35,0.3,22,4,55,39,35,
秦皇岛市,建设大厦,2024-11-06T1500,119.5251,39.9041,20,28,0.3,17,4,58,36,29,
秦皇岛市,文明里,2024-11-06T1500,119.610547,39.943889,12,34,0.3,24,4,58,42,34,
青岛市,仰口,2024-11-06T1500,120.6659,36.2403,30,53,0.5,18,9,99,74,52,颗粒物(PM10)
青岛市,市南区东部子站,2024-11-06T1500,120.4134,36.0658,27,80,0.7,40,13,83,51,65,颗粒物(PM10)
青岛市,四方区子站,2024-11-06T1500,120.3664,36.1032,78,85,,,,,53,104,细颗粒物(PM2.5)
青岛市,市南区西部子站,2024-11-06T1500,120.2994,36.054,20,51,0.5,24,12,96,56,51,颗粒物(PM10)
青岛市,崂山区子站,2024-11-06T1500,120.4581,36.0858,31,70,0.7,41,14,91,64,60,颗粒物(PM10)
青岛市,黄岛区子站,2024-11-06T1500,120.1983,35.9608,24,39,0.6,22,10,102,57,39,
青岛市,城阳区子站,2024-11-06T1500,120.3999,36.3083,27,53,0.6,27,12,98,60,52,颗粒物(PM10)
青岛市,黄岛区4号,2024-11-06T1500,120.0405,35.8735,22,48,0.4,26,11,96,68,48,
青岛市,即墨2号,2024-11-06T1500,120.5014,36.4034,40,64,0.5,25,10,85,48,57,"颗粒物(PM10),细颗粒物(PM2.5)"
青岛市,市北区南部,2024-11-06T1500,120.3503,36.0736,39,63,0.7,40,14,90,53,57,颗粒物(PM10)
青岛市,李沧区北部,2024-11-06T1500,120.3948,36.1805,36,75,0.9,43,14,81,51,63,颗粒物(PM10)
清远市,环保大楼,2024-11-06T1500,113.0426,23.691,32,37,0.9,12,6,157,148,50,
清远市,凤城街办,2024-11-06T1500,113.0208,23.7106,32,44,0.8,8,10,147,138,46,
清远市,技师学院,2024-11-06T1500,113.0477,23.6344,25,41,,10,,143,129,,
清远市,清新太和,2024-11-06T1500,112.9903,23.7403,29,37,0.9,6,4,143,138,45,
清远市,清城东城,2024-11-06T1500,113.076,23.7198,28,46,0.8,5,6,145,138,46,
庆阳市,庆阳五中,2024-11-06T1500,107.6325,35.7357,65,84,0.5,18,11,93,82,88,细颗粒物(PM2.5)
庆阳市,市环保局,2024-11-06T1500,107.6364,35.7067,55,71,0.5,21,17,89,90,75,细颗粒物(PM2.5)
曲靖市,环境监测站,2024-11-06T1500,103.7897,25.5035,31,46,0.7,18,2,85,72,46,
曲靖市,烟厂办公区,2024-11-06T1500,103.8,25.5364,37,48,0.6,14,3,85,72,53,细颗粒物(PM2.5)
曲靖市,南苑二区,2024-11-06T1500,103.7947,25.462,36,47,0.6,11,4,87,76,52,细颗粒物(PM2.5)
曲靖市,曲靖师范学院,2024-11-06T1500,103.7444,25.5261,38,58,0.7,13,6,93,83,54,"颗粒物(PM10),细颗粒物(PM2.5)"
衢州市,环保大楼,2024-11-06T1500,118.8692,28.9398,40,62,0.4,20,6,127,91,57,细颗粒物(PM2.5)
衢州市,实验学校,2024-11-06T1500,118.8709,28.9666,30,53,0.5,21,9,129,87,52,颗粒物(PM10)
衢州市,衢州学院,2024-11-06T1500,118.8621,28.9808,31,53,0.4,21,9,132,91,52,颗粒物(PM10)
泉州市,涂山街,2024-11-06T1500,118.5819,24.9117,11,39,0.3,10,1,115,106,39,
泉州市,津头埔,2024-11-06T1500,118.5972,24.8978,12,47,0.4,10,2,111,102,47,
泉州市,万安,2024-11-06T1500,118.6663,24.9424,12,46,0.3,7,2,115,104,46,
泉州市,清源山,2024-11-06T1500,118.6117,24.9604,,,,,,,,,
泉州市,城华南路,2024-11-06T1500,118.6333,24.9264,15,35,0.2,6,2,113,104,36,
日喀则市,日喀则监测站,2024-11-06T1500,88.8876,29.2718,6,15,0.4,10,5,105,58,33,
日喀则市,林业技术推广中心,2024-11-06T1500,88.8781,29.2426,3,6,0.6,3,6,107,77,34,
日照市,监测站,2024-11-06T1500,119.471,35.4209,16,31,0.5,18,,91,22,,
日照市,市政府广场,2024-11-06T1500,119.523,35.4216,13,29,0.4,13,6,104,66,33,
日照市,港务局,2024-11-06T1500,119.5587,35.4044,24,39,0.6,18,4,106,70,39,
日照市,职业技术学院,2024-11-06T1500,119.5328,35.4625,12,27,0.3,14,6,109,73,35,
日照市,岚山环保分局,2024-11-06T1500,119.3266,35.1044,18,36,0.2,16,6,100,76,36,
三门峡市,市政府,2024-11-06T1500,111.1922,34.7752,69,72,0.5,22,11,96,68,93,细颗粒物(PM2.5)
三门峡市,开发区,2024-11-06T1500,111.1587,34.7942,60,106,0.6,24,13,89,61,82,细颗粒物(PM2.5)
三门峡市,风景区,2024-11-06T1500,111.143,34.7955,55,79,0.8,,21,,,,
三门峡市,三门峡市第一小学,2024-11-06T1500,111.1911,34.7829,61,77,0.5,23,17,91,63,83,细颗粒物(PM2.5)
三门峡市,富达温泉假日酒店,2024-11-06T1500,111.1,34.7167,58,92,0.5,16,,99,59,,
三明市,三钢,2024-11-06T1500,117.6211,26.2625,16,32,0.4,5,3,122,109,39,
三明市,三明二中,2024-11-06T1500,117.635,26.2714,19,29,0.5,7,3,116,104,37,
三明市,三元区政府,2024-11-06T1500,117.6028,26.2378,18,31,0.4,6,3,120,107,38,
三明市,洋溪,2024-11-06T1500,117.7275,26.3108,,,,,,,,,
三亚市,河东子站,2024-11-06T1500,109.5078,18.2489,16,25,0.3,4,2,98,129,31,
三亚市,河西子站,2024-11-06T1500,109.4964,18.2681,14,25,0.4,6,3,93,113,30,
三亚市,君悦子站,2024-11-06T1500,109.7348,18.3443,16,27,0.5,6,3,95,128,30,
山南市,山南监测站,2024-11-06T1500,91.7608,29.2313,7,,0.4,4,6,95,81,30,
山南市,山南人民医院,2024-11-06T1500,91.7706,29.2436,3,10,0.4,5,4,98,86,31,
汕头市,金平子站,2024-11-06T1500,116.6794,23.3667,39,44,,6,,131,104,,
汕头市,龙湖子站,2024-11-06T1500,116.7244,23.3633,22,40,0.7,9,8,129,112,41,
汕头市,濠江子站,2024-11-06T1500,116.7258,23.2775,21,44,0.6,9,7,145,122,46,
汕头市,澄海子站,2024-11-06T1500,116.7519,23.4714,19,40,0.7,12,8,131,116,41,
汕头市,潮阳子站,2024-11-06T1500,116.6092,23.2539,21,41,0.7,7,6,134,115,42,
汕头市,潮南峡山,2024-11-06T1500,116.454,23.2684,29,42,0.9,,8,131,125,,
汕头市,潮南子站,2024-11-06T1500,116.4069,23.2533,25,57,0.6,15,7,123,112,54,颗粒物(PM10)
汕尾市,市环保局,2024-11-06T1500,115.3653,22.775,35,49,0.7,16,8,129,95,50,
汕尾市,市政府,2024-11-06T1500,115.3706,22.7898,38,49,0.7,17,10,133,102,54,细颗粒物(PM2.5)
汕尾市,新城中学,2024-11-06T1500,115.3622,22.7925,38,47,0.7,17,8,132,100,54,细颗粒物(PM2.5)
商洛市,监测站,2024-11-06T1500,109.9154,33.8715,34,62,0.5,13,7,111,71,56,颗粒物(PM10)
商洛市,商州区中学,2024-11-06T1500,109.9643,33.8471,38,77,0.7,17,8,108,56,64,颗粒物(PM10)
商丘市,环境监测站,2024-11-06T1500,115.6702,34.4285,47,67,0.4,23,8,113,71,65,细颗粒物(PM2.5)
商丘市,粮食局,2024-11-06T1500,115.6458,34.4045,44,53,0.4,21,3,119,79,62,细颗粒物(PM2.5)
商丘市,睢阳区环保局,2024-11-06T1500,115.6293,34.3948,45,54,0.4,21,10,109,71,63,细颗粒物(PM2.5)
商丘市,梁园区档案局,2024-11-06T1500,115.6071,34.4465,45,61,0.3,18,6,110,72,63,细颗粒物(PM2.5)
上海市,普陀,2024-11-06T1500,121.4,31.238,11,19,0.5,12,5,93,73,30,
上海市,十五厂,2024-11-06T1500,121.478,31.2036,8,20,0.4,16,7,95,80,30,
上海市,虹口,2024-11-06T1500,121.467,31.3008,,20,0.5,14,8,94,79,,
上海市,徐汇上师大,2024-11-06T1500,121.412,31.1654,10,24,0.4,22,8,92,75,29,
上海市,杨浦四漂,2024-11-06T1500,121.536,31.2659,12,23,0.4,12,6,94,81,30,
上海市,静安监测站,2024-11-06T1500,121.425,31.2261,11,20,0.3,17,7,93,74,30,
上海市,浦东川沙,2024-11-06T1500,121.703,31.1907,7,22,0.5,14,6,94,80,30,
上海市,浦东新区监测站,2024-11-06T1500,121.533,31.2284,3,16,0.4,15,7,91,78,29,
上海市,浦东张江,2024-11-06T1500,121.577,31.2071,8,20,0.5,18,5,90,81,29,
上海市,宝山庙行,2024-11-06T1500,121.4316,31.3322,8,21,0.4,11,10,93,78,30,
上海市,崇明上实东滩,2024-11-06T1500,121.8791,31.4662,6,12,0.5,6,9,94,79,30,
上海市,嘉定南翔,2024-11-06T1500,121.3162,31.2838,13,20,0.4,16,10,94,74,30,
上海市,金山新城,2024-11-06T1500,121.3359,30.7456,,16,0.4,15,7,89,71,,
上海市,闵行浦江,2024-11-06T1500,121.4996,31.0739,8,19,0.6,16,6,94,78,30,
上海市,青浦徐泾,2024-11-06T1500,121.2886,31.1663,9,23,0.6,17,9,97,74,31,
上海市,松江图书馆,2024-11-06T1500,121.2186,31.0378,13,26,0.6,19,7,94,74,30,
上海市,长宁仙霞,2024-11-06T1500,121.3902,31.2059,10,19,0.5,15,8,98,79,31,
上海市,浦东惠南,2024-11-06T1500,121.7965,31.0507,7,19,0.5,11,10,92,79,29,
上海市,奉贤南桥新城,2024-11-06T1500,121.4891,30.925,6,17,0.4,18,2,92,73,29,
上饶市,百草园,2024-11-06T1500,118.005,28.4572,6,32,0.2,6,6,133,101,42,
上饶市,市监测站,2024-11-06T1500,117.9756,28.4436,16,39,0.5,14,6,135,104,43,
上饶市,凤凰光学,2024-11-06T1500,117.9519,28.4628,25,39,0.6,7,8,128,100,40,
上饶市,广丰区教体局,2024-11-06T1500,118.1953,28.4401,14,38,0.4,11,5,121,95,38,
上饶市,双创科技城,2024-11-06T1500,117.897,28.4315,22,48,0.5,7,,129,102,,
韶关市,市八中,2024-11-06T1500,113.5824,24.7733,23,35,0.6,3,9,128,124,40,
韶关市,园林处,2024-11-06T1500,113.5917,24.7972,27,,0.5,3,11,132,126,42,
韶关市,韶关学院,2024-11-06T1500,113.6735,24.7791,25,34,0.5,8,9,133,118,42,
韶关市,曲江监测站,2024-11-06T1500,113.5971,24.6863,25,36,0.5,6,10,124,118,39,
韶关市,碧湖山庄,2024-11-06T1500,113.5556,24.8082,24,45,0.5,3,9,122,112,45,
邵阳市,市水土所,2024-11-06T1500,111.5239,27.3033,,,,,,,,,
邵阳市,市一中,2024-11-06T1500,111.4733,27.2317,24,47,0.6,7,10,155,102,49,
邵阳市,市化工厂,2024-11-06T1500,111.5283,27.2442,17,36,0.7,12,10,148,107,47,
邵阳市,市罐头厂,2024-11-06T1500,111.4503,27.2537,34,58,0.5,12,10,146,115,54,颗粒物(PM10)
邵阳市,市环保局,2024-11-06T1500,111.4328,27.2272,21,64,0.6,10,9,142,101,57,颗粒物(PM10)
绍兴市,城东开发委,2024-11-06T1500,120.6053,29.9928,19,34,0.3,22,10,106,74,34,
绍兴市,树下王站,2024-11-06T1500,120.5483,30.0003,11,30,0.4,,6,106,82,,
绍兴市,绍兴中专,2024-11-06T1500,120.5683,29.9361,21,34,0.4,20,8,113,77,36,
绍兴市,柯桥区政府,2024-11-06T1500,120.4906,30.0861,13,31,0.5,19,8,97,77,31,
绍兴市,重华小学,2024-11-06T1500,120.8752,30.0249,15,24,0.1,26,9,100,73,32,
绍兴市,上虞中学,2024-11-06T1500,120.8369,30.0137,15,28,0.5,12,6,105,76,33,
绍兴市,柯桥妇保,2024-11-06T1500,120.4722,30.0415,14,26,0.6,16,5,102,75,32,
绍兴市,袍江中学,2024-11-06T1500,120.6153,30.0764,18,30,0.7,20,10,111,83,35,
深圳市,通心岭子站,2024-11-06T1500,114.1063,22.5545,32,49,0.7,11,5,152,133,49,
深圳市,洪湖,2024-11-06T1500,114.117,22.5625,36,46,0.6,63,6,123,109,52,细颗粒物(PM2.5)
深圳市,华侨城,2024-11-06T1500,113.987,22.5417,49,55,0.8,14,6,176,128,70,臭氧1小时
深圳市,南海子站,2024-11-06T1500,113.9181,22.5171,38,70,0.6,18,7,178,128,73,臭氧1小时
深圳市,盐田,2024-11-06T1500,114.2458,22.5689,43,74,0.9,,,104,103,,
深圳市,龙岗,2024-11-06T1500,114.2283,22.7244,28,43,0.7,11,8,143,130,45,
深圳市,南澳,2024-11-06T1500,114.494,22.5422,34,51,0.7,15,8,158,130,51,颗粒物(PM10)
深圳市,葵涌,2024-11-06T1500,114.41,22.6342,37,58,0.7,11,6,149,128,54,颗粒物(PM10)
深圳市,梅沙,2024-11-06T1500,114.297,22.5978,35,54,0.7,12,8,146,132,52,颗粒物(PM10)
深圳市,观澜,2024-11-06T1500,114.0678,22.738,27,63,0.6,,5,142,117,,
深圳市,莲花,2024-11-06T1500,114.0731,22.559,29,41,0.6,13,7,138,119,44,
深圳市,民治,2024-11-06T1500,114.0261,22.6198,34,52,0.7,12,6,159,128,51,颗粒物(PM10)
深圳市,横岗,2024-11-06T1500,114.1871,22.6451,30,44,0.6,13,7,144,126,45,
深圳市,坪山,2024-11-06T1500,114.3551,22.7151,38,58,0.6,,7,141,133,,
深圳市,西乡,2024-11-06T1500,113.8953,22.5861,30,52,0.7,17,7,178,140,73,臭氧1小时
沈阳市,森林路,2024-11-06T1500,123.6836,41.9339,,,,,,,,,
沈阳市,浑南东路,2024-11-06T1500,123.505,41.7406,22,30,0.6,32,12,50,45,32,
沈阳市,新秀街,2024-11-06T1500,123.4231,41.6989,18,34,0.7,37,11,43,37,34,
沈阳市,东陵路,2024-11-06T1500,123.5903,41.8411,17,22,0.5,24,9,53,47,25,
沈阳市,陵东街,2024-11-06T1500,123.4264,41.8467,15,30,0.5,28,11,51,33,30,
沈阳市,文化路,2024-11-06T1500,123.4114,41.7653,24,39,0.5,36,17,42,36,39,
沈阳市,小河沿,2024-11-06T1500,123.4678,41.7867,24,35,0.9,40,16,36,41,35,
沈阳市,太原街,2024-11-06T1500,123.4017,41.7972,24,32,0.5,37,20,38,31,35,
沈阳市,京沈街,2024-11-06T1500,123.3783,41.9228,12,23,0.4,17,13,52,32,23,
沈阳市,沈辽西路,2024-11-06T1500,123.2444,41.7347,20,36,0.5,30,9,52,35,36,
沈阳市,裕农路,2024-11-06T1500,123.5953,41.9086,19,23,0.5,29,10,52,45,28,
十堰市,武当山,2024-11-06T1500,111.0419,32.395,22,38,0.7,17,10,126,96,40,
十堰市,滨河新村,2024-11-06T1500,110.78,32.6494,38,58,0.5,16,10,108,62,54,"颗粒物(PM10),细颗粒物(PM2.5)"
十堰市,刘家沟,2024-11-06T1500,110.7258,32.6389,44,82,0.5,15,8,123,68,66,颗粒物(PM10)
十堰市,铁二处,2024-11-06T1500,110.8839,32.5714,44,49,0.5,20,11,118,68,62,细颗粒物(PM2.5)
十堰市,郧阳区金沙路,2024-11-06T1500,110.8054,32.8401,42,,0.6,16,4,137,79,59,细颗粒物(PM2.5)
石河子市,艾青诗歌馆,2024-11-06T1500,86.0497,44.2967,38,84,0.9,19,19,77,42,67,颗粒物(PM10)
石河子市,南区管委会,2024-11-06T1500,86.047,44.2331,32,94,0.8,19,19,88,60,72,颗粒物(PM10)
石河子市,世纪广场,2024-11-06T1500,86.0791,44.3017,42,84,0.7,22,16,84,52,67,颗粒物(PM10)
石家庄市,职工医院,2024-11-06T1500,114.4422,38.0444,41,97,1.0,42,13,51,28,74,颗粒物(PM10)
石家庄市,高新区,2024-11-06T1500,114.6063,38.0266,50,94,1.1,45,12,58,31,72,颗粒物(PM10)
石家庄市,西北水源,2024-11-06T1500,114.4898,38.1328,53,87,0.9,58,8,51,31,73,细颗粒物(PM2.5)
石家庄市,西南高教,2024-11-06T1500,114.4586,38.0058,53,89,1.1,45,12,59,32,73,细颗粒物(PM2.5)
石家庄市,世纪公园,2024-11-06T1500,114.5331,38.0178,39,75,1.1,45,15,51,29,63,颗粒物(PM10)
石家庄市,人民会堂,2024-11-06T1500,114.509,38.0457,52,91,1.1,43,12,55,31,72,细颗粒物(PM2.5)
石家庄市,封龙山,2024-11-06T1500,114.3524,37.8911,38,86,1.3,44,14,50,73,68,颗粒物(PM10)
石家庄市,22中南校区,2024-11-06T1500,114.5481,38.0378,46,81,1.1,50,13,51,30,66,颗粒物(PM10)
石家庄市,鹿泉一中,2024-11-06T1500,114.289,38.0906,47,88,0.9,43,11,48,25,69,颗粒物(PM10)
石家庄市,藁城区实验学校,2024-11-06T1500,114.8506765,38.0322033,62,106,0.6,36,13,71,31,84,细颗粒物(PM2.5)
石家庄市,井陉矿区区委大楼,2024-11-06T1500,114.0504658,38.0591645,34,93,,47,14,37,26,,
石家庄市,栾城区星河路,2024-11-06T1500,114.6549,37.9020,56,95,,40,12,62,30,,
石嘴山市,沙湖旅游区,2024-11-06T1500,106.3394,38.817,,,,,,,,,
石嘴山市,大武口朝阳西街,2024-11-06T1500,106.3668,39.0145,55,66,,,263,79,42,,
石嘴山市,惠农南大街,2024-11-06T1500,106.7704,39.2282,29,53,0.4,18,17,104,49,52,颗粒物(PM10)
石嘴山市,红果子镇惠新街,2024-11-06T1500,106.7099,39.1325,35,68,0.7,,15,104,61,,
石嘴山市,妇女儿童医院,2024-11-06T1500,106.3495,38.9836,38,73,2.8,53,200,66,45,62,颗粒物(PM10)
石嘴山市,石大公路,2024-11-06T1500,106.7492,39.2069,35,60,0.5,17,11,97,49,55,颗粒物(PM10)
双鸭山市,双合村,2024-11-06T1500,131.1511,46.6937,8,,0.6,12,12,50,49,16,
双鸭山市,南小市,2024-11-06T1500,131.1652,46.6191,3,,0.4,7,8,56,50,18,
双鸭山市,环保局,2024-11-06T1500,131.1524,46.6554,20,21,0.5,9,8,54,51,29,
双鸭山市,苗圃,2024-11-06T1500,131.12,46.5656,8,33,0.2,9,3,39,37,33,
朔州市,平朔,2024-11-06T1500,112.4397,39.3522,49,70,0.6,39,13,69,43,68,细颗粒物(PM2.5)
朔州市,朔唯,2024-11-06T1500,112.4575,39.3617,32,80,0.6,32,15,65,42,65,颗粒物(PM10)
朔州市,区政府,2024-11-06T1500,112.4258,39.3197,30,65,0.7,30,15,55,35,58,颗粒物(PM10)
朔州市,市环保局,2024-11-06T1500,112.4072,39.3278,28,68,0.7,31,16,63,41,59,颗粒物(PM10)
朔州市,市二中,2024-11-06T1500,112.4272,39.3681,33,73,0.6,33,17,63,35,62,颗粒物(PM10)
朔州市,一水厂,2024-11-06T1500,112.2931,39.53,25,83,0.6,29,12,72,43,67,颗粒物(PM10)
四平市,一商场,2024-11-06T1500,124.4002,43.1713,13,19,0.1,8,3,60,48,19,
四平市,境园,2024-11-06T1500,124.388,43.193,12,15,0.2,4,2,66,49,21,
四平市,植物园,2024-11-06T1500,124.4036,43.1411,16,20,0.1,8,3,65,50,23,
四平市,世纪城,2024-11-06T1500,124.3419,43.1666,17,,0.2,6,4,61,44,25,
松原市,江南,2024-11-06T1500,124.8006,45.1214,13,15,0.1,,5,59,44,,
松原市,江北,2024-11-06T1500,124.7965,45.1722,14,14,0.2,7,1,59,45,20,
苏州市,上方山,2024-11-06T1500,120.561,31.2472,11,,0.7,16,9,112,79,,
苏州市,彩香,2024-11-06T1500,120.591,31.3019,16,32,0.4,12,8,104,76,33,
苏州市,轧钢厂,2024-11-06T1500,120.596,31.3264,12,29,0.4,20,8,103,76,33,
苏州市,吴中区,2024-11-06T1500,120.613,31.2703,12,29,0.4,13,7,103,77,33,
苏州市,苏州新区,2024-11-06T1500,120.543,31.2994,12,19,0.4,16,7,104,76,33,
苏州市,苏州工业园区,2024-11-06T1500,120.669,31.3097,16,31,0.4,19,6,106,78,34,
苏州市,相城区,2024-11-06T1500,120.641,31.3708,14,34,0.3,26,6,101,75,34,
苏州市,方洲路,2024-11-06T1500,120.743,31.3188,12,24,0.4,15,8,107,78,34,
苏州市,木渎中学,2024-11-06T1500,120.5031,31.2774,14,26,0.2,20,8,103,76,33,
苏州市,越秀幼儿园,2024-11-06T1500,120.624,31.1733,10,17,0.4,5,10,107,83,34,
苏州市,高铁新城,2024-11-06T1500,120.6505,31.416,15,34,0.4,16,7,104,73,34,
宿迁市,宿迁学院,2024-11-06T1500,118.293,33.9528,31,45,0.5,17,2,93,65,45,
宿迁市,宿迁中学,2024-11-06T1500,118.2442,33.9592,29,46,0.4,18,,95,70,,
宿迁市,市供电局,2024-11-06T1500,118.283,33.965,35,50,0.5,22,5,91,63,50,
宿迁市,宿豫区政府,2024-11-06T1500,118.3225,33.9447,32,56,0.6,23,4,96,64,53,颗粒物(PM10)
宿州市,远航博物馆,2024-11-06T1500,116.9509,33.666,39,67,0.3,18,6,119,75,59,颗粒物(PM10)
宿州市,社会福利中心,2024-11-06T1500,116.9708,33.591,37,68,0.5,18,7,114,75,59,颗粒物(PM10)
宿州市,宿州学院,2024-11-06T1500,116.9884,33.6305,34,64,0.2,18,7,119,77,57,颗粒物(PM10)
宿州市,皖北煤电集团,2024-11-06T1500,116.9648,33.6252,41,62,0.3,19,7,122,80,58,细颗粒物(PM2.5)
绥化市,人和东街,2024-11-06T1500,126.9785,46.6365,39,72,0.7,11,1,57,43,61,颗粒物(PM10)
绥化市,党政办公中心,2024-11-06T1500,126.964,46.6528,43,53,0.3,10,,,37,,
随州市,市委党校,2024-11-06T1500,113.3583,31.7275,34,57,0.6,9,14,144,84,54,颗粒物(PM10)
随州市,市林业局,2024-11-06T1500,113.3833,31.6908,38,48,0.7,12,10,140,82,54,细颗粒物(PM2.5)
随州市,市立交桥水厂,2024-11-06T1500,113.3983,31.7308,38,52,0.6,14,12,145,83,54,细颗粒物(PM2.5)
遂宁市,石溪浩,2024-11-06T1500,105.5453,30.5678,22,27,0.6,16,7,37,31,32,
遂宁市,市监测站,2024-11-06T1500,105.5582,30.5232,18,35,0.4,19,6,36,31,35,
遂宁市,行政中心,2024-11-06T1500,105.5861,30.5366,14,36,0.2,17,7,39,29,36,
遂宁市,美宁食品公司,2024-11-06T1500,105.5918,30.4728,18,44,0.4,27,7,28,26,44,
塔城地区,东门外小游园,2024-11-06T1500,82.9994,46.7432,11,37,0.0,11,,53,29,,
台州市,黄岩环保大楼,2024-11-06T1500,121.273,28.6459,14,21,0.3,11,3,106,87,34,
台州市,台州环保大楼,2024-11-06T1500,121.419,28.6542,6,27,0.4,18,6,119,97,38,
台州市,路桥田洋王,2024-11-06T1500,121.377,28.5773,10,29,0.4,16,4,120,97,38,
台州市,台州科技职业学院,2024-11-06T1500,121.2568,28.6681,8,25,0.3,14,4,112,90,35,
太原市,尖草坪,2024-11-06T1500,112.522,37.8873,52,92,0.7,43,15,90,45,72,细颗粒物(PM2.5)
太原市,上兰,2024-11-06T1500,112.434,38.0108,56,84,1.2,35,20,71,51,77,细颗粒物(PM2.5)
太原市,晋源,2024-11-06T1500,112.469,37.7124,40,65,0.6,32,14,86,42,58,颗粒物(PM10)
太原市,小店,2024-11-06T1500,112.5583,37.7394,38,85,0.6,29,11,103,49,68,颗粒物(PM10)
太原市,桃园,2024-11-06T1500,112.5369,37.8692,53,96,0.7,36,13,96,43,73,"颗粒物(PM10),细颗粒物(PM2.5)"
太原市,坞城,2024-11-06T1500,112.57,37.8195,53,89,0.7,30,15,104,49,73,细颗粒物(PM2.5)
太原市,南寨,2024-11-06T1500,112.549,37.9854,54,83,1.4,52,25,68,40,74,细颗粒物(PM2.5)
太原市,金胜,2024-11-06T1500,112.4719,37.7831,36,98,0.8,34,16,88,55,74,颗粒物(PM10)
太原市,育英中学,2024-11-06T1500,112.5608,37.8807,42,84,0.6,32,14,106,46,67,颗粒物(PM10)
泰安市,监测站,2024-11-06T1500,117.1437,36.1937,17,36,0.8,16,7,93,62,36,
泰安市,人口学校,2024-11-06T1500,117.0885,36.2017,16,29,0.7,16,11,95,62,30,
泰安市,电力学校,2024-11-06T1500,117.1089,36.1758,22,36,0.7,13,9,91,55,36,
泰安市,国网新校,2024-11-06T1500,117.1812,36.2275,12,34,0.5,14,5,94,67,34,
泰安市,交通技校,2024-11-06T1500,117.0313,36.2018,,,,21,7,89,53,,
泰安市,山东第一医科大学,2024-11-06T1500,117.0829,36.13,27,48,0.8,21,9,90,52,48,
泰州市,公园路,2024-11-06T1500,119.905,32.4878,12,19,0.3,18,6,99,71,31,
泰州市,莲花,2024-11-06T1500,119.9189,32.4625,7,20,0.5,17,5,100,76,32,
泰州市,留学生创业园,2024-11-06T1500,119.888,32.4639,10,18,0.3,16,7,105,73,33,
泰州市,王营,2024-11-06T1500,119.8767,32.3289,3,21,0.4,17,5,105,73,33,
泰州市,姜堰区政府广场,2024-11-06T1500,120.1259,32.5099,12,22,0.3,14,,98,74,,
泰州市,周山河街区,2024-11-06T1500,119.9192,32.4322,9,18,0.3,16,8,102,80,32,
唐山市,雷达站,2024-11-06T1500,118.131,39.6363,10,29,0.4,19,4,71,41,29,
唐山市,物资局,2024-11-06T1500,118.1725,39.6334,15,32,0.4,20,6,70,41,32,
唐山市,十二中,2024-11-06T1500,118.1705,39.6506,9,30,0.4,16,4,61,37,30,
唐山市,小山,2024-11-06T1500,118.1869,39.622,9,32,0.4,8,5,68,38,32,
唐山市,冀东油田职工医院,2024-11-06T1500,118.4359,39.2762,22,67,0.4,23,8,73,47,59,颗粒物(PM10)
唐山市,正泰大街热力站,2024-11-06T1500,118.09279,39.58089,11,11,0.4,16,3,70,38,22,
唐山市,丰润区政府,2024-11-06T1500,118.1562,39.8322,8,32,0.6,18,6,62,37,32,
唐山市,金山小学,2024-11-06T1500,118.43673,39.73809,8,22,0.6,12,8,72,47,23,
唐山市,政府服务中心,2024-11-06T1500,118.24498,39.66941,9,31,0.4,19,9,66,39,31,
唐山市,消防缸窑路中队,2024-11-06T1500,118.2059,39.6585,8,32,0.5,15,7,67,41,32,
唐山市,路南电大,2024-11-06T1500,118.1436,39.6202,18,28,0.3,16,4,65,41,28,
天津市,勤俭道,2024-11-06T1500,117.1444,39.1661,58,99,0.6,41,13,65,27,79,细颗粒物(PM2.5)
天津市,大直沽八号路,2024-11-06T1500,117.237,39.1082,45,78,0.4,36,9,67,28,64,颗粒物(PM10)
天津市,前进道,2024-11-06T1500,117.202,39.0927,45,,0.4,33,9,76,33,,
天津市,淮河道,2024-11-06T1500,117.1837,39.2133,52,91,0.5,40,9,70,28,72,细颗粒物(PM2.5)
天津市,跃进路,2024-11-06T1500,117.307,39.0877,49,87,0.6,38,9,63,27,69,颗粒物(PM10)
天津市,第四大街,2024-11-06T1500,117.707,39.0343,43,78,0.6,36,8,62,25,64,颗粒物(PM10)
天津市,永明路,2024-11-06T1500,117.457,38.8394,46,70,0.5,26,9,,32,,
天津市,汉北路,2024-11-06T1500,117.764,39.1587,56,107,0.7,74,14,36,20,79,颗粒物(PM10)
天津市,团泊洼,2024-11-06T1500,117.157,38.9194,,,,,,,,,
天津市,河西一经路,2024-11-06T1500,117.7918,39.2474,47,100,0.8,66,12,34,31,75,颗粒物(PM10)
天津市,津沽路,2024-11-06T1500,117.3747,38.9846,42,73,0.6,29,12,76,34,62,颗粒物(PM10)
天津市,宾水西道,2024-11-06T1500,117.1589,39.0845,43,65,0.6,36,7,73,29,60,细颗粒物(PM2.5)
天津市,大理道,2024-11-06T1500,117.1941,39.1067,43,70,0.5,30,9,78,35,60,"颗粒物(PM10),细颗粒物(PM2.5)"
天津市,中山北路,2024-11-06T1500,117.2101,39.1699,46,82,0.5,40,8,64,27,66,颗粒物(PM10)
天津市,西四道,2024-11-06T1500,117.3876,39.1488,41,76,0.6,37,9,68,27,63,颗粒物(PM10)
天津市,雍阳西道,2024-11-06T1500,117.0365,39.3828,45,78,0.4,40,8,71,25,64,颗粒物(PM10)
天津市,辛老路,2024-11-06T1500,117.0296,39.0605,27,47,0.4,19,5,84,38,47,
天津市,地纬路,2024-11-06T1500,116.9638,38.9375,27,44,0.5,19,6,72,38,44,
天津市,北环路,2024-11-06T1500,117.4067,40.0583,16,34,0.9,26,10,64,43,34,
天津市,建设路,2024-11-06T1500,117.3045,39.7169,23,46,0.5,34,8,49,28,46,
天津市,滨水东路,2024-11-06T1500,117.8199,39.3521,25,55,0.6,43,10,44,35,53,颗粒物(PM10)
天水市,麦积山,2024-11-06T1500,106.0055,34.343,,,,,,,,,
天水市,公园小学,2024-11-06T1500,105.7205,34.5786,21,43,0.4,23,6,54,23,43,
天水市,麦积国土局,2024-11-06T1500,105.8945,34.5538,12,35,,15,,67,33,,
铁岭市,汇工街西,2024-11-06T1500,123.8139,42.3022,9,18,0.5,8,4,64,40,20,
铁岭市,水上乐园,2024-11-06T1500,123.8649,42.2923,7,14,0.4,10,6,62,44,20,
铁岭市,银州路东段,2024-11-06T1500,123.8486,42.2867,13,16,0.4,11,8,50,34,19,
铁岭市,金沙江路北,2024-11-06T1500,123.7153,42.2217,14,18,0.4,16,7,54,37,20,
通化市,光明,2024-11-06T1500,125.9358,41.7173,7,14,0.6,11,8,61,46,20,
通化市,铁路,2024-11-06T1500,125.9446,41.7325,8,10,0.4,11,4,61,46,20,
通辽市,艺术职业学校,2024-11-06T1500,122.2532,43.6801,3,19,0.3,16,9,59,51,19,
通辽市,老干部活动中心,2024-11-06T1500,122.2584,43.6333,19,,0.2,17,8,60,50,28,
通辽市,东方明珠社区,2024-11-06T1500,122.2922,43.6189,22,,1.0,12,9,63,50,32,
铜川市,党校,2024-11-06T1500,109.0656,35.0994,,,,,,,,,
铜川市,王益区政府,2024-11-06T1500,109.0697,35.0697,73,91,1.3,40,15,115,64,98,细颗粒物(PM2.5)
铜川市,新区管委会,2024-11-06T1500,108.9344,34.9058,72,106,1.1,25,18,130,76,97,细颗粒物(PM2.5)
铜川市,旺旺集团,2024-11-06T1500,108.9543,34.8732,86,108,1.2,25,18,128,81,114,细颗粒物(PM2.5)
铜陵市,市第四中学,2024-11-06T1500,117.8177,30.9412,19,57,0.4,12,5,122,86,54,颗粒物(PM10)
铜陵市,市公路局,2024-11-06T1500,117.8059,30.9273,17,47,0.4,,5,120,74,,
铜陵市,市新民污水厂,2024-11-06T1500,117.7807,30.9413,,,0.6,14,9,123,93,,
铜陵市,市第九中学,2024-11-06T1500,117.7439,30.8792,21,61,0.5,21,5,111,79,56,颗粒物(PM10)
铜陵市,车站新区,2024-11-06T1500,117.846,30.9413,15,38,0.2,12,6,119,82,38,
铜陵市,市职教基地,2024-11-06T1500,117.8483,30.97,18,46,0.5,11,7,122,86,46,
铜仁市,铜仁卫校,2024-11-06T1500,109.1839,27.7344,16,44,0.3,8,1,136,84,44,
铜仁市,铜仁七中,2024-11-06T1500,109.1753,27.6944,29,34,0.3,9,4,148,83,47,
吐鲁番市,市环保局,2024-11-06T1500,89.1904,42.9418,39,94,0.8,29,9,90,58,72,颗粒物(PM10)
吐鲁番市,地区环保局,2024-11-06T1500,89.1673,42.9559,37,88,0.8,23,7,94,41,69,颗粒物(PM10)
威海市,华夏技校,2024-11-06T1500,122.1214,37.4236,3,12,0.2,8,4,74,68,24,
威海市,山大分校,2024-11-06T1500,122.0508,37.5236,3,7,0.5,2,5,82,76,26,
威海市,市监测站,2024-11-06T1500,122.1067,37.5072,3,10,0.4,5,4,75,68,24,
威海市,文登开发区,2024-11-06T1500,122.0693,37.2174,9,21,0.2,14,9,77,52,25,
威海市,临港区管委会,2024-11-06T1500,122.1379,37.3414,3,14,0.3,10,4,67,54,21,
潍坊市,环保局,2024-11-06T1500,119.1437,36.7023,17,36,0.5,20,10,88,53,36,
潍坊市,坊子邮政,2024-11-06T1500,119.1641,36.6523,14,36,0.4,17,8,90,55,36,
潍坊市,潍坊七中,2024-11-06T1500,119.0587,36.721,18,41,,20,9,85,49,,
潍坊市,高新实验学校,2024-11-06T1500,119.1977,36.6872,17,41,0.1,18,12,88,53,41,
潍坊市,潍坊学院,2024-11-06T1500,119.1755,36.7149,14,44,0.4,20,9,90,60,44,
潍坊市,寒亭区实验一小,2024-11-06T1500,119.2041,36.7699,19,36,0.6,24,10,85,54,36,
渭南市,农科所,2024-11-06T1500,109.5293,34.5101,,,,,,,,,
渭南市,日报社,2024-11-06T1500,109.4974,34.4877,81,95,0.7,25,14,99,44,108,细颗粒物(PM2.5)
渭南市,体育馆,2024-11-06T1500,109.4636,34.493,68,112,0.7,26,15,100,44,92,细颗粒物(PM2.5)
渭南市,高新一小,2024-11-06T1500,109.4259,34.5023,83,111,0.7,24,14,93,43,110,细颗粒物(PM2.5)
温州市,瓯海,2024-11-06T1500,120.634,28.0089,9,26,0.3,17,7,116,89,37,
温州市,南浦,2024-11-06T1500,120.6748,27.9939,8,21,0.2,14,9,122,95,39,
温州市,龙湾,2024-11-06T1500,120.76,27.9747,10,24,0.3,22,6,110,95,35,
温州市,市站,2024-11-06T1500,120.6709,28.0167,12,27,0.3,19,7,113,89,36,
温州市,茶山,2024-11-06T1500,120.6985,27.9251,11,25,0.3,16,6,123,95,39,
文山壮族苗族自治州,州水务局,2024-11-06T1500,104.2533,23.3594,19,28,0.3,8,2,88,64,28,
文山壮族苗族自治州,市便民服务中心,2024-11-06T1500,104.2319,23.3892,24,29,0.3,9,3,86,56,35,
乌海市,市林业局,2024-11-06T1500,106.8174,39.6973,25,54,0.9,45,31,63,29,52,颗粒物(PM10)
乌海市,中海勃湾学校,2024-11-06T1500,106.7907,39.6667,26,48,0.8,34,32,78,37,48,
乌海市,海北新区,2024-11-06T1500,106.813,39.7274,38,53,1.0,40,37,73,35,54,细颗粒物(PM2.5)
乌海市,聚英学校,2024-11-06T1500,106.8288,39.6778,28,59,1.0,54,35,59,26,55,颗粒物(PM10)
乌兰察布市,集宁新区,2024-11-06T1500,113.1306,40.9923,22,34,0.5,,,,39,,
乌兰察布市,光明街小学,2024-11-06T1500,113.1076,41.0385,23,28,0.4,23,14,79,44,33,
乌兰察布市,北京八中,2024-11-06T1500,113.1376,40.9509,3,34,0.4,19,14,79,39,34,
乌兰察布市,市委党校,2024-11-06T1500,113.1775,40.9779,8,31,0.4,19,12,82,44,31,
乌鲁木齐市,监测站,2024-11-06T1500,87.5801,43.8303,16,54,0.5,31,3,23,8,52,颗粒物(PM10)
乌鲁木齐市,收费所,2024-11-06T1500,87.6046,43.768,11,36,0.3,15,3,94,48,36,
乌鲁木齐市,新疆农科院农场,2024-11-06T1500,87.4754,43.9469,73,,1.2,37,11,64,19,,
乌鲁木齐市,铁路局,2024-11-06T1500,87.5525,43.8711,27,68,0.4,50,3,64,27,59,颗粒物(PM10)
乌鲁木齐市,三十一中学,2024-11-06T1500,87.6432,43.831,24,54,0.5,31,2,85,39,52,颗粒物(PM10)
乌鲁木齐市,米东区环保局,2024-11-06T1500,87.7216,44.1747,46,86,0.7,30,11,89,37,68,颗粒物(PM10)
乌鲁木齐市,培训基地,2024-11-06T1500,87.4651,43.4569,9,31,0.5,7,3,84,74,31,
乌鲁木齐市,达坂城区环保局,2024-11-06T1500,88.3118,43.3658,9,58,0.3,11,8,92,66,54,颗粒物(PM10)
乌鲁木齐市,红光山片区,2024-11-06T1500,87.6162,43.8801,30,92,0.8,59,4,48,31,71,颗粒物(PM10)
乌鲁木齐市,新师大温泉校区,2024-11-06T1500,87.7024,43.8004,13,43,0.2,17,10,91,55,43,
乌鲁木齐市,大绿谷,2024-11-06T1500,87.4921,43.8411,12,53,0.6,45,6,69,43,52,颗粒物(PM10)
无锡市,雪浪,2024-11-06T1500,120.269,31.4867,19,34,0.7,20,9,106,78,34,
无锡市,黄巷,2024-11-06T1500,120.275,31.6219,14,34,0.3,18,6,97,71,34,
无锡市,曹张,2024-11-06T1500,120.294,31.56,14,38,0.7,19,10,100,74,38,
无锡市,漆塘,2024-11-06T1500,120.242,31.5031,19,34,0.8,25,6,99,73,34,
无锡市,东亭,2024-11-06T1500,120.3489,31.5863,17,36,0.8,18,,96,70,,
无锡市,旺庄,2024-11-06T1500,120.354,31.5475,,,0.7,11,7,103,79,,
无锡市,荣巷,2024-11-06T1500,120.245,31.5631,22,44,0.7,23,6,95,68,44,
无锡市,堰桥,2024-11-06T1500,120.299,31.6817,14,31,0.5,14,8,104,75,33,
无锡市,华庄,2024-11-06T1500,120.3142,31.4753,16,31,0.7,15,6,111,81,35,
吴忠市,教育园区,2024-11-06T1500,106.1532,37.9648,67,98,0.9,34,24,97,46,90,细颗粒物(PM2.5)
吴忠市,新区二泵站,2024-11-06T1500,106.1856,37.9956,63,75,0.9,29,22,98,52,85,细颗粒物(PM2.5)
吴忠市,文卫南街,2024-11-06T1500,106.2112,37.9768,68,91,1.1,36,23,111,54,92,细颗粒物(PM2.5)
芜湖市,监测站,2024-11-06T1500,118.3606,31.3519,16,22,0.3,20,11,96,67,30,
芜湖市,科创中心,2024-11-06T1500,118.3714,31.4134,17,37,0.3,24,9,97,72,37,
芜湖市,四水厂,2024-11-06T1500,118.3673,31.3131,14,38,0.5,24,10,106,76,38,
芜湖市,市气象局,2024-11-06T1500,118.4209,31.3707,16,26,0.5,16,6,104,76,33,
芜湖市,清苑社区,2024-11-06T1500,118.4781,31.3225,12,24,0.3,18,9,104,70,33,
芜湖市,扬子职业技术学院,2024-11-06T1500,118.2746,31.2326,17,40,,16,,109,78,,
梧州市,市逸夫小学,2024-11-06T1500,111.3014,23.4832,40,44,0.8,3,8,144,129,57,细颗粒物(PM2.5)
梧州市,市十一中,2024-11-06T1500,111.3239,23.4794,39,49,0.7,9,9,150,138,55,细颗粒物(PM2.5)
梧州市,龙圩,2024-11-06T1500,111.247,23.4189,36,49,0.7,5,10,138,124,52,细颗粒物(PM2.5)
梧州市,龙新,2024-11-06T1500,111.2711,23.4835,32,53,0.6,9,9,150,130,52,颗粒物(PM10)
五家渠市,农水大厦,2024-11-06T1500,87.5475,44.1756,72,125,0.9,22,21,77,28,97,细颗粒物(PM2.5)
五家渠市,经开区管委会,2024-11-06T1500,87.546,44.1912,95,135,,19,,67,23,125,细颗粒物(PM2.5)
武汉市,东湖梨园,2024-11-06T1500,114.3677,30.5584,27,45,0.7,17,13,158,104,50,
武汉市,汉阳月湖,2024-11-06T1500,114.2529,30.558,29,47,0.6,15,12,150,95,47,
武汉市,汉口花桥,2024-11-06T1500,114.282,30.6189,39,58,0.8,17,14,139,91,55,细颗粒物(PM2.5)
武汉市,武昌紫阳,2024-11-06T1500,114.3025,30.5332,35,52,0.8,13,12,155,100,51,颗粒物(PM10)
武汉市,青山钢花,2024-11-06T1500,114.3646,30.6217,36,64,0.7,21,14,154,94,57,颗粒物(PM10)
武汉市,沌口新区,2024-11-06T1500,114.1566,30.4825,43,58,0.7,18,12,145,96,60,细颗粒物(PM2.5)
武汉市,汉口江滩,2024-11-06T1500,114.3014,30.5944,38,73,0.8,20,13,141,85,62,颗粒物(PM10)
武汉市,吴家山,2024-11-06T1500,114.135,30.6319,29,58,0.9,25,13,150,94,54,颗粒物(PM10)
武汉市,沉湖七壕,2024-11-06T1500,113.8454,30.2917,30,57,0.6,14,6,151,98,54,颗粒物(PM10)
武汉市,民族大道182号,2024-11-06T1500,114.3877,30.4908,36,44,0.6,19,12,150,103,52,细颗粒物(PM2.5)
武威市,监测站,2024-11-06T1500,102.6201,37.9251,9,24,0.2,8,7,86,44,27,
武威市,东关招商场,2024-11-06T1500,102.6486,37.9325,12,24,0.3,8,5,86,45,27,
西安市,高压开关厂,2024-11-06T1500,108.882,34.2749,122,173,0.8,48,10,87,34,160,细颗粒物(PM2.5)
西安市,兴庆小区,2024-11-06T1500,108.993,34.2629,46,105,0.8,36,9,91,32,78,颗粒物(PM10)
西安市,纺织城,2024-11-06T1500,109.06,34.2572,58,124,0.6,33,14,96,38,87,颗粒物(PM10)
西安市,小寨,2024-11-06T1500,108.9356,34.2173,101,,0.8,,8,75,33,133,细颗粒物(PM2.5)
西安市,市人民体育场,2024-11-06T1500,108.954,34.2713,101,,0.8,45,,,29,133,细颗粒物(PM2.5)
西安市,高新西区,2024-11-06T1500,108.8922,34.2322,125,152,0.9,58,7,72,31,165,细颗粒物(PM2.5)
西安市,经开区,2024-11-06T1500,108.935,34.3474,65,78,0.4,31,10,82,38,88,细颗粒物(PM2.5)
西安市,长安区,2024-11-06T1500,108.906,34.1546,117,196,0.8,81,8,62,34,153,细颗粒物(PM2.5)
西安市,临潼区,2024-11-06T1500,109.2186,34.3731,73,126,0.7,34,12,76,43,98,细颗粒物(PM2.5)
西安市,草滩,2024-11-06T1500,108.869,34.378,39,99,0.3,21,6,96,46,75,颗粒物(PM10)
西安市,曲江文化产业集团,2024-11-06T1500,108.985,34.1978,126,169,0.9,54,10,75,32,166,细颗粒物(PM2.5)
西安市,广运潭,2024-11-06T1500,109.051,34.3213,73,96,0.5,39,9,84,37,98,细颗粒物(PM2.5)
西安市,文体局,2024-11-06T1500,108.6116,34.1164,103,141,0.9,22,14,120,55,135,细颗粒物(PM2.5)
西安市,无线电监控中心,2024-11-06T1500,109.09,34.5236,67,71,0.5,24,13,96,53,90,细颗粒物(PM2.5)
西宁市,第五水厂,2024-11-06T1500,101.524,36.6867,,,,,,,,,
西宁市,城北区政府,2024-11-06T1500,101.7775,36.6428,8,19,0.8,27,15,95,49,30,
西宁市,世纪职校,2024-11-06T1500,101.8305,36.5786,50,,1.0,44,20,85,42,69,细颗粒物(PM2.5)
西宁市,师大城西校区,2024-11-06T1500,101.7413,36.6397,22,48,0.8,26,15,90,45,48,
西双版纳傣族自治州,景洪市江南,2024-11-06T1500,100.7939,22.0019,22,,0.7,12,8,51,42,32,
西双版纳傣族自治州,景洪市江北,2024-11-06T1500,100.8017,22.0225,14,24,0.7,8,6,60,52,24,
西咸新区,北杜,2024-11-06T1500,108.7108,34.46,74,86,0.6,37,13,104,54,99,细颗粒物(PM2.5)
西咸新区,同德佳苑,2024-11-06T1500,108.7096,34.2956,120,128,0.6,36,10,100,50,158,细颗粒物(PM2.5)
西咸新区,崇文塔,2024-11-06T1500,108.8558,34.4978,48,90,0.6,28,10,106,56,70,颗粒物(PM10)
锡林郭勒盟,市环保监测站,2024-11-06T1500,116.1042,43.9317,3,7,0.2,6,7,83,59,26,
锡林郭勒盟,市政府,2024-11-06T1500,116.0781,43.9311,3,15,0.2,5,9,82,61,26,
厦门市,溪东,2024-11-06T1500,118.1608,24.8169,,,,,,,,,
厦门市,洪文,2024-11-06T1500,118.1514,24.4767,12,40,0.4,5,1,99,93,40,
厦门市,鼓浪屿,2024-11-06T1500,118.0661,24.4444,12,32,0.3,11,1,108,100,34,
厦门市,湖里中学,2024-11-06T1500,118.0936,24.5058,13,32,0.3,12,2,83,83,32,
厦门市,集美中学,2024-11-06T1500,118.0958,24.5688,9,23,0.2,7,1,107,98,34,
厦门市,同安二实小,2024-11-06T1500,118.1493,24.7245,9,16,0.2,6,2,109,102,35,
咸宁市,森林公园,2024-11-06T1500,114.3175,29.8142,16,26,0.7,11,6,129,105,41,
咸宁市,市发改委,2024-11-06T1500,114.3107,29.8454,17,36,0.5,11,7,136,108,43,
咸宁市,咸安区政府,2024-11-06T1500,114.2936,29.8566,17,37,0.5,13,6,140,111,44,
咸宁市,长江产业园,2024-11-06T1500,114.3375,29.8683,18,39,0.5,15,8,143,110,45,
咸阳市,气象站,2024-11-06T1500,108.7197,34.3956,,,,,,,,,
咸阳市,实验中学,2024-11-06T1500,108.673,34.3155,124,156,0.8,31,13,106,57,163,细颗粒物(PM2.5)
咸阳市,师范学院,2024-11-06T1500,108.7233,34.3617,90,102,0.7,35,12,96,53,119,细颗粒物(PM2.5)
咸阳市,两寺渡,2024-11-06T1500,108.6594,34.2969,129,175,0.9,32,14,112,51,170,细颗粒物(PM2.5)
咸阳市,奥体中心,2024-11-06T1500,108.6396,34.4078,80,120,0.7,34,15,99,54,107,细颗粒物(PM2.5)
湘潭市,板塘,2024-11-06T1500,112.9433,27.8614,44,74,0.5,15,5,160,100,62,"颗粒物(PM10),细颗粒物(PM2.5)"
湘潭市,市监测站,2024-11-06T1500,112.9118,27.8403,37,71,0.5,17,6,164,104,61,颗粒物(PM10)
湘潭市,江麓,2024-11-06T1500,112.8937,27.8728,39,61,0.5,14,5,165,115,57,臭氧1小时
湘潭市,岳塘,2024-11-06T1500,112.9227,27.8159,39,76,0.5,19,4,159,100,63,颗粒物(PM10)
湘潭市,科大,2024-11-06T1500,112.9074,27.9119,29,72,0.3,16,4,165,107,61,颗粒物(PM10)
湘潭市,昭山,2024-11-06T1500,113.0048,27.9153,39,73,0.5,17,6,157,93,62,颗粒物(PM10)
湘潭市,韶山,2024-11-06T1500,112.4876,27.9164,35,53,0.8,12,7,157,123,52,颗粒物(PM10)
湘西土家族苗族自治州,跃进水库,2024-11-06T1500,109.6414,28.2558,27,39,0.6,3,8,63,42,39,
湘西土家族苗族自治州,州政府,2024-11-06T1500,109.7325,28.3169,30,41,0.7,7,7,133,87,43,
