area,positionname,longitude,latitude,timepoint,pm2_5,pm10,co,no2,so2,o3,o3_8h,aqi,primarypollutant
阿坝藏族羌族自治州,州农科所,102.1879,31.914,2024-12-10T1500,9,,0.4,18,15,88,64,28,
阿坝藏族羌族自治州,马师校,102.2502,31.8896,2024-12-10T1500,3,10,0.4,9,3,68,40,22,
阿坝藏族羌族自治州,马尔康中学西区,102.2165,31.9024,2024-12-10T1500,6,13,0.4,6,5,72,43,23,
阿克苏地区,电视台,80.292,41.1694,2024-12-10T1500,32,34,0.5,17,3,78,65,46,
阿克苏地区,艺术中心,80.2613,41.1551,2024-12-10T1500,21,31,0.5,11,3,78,65,31,
阿拉善盟,西城区西花园,105.6467,38.8363,2024-12-10T1500,33,43,0.7,19,12,55,45,48,
阿拉善盟,蒙二幼,105.6985,38.8411,2024-12-10T1500,18,40,0.7,17,9,57,40,40,
阿拉善盟,环保局新楼,105.724,38.8516,2024-12-10T1500,18,34,0.7,14,10,56,41,34,
阿勒泰地区,市站,88.1264,47.8517,2024-12-10T1500,19,33,0.5,23,11,33,20,33,
阿里地区,阿里监测站,80.1161,32.5,2024-12-10T1500,7,11,0.4,4,6,95,90,30,
阿里地区,阿里藏医院,80.0903,32.5028,2024-12-10T1500,3,6,0.6,1,4,94,90,30,
安康市,香溪洞,109.0318,32.6537,2024-12-10T1500,29,,0.3,11,10,82,76,42,
安康市,汉滨区检察院,109.0072,32.6975,2024-12-10T1500,38,51,0.4,11,8,85,80,54,细颗粒物(PM2.5)
安康市,市邮政管理局,109.0325,32.6913,2024-12-10T1500,32,49,0.6,16,7,79,70,49,
安庆市,环科院,117.0809,30.5177,2024-12-10T1500,65,90,1.0,53,6,8,18,88,细颗粒物(PM2.5)
安庆市,马山宾馆,117.0331,30.5119,2024-12-10T1500,61,81,1.1,52,7,7,16,83,细颗粒物(PM2.5)
安庆市,安庆大学,116.9896,30.6145,2024-12-10T1500,56,79,1.2,54,9,16,17,77,细颗粒物(PM2.5)
安庆市,市人大,117.0598,30.5351,2024-12-10T1500,65,81,0.9,56,6,8,18,88,细颗粒物(PM2.5)
安顺市,伍家关,105.9606,26.2611,2024-12-10T1500,3,6,0.5,10,7,35,27,11,
安顺市,凤凰山,105.9408,26.2431,2024-12-10T1500,3,6,0.7,13,11,28,24,9,
安顺市,金钟山,105.9439,26.2564,2024-12-10T1500,7,,0.6,9,10,33,27,11,
安顺市,娄家坡,105.8983,26.2481,2024-12-10T1500,6,12,0.6,13,11,25,23,12,
安阳市,棉研所,114.4839,36.0621,2024-12-10T1500,121,170,1.1,51,12,28,14,159,细颗粒物(PM2.5)
安阳市,红庙街,114.3551,36.1017,2024-12-10T1500,114,140,1.3,58,15,21,15,149,细颗粒物(PM2.5)
安阳市,银杏小区,114.361,36.0681,2024-12-10T1500,121,159,1.9,57,13,21,15,159,细颗粒物(PM2.5)
安阳市,信访局,114.3922,36.0878,2024-12-10T1500,116,154,1.2,56,12,22,15,152,细颗粒物(PM2.5)
安阳市,左辅环卫站,114.4705,36.0637,2024-12-10T1500,115,157,1.1,51,9,29,19,150,细颗粒物(PM2.5)
安阳市,安钢职工学校,114.2917,36.0949,2024-12-10T1500,122,143,1.6,72,19,18,14,160,细颗粒物(PM2.5)
鞍山市,深沟寺,123.044,41.1196,2024-12-10T1500,28,46,0.7,21,18,44,34,46,
鞍山市,太阳城,123.011,41.0931,2024-12-10T1500,23,39,0.7,23,14,45,35,39,
鞍山市,太平,123.0485,41.1442,2024-12-10T1500,19,38,0.6,23,15,43,32,38,
鞍山市,铁西三道街,122.9642,41.0971,2024-12-10T1500,18,40,1.0,26,18,37,25,40,
鞍山市,铁西工业园区,122.9341,41.0833,2024-12-10T1500,16,41,0.6,28,12,43,32,41,
鞍山市,明达新区,123.022,41.0821,2024-12-10T1500,25,38,0.7,20,20,42,35,38,
鞍山市,千山,123.1289,41.0228,2024-12-10T1500,,,,,,,14,,
巴彦淖尔市,附二中,107.4212,40.761,2024-12-10T1500,38,82,0.6,38,13,32,17,66,颗粒物(PM10)
巴彦淖尔市,市环保大楼,107.37,40.7372,2024-12-10T1500,37,69,0.5,35,8,33,27,60,颗粒物(PM10)
巴音郭楞蒙古自治州,孔雀公园,86.1472,41.7538,2024-12-10T1500,24,,0.4,21,3,64,57,35,
巴音郭楞蒙古自治州,棉纺厂,86.1972,41.7166,2024-12-10T1500,16,43,0.3,7,2,74,67,43,
巴音郭楞蒙古自治州,经济开发区,86.2357,41.7173,2024-12-10T1500,9,29,0.3,8,3,78,73,29,
巴中市,苏山坪,106.7677,31.8794,2024-12-10T1500,34,44,0.4,20,4,42,45,49,
巴中市,丽阳花园,106.7656,31.8545,2024-12-10T1500,35,51,0.5,27,3,39,26,51,颗粒物(PM10)
巴中市,圣泉水务公司,106.7418,31.8654,2024-12-10T1500,33,39,0.4,23,3,40,25,48,
巴中市,市中心医院,106.7616,31.8344,2024-12-10T1500,37,47,0.3,20,3,52,28,53,细颗粒物(PM2.5)
白城市,洮北区环保局,122.7911,45.6077,2024-12-10T1500,21,32,0.6,22,7,45,49,32,
白城市,市环保局,122.8738,45.5725,2024-12-10T1500,15,29,0.5,15,6,51,55,29,
白山市,喜丰,126.4219,41.9171,2024-12-10T1500,40,59,0.9,37,45,45,29,57,细颗粒物(PM2.5)
白山市,环保局,126.4077,41.9419,2024-12-10T1500,44,55,0.8,41,19,31,26,62,细颗粒物(PM2.5)
白银市,第三小学,104.1724,36.5446,2024-12-10T1500,38,45,0.6,12,9,68,56,54,细颗粒物(PM2.5)
白银市,动力公司,104.1465,36.5482,2024-12-10T1500,39,39,0.7,10,6,68,57,55,细颗粒物(PM2.5)
百色市,市监测站,106.6103,23.9011,2024-12-10T1500,54,76,1.2,21,19,68,36,74,细颗粒物(PM2.5)
百色市,市中心血站,106.6538,23.8859,2024-12-10T1500,56,75,1.0,19,15,68,38,77,细颗粒物(PM2.5)
百色市,祈福高中,106.6085,23.8798,2024-12-10T1500,56,88,1.0,29,15,56,30,77,细颗粒物(PM2.5)
蚌埠市,工人疗养院,117.396,32.939,2024-12-10T1500,53,73,0.5,28,6,60,38,73,细颗粒物(PM2.5)
蚌埠市,百货大楼,117.3605,32.9427,2024-12-10T1500,55,78,0.6,26,7,56,34,75,细颗粒物(PM2.5)
蚌埠市,蚌埠学院,117.4185,32.8911,2024-12-10T1500,58,78,0.5,37,12,58,35,79,细颗粒物(PM2.5)
蚌埠市,淮上区政府,117.3533,32.9673,2024-12-10T1500,54,73,0.4,27,6,59,36,74,细颗粒物(PM2.5)
蚌埠市,高新区,117.3145,32.8977,2024-12-10T1500,63,83,0.5,40,9,47,38,85,细颗粒物(PM2.5)
蚌埠市,蚌埠田家炳中学,117.3092,32.9314,2024-12-10T1500,60,87,0.5,27,8,55,38,82,细颗粒物(PM2.5)
包头市,市环境监测站,109.8756,40.6532,2024-12-10T1500,38,101,1.3,54,28,16,30,76,颗粒物(PM10)
包头市,包头八中,109.9991,40.5842,2024-12-10T1500,49,98,1.0,44,19,19,12,74,颗粒物(PM10)
包头市,青山宾馆,109.8538,40.6821,2024-12-10T1500,72,79,1.8,,28,14,25,,
包头市,惠龙物流,109.8642,40.6288,2024-12-10T1500,48,102,1.3,51,30,17,29,76,颗粒物(PM10)
包头市,东河鸿龙湾,110.0377,40.5546,2024-12-10T1500,38,76,0.9,,28,16,9,,
包头市,滨河大厦,109.9154,40.5685,2024-12-10T1500,48,85,1.2,48,52,19,14,68,颗粒物(PM10)
包头市,包头市委党校,109.9447,40.6261,2024-12-10T1500,54,116,1.1,51,31,19,11,83,颗粒物(PM10)
包头市,昆区政府,109.8331,40.6576,2024-12-10T1500,84,86,1.3,58,26,12,35,112,细颗粒物(PM2.5)
宝鸡市,庙沟村,107.185,34.3063,2024-12-10T1500,61,,0.6,35,7,42,47,83,细颗粒物(PM2.5)
宝鸡市,竹园沟,107.0708,34.3017,2024-12-10T1500,65,69,0.7,24,8,51,48,88,细颗粒物(PM2.5)
宝鸡市,三陆医院,107.1906,34.3672,2024-12-10T1500,71,,0.6,30,6,41,37,95,细颗粒物(PM2.5)
宝鸡市,监测站,107.1431,34.3547,2024-12-10T1500,67,,0.7,25,8,46,40,90,细颗粒物(PM2.5)
宝鸡市,技工学校,107.1186,34.3739,2024-12-10T1500,65,72,0.7,24,6,47,46,88,细颗粒物(PM2.5)
宝鸡市,陈仓区环保局家属楼,107.3906,34.3528,2024-12-10T1500,69,81,0.9,24,8,55,42,93,细颗粒物(PM2.5)
宝鸡市,文理学院,107.2058,34.3497,2024-12-10T1500,64,68,0.7,28,6,39,42,87,细颗粒物(PM2.5)
宝鸡市,三迪小学,107.2386,34.3622,2024-12-10T1500,,,,34,,,36,,
保定市,游泳馆,115.493,38.8632,2024-12-10T1500,24,44,0.5,34,3,30,23,44,
保定市,华电二区,115.5213,38.8959,2024-12-10T1500,23,37,0.3,44,3,28,18,37,
保定市,接待中心,115.4713,38.9108,2024-12-10T1500,28,48,0.0,35,3,31,19,48,
保定市,地表水厂,115.4612,38.8416,2024-12-10T1500,23,56,0.3,38,1,35,26,53,颗粒物(PM10)
保定市,满城区生态环境分局,115.31981,38.95208,2024-12-10T1500,17,34,0.4,34,3,40,28,34,
保定市,清苑区第二中学,115.47694,38.76408,2024-12-10T1500,25,61,0.5,43,3,26,20,56,颗粒物(PM10)
保定市,徐水物探局,115.62909,39.02311,2024-12-10T1500,22,43,0.4,33,5,29,18,43,
保定市,双鹰农机,115.4202,38.8656,2024-12-10T1500,19,40,0.4,32,4,40,32,40,
保定市,植保所站,115.5150,38.8590,2024-12-10T1500,27,45,0.5,38,3,30,20,45,
保山市,市环境监测站,99.1678,25.1081,2024-12-10T1500,14,29,0.3,4,4,91,70,29,
保山市,市环保局,99.1711,25.1328,2024-12-10T1500,10,34,0.2,3,7,93,72,34,
北海市,牛尾岭水库,109.2262,21.588,2024-12-10T1500,33,43,0.7,,6,113,73,,
北海市,海滩公园,109.1436,21.4086,2024-12-10T1500,29,51,0.7,14,10,154,99,51,颗粒物(PM10)
北海市,新市环保局,109.0981,21.4661,2024-12-10T1500,34,53,0.6,15,7,132,92,52,颗粒物(PM10)
北海市,北海工业园,109.1778,21.5233,2024-12-10T1500,29,50,0.8,15,7,123,82,50,
北海市,龙潭自来水厂,109.1911,21.4415,2024-12-10T1500,42,51,0.7,11,9,139,95,59,细颗粒物(PM2.5)
北京市,万寿西宫,116.3621,39.8784,2024-12-10T1500,14,27,0.2,17,3,57,45,27,
北京市,定陵,116.2202,40.2915,2024-12-10T1500,22,29,0.4,14,7,40,39,32,
北京市,东四,116.4174,39.9289,2024-12-10T1500,13,26,0.3,17,2,55,42,26,
北京市,天坛,116.4072,39.8863,2024-12-10T1500,12,20,0.2,10,1,65,43,21,
北京市,农展馆,116.462,39.9365,2024-12-10T1500,10,20,0.3,6,3,68,46,22,
北京市,官园,116.3392,39.9295,2024-12-10T1500,14,25,0.2,14,3,53,38,25,
北京市,海淀万柳,116.2878,39.9611,2024-12-10T1500,17,33,0.3,19,4,55,32,33,
北京市,顺义新城,116.6636,40.135,2024-12-10T1500,12,19,0.3,7,3,59,54,19,
北京市,怀柔镇,116.6275,40.3275,2024-12-10T1500,11,21,0.4,13,3,54,44,21,
北京市,昌平镇,116.2296,40.217,2024-12-10T1500,18,29,0.4,10,8,60,55,29,
北京市,奥体中心,116.3966,39.9821,2024-12-10T1500,14,28,0.2,17,4,53,43,28,
北京市,古城,116.184,39.9136,2024-12-10T1500,16,33,0.3,13,6,55,32,33,
北京市,延庆夏都,115.9718,40.4529,2024-12-10T1500,27,40,0.4,17,3,0,6,40,
北京市,平谷新城,117.0709,40.1465,2024-12-10T1500,8,22,0.2,7,3,60,37,22,
北京市,密云新城,116.8336,40.4095,2024-12-10T1500,8,14,0.1,4,3,61,57,20,
北京市,门头沟三家店,116.088,39.9726,2024-12-10T1500,17,32,0.2,14,5,54,30,32,
北京市,丰台云岗,116.1541,39.8204,2024-12-10T1500,15,28,0.3,14,3,53,27,28,
北京市,通州东关,116.6804,39.9081,2024-12-10T1500,12,29,0.3,11,2,54,48,29,
北京市,房山燕山,115.9577,39.7603,2024-12-10T1500,20,41,0.3,27,2,43,32,41,
北京市,大兴旧宫,116.4672,39.7733,2024-12-10T1500,9,21,0.2,12,1,57,39,21,
北京市,延庆石河营,115.986,40.4563,2024-12-10T1500,27,42,0.4,18,2,43,21,42,
北京市,怀柔新城,116.6151,40.3053,2024-12-10T1500,10,18,0.2,11,2,51,44,18,
北京市,丰台小屯,116.2545,39.8768,2024-12-10T1500,13,24,0.3,12,4,56,34,24,
北京市,密云镇,116.84,40.3844,2024-12-10T1500,8,17,0.1,5,3,63,55,20,
本溪市,大峪,123.8275,41.3064,2024-12-10T1500,123,175,1.8,72,20,25,16,162,细颗粒物(PM2.5)
本溪市,溪湖,123.7567,41.3325,2024-12-10T1500,92,145,1.5,55,13,31,17,122,细颗粒物(PM2.5)
本溪市,彩屯,123.7169,41.3094,2024-12-10T1500,127,167,1.8,75,14,23,17,168,细颗粒物(PM2.5)
本溪市,东明,123.7669,41.2864,2024-12-10T1500,124,166,1.9,69,19,20,14,163,细颗粒物(PM2.5)
本溪市,新立屯,123.7992,41.2664,2024-12-10T1500,87,173,2.3,80,17,22,17,115,细颗粒物(PM2.5)
本溪市,威宁,123.8142,41.3472,2024-12-10T1500,122,223,1.6,74,15,28,17,160,细颗粒物(PM2.5)
毕节市,八中,105.2864,27.3125,2024-12-10T1500,6,9,0.4,9,6,54,45,17,
毕节市,师专,105.31,27.2944,2024-12-10T1500,7,10,0.7,13,5,45,36,15,
毕节市,长征村,105.3631,27.3533,2024-12-10T1500,3,6,0.5,7,7,50,35,16,
滨州市,第二水厂,118.0018,37.3617,2024-12-10T1500,,,0.5,74,,,23,,
滨州市,北中新校,117.9776,37.393,2024-12-10T1500,107,158,0.6,71,18,37,25,140,细颗粒物(PM2.5)
滨州市,中海酒店,117.9378,37.3956,2024-12-10T1500,105,141,0.8,53,17,49,35,138,细颗粒物(PM2.5)
滨州市,开发区一中,117.9378,37.3553,2024-12-10T1500,95,136,0.7,63,13,36,26,125,细颗粒物(PM2.5)
滨州市,金海六路,118.0917,37.694,2024-12-10T1500,107,146,,55,15,35,28,140,细颗粒物(PM2.5)
滨州市,滨州市西街道办事处,117.9956,37.3753,2024-12-10T1500,112,151,1.1,63,15,33,26,147,细颗粒物(PM2.5)
亳州市,污水处理厂,115.8072,33.8399,2024-12-10T1500,37,75,0.7,25,10,47,27,63,颗粒物(PM10)
亳州市,三国揽胜宫,115.7789,33.8518,2024-12-10T1500,43,83,0.7,31,10,49,29,67,颗粒物(PM10)
亳州市,亳州学院,115.7633,33.8034,2024-12-10T1500,39,78,0.6,29,7,49,33,64,颗粒物(PM10)
博尔塔拉蒙古自治州,市党校,82.0485,44.8556,2024-12-10T1500,18,25,0.3,13,9,56,62,26,
博尔塔拉蒙古自治州,市环保局,82.0806,44.8969,2024-12-10T1500,20,45,0.2,14,8,59,70,45,
沧州市,沧县城建局,116.8842,38.2991,2024-12-10T1500,45,58,0.3,49,7,32,22,63,细颗粒物(PM2.5)
沧州市,电视转播站,116.8584,38.3254,2024-12-10T1500,39,57,0.5,44,9,34,21,55,细颗粒物(PM2.5)
沧州市,市环保局,116.8709,38.3228,2024-12-10T1500,39,50,0.6,45,5,31,21,55,细颗粒物(PM2.5)
沧州市,河北水利电力学院,116.8136,38.3004,2024-12-10T1500,35,,0.3,31,7,42,24,,
昌都市,昌都监测站,97.1806,31.1273,2024-12-10T1500,3,16,0.6,12,6,81,59,26,
昌都市,昌都会议中心,97.1714,31.1406,2024-12-10T1500,3,7,0.5,2,4,93,69,30,
昌吉回族自治州,天山天池,88.1236,43.8886,2024-12-10T1500,13,,0.6,4,1,59,58,19,
昌吉回族自治州,新区政务中心,87.2717,44.0297,2024-12-10T1500,32,50,0.9,24,8,41,20,50,
昌吉回族自治州,亚心广场,87.3095,44.0142,2024-12-10T1500,46,63,0.6,26,8,42,34,64,细颗粒物(PM2.5)
长春市,食品厂,125.3325,43.9166,2024-12-10T1500,33,59,0.5,24,8,49,30,55,颗粒物(PM10)
长春市,客车厂,125.2863,43.9027,2024-12-10T1500,51,53,0.4,27,9,51,34,70,细颗粒物(PM2.5)
长春市,邮电学院,125.2841,43.8463,2024-12-10T1500,36,56,0.4,23,12,59,36,53,颗粒物(PM10)
长春市,劳动公园,125.3716,43.8772,2024-12-10T1500,25,40,0.5,22,11,61,37,40,
长春市,园林处,125.3297,43.8805,2024-12-10T1500,33,49,,,10,49,29,,
长春市,净月潭,125.4605,43.79,2024-12-10T1500,29,48,0.4,23,11,56,33,48,
长春市,甩湾子,125.7194,43.515,2024-12-10T1500,29,34,0.7,20,8,40,30,42,
长春市,经开区环卫处,125.3863,43.8447,2024-12-10T1500,27,52,0.7,31,18,46,26,51,颗粒物(PM10)
长春市,高新区管委会,125.245,43.7783,2024-12-10T1500,51,68,0.7,30,8,55,37,70,细颗粒物(PM2.5)
长春市,岱山公园,125.1761,43.8325,2024-12-10T1500,36,63,0.6,21,8,54,36,57,颗粒物(PM10)
长沙市,经开区环保局,113.0833,28.2325,2024-12-10T1500,31,47,0.6,30,3,26,41,47,
长沙市,高开区环保局,112.8872,28.2189,2024-12-10T1500,26,38,0.9,24,3,25,20,38,
长沙市,马坡岭,113.0792,28.2053,2024-12-10T1500,37,56,0.8,28,,18,40,,
长沙市,湖南师范大学,112.9394,28.19,2024-12-10T1500,23,29,1.0,22,2,22,22,33,
长沙市,雨花区环保局,113.0178,28.1322,2024-12-10T1500,24,36,0.7,35,4,16,39,36,
长沙市,伍家岭,112.9792,28.2597,2024-12-10T1500,25,44,1.0,31,2,16,21,44,
长沙市,火车新站,113.0014,28.1944,2024-12-10T1500,29,,1.0,29,1,13,35,42,
长沙市,天心区环保局,112.9844,28.1178,2024-12-10T1500,26,48,0.7,34,2,15,39,48,
长沙市,湖南中医药大学,112.8908,28.1308,2024-12-10T1500,23,40,0.9,33,5,25,20,40,
长沙市,沙坪,112.9581,28.3611,2024-12-10T1500,34,38,0.9,18,5,24,25,49,
长治市,清华站,113.1147,36.1547,2024-12-10T1500,48,78,1.0,44,14,32,14,67,细颗粒物(PM2.5)
长治市,监测站,113.1031,36.1989,2024-12-10T1500,29,50,0.9,26,15,42,15,50,
长治市,审计局,113.0886,36.2125,2024-12-10T1500,,,,35,13,45,11,,
长治市,长治八中,113.0844,36.1856,2024-12-10T1500,49,77,0.8,33,13,39,14,68,细颗粒物(PM2.5)
长治市,德盛苑,113.1569,36.1911,2024-12-10T1500,34,63,0.9,30,8,48,17,57,颗粒物(PM10)
长治市,向阳小学,113.06,36.0464,2024-12-10T1500,72,99,1.4,39,18,39,20,97,细颗粒物(PM2.5)
长治市,屯留一中,112.8792,36.3144,2024-12-10T1500,32,47,1.2,34,17,56,24,47,
长治市,潞城四中,113.235,36.3489,2024-12-10T1500,31,46,1.0,23,14,67,38,46,
常德市,市二中,111.6975,28.9703,2024-12-10T1500,62,,0.5,16,3,52,46,84,细颗粒物(PM2.5)
常德市,白鹤山,111.7158,29.1456,2024-12-10T1500,,,,,,,,,
常德市,武陵区永安,111.7153,29.0289,2024-12-10T1500,65,68,0.5,14,1,51,54,88,细颗粒物(PM2.5)
常德市,鼎城区玉霞,111.6892,28.9881,2024-12-10T1500,61,67,0.6,15,2,55,46,83,细颗粒物(PM2.5)
常德市,武陵区长庚,111.6625,29.0531,2024-12-10T1500,60,67,0.5,15,1,47,44,82,细颗粒物(PM2.5)
常州市,市监测站,119.9633,31.762,2024-12-10T1500,51,87,0.9,28,9,48,37,70,细颗粒物(PM2.5)
常州市,武进监测站,119.9468,31.7069,2024-12-10T1500,33,66,1.0,39,14,40,29,58,颗粒物(PM10)
常州市,安家,119.9255,31.9087,2024-12-10T1500,34,58,0.6,54,8,28,46,54,颗粒物(PM10)
常州市,行政中心,119.9805,31.8174,2024-12-10T1500,37,58,0.7,49,10,26,25,54,颗粒物(PM10)
常州市,经开区,120.0522,31.7748,2024-12-10T1500,38,69,0.7,41,10,44,39,60,颗粒物(PM10)
常州市,钟楼,119.9025,31.7964,2024-12-10T1500,34,62,1.0,52,9,27,31,56,颗粒物(PM10)
常州市,武进经发区,119.8598,31.7066,2024-12-10T1500,46,73,1.1,39,8,37,31,64,细颗粒物(PM2.5)
常州市,金坛城区,119.5826,31.7245,2024-12-10T1500,43,68,1.2,49,9,31,33,60,细颗粒物(PM2.5)
朝阳市,西梁,120.4318,41.5881,2024-12-10T1500,3,14,0.5,5,5,66,33,21,
朝阳市,河畔小区,120.4521,41.5646,2024-12-10T1500,3,17,0.6,7,5,61,33,20,
朝阳市,八里堡,120.4176,41.5648,2024-12-10T1500,25,,0.6,8,8,64,31,36,
朝阳市,农业园区,120.3806,41.5969,2024-12-10T1500,7,16,0.4,8,7,67,35,21,
潮州市,西园路,116.6367,23.6719,2024-12-10T1500,21,34,0.3,12,10,,46,,
潮州市,市政府,116.6183,23.6608,2024-12-10T1500,8,40,0.3,11,8,97,66,40,
潮州市,金山,116.6461,23.6761,2024-12-10T1500,12,44,0.5,11,12,101,64,44,
郴州市,马头岭,113.0073,25.9061,2024-12-10T1500,61,99,0.8,37,13,32,33,83,细颗粒物(PM2.5)
郴州市,市职中,113.0116,25.8226,2024-12-10T1500,75,84,0.9,32,14,25,25,100,细颗粒物(PM2.5)
郴州市,兴隆步行街,113.0161,25.8001,2024-12-10T1500,89,107,0.9,28,16,25,24,118,细颗粒物(PM2.5)
郴州市,市审计局,113.0383,25.8071,2024-12-10T1500,72,88,0.9,26,16,27,26,97,细颗粒物(PM2.5)
郴州市,市环保局,113.0348,25.7759,2024-12-10T1500,80,95,0.9,26,16,28,32,107,细颗粒物(PM2.5)
成都市,金泉两河,103.9728,30.7236,2024-12-10T1500,13,50,0.4,19,1,57,36,50,
成都市,十里店,104.176,30.6872,2024-12-10T1500,39,57,0.5,32,2,52,37,55,细颗粒物(PM2.5)
成都市,三瓦窑,104.079,30.5706,2024-12-10T1500,39,61,0.6,35,3,48,45,56,颗粒物(PM10)
成都市,沙河铺,104.1114,30.63,2024-12-10T1500,32,55,0.4,24,2,51,42,53,颗粒物(PM10)
成都市,君平街,104.0786,30.6531,2024-12-10T1500,34,50,0.7,28,5,54,41,50,
成都市,灵岩寺,103.613,31.0283,2024-12-10T1500,,,,,,,,,
成都市,大石西路,104.0239,30.65639,2024-12-10T1500,35,57,0.3,20,4,56,41,54,颗粒物(PM10)
成都市,龙泉驿区区政府,104.2725,30.5589,2024-12-10T1500,39,53,0.5,21,3,48,40,55,细颗粒物(PM2.5)
成都市,金博路,104.0106,30.6931,2024-12-10T1500,,,,19,2,,31,,
成都市,华阳,104.0578,30.5225,2024-12-10T1500,39,68,0.4,28,1,42,40,59,颗粒物(PM10)
成都市,车城东七路,104.2394,30.5319,2024-12-10T1500,41,53,0.4,26,3,45,38,58,细颗粒物(PM2.5)
成都市,青白江技师分院,104.3853,30.7453,2024-12-10T1500,52,52,0.3,12,6,64,37,72,细颗粒物(PM2.5)
成都市,科学城,104.0789,30.4072,2024-12-10T1500,42,51,0.5,25,4,47,44,59,细颗粒物(PM2.5)
成都市,光华大道三段,103.8506,30.6947,2024-12-10T1500,25,41,0.3,20,1,57,37,41,
承德市,铁路,117.9531,40.9081,2024-12-10T1500,18,47,0.5,37,8,30,18,47,
承德市,中国银行,117.9392,40.9763,2024-12-10T1500,7,50,0.4,15,3,42,25,50,
承德市,开发区,117.9503,40.928,2024-12-10T1500,21,54,0.5,28,7,40,21,52,颗粒物(PM10)
承德市,文化中心,117.8051,40.9655,2024-12-10T1500,11,44,0.5,23,24,45,24,44,
承德市,离宫,117.9268,41.0026,2024-12-10T1500,29,52,0.4,27,5,34,27,51,颗粒物(PM10)
池州市,池州学院,117.47,30.6618,2024-12-10T1500,60,75,0.9,61,4,4,6,82,细颗粒物(PM2.5)
池州市,展览馆,117.4918,30.6617,2024-12-10T1500,72,107,1.0,61,7,5,8,97,细颗粒物(PM2.5)
池州市,第八中学,117.5627,30.695,2024-12-10T1500,65,90,0.8,60,4,5,8,88,细颗粒物(PM2.5)
池州市,第十二中学,117.5038,30.6243,2024-12-10T1500,62,82,0.8,60,3,4,19,84,细颗粒物(PM2.5)
赤峰市,松山一中,118.9233,42.2816,2024-12-10T1500,6,21,0.5,15,10,62,39,21,
赤峰市,哈达街,118.9576,42.2728,2024-12-10T1500,10,17,0.5,13,10,69,44,22,
赤峰市,天义路,118.8788,42.2554,2024-12-10T1500,6,17,0.4,17,10,61,41,20,
赤峰市,银河街,119.2658,42.0353,2024-12-10T1500,,,0.5,18,22,56,37,,
赤峰市,桥北物流园区,118.9359,42.3147,2024-12-10T1500,3,23,0.6,13,11,72,44,23,
崇左市,市环保局江州分局,107.3476,22.4136,2024-12-10T1500,73,121,1.1,23,11,68,48,98,细颗粒物(PM2.5)
崇左市,城南新区,107.3702,22.3707,2024-12-10T1500,89,110,1.5,32,17,70,52,118,细颗粒物(PM2.5)
滁州市,老年大学,118.3093,32.3153,2024-12-10T1500,33,50,0.7,32,6,60,52,50,
滁州市,人大宾馆,118.3244,32.2786,2024-12-10T1500,,,0.5,,,56,49,,
滁州市,市政府原办公楼,118.3118,32.3038,2024-12-10T1500,33,50,0.7,35,8,56,50,50,
滁州市,图书馆,118.3267,32.2634,2024-12-10T1500,31,48,0.4,31,9,55,51,48,
楚雄彝族自治州,州环境监测站,101.5482,25.0441,2024-12-10T1500,16,16,0.3,3,5,91,55,29,
楚雄彝族自治州,市经济开发区,101.538,25.0492,2024-12-10T1500,,,0.4,5,5,86,61,,
达州市,达州职业技术学院,107.5277,31.2827,2024-12-10T1500,53,58,0.9,20,11,5,5,73,细颗粒物(PM2.5)
达州市,市环境监测站,107.5086,31.2186,2024-12-10T1500,41,53,0.6,29,10,34,19,58,细颗粒物(PM2.5)
达州市,凤凰小区,107.4988,31.2132,2024-12-10T1500,36,53,0.5,23,11,41,25,52,"颗粒物(PM10),细颗粒物(PM2.5)"
达州市,达县机关宾馆,107.5082,31.1986,2024-12-10T1500,47,53,0.7,29,8,35,18,65,细颗粒物(PM2.5)
达州市,市政中心,107.4644,31.2124,2024-12-10T1500,39,54,0.5,24,10,39,24,55,细颗粒物(PM2.5)
大理白族自治州,大理市环境监测站,100.1542,25.7054,2024-12-10T1500,19,20,0.5,4,7,92,80,29,
大理白族自治州,大理古城,100.2171,25.5811,2024-12-10T1500,7,16,0.5,3,5,96,97,30,
大连市,甘井子,121.612,38.9741,2024-12-10T1500,25,50,0.9,29,13,62,43,50,
大连市,周水子,121.565,38.9511,2024-12-10T1500,27,47,0.7,27,16,49,30,47,
大连市,星海三站,121.5637,38.8845,2024-12-10T1500,31,51,0.7,30,15,52,39,51,颗粒物(PM10)
大连市,青泥洼桥,121.6302,38.9117,2024-12-10T1500,29,47,0.6,26,14,49,34,47,
大连市,傅家庄,121.6251,38.8638,2024-12-10T1500,25,44,0.8,27,15,54,46,44,
大连市,七贤岭,121.5213,38.8661,2024-12-10T1500,25,36,0.9,22,11,64,48,36,
大连市,旅顺,121.2529,38.8061,2024-12-10T1500,19,28,0.9,10,12,67,56,28,
大连市,金州,121.7485,39.1311,2024-12-10T1500,24,36,0.9,19,10,61,47,36,
大连市,开发区,121.7811,39.0496,2024-12-10T1500,18,38,0.6,19,18,60,46,38,
大连市,双D港,121.9762,39.0631,2024-12-10T1500,25,36,0.8,14,11,75,69,36,
大庆市,大同区,124.81117,46.03138,2024-12-10T1500,21,31,,7,5,58,46,,
大庆市,龙凤区,125.129,46.533,2024-12-10T1500,20,29,0.5,24,29,45,34,29,
大庆市,红岗区,124.902,46.408,2024-12-10T1500,9,19,0.3,9,7,54,42,19,
大庆市,萨尔图区,125.153,46.586,2024-12-10T1500,19,35,0.6,23,8,52,39,35,
大庆市,让胡路区,124.9042,46.6215,2024-12-10T1500,23,35,0.4,15,9,50,41,35,
大庆市,萨区政府监测点,125.141,46.634,2024-12-10T1500,12,26,0.5,17,8,48,35,26,
大同市,果树场,113.3819,40.1097,2024-12-10T1500,36,38,1.0,29,12,43,24,52,细颗粒物(PM2.5)
大同市,云冈宾馆,113.2994,40.0758,2024-12-10T1500,34,52,1.9,35,18,39,23,51,颗粒物(PM10)
大同市,大同大学,113.3444,40.0917,2024-12-10T1500,30,42,1.2,30,17,40,25,43,
大同市,安家小村,113.2661,40.1269,2024-12-10T1500,9,32,0.9,25,19,52,27,32,
大同市,教育学院,113.2711,40.0844,2024-12-10T1500,27,50,1.5,38,16,35,19,50,
大同市,大同市卫生学校,113.3397,40.0597,2024-12-10T1500,24,46,1.5,41,15,36,22,46,
大同市,云冈站,113.1367,40.1122,2024-12-10T1500,15,42,0.6,17,22,67,32,42,
大同市,图书馆,113.1186,40.2556,2024-12-10T1500,21,32,1.1,20,19,65,32,32,
大同市,区一中,113.5931,40.0461,2024-12-10T1500,28,88,1.1,60,49,16,11,69,颗粒物(PM10)
大同市,第二人民医院,113.2802,40.0995,2024-12-10T1500,21,51,1.5,40,20,37,22,51,颗粒物(PM10)
大兴安岭地区,科技局,124.1069,50.4097,2024-12-10T1500,15,21,0.5,3,6,62,53,22,
大兴安岭地区,红旗社区,124.1164,50.4278,2024-12-10T1500,3,7,0.3,5,5,56,46,18,
丹东市,江湾东路,124.3303,40.0625,2024-12-10T1500,24,57,0.6,12,16,60,29,54,颗粒物(PM10)
丹东市,临江后街,124.4256,40.1503,2024-12-10T1500,49,71,0.7,18,11,62,34,68,细颗粒物(PM2.5)
丹东市,元宝山,124.3933,40.1461,2024-12-10T1500,41,77,0.8,24,12,47,29,64,颗粒物(PM10)
丹东市,民主桥,124.3633,40.1092,2024-12-10T1500,32,71,0.6,22,13,59,34,61,颗粒物(PM10)
儋州市,第一中学子站,109.5726,19.5167,2024-12-10T1500,8,17,0.4,2,5,73,71,23,
儋州市,东坡学校子站,109.5567,19.5187,2024-12-10T1500,7,18,0.4,3,5,84,80,27,
德宏傣族景颇族自治州,德宏州监测站,98.5842,24.428,2024-12-10T1500,26,33,0.5,13,17,90,47,38,
德宏傣族景颇族自治州,芒市人民政府综合楼,98.5881,24.4368,2024-12-10T1500,20,44,0.4,11,15,84,36,44,
德阳市,东山公园,104.4239,31.1208,2024-12-10T1500,26,46,0.5,10,1,68,37,46,
德阳市,西小区,104.3826,31.1317,2024-12-10T1500,27,38,0.5,15,1,57,34,39,
德阳市,耐火材料厂,104.3553,31.1091,2024-12-10T1500,,,0.5,15,3,56,34,,
德阳市,市教育局,104.4019,31.1244,2024-12-10T1500,28,37,0.7,17,2,62,38,40,
德州市,儿童乐园,116.3032,37.4674,2024-12-10T1500,41,66,0.8,50,6,39,23,58,"颗粒物(PM10),细颗粒物(PM2.5)"
德州市,监理站,116.2991,37.4451,2024-12-10T1500,56,85,0.7,49,14,51,30,77,细颗粒物(PM2.5)
德州市,九衢泉纯净水厂,116.2721,37.4379,2024-12-10T1500,46,75,0.8,52,11,33,23,64,细颗粒物(PM2.5)
德州市,开发区人民医院,116.3728,37.4403,2024-12-10T1500,36,61,0.6,38,9,48,36,56,颗粒物(PM10)
德州市,太阳城中学,116.3572,37.4094,2024-12-10T1500,44,63,0.7,45,9,50,32,62,细颗粒物(PM2.5)
德州市,陵城艺术中心,116.5652,37.3319,2024-12-10T1500,56,92,0.8,45,10,45,33,77,细颗粒物(PM2.5)
迪庆藏族自治州,迪庆州站,99.7056,27.8317,2024-12-10T1500,,,,,8,92,90,,
迪庆藏族自治州,质量技术监督局,99.7136,27.8094,2024-12-10T1500,6,22,0.3,7,8,85,80,27,
定西市,东关小学,104.6241,35.5734,2024-12-10T1500,48,61,1.0,13,8,67,34,67,细颗粒物(PM2.5)
定西市,供电公司,104.6194,35.5934,2024-12-10T1500,45,64,0.8,13,11,75,41,63,细颗粒物(PM2.5)
东莞市,莞城梨川,113.7547,23.0494,2024-12-10T1500,36,59,0.8,24,8,181,86,77,臭氧1小时
东莞市,东城石井,113.7944,23.0128,2024-12-10T1500,38,53,0.8,25,7,189,90,87,臭氧1小时
东莞市,南城西平,113.7383,22.9658,2024-12-10T1500,31,54,0.6,24,6,183,92,79,臭氧1小时
东莞市,万江金泰,113.7338,23.0381,2024-12-10T1500,39,56,0.7,22,5,174,83,68,臭氧1小时
东莞市,南城元岭,113.7533,23.0202,2024-12-10T1500,36,59,0.7,22,9,173,82,67,臭氧1小时
东莞市,东城主山,113.7875,23.0457,2024-12-10T1500,35,62,0.7,26,9,177,84,72,臭氧1小时
东营市,市环保局,118.6614,37.4309,2024-12-10T1500,61,88,1.0,51,9,39,33,83,细颗粒物(PM2.5)
东营市,开发区管委会,118.6904,37.4338,2024-12-10T1500,68,99,1.1,54,8,42,32,92,细颗粒物(PM2.5)
东营市,垦利区民丰路,118.5719,37.565,2024-12-10T1500,63,85,0.6,51,10,36,22,85,细颗粒物(PM2.5)
东营市,河口城区,118.5055,37.8612,2024-12-10T1500,,124,1.2,52,11,31,24,,
东营市,胜利站,118.4978,37.4623,2024-12-10T1500,61,104,0.7,48,10,40,28,83,细颗粒物(PM2.5)
东营市,理想之城,118.35,37.26,2024-12-10T1500,61,90,0.8,56,9,38,31,83,细颗粒物(PM2.5)
鄂尔多斯市,综合楼,110.0023,39.8129,2024-12-10T1500,29,63,0.9,34,25,43,25,57,颗粒物(PM10)
鄂尔多斯市,巴音孟克林场办事处,109.9486,39.8261,2024-12-10T1500,34,63,0.9,37,37,38,33,57,颗粒物(PM10)
鄂尔多斯市,康泽苑,109.7736,39.5986,2024-12-10T1500,17,24,0.7,17,24,69,37,25,
鄂尔多斯市,华泰汽车城,109.8119,39.5989,2024-12-10T1500,19,34,0.6,30,13,59,34,34,
鄂尔多斯市,奥林花园,109.9734,39.7884,2024-12-10T1500,24,61,0.9,34,22,41,24,56,颗粒物(PM10)
鄂州市,市政府,114.8938,30.3994,2024-12-10T1500,33,47,1.2,27,6,50,28,48,
鄂州市,赵家坝,114.8989,30.3714,2024-12-10T1500,42,56,0.6,28,5,47,30,59,细颗粒物(PM2.5)
鄂州市,精准医疗中心,114.8094,30.4089,2024-12-10T1500,40,57,0.8,26,6,48,20,57,细颗粒物(PM2.5)
恩施土家族苗族自治州,湖北民院,109.4978,30.2981,2024-12-10T1500,52,,0.6,15,8,34,37,72,细颗粒物(PM2.5)
恩施土家族苗族自治州,州电力总公司,109.4707,30.2798,2024-12-10T1500,57,73,0.8,35,7,18,37,78,细颗粒物(PM2.5)
恩施土家族苗族自治州,龙凤新区,109.5061,30.3772,2024-12-10T1500,,,,,6,36,37,,
防城港市,沙万,108.3411,21.6158,2024-12-10T1500,78,92,1.1,38,8,51,38,104,细颗粒物(PM2.5)
防城港市,防城档案局,108.3514,21.7731,2024-12-10T1500,100,120,1.0,40,8,36,30,132,细颗粒物(PM2.5)
防城港市,大海花园,108.3506,21.6414,2024-12-10T1500,,,,,,,70,,
佛山市,湾梁,113.1294,23.0067,2024-12-10T1500,26,53,0.8,43,8,90,42,52,颗粒物(PM10)
佛山市,华材职中,113.1083,23.0478,2024-12-10T1500,45,75,0.6,56,9,83,39,63,"颗粒物(PM10),细颗粒物(PM2.5)"
佛山市,南海气象局,113.144,23.0453,2024-12-10T1500,34,56,0.6,39,9,91,38,53,颗粒物(PM10)
佛山市,顺德苏岗,113.2881,22.8094,2024-12-10T1500,34,51,0.6,32,10,159,63,51,颗粒物(PM10)
佛山市,高明孔堂,112.8383,22.8678,2024-12-10T1500,63,71,1.0,60,9,110,53,85,细颗粒物(PM2.5)
佛山市,三水监测站,112.8836,23.1588,2024-12-10T1500,51,61,0.8,36,12,86,50,70,细颗粒物(PM2.5)
佛山市,三水云东海,112.867,23.185,2024-12-10T1500,40,46,0.8,38,13,89,49,57,细颗粒物(PM2.5)
佛山市,容桂街道办,113.2544,22.7642,2024-12-10T1500,36,56,0.6,35,9,159,63,53,颗粒物(PM10)
福州市,鼓山,119.3903,26.0543,2024-12-10T1500,,,,,,,52,,
福州市,师大,119.2681,26.0504,2024-12-10T1500,10,43,0.4,18,3,64,44,43,
福州市,五四北路,119.2984,26.1028,2024-12-10T1500,11,37,0.4,20,1,64,45,37,
福州市,杨桥西路,119.2648,26.0768,2024-12-10T1500,10,39,0.6,16,1,68,49,39,
福州市,紫阳,119.317,26.0746,2024-12-10T1500,18,51,0.4,28,3,46,41,51,颗粒物(PM10)
福州市,九龙,119.5799,26.0936,2024-12-10T1500,8,31,0.5,13,3,57,56,31,
福州市,吴航,119.5189,25.9664,2024-12-10T1500,10,24,0.4,20,4,64,38,24,
抚顺市,望花区,123.7977,41.8491,2024-12-10T1500,34,67,0.5,28,9,38,23,59,颗粒物(PM10)
抚顺市,顺城区,123.9161,41.8822,2024-12-10T1500,26,80,0.4,31,7,54,28,65,颗粒物(PM10)
抚顺市,东洲区,124.0436,41.8611,2024-12-10T1500,78,137,1.3,54,10,28,23,104,细颗粒物(PM2.5)
抚顺市,新抚区,123.9247,41.8642,2024-12-10T1500,44,134,0.8,37,10,32,18,92,颗粒物(PM10)
抚顺市,大伙房水库,124.0972,41.8961,2024-12-10T1500,84,114,1.2,54,10,32,25,112,细颗粒物(PM2.5)
抚顺市,沈抚新城,123.7086,41.8391,2024-12-10T1500,32,59,0.6,22,12,49,27,55,颗粒物(PM10)
抚州市,桐源党溪,116.2127,28.0814,2024-12-10T1500,51,66,0.6,13,8,34,48,70,细颗粒物(PM2.5)
抚州市,市站,116.3544,27.9831,2024-12-10T1500,36,56,0.8,27,13,41,47,53,颗粒物(PM10)
抚州市,血防站,116.3565,27.963,2024-12-10T1500,36,66,0.7,27,18,38,46,58,颗粒物(PM10)
抚州市,采茶剧团,116.3564,28.0007,2024-12-10T1500,36,63,1.1,22,13,36,43,57,颗粒物(PM10)
抚州市,医学分院,116.385,27.9647,2024-12-10T1500,33,61,,,,,43,,
阜新市,工业园区,121.6094,41.998,2024-12-10T1500,6,14,0.2,14,8,64,46,20,
阜新市,长青街,121.6697,42.0279,2024-12-10T1500,12,13,0.5,12,6,61,43,20,
阜新市,农业园区,121.6673,42.0705,2024-12-10T1500,2,,0.8,8,8,61,55,,
阜新市,东苑,121.6717,42.0224,2024-12-10T1500,3,15,0.4,8,3,70,51,22,
阜新市,玉龙新城,121.6506,42.0498,2024-12-10T1500,13,17,0.4,6,5,67,48,21,
阜阳市,市监测站,115.8277,32.8929,2024-12-10T1500,56,78,0.5,35,8,41,34,77,细颗粒物(PM2.5)
阜阳市,开发区,115.8554,32.8605,2024-12-10T1500,56,78,0.6,26,10,47,32,77,细颗粒物(PM2.5)
阜阳市,阜阳职业技术学院,115.784,32.8892,2024-12-10T1500,63,73,0.6,30,10,47,36,85,细颗粒物(PM2.5)
阜阳市,市规划展馆,115.7901,32.8613,2024-12-10T1500,56,93,0.5,31,9,49,38,77,细颗粒物(PM2.5)
阜阳市,枣园社区,115.836,32.9183,2024-12-10T1500,61,77,0.6,34,8,48,37,83,细颗粒物(PM2.5)
甘南藏族自治州,州政府,102.9099,34.9841,2024-12-10T1500,9,21,0.5,9,7,59,51,21,
甘南藏族自治州,甘肃民族师范学院,102.8914,34.9617,2024-12-10T1500,3,6,0.5,13,9,67,54,21,
甘孜藏族自治州,水桥子,101.9603,30.0475,2024-12-10T1500,3,12,0.7,11,8,52,41,17,
甘孜藏族自治州,州环保局,101.9533,29.9972,2024-12-10T1500,3,10,0.6,9,4,60,48,19,
赣江新区,桑海产业园,115.8347,28.932,2024-12-10T1500,74,90,1.0,49,12,4,5,99,细颗粒物(PM2.5)
赣州市,通天岩,114.9017,25.9149,2024-12-10T1500,58,66,0.6,22,6,59,42,79,细颗粒物(PM2.5)
赣州市,地委,114.9367,25.8664,2024-12-10T1500,45,75,,,10,64,45,,
赣州市,气象台,114.9461,25.8481,2024-12-10T1500,38,75,1.0,39,15,62,41,63,颗粒物(PM10)
赣州市,市图书馆,114.9322,25.8333,2024-12-10T1500,38,66,0.9,28,7,62,42,58,颗粒物(PM10)
赣州市,华坚鞋城,114.8905,25.8471,2024-12-10T1500,32,66,0.8,18,10,62,40,58,颗粒物(PM10)
赣州市,赣县区卫计委,115.0093,25.8613,2024-12-10T1500,56,82,0.6,26,6,58,40,77,细颗粒物(PM2.5)
固原市,马园,106.2319,36.1417,2024-12-10T1500,53,153,1.0,16,10,54,38,102,颗粒物(PM10)
固原市,监测站,106.2792,36.0022,2024-12-10T1500,56,,0.7,22,7,51,34,77,细颗粒物(PM2.5)
固原市,新区,106.2375,36.0211,2024-12-10T1500,50,,0.6,20,6,53,36,69,细颗粒物(PM2.5)
固原市,原州区十五小,106.2177,35.9959,2024-12-10T1500,60,72,0.9,21,6,53,37,82,细颗粒物(PM2.5)
广安市,小平旧居,106.6308,30.5278,2024-12-10T1500,,,,,,,,,
广安市,市委,106.6303,30.4576,2024-12-10T1500,47,73,0.7,31,4,27,43,65,细颗粒物(PM2.5)
广安市,友谊中学,106.6271,30.4663,2024-12-10T1500,48,65,0.8,30,3,27,40,67,细颗粒物(PM2.5)
广安市,广电花园,106.6388,30.4551,2024-12-10T1500,53,79,0.8,39,3,18,44,73,细颗粒物(PM2.5)
广安市,北辰小学,106.6351,30.4865,2024-12-10T1500,43,71,0.8,21,6,35,39,61,颗粒物(PM10)
广元市,黑石坡,105.8945,32.4535,2024-12-10T1500,24,,0.4,10,5,71,54,35,
广元市,老城,105.821,32.4444,2024-12-10T1500,22,34,0.5,14,3,78,70,34,
广元市,监测站,105.8628,32.4287,2024-12-10T1500,19,47,0.7,16,4,85,70,47,
广元市,经开区,105.8047,32.4166,2024-12-10T1500,30,40,0.5,18,4,77,68,43,
广州市,广雅中学,113.2347,23.1423,2024-12-10T1500,32,70,0.8,51,8,78,39,60,颗粒物(PM10)
广州市,市五中,113.2612,23.105,2024-12-10T1500,36,51,0.8,29,6,91,49,52,细颗粒物(PM2.5)
广州市,广东商学院,113.3478,23.0916,2024-12-10T1500,38,62,0.7,34,7,128,48,56,颗粒物(PM10)
广州市,市八十六中,113.4332,23.1047,2024-12-10T1500,49,88,0.7,47,9,123,46,69,颗粒物(PM10)
广州市,番禺中学,113.3505,22.9483,2024-12-10T1500,44,72,0.7,31,9,197,75,97,臭氧1小时
广州市,花都师范,113.2146,23.3916,2024-12-10T1500,26,42,0.5,33,7,75,44,42,
广州市,市监测站,113.2597,23.1331,2024-12-10T1500,22,46,0.5,,6,89,46,,
广州市,九龙镇镇龙,113.5618,23.312,2024-12-10T1500,21,35,0.7,16,6,89,40,35,
广州市,麓湖,113.2765,23.1544,2024-12-10T1500,26,41,0.6,28,6,90,46,41,
广州市,帽峰山森林公园,113.443,23.3035,2024-12-10T1500,21,34,0.6,25,6,83,47,34,
广州市,体育西,113.3221,23.1322,2024-12-10T1500,32,51,0.7,26,5,83,45,51,颗粒物(PM10)
广州市,从化街口,113.5717,23.5491,2024-12-10T1500,30,45,0.7,18,5,74,34,45,
广州市,白云竹料,113.3472,23.3692,2024-12-10T1500,20,35,0.7,17,8,89,47,35,
广州市,白云嘉禾,113.2981,23.237,2024-12-10T1500,28,57,0.9,34,8,79,42,54,颗粒物(PM10)
广州市,黄埔科学城,113.4256,23.1716,2024-12-10T1500,30,44,0.8,29,8,102,56,44,
广州市,番禺大学城,113.3942,23.0483,2024-12-10T1500,38,77,0.7,38,15,152,62,64,颗粒物(PM10)
广州市,南沙黄阁,113.4922,22.8168,2024-12-10T1500,40,73,0.8,42,7,188,78,85,臭氧1小时
广州市,南沙街,113.5342,22.7896,2024-12-10T1500,38,66,0.8,32,5,201,85,101,臭氧1小时
广州市,花都梯面,113.2902,23.5544,2024-12-10T1500,23,31,0.6,11,11,74,42,33,
广州市,从化良口,113.7858,23.7478,2024-12-10T1500,20,23,0.6,9,6,72,48,29,
广州市,增城荔城,113.8051,23.2614,2024-12-10T1500,27,33,0.6,12,6,119,68,39,
贵港市,德智高中,109.568,23.1478,2024-12-10T1500,,,,,,,,,
贵港市,江南子站,109.6047,23.0666,2024-12-10T1500,48,75,0.9,21,13,75,50,67,细颗粒物(PM2.5)
贵港市,贵城子站,109.6014,23.0948,2024-12-10T1500,50,68,0.9,24,14,70,54,69,细颗粒物(PM2.5)
贵港市,荷城子站,109.5669,23.1065,2024-12-10T1500,44,70,0.8,22,18,72,52,62,细颗粒物(PM2.5)
贵港市,新世纪学校,109.5886,23.1172,2024-12-10T1500,42,75,0.9,21,16,73,51,63,颗粒物(PM10)
贵阳市,马鞍山,106.6899,26.5998,2024-12-10T1500,3,12,0.5,14,6,28,23,12,
贵阳市,市环保站,106.6971,26.5694,2024-12-10T1500,10,14,0.6,24,6,22,21,15,
贵阳市,鉴湖路,106.6243,26.6266,2024-12-10T1500,12,14,0.7,14,6,20,16,18,
贵阳市,燕子冲,106.7487,26.6343,2024-12-10T1500,7,,0.6,16,7,27,25,10,
贵阳市,碧云窝,106.6555,26.4365,2024-12-10T1500,7,22,0.7,29,8,16,16,22,
贵阳市,中院村,106.694,26.5161,2024-12-10T1500,3,9,0.8,19,11,25,21,10,
贵阳市,红边门,106.7109,26.6027,2024-12-10T1500,14,17,0.9,25,14,21,20,20,
贵阳市,新华路,106.7164,26.5699,2024-12-10T1500,7,12,0.6,16,7,28,23,12,
贵阳市,太慈桥,106.674,26.5424,2024-12-10T1500,7,,0.7,21,8,19,19,11,
贵阳市,桐木岭,106.805,26.3003,2024-12-10T1500,9,19,0.7,10,6,17,25,19,
桂林市,电子科大尧山校区,110.4144,25.3167,2024-12-10T1500,8,17,0.9,10,8,44,47,17,
桂林市,监测站,110.2819,25.2697,2024-12-10T1500,9,14,1.2,24,9,30,43,14,
桂林市,龙隐路小学,110.3089,25.2708,2024-12-10T1500,24,,1.1,19,9,35,43,35,
桂林市,八中,110.2869,25.2178,2024-12-10T1500,17,,0.9,20,7,30,40,25,
桂林市,创业大厦,110.1764,25.2381,2024-12-10T1500,12,12,1.1,19,6,38,44,18,
桂林市,旅游学院,110.296,25.1253,2024-12-10T1500,7,,1.0,19,6,37,39,12,
果洛藏族自治州,玛沁县大武镇,100.2561,34.4714,2024-12-10T1500,9,43,0.4,1,11,119,89,43,
哈尔滨市,岭北,126.5422,45.755,2024-12-10T1500,53,57,0.5,21,17,69,50,73,细颗粒物(PM2.5)
哈尔滨市,松北商大,126.561,45.8167,2024-12-10T1500,46,68,0.7,30,17,48,33,64,细颗粒物(PM2.5)
哈尔滨市,阿城会宁,126.979,45.5419,2024-12-10T1500,75,79,0.7,28,18,54,36,100,细颗粒物(PM2.5)
哈尔滨市,南岗学府路,126.599,45.7222,2024-12-10T1500,43,72,0.5,26,9,52,32,61,颗粒物(PM10)
哈尔滨市,太平宏伟公园,126.689,45.7733,2024-12-10T1500,54,73,0.6,27,15,46,32,74,细颗粒物(PM2.5)
哈尔滨市,道外承德广场,126.635,45.7667,2024-12-10T1500,49,73,0.6,28,12,52,39,68,细颗粒物(PM2.5)
哈尔滨市,香坊红旗大街,126.685,45.7319,2024-12-10T1500,52,61,0.7,28,,52,33,,
哈尔滨市,动力和平路,126.6411,45.7258,2024-12-10T1500,47,68,0.5,27,15,47,27,65,细颗粒物(PM2.5)
哈尔滨市,道里建国路,126.593,45.7478,2024-12-10T1500,50,60,0.8,29,21,51,34,69,细颗粒物(PM2.5)
哈尔滨市,平房东轻厂,126.615,45.61,2024-12-10T1500,57,65,0.5,37,42,44,34,78,细颗粒物(PM2.5)
哈尔滨市,呼兰师专,126.595,45.9855,2024-12-10T1500,32,120,0.7,30,11,53,,85,颗粒物(PM10)
哈尔滨市,省农科院,126.6206,45.6842,2024-12-10T1500,65,90,0.6,27,11,50,32,88,细颗粒物(PM2.5)
哈密市,地区监测站,93.5128,42.8172,2024-12-10T1500,48,71,0.7,23,8,36,26,67,细颗粒物(PM2.5)
哈密市,哈密师范学校,93.4961,42.8328,2024-12-10T1500,56,63,0.9,22,11,33,20,77,细颗粒物(PM2.5)
海北藏族自治州,海晏县西海镇,100.9048,36.9639,2024-12-10T1500,39,51,0.8,16,19,71,68,55,细颗粒物(PM2.5)
海东市,平安区公安北苑,102.0738,36.5056,2024-12-10T1500,45,49,0.6,16,13,68,47,63,细颗粒物(PM2.5)
海口市,东寨港,110.576,19.9507,2024-12-10T1500,13,29,0.6,3,11,82,76,29,
海口市,海南大学,110.3232,20.0574,2024-12-10T1500,16,42,0.4,10,5,91,86,42,
海口市,秀英海南医院,110.283,20.0053,2024-12-10T1500,11,38,0.3,8,4,93,86,38,
海口市,海南师范大学,110.338,19.9969,2024-12-10T1500,9,33,0.4,8,4,91,83,33,
海口市,龙华路环保局宿舍,110.33,20.0356,2024-12-10T1500,10,30,0.5,4,5,95,86,30,
海口市,桂林洋子站,110.5111,19.9736,2024-12-10T1500,11,28,0.3,4,4,93,86,30,
海南藏族自治州,共和县恰卜恰镇,100.6188,36.2866,2024-12-10T1500,38,,0.8,13,13,64,61,54,细颗粒物(PM2.5)
海西蒙古族藏族自治州,德令哈市,97.3731,37.3753,2024-12-10T1500,11,42,0.5,5,16,93,68,42,
邯郸市,东污水处理厂,114.5302,36.6116,2024-12-10T1500,114,142,1.0,54,7,20,12,149,细颗粒物(PM2.5)
邯郸市,矿院,114.4918,36.5713,2024-12-10T1500,100,158,0.9,58,6,17,11,132,细颗粒物(PM2.5)
邯郸市,丛台公园,114.484,36.6133,2024-12-10T1500,117,148,0.9,54,8,22,13,153,细颗粒物(PM2.5)
邯郸市,香泉濮院小区,114.7895,36.5593,2024-12-10T1500,126,189,1.0,49,9,31,17,166,细颗粒物(PM2.5)
邯郸市,永年区实验高中,114.50634,36.77178,2024-12-10T1500,120,164,1.0,50,,25,12,158,细颗粒物(PM2.5)
邯郸市,峰峰矿区临水派出所,114.20016,36.44293,2024-12-10T1500,109,149,1.4,46,17,27,16,143,细颗粒物(PM2.5)
汉中市,汉川机床厂子校,106.9893,33.1842,2024-12-10T1500,46,49,0.4,10,6,82,58,64,细颗粒物(PM2.5)
汉中市,市监测站,107.0154,33.0706,2024-12-10T1500,44,48,0.6,14,6,79,50,62,细颗粒物(PM2.5)
汉中市,鑫源开发区,107.0089,33.1138,2024-12-10T1500,45,,0.5,15,6,83,54,63,细颗粒物(PM2.5)
汉中市,南郑大河坎水厂,107.007,33.0323,2024-12-10T1500,44,52,0.6,17,4,84,50,62,细颗粒物(PM2.5)
杭州市,滨江,120.2072,30.2111,2024-12-10T1500,22,27,0.5,53,7,18,21,32,
杭州市,西溪,120.0633,30.2747,2024-12-10T1500,18,28,0.7,48,7,24,11,28,
杭州市,下沙,120.3461,30.3153,2024-12-10T1500,28,30,0.5,66,5,14,16,40,
杭州市,卧龙桥,120.1269,30.2456,2024-12-10T1500,20,30,0.6,50,7,23,12,30,
杭州市,浙江农大,120.1903,30.2692,2024-12-10T1500,21,28,0.6,59,4,12,12,30,
杭州市,和睦小学,120.1197,30.3119,2024-12-10T1500,21,35,0.6,56,5,21,14,35,
杭州市,临平镇,120.3019,30.4183,2024-12-10T1500,37,37,0.7,50,5,23,23,53,细颗粒物(PM2.5)
杭州市,城厢镇,120.2697,30.1819,2024-12-10T1500,29,54,0.4,63,6,13,13,52,颗粒物(PM10)
杭州市,云栖,120.0883,30.1808,2024-12-10T1500,22,30,0.6,52,6,21,13,32,
杭州市,镇二中,119.9464,30.0494,2024-12-10T1500,51,51,0.8,46,6,3,19,70,细颗粒物(PM2.5)
杭州市,市府大楼,119.7183,30.2367,2024-12-10T1500,20,35,0.7,63,6,7,27,35,
杭州市,消防大队,120.1556,30.2864,2024-12-10T1500,,,0.4,57,7,14,17,,
合肥市,明珠广场,117.1959,31.7848,2024-12-10T1500,48,63,1.0,42,9,28,21,67,细颗粒物(PM2.5)
合肥市,三里街,117.3072,31.8764,2024-12-10T1500,41,51,0.4,41,8,28,22,58,细颗粒物(PM2.5)
合肥市,琥珀山庄,117.2588,31.8707,2024-12-10T1500,47,56,0.7,44,5,36,32,65,细颗粒物(PM2.5)
合肥市,董铺水库,117.1604,31.9052,2024-12-10T1500,31,68,0.6,33,5,36,33,59,颗粒物(PM10)
合肥市,长江中路,117.25,31.8571,2024-12-10T1500,45,61,0.9,40,8,36,31,63,细颗粒物(PM2.5)
合肥市,庐阳区,117.266,31.9436,2024-12-10T1500,36,68,0.8,41,5,40,32,59,颗粒物(PM10)
合肥市,瑶海区,117.336,31.8586,2024-12-10T1500,42,61,1.1,49,12,33,29,59,细颗粒物(PM2.5)
合肥市,包河区,117.3027,31.7964,2024-12-10T1500,44,63,0.8,60,4,12,12,62,细颗粒物(PM2.5)
合肥市,滨湖新区,117.2776,31.7385,2024-12-10T1500,39,63,0.6,46,7,20,18,57,颗粒物(PM10)
合肥市,高新区,117.1318,31.8403,2024-12-10T1500,46,61,0.8,41,2,34,24,64,细颗粒物(PM2.5)
合肥市,高教基地,117.3803,31.9147,2024-12-10T1500,37,48,0.6,36,8,40,34,53,细颗粒物(PM2.5)
和田地区,地区环保局,79.924,37.0877,2024-12-10T1500,37,130,1.0,25,14,65,52,90,颗粒物(PM10)
和田地区,市环保局,79.9131,37.113,2024-12-10T1500,58,101,1.3,,15,69,38,,
河池市,东仁乐园,108.2011,24.715,2024-12-10T1500,33,42,1.0,16,8,27,30,48,
河池市,市环保站,108.0497,24.6947,2024-12-10T1500,,,,,8,28,34,,
河池市,市疾控中心,108.0983,24.6989,2024-12-10T1500,28,35,0.8,22,9,31,29,40,
河源市,源西,114.6778,23.7569,2024-12-10T1500,22,35,0.4,,5,89,57,,
河源市,东埔,114.6944,23.7586,2024-12-10T1500,20,46,0.6,11,4,98,60,46,
河源市,老城,114.6892,23.7233,2024-12-10T1500,17,31,0.6,10,5,98,61,31,
菏泽市,气象局,115.4208,35.2464,2024-12-10T1500,83,120,0.7,40,8,50,35,110,细颗粒物(PM2.5)
菏泽市,市政协,115.4747,35.2375,2024-12-10T1500,85,127,0.8,39,13,47,36,113,细颗粒物(PM2.5)
菏泽市,定陶老年大学,115.5564,35.0891,2024-12-10T1500,78,112,0.6,51,14,40,30,104,细颗粒物(PM2.5)
菏泽市,菏泽医专,115.4702,35.2706,2024-12-10T1500,81,125,0.9,45,15,50,33,108,细颗粒物(PM2.5)
贺州市,环保小区,111.5264,24.4172,2024-12-10T1500,84,118,1.0,37,8,43,39,112,细颗粒物(PM2.5)
贺州市,政协大楼,111.5608,24.4078,2024-12-10T1500,66,120,1.0,34,9,43,40,89,细颗粒物(PM2.5)
贺州市,西湾,111.4744,24.4553,2024-12-10T1500,90,116,1.0,24,7,54,44,119,细颗粒物(PM2.5)
鹤壁市,市监测站,114.17,35.9019,2024-12-10T1500,102,166,2.2,68,20,20,14,134,细颗粒物(PM2.5)
鹤壁市,市交警支队,114.2956,35.7511,2024-12-10T1500,95,152,0.7,44,6,23,16,125,细颗粒物(PM2.5)
鹤壁市,迎宾馆,114.2878,35.7306,2024-12-10T1500,94,146,0.5,46,9,23,16,124,细颗粒物(PM2.5)
鹤壁市,大新区,114.2617,35.6822,2024-12-10T1500,108,149,0.7,56,8,25,18,142,细颗粒物(PM2.5)
鹤壁市,南山宾馆,114.1572,35.9603,2024-12-10T1500,122,146,1.8,46,16,32,20,160,细颗粒物(PM2.5)
鹤岗市,哈啤分公司,130.2537,47.3416,2024-12-10T1500,21,26,0.5,5,15,49,42,30,
鹤岗市,斯达机电,130.2684,47.3086,2024-12-10T1500,26,35,0.5,12,14,52,45,38,
鹤岗市,东山纸板厂,130.3114,47.3388,2024-12-10T1500,30,,0.5,27,13,49,42,43,
鹤岗市,五号水库,130.1097,47.3382,2024-12-10T1500,12,18,0.4,5,8,68,62,22,
黑河市,交通局,127.4833,50.2524,2024-12-10T1500,18,21,0.4,15,7,46,43,26,
黑河市,环保局,127.5144,50.2341,2024-12-10T1500,14,19,0.1,9,4,47,46,20,
黑河市,大黑河岛,127.5291,50.2472,2024-12-10T1500,,28,0.8,10,2,5,5,,
衡水市,电机北厂,115.6838,37.7541,2024-12-10T1500,,,0.8,54,,19,11,,
衡水市,市监测站,115.6303,37.7316,2024-12-10T1500,83,117,0.8,70,7,16,10,110,细颗粒物(PM2.5)
衡水市,市城管局,115.6683,37.7217,2024-12-10T1500,72,96,0.8,62,7,20,15,97,细颗粒物(PM2.5)
衡水市,地表水厂,115.5989,37.5491,2024-12-10T1500,86,103,0.8,63,10,24,18,114,细颗粒物(PM2.5)
衡阳市,原169医院,112.5003,26.9167,2024-12-10T1500,31,33,0.8,18,3,16,14,45,
衡阳市,衡阳化工总厂,112.6194,26.9258,2024-12-10T1500,55,58,0.8,23,10,21,20,75,细颗粒物(PM2.5)
衡阳市,珠晖区环保局,112.6211,26.8956,2024-12-10T1500,66,,0.9,21,8,25,23,89,细颗粒物(PM2.5)
衡阳市,市委党校,112.6197,26.8733,2024-12-10T1500,66,74,0.9,25,9,37,28,89,细颗粒物(PM2.5)
衡阳市,市监测站,112.6006,26.8919,2024-12-10T1500,81,92,0.9,21,6,24,21,108,细颗粒物(PM2.5)
衡阳市,真空机电公司,112.5664,26.9056,2024-12-10T1500,56,,0.7,21,4,25,15,77,细颗粒物(PM2.5)
衡阳市,师范学院,112.6703,26.882,2024-12-10T1500,51,68,0.9,20,9,39,27,70,细颗粒物(PM2.5)
红河哈尼族彝族自治州,污水处理厂,103.3772,23.3993,2024-12-10T1500,12,27,0.4,4,7,70,51,27,
红河哈尼族彝族自治州,监测站,103.3861,23.35,2024-12-10T1500,18,32,0.5,5,11,72,59,32,
红河哈尼族彝族自治州,州图书馆,103.3758,23.368,2024-12-10T1500,18,25,0.4,4,6,64,45,26,
呼和浩特市,呼市一监,111.6507,40.7517,2024-12-10T1500,32,83,0.7,39,9,24,11,67,颗粒物(PM10)
呼和浩特市,小召,111.6572,40.8033,2024-12-10T1500,47,107,1.1,61,11,17,13,79,颗粒物(PM10)
呼和浩特市,如意水处理厂,111.7516,40.8369,2024-12-10T1500,12,23,0.3,16,8,57,31,23,
呼和浩特市,二十九中,111.7276,40.8062,2024-12-10T1500,,,0.9,48,8,28,26,,
呼和浩特市,工大金川校区,111.5512,40.7866,2024-12-10T1500,49,82,1.0,54,28,27,17,68,细颗粒物(PM2.5)
呼和浩特市,化肥厂生活区,111.717,40.7612,2024-12-10T1500,31,80,0.7,42,9,23,26,65,颗粒物(PM10)
呼和浩特市,红旗小学,111.5968,40.8178,2024-12-10T1500,52,110,1.0,65,14,14,11,80,颗粒物(PM10)
呼和浩特市,海东办,111.6518,40.8389,2024-12-10T1500,36,88,1.0,59,8,20,16,69,颗粒物(PM10)
呼伦贝尔市,区环保局,119.7594,49.2261,2024-12-10T1500,14,18,0.3,9,8,55,54,20,
呼伦贝尔市,国华电力东,119.7512,49.1577,2024-12-10T1500,13,23,0.2,5,6,58,53,23,
湖州市,城西水厂,120.0751,30.8669,2024-12-10T1500,15,26,0.5,42,6,37,29,26,
湖州市,仁皇山新区,120.0875,30.8955,2024-12-10T1500,19,24,0.6,42,6,37,29,28,
湖州市,吴兴区站,120.1844,30.8596,2024-12-10T1500,20,33,0.5,52,6,26,19,33,
湖州市,南浔区站,120.4148,30.8538,2024-12-10T1500,21,31,0.4,43,4,32,22,31,
葫芦岛市,龙港区,120.9092,40.7136,2024-12-10T1500,10,27,0.5,15,25,,50,,
葫芦岛市,化工街,120.8392,40.7514,2024-12-10T1500,7,24,0.5,20,25,60,40,24,
葫芦岛市,新区,120.8341,40.7073,2024-12-10T1500,8,35,0.5,11,14,61,52,35,
葫芦岛市,东城区,120.8695,40.7677,2024-12-10T1500,12,35,0.4,8,9,58,41,35,
怀化市,林科所,109.5981,27.5721,2024-12-10T1500,7,,0.6,14,4,43,43,14,
怀化市,河西地税局,109.9453,27.5444,2024-12-10T1500,10,12,0.7,14,4,36,42,15,
怀化市,市四医院,109.9781,27.5342,2024-12-10T1500,6,11,0.7,14,11,37,40,12,
怀化市,监测楼,109.9972,27.5578,2024-12-10T1500,7,10,0.6,17,2,37,40,12,
怀化市,市委党校,110.0394,27.583,2024-12-10T1500,9,11,0.5,15,4,34,40,13,
淮安市,钵池山,119.036,33.5981,2024-12-10T1500,49,,0.6,23,8,64,45,68,细颗粒物(PM2.5)
淮安市,北京南路,119.007,33.575,2024-12-10T1500,46,53,0.9,25,10,62,48,64,细颗粒物(PM2.5)
淮安市,市监测站,118.989,33.6067,2024-12-10T1500,53,66,0.6,29,9,63,47,73,细颗粒物(PM2.5)
淮安市,楚州区监测站,119.135,33.5039,2024-12-10T1500,40,51,0.7,29,10,63,47,57,细颗粒物(PM2.5)
淮安市,淮阴区监测站,119.0186,33.6297,2024-12-10T1500,57,80,0.6,32,10,64,43,78,细颗粒物(PM2.5)
淮安市,新华书店,118.8755,33.2894,2024-12-10T1500,33,43,0.5,31,9,67,57,48,
淮北市,监测站,116.8004,33.975,2024-12-10T1500,75,119,0.8,44,13,41,24,100,细颗粒物(PM2.5)
淮北市,烈山区政府,116.8091,33.9007,2024-12-10T1500,71,106,0.7,43,12,54,41,95,细颗粒物(PM2.5)
淮北市,杜集区检察院,116.8873,33.9836,2024-12-10T1500,76,112,0.6,43,9,43,32,102,细颗粒物(PM2.5)
淮北市,市博物馆,116.7923,33.9535,2024-12-10T1500,,,,50,13,41,29,,
淮南市,潘集区政府,116.8305,32.7727,2024-12-10T1500,92,118,0.7,46,11,36,27,122,细颗粒物(PM2.5)
淮南市,师范学院,117.0067,32.6524,2024-12-10T1500,52,90,0.7,40,8,37,27,72,细颗粒物(PM2.5)
淮南市,谢家集区政府,116.8569,32.5951,2024-12-10T1500,51,85,0.6,37,13,42,30,70,细颗粒物(PM2.5)
淮南市,八公山区政府,116.8281,32.633,2024-12-10T1500,59,91,0.7,40,11,40,29,80,细颗粒物(PM2.5)
淮南市,焦岗湖风景区管理处,116.6325,32.6201,2024-12-10T1500,51,71,0.4,53,9,26,17,70,细颗粒物(PM2.5)
淮南市,经济技术开发区消防队,117.0566,32.6531,2024-12-10T1500,60,96,0.5,44,8,44,35,82,细颗粒物(PM2.5)
淮南市,山南新区,117.0108,32.5893,2024-12-10T1500,51,89,0.6,31,,50,40,,
黄冈市,职工中心,114.9028,30.4742,2024-12-10T1500,38,42,0.7,18,10,51,20,54,细颗粒物(PM2.5)
黄冈市,红卫路,114.8858,30.4519,2024-12-10T1500,31,35,0.7,22,5,58,24,45,
黄冈市,市林业局,114.9136,30.4445,2024-12-10T1500,35,37,0.6,7,7,61,32,50,
黄南藏族自治州,同仁县隆务镇,102.0199,35.5102,2024-12-10T1500,47,49,0.9,18,8,72,56,65,细颗粒物(PM2.5)
黄山市,延安路89号,118.2903,29.6963,2024-12-10T1500,37,43,0.3,20,7,33,28,53,细颗粒物(PM2.5)
黄山市,黄山东路89号,118.327,29.7178,2024-12-10T1500,30,69,0.4,17,6,29,26,60,颗粒物(PM10)
黄山市,黄山区政府5号楼,118.1371,30.2756,2024-12-10T1500,50,70,0.5,31,8,18,21,69,细颗粒物(PM2.5)
黄石市,沈家营,115.0601,30.2313,2024-12-10T1500,50,73,0.7,27,6,38,31,69,细颗粒物(PM2.5)
黄石市,陈家湾,115.0817,30.2006,2024-12-10T1500,52,66,0.5,32,8,34,31,72,细颗粒物(PM2.5)
黄石市,铁山,114.8988,30.2019,2024-12-10T1500,46,55,0.3,23,9,47,37,64,细颗粒物(PM2.5)
黄石市,团城山,115.0307,30.2092,2024-12-10T1500,52,68,0.7,25,7,36,31,72,细颗粒物(PM2.5)
黄石市,笔架山北路,115.0235,30.1578,2024-12-10T1500,45,57,0.8,26,6,39,27,63,细颗粒物(PM2.5)
惠州市,河南岸金山湖子站,114.4183,23.0528,2024-12-10T1500,25,37,0.4,10,8,,60,,
惠州市,下埔横江三路子站,114.4053,23.0822,2024-12-10T1500,22,39,0.5,12,8,126,76,40,
惠州市,江北云山西路子站,114.4103,23.1142,2024-12-10T1500,20,33,0.7,11,8,122,77,39,
惠州市,惠阳区承修路船湖子站,114.4645,22.7833,2024-12-10T1500,16,33,0.4,14,9,120,69,38,
惠州市,大亚湾管委会子站,114.5317,22.7422,2024-12-10T1500,21,38,0.6,15,9,136,81,43,
惠州市,惠阳秋长,114.4338,22.8134,2024-12-10T1500,14,39,0.6,,9,139,78,,
惠州市,大亚湾霞涌,114.6517,22.775,2024-12-10T1500,20,32,0.6,10,8,138,85,44,
鸡西市,环保局,130.9762,45.3001,2024-12-10T1500,29,38,0.5,4,6,54,46,42,
鸡西市,第一中学,130.9429,45.3039,2024-12-10T1500,25,29,0.5,,5,62,55,,
鸡西市,欧美日汽修厂,131.0207,45.3073,2024-12-10T1500,28,37,0.7,13,11,58,41,40,
鸡西市,市政设施管理处,130.9967,45.3106,2024-12-10T1500,27,47,0.6,10,2,58,45,47,
吉安市,红声器材厂,114.9754,27.0803,2024-12-10T1500,41,77,0.6,38,20,40,29,64,颗粒物(PM10)
吉安市,市森林工业局,114.9658,27.0999,2024-12-10T1500,42,71,0.5,40,21,44,34,61,颗粒物(PM10)
吉安市,市环境监测站,114.99,27.1312,2024-12-10T1500,43,89,0.8,38,44,45,35,70,颗粒物(PM10)
吉安市,青原区法院,115.0093,27.0968,2024-12-10T1500,44,77,0.7,42,34,41,35,64,颗粒物(PM10)
吉林市,哈达湾,126.54,43.8622,2024-12-10T1500,40,52,0.8,36,10,46,46,57,细颗粒物(PM2.5)
吉林市,东局子,126.5844,43.8358,2024-12-10T1500,36,53,0.7,29,9,49,41,52,"颗粒物(PM10),细颗粒物(PM2.5)"
吉林市,电力学院,126.5052,43.8245,2024-12-10T1500,42,48,0.8,,11,44,41,,
吉林市,江北,126.6133,43.8972,2024-12-10T1500,36,57,0.6,34,13,44,39,54,颗粒物(PM10)
吉林市,江南公园,126.555,43.8306,2024-12-10T1500,41,52,1.1,33,12,45,40,58,细颗粒物(PM2.5)
吉林市,丰满,126.7061,43.7133,2024-12-10T1500,21,25,0.4,10,11,61,55,30,
吉林市,九站,126.4739,43.953,2024-12-10T1500,35,55,0.6,28,7,51,44,53,颗粒物(PM10)
济南市,科干所,116.9862,36.6114,2024-12-10T1500,66,117,0.7,55,11,42,29,89,细颗粒物(PM2.5)
济南市,农科所,116.9376,36.665,2024-12-10T1500,83,149,1.1,63,19,34,23,110,细颗粒物(PM2.5)
济南市,开发区,117.1265,36.6734,2024-12-10T1500,78,129,0.7,58,13,39,31,104,细颗粒物(PM2.5)
济南市,省种子仓库,117.0624,36.6868,2024-12-10T1500,78,134,0.7,47,12,42,28,104,细颗粒物(PM2.5)
济南市,机床二厂,116.9489,36.6447,2024-12-10T1500,78,134,1.0,53,18,39,30,104,细颗粒物(PM2.5)
济南市,市监测站,117.0495,36.663,2024-12-10T1500,76,132,0.7,52,12,44,32,102,细颗粒物(PM2.5)
济南市,长清党校,116.7675,36.5484,2024-12-10T1500,90,154,0.8,65,16,33,28,119,细颗粒物(PM2.5)
济南市,技术学院,117.6795,36.229,2024-12-10T1500,48,58,0.7,32,14,60,31,67,细颗粒物(PM2.5)
济南市,东山小学,117.532,36.6868,2024-12-10T1500,73,117,0.9,39,23,57,35,98,细颗粒物(PM2.5)
济南市,泰兴公司,117.7161,36.2049,2024-12-10T1500,56,75,0.6,33,15,58,31,77,细颗粒物(PM2.5)
济南市,莱芜战役纪念馆,117.6867,36.2171,2024-12-10T1500,51,80,0.6,30,13,58,33,70,细颗粒物(PM2.5)
济南市,济阳区政府,117.1673,36.9782,2024-12-10T1500,76,115,0.8,46,15,39,26,102,细颗粒物(PM2.5)
济南市,锦屏中学,117.1171,36.63,2024-12-10T1500,59,88,0.5,44,11,55,43,80,细颗粒物(PM2.5)
济南市,济南四建,116.9814,36.6819,2024-12-10T1500,78,124,0.8,58,15,33,18,104,细颗粒物(PM2.5)
济宁市,火炬城,116.6251,35.4302,2024-12-10T1500,70,90,1.0,59,14,30,22,94,细颗粒物(PM2.5)
济宁市,电化厂,116.5491,35.4042,2024-12-10T1500,66,103,0.8,50,16,37,16,89,细颗粒物(PM2.5)
济宁市,北湖一中,116.5814,35.3707,2024-12-10T1500,58,83,0.7,54,13,42,28,79,细颗粒物(PM2.5)
济宁市,服务中心,116.8249,35.5593,2024-12-10T1500,,,1.3,,,26,22,,
济宁市,市第七中学,116.5907,35.4054,2024-12-10T1500,61,86,0.9,49,11,44,28,83,细颗粒物(PM2.5)
佳木斯市,佳纺,130.2751,46.8028,2024-12-10T1500,57,61,0.6,16,,57,50,,
佳木斯市,发电厂,130.3995,46.8307,2024-12-10T1500,61,,0.6,18,9,55,49,83,细颗粒物(PM2.5)
佳木斯市,环保局,130.3258,46.7975,2024-12-10T1500,58,67,0.5,24,11,50,43,79,细颗粒物(PM2.5)
佳木斯市,十一中,130.3648,46.8032,2024-12-10T1500,63,,0.5,25,10,53,48,85,细颗粒物(PM2.5)
佳木斯市,四丰,130.3794,46.7588,2024-12-10T1500,50,75,0.5,13,1,60,54,69,细颗粒物(PM2.5)
嘉兴市,清河小学,120.7436,30.778,2024-12-10T1500,16,33,0.5,55,5,20,22,33,
嘉兴市,嘉兴学院,120.726,30.7478,2024-12-10T1500,32,47,0.5,56,5,23,24,47,
嘉兴市,南湖区残联,120.7846,30.7525,2024-12-10T1500,30,43,0.5,43,10,27,25,43,
嘉兴市,秀洲住建,120.6916,30.7739,2024-12-10T1500,28,33,0.4,51,9,26,20,40,
嘉峪关市,气象局,98.2908,39.7711,2024-12-10T1500,39,51,0.7,14,12,79,63,55,细颗粒物(PM2.5)
嘉峪关市,酒钢宾馆,98.2672,39.7978,2024-12-10T1500,44,61,1.1,21,19,76,56,62,细颗粒物(PM2.5)
嘉峪关市,雄关区,98.2643,39.7724,2024-12-10T1500,24,33,0.5,18,8,84,59,35,
江门市,北街,113.1064,22.6058,2024-12-10T1500,60,85,0.7,48,11,169,65,82,细颗粒物(PM2.5)
江门市,西区,113.0731,22.5835,2024-12-10T1500,57,84,0.7,61,12,172,68,78,细颗粒物(PM2.5)
江门市,圭峰西,113.0219,22.5311,2024-12-10T1500,63,84,0.7,47,6,209,89,105,臭氧1小时
江门市,东湖,113.0828,22.5947,2024-12-10T1500,41,81,0.7,43,10,170,66,66,颗粒物(PM10)
江门市,江海富民,113.1075,22.5647,2024-12-10T1500,59,100,0.7,52,12,208,78,104,臭氧1小时
江门市,新会银湖,113.05,22.4667,2024-12-10T1500,75,83,0.8,50,8,216,84,108,臭氧1小时
焦作市,市环保局,113.227,35.2125,2024-12-10T1500,79,108,0.6,29,16,43,26,105,细颗粒物(PM2.5)
焦作市,影视城,113.1992,35.2590,2024-12-10T1500,,,,,,,38,,
焦作市,太极体育中心,113.2725,35.2067,2024-12-10T1500,72,117,0.9,40,25,34,21,97,细颗粒物(PM2.5)
焦作市,马村街道办,113.3137,35.2641,2024-12-10T1500,81,91,0.6,20,15,54,30,108,细颗粒物(PM2.5)
焦作市,焦作技师学院,113.2465,35.2373,2024-12-10T1500,70,95,0.6,18,18,51,27,94,细颗粒物(PM2.5)
焦作市,中站许衡医院,113.1656,35.2539,2024-12-10T1500,65,86,0.5,23,,49,28,,
焦作市,原李万街道办,113.2449,35.1803,2024-12-10T1500,83,134,1.0,42,18,33,23,110,细颗粒物(PM2.5)
揭阳市,新兴,116.3701,23.5345,2024-12-10T1500,19,38,0.4,12,8,123,75,39,
揭阳市,西马,116.3264,23.5443,2024-12-10T1500,16,48,,12,9,137,78,,
揭阳市,东兴,116.3611,23.5626,2024-12-10T1500,22,55,0.7,12,11,140,79,53,颗粒物(PM10)
揭阳市,渔湖,116.4151,23.5294,2024-12-10T1500,19,32,0.5,12,10,130,76,41,
揭阳市,曲溪,116.403,23.5699,2024-12-10T1500,28,43,0.6,18,7,143,83,45,
金昌市,天庆家园,102.1692,38.5167,2024-12-10T1500,19,22,0.5,5,10,79,71,28,
金昌市,市委党校,102.1864,38.5253,2024-12-10T1500,17,38,0.4,5,9,80,73,38,
金昌市,金川区人防中心,102.1647,38.5371,2024-12-10T1500,18,20,0.5,4,10,81,74,26,
金华市,十五中,119.647,29.077,2024-12-10T1500,47,71,0.5,,,27,21,,
金华市,监测站,119.686,29.1029,2024-12-10T1500,48,73,0.7,49,5,25,20,67,细颗粒物(PM2.5)
金华市,气象局,119.656,29.1131,2024-12-10T1500,47,70,0.9,50,5,24,18,65,细颗粒物(PM2.5)
锦州市,南山,121.1115,41.0879,2024-12-10T1500,7,24,0.4,6,9,69,49,24,
锦州市,开发区,121.0533,40.8434,2024-12-10T1500,15,35,0.4,12,12,62,46,35,
锦州市,百股街道,121.1836,41.1119,2024-12-10T1500,7,30,0.5,11,10,61,44,30,
锦州市,天安街道,121.1178,41.1222,2024-12-10T1500,9,26,0.5,7,10,65,45,26,
锦州市,北湖公园,121.1303,41.1386,2024-12-10T1500,11,18,0.4,7,10,63,46,20,
晋城市,自来水公司,112.85,35.5051,2024-12-10T1500,36,53,0.7,21,12,69,28,52,"颗粒物(PM10),细颗粒物(PM2.5)"
晋城市,白云商贸,112.8318,35.4936,2024-12-10T1500,31,58,,,10,71,30,,
晋城市,市环保局,112.8508,35.4887,2024-12-10T1500,46,71,0.8,22,10,68,29,64,细颗粒物(PM2.5)
晋城市,技术学院,112.8676,35.4897,2024-12-10T1500,44,89,0.8,26,11,65,27,70,颗粒物(PM10)
晋城市,白马寺,112.8453,35.546,2024-12-10T1500,55,,0.8,21,14,64,28,75,细颗粒物(PM2.5)
晋城市,泽州一中,112.8271,35.4828,2024-12-10T1500,39,71,0.7,21,10,68,32,61,颗粒物(PM10)
晋中市,锦纶小区,112.7532,37.6945,2024-12-10T1500,27,70,0.5,53,14,29,19,60,颗粒物(PM10)
晋中市,南都小区,112.7249,37.7067,2024-12-10T1500,30,62,0.6,50,13,30,18,56,颗粒物(PM10)
晋中市,榆次区政府,112.6991,37.6982,2024-12-10T1500,26,66,0.5,49,16,29,17,58,颗粒物(PM10)
晋中市,榆次三中,112.7195,37.6828,2024-12-10T1500,27,63,0.7,46,16,33,18,57,颗粒物(PM10)
荆门市,竹园小学,112.2014,31.0481,2024-12-10T1500,67,97,0.6,32,14,26,37,90,细颗粒物(PM2.5)
荆门市,掇刀,112.1969,30.9891,2024-12-10T1500,69,100,0.7,33,9,30,46,93,细颗粒物(PM2.5)
荆门市,石化一小,112.2213,31.0386,2024-12-10T1500,65,103,0.6,32,9,29,35,88,细颗粒物(PM2.5)
荆门市,西山林语,112.1849,31.0362,2024-12-10T1500,65,92,0.5,28,8,32,46,88,细颗粒物(PM2.5)
荆门市,龙泉中学南校,112.1632,31.0138,2024-12-10T1500,61,87,0.7,30,11,34,50,83,细颗粒物(PM2.5)
荆州市,市图书馆,112.2494,30.3197,2024-12-10T1500,54,62,0.7,33,6,42,48,74,细颗粒物(PM2.5)
荆州市,市委党校,112.2008,30.3544,2024-12-10T1500,54,62,0.6,29,4,47,48,74,细颗粒物(PM2.5)
荆州市,管委会,112.2747,30.3122,2024-12-10T1500,54,60,0.6,25,4,42,51,74,细颗粒物(PM2.5)
荆州市,学苑路,112.1655,30.3364,2024-12-10T1500,49,75,0.7,27,9,56,54,68,细颗粒物(PM2.5)
景德镇市,王港中学,117.3102,29.3867,2024-12-10T1500,,,,,,,,,
景德镇市,老干部活动中心,117.2117,29.2933,2024-12-10T1500,32,,0.4,14,7,27,28,46,
景德镇市,兽医站,117.1894,29.2789,2024-12-10T1500,30,46,0.3,12,7,31,33,46,
景德镇市,台达陶瓷,117.1547,29.2617,2024-12-10T1500,27,39,0.4,13,2,28,32,39,
景德镇市,陶研所,117.2461,29.2956,2024-12-10T1500,18,34,0.6,13,4,23,24,34,
九江市,十里,115.9872,29.6815,2024-12-10T1500,45,68,1.0,48,6,21,14,63,细颗粒物(PM2.5)
九江市,茅山头,115.9584,29.7046,2024-12-10T1500,59,88,,,,,14,,
九江市,西园,115.9877,29.7295,2024-12-10T1500,54,72,0.8,41,6,27,23,74,细颗粒物(PM2.5)
九江市,五七二七厂,116.0172,29.6547,2024-12-10T1500,72,83,1.2,41,5,25,18,97,细颗粒物(PM2.5)
九江市,综合工业园,115.9114,29.6038,2024-12-10T1500,72,78,1.0,51,3,13,11,97,细颗粒物(PM2.5)
九江市,石化总厂,116.0721,29.7535,2024-12-10T1500,53,79,1.0,46,11,20,13,73,细颗粒物(PM2.5)
九江市,庐山气象台,115.9773,29.5698,2024-12-10T1500,18,21,0.8,9,7,55,66,26,
九江市,外国语学校,116.0254,29.6994,2024-12-10T1500,60,77,0.7,43,4,18,13,82,细颗粒物(PM2.5)
酒泉市,仓门街子站,98.5061,39.7443,2024-12-10T1500,32,58,0.7,13,13,77,66,54,颗粒物(PM10)
酒泉市,油田生活基地,98.4989,39.7256,2024-12-10T1500,35,61,0.7,20,10,72,64,56,颗粒物(PM10)
喀什地区,巡警大队,76.0072,39.4467,2024-12-10T1500,16,53,0.3,14,3,58,53,52,颗粒物(PM10)
喀什地区,吾办,75.9755,39.4694,2024-12-10T1500,32,58,0.5,19,3,61,57,54,颗粒物(PM10)
喀什地区,老干局,75.9483,39.4689,2024-12-10T1500,38,63,0.4,15,1,64,61,57,颗粒物(PM10)
开封市,肿瘤医院,114.3389,34.7781,2024-12-10T1500,68,86,0.5,31,10,42,28,92,细颗粒物(PM2.5)
开封市,世纪星幼儿园,114.2885,34.7965,2024-12-10T1500,59,63,0.5,34,6,44,29,80,细颗粒物(PM2.5)
开封市,龙亭公园,114.3438,34.8106,2024-12-10T1500,72,75,0.5,37,6,43,28,97,细颗粒物(PM2.5)
开封市,汴京公园,114.3644,34.7964,2024-12-10T1500,77,95,0.6,42,,36,23,103,细颗粒物(PM2.5)
开封市,技师学院,114.2485,34.8306,2024-12-10T1500,72,96,0.7,39,6,35,22,97,细颗粒物(PM2.5)
开封市,祥符区生态环境局,114.4644,34.7556,2024-12-10T1500,85,,0.5,42,7,35,21,113,细颗粒物(PM2.5)
克拉玛依市,长征新村,84.895,45.6094,2024-12-10T1500,12,14,0.3,12,5,45,46,18,
克拉玛依市,南林小区,84.8988,45.5893,2024-12-10T1500,21,,0.3,11,5,46,47,30,
克拉玛依市,独山子区,84.905,44.3396,2024-12-10T1500,20,,0.2,7,6,55,44,29,
克拉玛依市,乌尔禾区商贸楼,85.6979,46.098,2024-12-10T1500,8,,0.4,8,4,55,47,18,
克拉玛依市,白碱滩区新站,85.1045,45.6899,2024-12-10T1500,9,16,0.6,10,8,53,48,17,
克孜勒苏柯尔克孜自治州,市人民政府,76.1454,39.7142,2024-12-10T1500,22,39,0.4,6,3,82,68,39,
克孜勒苏柯尔克孜自治州,克州文化中心,76.1658,39.7157,2024-12-10T1500,23,38,0.4,11,7,74,66,38,
昆明市,呈贡新区,102.8204,24.8886,2024-12-10T1500,15,16,0.5,6,5,82,63,26,
昆明市,西山森林公园,102.6251,24.9608,2024-12-10T1500,,,,,,,,,
昆明市,龙泉镇,102.7252,25.0902,2024-12-10T1500,12,12,0.5,6,8,84,57,27,
昆明市,东风东路,102.7266,25.0375,2024-12-10T1500,17,26,0.3,7,6,80,58,26,
昆明市,金鼎山,102.6742,25.0669,2024-12-10T1500,10,23,0.5,11,17,85,62,27,
昆明市,碧鸡广场,102.6644,25.0401,2024-12-10T1500,12,21,0.5,7,7,84,60,27,
昆明市,官渡区博物馆,102.7494,25.0119,2024-12-10T1500,15,42,0.4,7,8,88,67,42,
昆明市,青年创业园,102.8017,24.8336,2024-12-10T1500,14,16,0.5,2,6,90,69,29,
昆明市,昆明学院,102.7997,24.9786,2024-12-10T1500,10,22,,,8,88,74,,
昆明市,晋宁区生态环境分局,102.5967,24.6736,2024-12-10T1500,7,13,0.3,2,2,90,72,29,
昆明市,云天化总部,102.6678,24.9856,2024-12-10T1500,11,18,0.3,5,7,94,78,30,
拉萨市,八廓街,91.1319,29.6514,2024-12-10T1500,9,47,0.2,6,7,121,100,47,
拉萨市,市环保局,91.1221,29.6747,2024-12-10T1500,10,32,0.3,10,6,141,120,45,
拉萨市,区监测站,91.0874,29.6475,2024-12-10T1500,9,33,0.4,8,5,128,107,40,
拉萨市,西藏大学,91.1774,29.6541,2024-12-10T1500,6,32,0.5,4,3,129,104,41,
拉萨市,区辐射站,90.9798,29.6588,2024-12-10T1500,9,36,0.4,7,6,127,107,40,
拉萨市,拉萨火车站,91.0834,29.6292,2024-12-10T1500,7,26,0.4,4,4,136,120,43,
来宾市,来宾技工学校,109.2203,23.7256,2024-12-10T1500,141,148,1.5,33,11,49,28,188,细颗粒物(PM2.5)
来宾市,兴宾区政府,109.1781,23.7297,2024-12-10T1500,112,151,1.4,31,10,54,32,147,细颗粒物(PM2.5)
来宾市,中南小学,109.2416,23.7461,2024-12-10T1500,119,153,1.3,31,10,45,27,156,细颗粒物(PM2.5)
兰州市,兰炼宾馆,103.631,36.1031,2024-12-10T1500,44,44,0.6,20,14,73,52,62,细颗粒物(PM2.5)
兰州市,榆中兰大校区,104.1373,35.9454,2024-12-10T1500,,,,,,,,,
兰州市,生物制品所,103.8412,36.0726,2024-12-10T1500,45,,0.6,17,13,68,51,63,细颗粒物(PM2.5)
兰州市,铁路设计院,103.831,36.0464,2024-12-10T1500,48,55,0.6,25,10,57,41,67,细颗粒物(PM2.5)
兰州市,教育港,103.7158,36.1058,2024-12-10T1500,44,47,0.5,25,15,70,50,62,细颗粒物(PM2.5)
兰州市,百合公园,103.7439,36.0842,2024-12-10T1500,37,43,0.6,17,13,63,48,53,细颗粒物(PM2.5)
兰州市,和平,103.9611,35.998,2024-12-10T1500,48,51,0.8,20,16,67,49,67,细颗粒物(PM2.5)
兰州新区,新区管委会,103.6633,36.533,2024-12-10T1500,46,51,0.4,14,14,79,64,64,细颗粒物(PM2.5)
兰州新区,舟曲中学,103.6975,36.4789,2024-12-10T1500,44,68,0.5,15,9,76,60,62,细颗粒物(PM2.5)
廊坊市,药材公司,116.6708,39.5111,2024-12-10T1500,10,18,0.4,21,3,60,47,19,
廊坊市,开发区,116.7214,39.5589,2024-12-10T1500,7,22,0.3,16,3,63,45,22,
廊坊市,北华航天学院,116.7244,39.5269,2024-12-10T1500,9,21,0.4,20,5,60,42,21,
廊坊市,河北工业大学,116.7022,39.5453,2024-12-10T1500,11,37,0.3,15,5,62,46,37,
乐山市,花湖湾,103.7723,29.5462,2024-12-10T1500,23,23,0.6,13,2,29,38,33,
乐山市,牛耳桥,103.7627,29.5844,2024-12-10T1500,29,35,0.5,29,5,24,40,42,
乐山市,市第三水厂,103.7508,29.6006,2024-12-10T1500,21,33,0.4,24,4,33,47,33,
乐山市,市监测站,103.7571,29.5664,2024-12-10T1500,23,32,0.4,22,4,29,39,33,
乐山市,理工大学,103.7311,29.5628,2024-12-10T1500,24,29,0.5,21,6,33,34,35,
丽江市,西南郊,100.2143,26.8576,2024-12-10T1500,,,,,,,,,
丽江市,丽江古城,100.2497,26.8802,2024-12-10T1500,15,31,0.5,9,8,93,75,31,
丽江市,市中心,100.2203,26.8906,2024-12-10T1500,12,26,0.5,10,7,91,80,29,
丽水市,监测站大楼,119.914,28.4514,2024-12-10T1500,10,33,0.4,19,3,62,30,33,
丽水市,莲都小学,119.93,28.4586,2024-12-10T1500,10,29,0.5,19,5,66,29,29,
丽水市,余庄前,119.879,28.4231,2024-12-10T1500,11,26,0.4,23,5,58,25,26,
连云港市,市环境监测站,119.176,34.5885,2024-12-10T1500,61,90,0.7,36,,68,39,,
连云港市,德源药业,119.3581,34.6972,2024-12-10T1500,61,90,0.6,35,11,68,45,83,细颗粒物(PM2.5)
连云港市,新城一中,119.178,34.844,2024-12-10T1500,73,100,0.9,39,16,64,41,98,细颗粒物(PM2.5)
连云港市,胡沟管理处,119.3608,34.7519,2024-12-10T1500,56,75,0.5,19,7,74,54,77,细颗粒物(PM2.5)
连云港市,矿山设计院,119.1478,34.5911,2024-12-10T1500,66,102,0.9,30,14,69,36,89,细颗粒物(PM2.5)
连云港市,工贸学校,119.2413,34.6539,2024-12-10T1500,77,113,0.8,31,14,74,45,103,细颗粒物(PM2.5)
连云港市,连云街道,119.4172,34.7341,2024-12-10T1500,67,97,0.8,42,11,65,53,90,细颗粒物(PM2.5)
凉山彝族自治州,青龙寺,102.3431,27.8099,2024-12-10T1500,3,26,0.5,2,5,99,77,31,
凉山彝族自治州,邛海宾馆,102.2721,27.8415,2024-12-10T1500,18,35,0.6,5,17,95,74,35,
凉山彝族自治州,西昌市政府,102.2625,27.898,2024-12-10T1500,18,27,0.8,8,10,92,82,29,
凉山彝族自治州,凉山州政府,102.2685,27.8851,2024-12-10T1500,15,34,0.6,6,13,93,86,34,
凉山彝族自治州,长安,102.237,27.8914,2024-12-10T1500,15,43,0.6,9,10,93,81,43,
辽阳市,宏伟区,123.2,41.1953,2024-12-10T1500,42,56,0.3,18,11,41,25,59,细颗粒物(PM2.5)
辽阳市,新华园,123.1683,41.2495,2024-12-10T1500,27,37,0.5,18,13,43,26,39,
辽阳市,滨河路,123.2354,41.2639,2024-12-10T1500,28,50,0.9,20,14,45,27,50,
辽阳市,铁西工业园,123.149,41.2991,2024-12-10T1500,19,21,0.5,16,10,42,26,28,
辽源市,环保局,125.1358,42.8845,2024-12-10T1500,19,30,0.5,15,9,54,38,30,
辽源市,银鹰制药,125.0764,42.9078,2024-12-10T1500,24,30,0.7,18,14,52,34,35,
聊城市,区政府,115.9848,36.4372,2024-12-10T1500,85,132,1.0,50,16,42,30,113,细颗粒物(PM2.5)
聊城市,聊大东校,116.0072,36.4343,2024-12-10T1500,,,1.1,52,15,41,27,,
聊城市,监控中心,115.9819,36.4978,2024-12-10T1500,95,129,0.8,43,15,47,26,125,细颗粒物(PM2.5)
聊城市,九州社区,116.0445,36.4361,2024-12-10T1500,92,125,1.0,42,19,38,26,122,细颗粒物(PM2.5)
聊城市,星美广场,116.0567,36.4608,2024-12-10T1500,94,136,1.0,40,16,37,24,124,细颗粒物(PM2.5)
林芝市,林芝监测站,94.3681,29.6376,2024-12-10T1500,3,11,0.5,3,6,94,91,30,
林芝市,林芝人民医院,94.3616,29.6616,2024-12-10T1500,3,6,0.7,2,6,88,86,28,
临沧市,市环保局,100.0781,23.8982,2024-12-10T1500,27,28,0.3,6,10,92,49,39,
临沧市,市气象局,100.0894,23.8822,2024-12-10T1500,,,0.4,7,7,86,55,,
临汾市,临钢医院,111.5531,36.0783,2024-12-10T1500,91,135,2.3,49,23,36,13,120,细颗粒物(PM2.5)
临汾市,技工学校,111.5028,36.0714,2024-12-10T1500,96,149,2.2,66,26,29,12,127,细颗粒物(PM2.5)
临汾市,市委,111.5018,36.0855,2024-12-10T1500,98,158,2.1,57,29,30,10,129,细颗粒物(PM2.5)
临汾市,唐尧大酒店,111.505,36.1014,2024-12-10T1500,95,124,2.3,56,31,27,13,125,细颗粒物(PM2.5)
临汾市,城南,111.5036,36.0414,2024-12-10T1500,96,137,2.4,57,25,33,13,127,细颗粒物(PM2.5)
临夏回族自治州,环保局,103.2069,35.5993,2024-12-10T1500,15,54,0.8,18,12,54,34,52,颗粒物(PM10)
临夏回族自治州,建设大厦,103.2417,35.6057,2024-12-10T1500,20,39,0.8,13,14,66,43,39,
临沂市,沂河小区,118.3429,35.0532,2024-12-10T1500,64,88,0.5,41,14,62,38,87,细颗粒物(PM2.5)
临沂市,鲁南制药厂,118.295,35.0583,2024-12-10T1500,63,90,0.5,34,12,58,33,85,细颗粒物(PM2.5)
临沂市,新光毛纺厂,118.2794,34.9976,2024-12-10T1500,59,83,0.8,39,12,60,38,80,细颗粒物(PM2.5)
临沂市,河东保险公司,118.3956,35.0888,2024-12-10T1500,56,73,0.3,23,10,73,37,77,细颗粒物(PM2.5)
临沂市,十里堡居委,118.3564,35.0215,2024-12-10T1500,58,83,0.7,32,12,65,38,79,细颗粒物(PM2.5)
临沂市,南坊新区,118.3604,35.1084,2024-12-10T1500,56,80,0.7,37,10,69,38,77,细颗粒物(PM2.5)
临沂市,皇山花园小区,118.3920,35.0300,2024-12-10T1500,59,92,0.6,39,11,62,34,80,细颗粒物(PM2.5)
柳州市,柳东小学,109.4856,24.3895,2024-12-10T1500,38,,0.6,13,8,39,30,54,细颗粒物(PM2.5)
柳州市,环保监测站,109.4157,24.3277,2024-12-10T1500,64,,0.9,19,9,40,29,87,细颗粒物(PM2.5)
柳州市,河西水厂,109.389,24.341,2024-12-10T1500,38,49,1.0,16,8,38,20,54,细颗粒物(PM2.5)
柳州市,市四中,109.4311,24.2921,2024-12-10T1500,52,56,1.0,23,7,38,31,72,细颗粒物(PM2.5)
柳州市,市九中,109.4006,24.3631,2024-12-10T1500,53,,0.9,13,6,44,27,73,细颗粒物(PM2.5)
柳州市,古亭山,109.4958,24.3134,2024-12-10T1500,39,45,1.0,22,9,45,34,55,细颗粒物(PM2.5)
柳州市,市二中,109.5422,24.3996,2024-12-10T1500,30,35,1.0,25,9,29,25,43,
六安市,监测大楼,116.5079,31.737,2024-12-10T1500,47,59,0.6,44,6,19,14,65,细颗粒物(PM2.5)
六安市,皖西学院,116.4738,31.7643,2024-12-10T1500,43,61,0.7,44,5,18,14,60,细颗粒物(PM2.5)
六安市,朝阳厂,116.4996,31.7905,2024-12-10T1500,49,64,0.8,39,3,24,15,68,细颗粒物(PM2.5)
六安市,开发区,116.5567,31.7886,2024-12-10T1500,50,71,0.7,46,,26,21,,
六盘水市,窑上,104.8,26.5892,2024-12-10T1500,15,15,0.7,11,7,21,15,22,
六盘水市,黄土坡,104.83,26.5917,2024-12-10T1500,12,14,0.5,12,12,22,19,18,
六盘水市,水钢,104.89,26.5939,2024-12-10T1500,9,12,0.7,13,8,26,19,13,
六盘水市,民中,104.8475,26.5894,2024-12-10T1500,7,12,0.5,21,10,17,20,12,
六盘水市,双水,104.9544,26.5506,2024-12-10T1500,17,24,0.5,15,9,20,26,25,
龙岩市,龙岩师专,117.0189,25.1181,2024-12-10T1500,,,,,,,,,
龙岩市,龙岩市监测站,117.0217,25.1033,2024-12-10T1500,7,29,0.4,13,5,86,48,29,
龙岩市,闽西职业技术学院,117.0258,25.0661,2024-12-10T1500,13,17,0.1,11,4,85,46,27,
龙岩市,龙岩学院,117.0196,25.0306,2024-12-10T1500,9,24,0.5,13,7,79,40,25,
陇南市,汉王镇固水子,105.0822,33.3261,2024-12-10T1500,,,,,,,,,
陇南市,滨江中学,104.9339,33.3826,2024-12-10T1500,32,42,0.8,15,5,49,59,46,
陇南市,市总工会,104.955,33.371,2024-12-10T1500,21,53,0.7,15,1,53,60,52,颗粒物(PM10)
娄底市,电视发射台,111.9589,27.8901,2024-12-10T1500,7,,0.8,23,5,35,66,12,
娄底市,市监测站,111.9975,27.725,2024-12-10T1500,17,,0.9,20,,29,50,,
娄底市,市委党校,112.0194,27.7314,2024-12-10T1500,15,20,0.9,35,6,23,47,22,
娄底市,涟钢,111.9561,27.7569,2024-12-10T1500,23,35,1.1,32,4,18,49,35,
娄底市,市政府,111.9892,27.7044,2024-12-10T1500,19,21,0.9,29,5,27,49,28,
泸州市,九狮山,105.4324,28.9634,2024-12-10T1500,,,,,,,,,
泸州市,小市上码头,105.4427,28.9063,2024-12-10T1500,43,67,0.5,21,3,38,23,60,细颗粒物(PM2.5)
泸州市,兰田宪桥,105.4241,28.8573,2024-12-10T1500,46,68,0.6,22,3,35,26,64,细颗粒物(PM2.5)
泸州市,市环监站,105.4379,28.8833,2024-12-10T1500,46,66,0.5,27,5,25,22,64,细颗粒物(PM2.5)
泸州市,纳溪区环保局,105.3617,28.7703,2024-12-10T1500,54,70,0.5,32,4,16,20,74,细颗粒物(PM2.5)
吕梁市,环保局,111.1406,37.5211,2024-12-10T1500,47,105,0.7,42,11,7,10,78,颗粒物(PM10)
吕梁市,自来水公司,111.1297,37.5136,2024-12-10T1500,43,105,0.8,43,11,9,10,78,颗粒物(PM10)
吕梁市,马茂庄小学,111.1283,37.51,2024-12-10T1500,43,124,0.7,47,12,11,11,87,颗粒物(PM10)
洛阳市,市委党校,112.3931,34.6516,2024-12-10T1500,63,94,0.5,38,7,46,23,85,细颗粒物(PM2.5)
洛阳市,豫西宾馆,112.4657,34.6871,2024-12-10T1500,64,119,0.5,37,10,46,24,87,细颗粒物(PM2.5)
洛阳市,河南林校,112.494,34.6886,2024-12-10T1500,89,102,0.5,42,7,37,16,118,细颗粒物(PM2.5)
洛阳市,开发区管委会,112.3844,34.623,2024-12-10T1500,77,108,0.6,41,11,42,20,103,细颗粒物(PM2.5)
洛阳市,市委新办公区,112.4267,34.6258,2024-12-10T1500,87,126,0.6,46,9,33,17,115,细颗粒物(PM2.5)
洛阳市,伊滨,112.6005,34.6326,2024-12-10T1500,68,159,0.8,38,10,31,12,105,颗粒物(PM10)
洛阳市,中移产业园,112.4951,34.6332,2024-12-10T1500,78,104,0.5,49,10,36,18,104,细颗粒物(PM2.5)
洛阳市,吉利监测站,112.5736,34.8993,2024-12-10T1500,69,94,0.4,24,7,54,23,93,细颗粒物(PM2.5)
洛阳市,河科大西苑校区,112.3677,34.662,2024-12-10T1500,62,94,0.6,33,7,56,26,84,细颗粒物(PM2.5)
洛阳市,英才小学,112.4388,34.6781,2024-12-10T1500,68,100,0.4,37,8,44,18,92,细颗粒物(PM2.5)
漯河市,三五一五工厂,114.051,33.5699,2024-12-10T1500,72,81,0.5,21,9,50,31,97,细颗粒物(PM2.5)
漯河市,漯河大学,114.0055,33.5698,2024-12-10T1500,61,87,0.4,27,7,52,35,83,细颗粒物(PM2.5)
漯河市,市水利局,114.0138,33.5828,2024-12-10T1500,,,0.4,,8,49,28,,
漯河市,市广电局,114.0261,33.5698,2024-12-10T1500,62,81,0.4,23,8,51,34,84,细颗粒物(PM2.5)
漯河市,市图书馆,113.9749,33.5664,2024-12-10T1500,60,94,0.4,28,6,52,34,82,细颗粒物(PM2.5)
漯河市,召陵区卫健委,114.0967,33.5906,2024-12-10T1500,63,80,0.5,29,10,51,29,85,细颗粒物(PM2.5)
马鞍山市,湖东路四小,118.5092,31.6837,2024-12-10T1500,34,50,0.8,35,4,48,41,50,
马鞍山市,开发区,118.5024,31.6449,2024-12-10T1500,47,51,1.0,38,7,50,40,65,细颗粒物(PM2.5)
马鞍山市,慈湖,118.5228,31.7231,2024-12-10T1500,43,51,0.8,33,6,51,47,60,细颗粒物(PM2.5)
马鞍山市,濮塘,118.6245,31.7241,2024-12-10T1500,45,51,0.7,28,9,51,49,63,细颗粒物(PM2.5)
马鞍山市,雨山,118.4918,31.6809,2024-12-10T1500,36,53,0.8,32,8,46,39,52,"颗粒物(PM10),细颗粒物(PM2.5)"
茂名市,电白南海,111.0286,21.4688,2024-12-10T1500,24,48,,,6,124,82,,
茂名市,茂石化七小,110.9294,21.6533,2024-12-10T1500,19,46,0.7,10,7,116,84,46,
茂名市,健康路,110.9107,21.6687,2024-12-10T1500,17,41,0.6,10,11,125,91,41,
茂名市,高岭,110.8592,21.6828,2024-12-10T1500,24,48,0.7,12,13,117,80,48,
茂名市,电白水东,111.01,21.5165,2024-12-10T1500,19,48,0.9,8,8,105,77,48,
眉山市,黑龙滩水库,104.0308,30.0478,2024-12-10T1500,26,45,0.5,10,3,58,49,45,
眉山市,气象局,103.8416,30.0874,2024-12-10T1500,34,49,0.4,32,3,38,36,49,
眉山市,市委党校,103.8578,30.0744,2024-12-10T1500,31,48,0.4,30,5,41,38,48,
眉山市,区人社局,103.8291,30.0564,2024-12-10T1500,36,40,0.4,40,4,37,34,52,细颗粒物(PM2.5)
梅州市,梅江月梅,116.1231,24.3284,2024-12-10T1500,11,23,0.5,7,10,94,70,30,
梅州市,梅县新城,116.0797,24.2719,2024-12-10T1500,15,30,0.5,9,10,99,67,31,
梅州市,环境监控中心,116.1248,24.2654,2024-12-10T1500,14,24,0.5,7,8,96,68,30,
梅州市,梅龙,116.1233,24.2991,2024-12-10T1500,10,19,0.6,8,9,91,66,29,
绵阳市,富乐山,104.7778,31.4741,2024-12-10T1500,23,32,0.4,10,2,82,50,33,
绵阳市,市人大,104.7563,31.4535,2024-12-10T1500,20,32,0.4,10,3,80,44,32,
绵阳市,高新区自来水公司,104.6697,31.4668,2024-12-10T1500,22,31,0.3,12,3,73,41,32,
绵阳市,三水厂,104.7287,31.5075,2024-12-10T1500,27,28,0.5,11,6,81,49,39,
绵阳市,西科大附属小学,104.69,31.5322,2024-12-10T1500,25,32,0.5,9,4,78,46,36,
绵阳市,安州区旅游局,104.5648,31.5343,2024-12-10T1500,,,0.5,14,5,57,44,,
牡丹江市,环保大楼,129.61,44.561,2024-12-10T1500,40,52,0.6,37,10,39,30,57,细颗粒物(PM2.5)
牡丹江市,文化广场,129.6115,44.5782,2024-12-10T1500,45,52,0.7,39,12,35,33,63,细颗粒物(PM2.5)
牡丹江市,第一医院,129.5904,44.5963,2024-12-10T1500,40,57,0.7,31,9,41,28,57,细颗粒物(PM2.5)
牡丹江市,机车工厂,129.6364,44.6075,2024-12-10T1500,42,66,0.7,38,13,35,25,59,细颗粒物(PM2.5)
牡丹江市,第一中学,129.6386,44.5462,2024-12-10T1500,35,50,0.5,27,9,,29,,
内江市,市监测站,105.0703,29.61,2024-12-10T1500,44,52,0.6,15,7,39,32,62,细颗粒物(PM2.5)
内江市,东兴区政府,105.0717,29.5947,2024-12-10T1500,35,46,0.7,23,5,36,33,50,
内江市,内江二中,105.0653,29.5817,2024-12-10T1500,40,71,0.6,22,7,35,29,61,颗粒物(PM10)
内江市,内江日报社,105.0406,29.5822,2024-12-10T1500,37,42,0.6,20,9,40,31,53,细颗粒物(PM2.5)
那曲市,那曲监测站,92.0657,31.4846,2024-12-10T1500,44,277,0.4,4,4,122,60,164,颗粒物(PM10)
那曲市,那曲会议中心,92.0506,31.4797,2024-12-10T1500,30,272,0.9,1,2,118,63,161,颗粒物(PM10)
南昌市,省外办,115.8931,28.6843,2024-12-10T1500,80,90,0.9,48,8,10,17,107,细颗粒物(PM2.5)
南昌市,省林业公司,115.8886,28.7003,2024-12-10T1500,70,88,0.8,45,9,11,17,94,细颗粒物(PM2.5)
南昌市,林科所,115.8126,28.7442,2024-12-10T1500,68,92,0.8,52,7,11,42,92,细颗粒物(PM2.5)
南昌市,建工学校,115.8518,28.687,2024-12-10T1500,45,87,1.0,49,9,12,24,69,颗粒物(PM10)
南昌市,象湖,115.8921,28.6424,2024-12-10T1500,69,69,0.9,52,8,15,31,93,细颗粒物(PM2.5)
南昌市,武术学校,115.7423,28.7996,2024-12-10T1500,64,74,1.0,42,3,2,14,87,细颗粒物(PM2.5)
南昌市,省站,115.9314,28.6842,2024-12-10T1500,74,96,0.8,53,11,13,30,99,细颗粒物(PM2.5)
南昌市,机电学校,115.9084,28.6062,2024-12-10T1500,63,95,0.9,43,10,18,37,85,细颗粒物(PM2.5)
南昌市,外国语学校,115.9721,28.7031,2024-12-10T1500,50,107,1.1,,8,10,30,,
南充市,西山风景区,106.056,30.8064,2024-12-10T1500,38,39,0.4,8,1,38,23,54,细颗粒物(PM2.5)
南充市,南充市委,106.0789,30.8023,2024-12-10T1500,44,58,0.4,16,4,39,20,62,细颗粒物(PM2.5)
南充市,南充炼油厂,106.1031,30.8217,2024-12-10T1500,44,55,0.5,16,4,37,18,62,细颗粒物(PM2.5)
南充市,高坪区监测站,106.1064,30.7856,2024-12-10T1500,38,54,0.4,14,3,40,20,54,细颗粒物(PM2.5)
南充市,嘉陵区环保局,106.0642,30.7636,2024-12-10T1500,36,76,0.6,22,5,35,21,63,颗粒物(PM10)
南充市,市环境监测站,106.1087,30.8388,2024-12-10T1500,43,69,0.4,14,5,38,19,60,"颗粒物(PM10),细颗粒物(PM2.5)"
南京市,迈皋桥,118.8086,32.1065,2024-12-10T1500,31,55,0.6,44,4,35,37,53,颗粒物(PM10)
南京市,草场门,118.7538,32.0551,2024-12-10T1500,34,58,0.7,53,7,31,28,54,颗粒物(PM10)
南京市,山西路,118.7794,32.0745,2024-12-10T1500,31,58,0.6,62,3,58,54,54,颗粒物(PM10)
南京市,中华门,118.7752,32.0023,2024-12-10T1500,29,51,0.8,,5,30,31,,
南京市,瑞金路,118.8109,32.0309,2024-12-10T1500,31,61,0.9,47,7,33,35,56,颗粒物(PM10)
南京市,玄武湖,118.7997,32.0754,2024-12-10T1500,29,64,0.6,36,10,25,23,57,颗粒物(PM10)
南京市,浦口,118.6414,32.0931,2024-12-10T1500,34,58,0.6,44,10,41,32,54,颗粒物(PM10)
南京市,奥体中心,118.7356,31.9996,2024-12-10T1500,34,56,0.7,60,10,33,38,53,颗粒物(PM10)
南京市,仙林大学城,118.9125,32.1028,2024-12-10T1500,29,61,0.7,49,9,38,34,56,颗粒物(PM10)
南京市,江宁彩虹桥,118.8436,31.9198,2024-12-10T1500,34,58,0.5,41,8,44,46,54,颗粒物(PM10)
南京市,溧水永阳,119.0138,31.6494,2024-12-10T1500,43,51,0.8,52,4,27,36,60,细颗粒物(PM2.5)
南京市,高淳老职中,118.879,31.3302,2024-12-10T1500,41,59,0.4,45,5,32,21,58,细颗粒物(PM2.5)
南京市,六合雄州,118.8554,32.3578,2024-12-10T1500,28,48,0.3,20,9,56,51,48,
南宁市,二十一中,108.3103,22.7881,2024-12-10T1500,82,99,1.1,32,6,61,40,109,细颗粒物(PM2.5)
南宁市,北湖,108.3141,22.8528,2024-12-10T1500,72,102,1.0,43,8,46,35,97,细颗粒物(PM2.5)
南宁市,市监测站,108.3206,22.8225,2024-12-10T1500,72,107,1.2,46,10,43,31,97,细颗粒物(PM2.5)
南宁市,大自然花园,108.3829,22.8037,2024-12-10T1500,76,97,0.8,34,8,58,38,102,细颗粒物(PM2.5)
南宁市,仙葫,108.4394,22.7904,2024-12-10T1500,74,89,1.0,30,6,57,38,99,细颗粒物(PM2.5)
南宁市,区农职院,108.2397,22.8467,2024-12-10T1500,69,95,1.1,49,7,28,24,93,细颗粒物(PM2.5)
南宁市,英华嘉园,108.3275,22.735,2024-12-10T1500,86,105,1.0,30,10,59,38,114,细颗粒物(PM2.5)
南宁市,沙井镇街道办,108.2257,22.7757,2024-12-10T1500,79,100,1.0,60,7,23,19,105,细颗粒物(PM2.5)
南宁市,红星社区,108.4834,22.7618,2024-12-10T1500,72,86,1.1,24,11,69,45,97,细颗粒物(PM2.5)
南平市,茫荡山,118.0966,26.6761,2024-12-10T1500,,,,,,,,,
南平市,南平市监测站,118.1681,26.6369,2024-12-10T1500,30,33,0.6,19,4,52,36,43,
南平市,南平铝业有限公司,118.1825,26.6489,2024-12-10T1500,26,35,0.5,21,5,48,32,38,
南平市,南平七中,118.1756,26.6272,2024-12-10T1500,21,35,0.6,18,4,50,33,35,
南通市,狼山街道,120.9098,31.9663,2024-12-10T1500,29,47,0.8,26,8,57,57,47,
南通市,虹桥,120.86,32.0005,2024-12-10T1500,30,46,0.6,29,6,53,54,46,
南通市,城中,120.87,32.02,2024-12-10T1500,25,55,0.7,41,7,48,56,53,颗粒物(PM10)
南通市,星湖花园,120.94,31.93,2024-12-10T1500,22,43,0.6,28,6,53,59,43,
南通市,紫琅学院,120.81,32.0417,2024-12-10T1500,22,38,0.5,33,3,52,49,38,
南通市,通州监测站,121.067,32.062,2024-12-10T1500,19,31,0.4,18,3,71,71,31,
南通市,环境教育馆,120.9348,31.9883,2024-12-10T1500,33,46,0.9,39,5,46,51,48,
南阳市,瓦房庄,112.5224,33.0122,2024-12-10T1500,66,83,0.7,29,10,46,32,89,细颗粒物(PM2.5)
南阳市,汉画馆,112.5003,32.9735,2024-12-10T1500,56,83,0.6,27,8,47,33,77,细颗粒物(PM2.5)
南阳市,气象站,112.5573,33.027,2024-12-10T1500,63,86,0.6,30,6,46,33,85,细颗粒物(PM2.5)
南阳市,理工学院,112.5481,32.9689,2024-12-10T1500,66,78,0.4,30,7,44,29,89,细颗粒物(PM2.5)
南阳市,卧龙区政府,112.5234,32.9922,2024-12-10T1500,65,88,0.6,,,42,28,,
宁波市,区环保大楼,121.8358,29.911,2024-12-10T1500,45,77,0.9,81,22,3,7,64,颗粒物(PM10)
宁波市,万里学院,121.56,29.82,2024-12-10T1500,39,67,0.6,61,6,11,10,59,颗粒物(PM10)
宁波市,龙赛医院,121.713,29.9572,2024-12-10T1500,45,74,0.7,79,10,6,4,63,细颗粒物(PM2.5)
宁波市,钱湖水厂,121.633,29.7733,2024-12-10T1500,40,66,0.8,64,7,7,13,58,颗粒物(PM10)
宁波市,太古小学,121.5856,29.8635,2024-12-10T1500,31,66,0.8,68,8,6,8,58,颗粒物(PM10)
宁波市,市环境监测中心,121.524,29.8674,2024-12-10T1500,39,56,0.8,69,7,4,6,55,细颗粒物(PM2.5)
宁波市,万里国际学校,121.6147,29.9017,2024-12-10T1500,30,60,,69,8,3,7,,
宁波市,白沙活动中心,121.5594,29.8975,2024-12-10T1500,28,61,0.5,61,9,10,10,56,颗粒物(PM10)
宁德市,金涵水库,119.5001,26.6946,2024-12-10T1500,,,,,,,,,
宁德市,宁德市监测站,119.5388,26.6612,2024-12-10T1500,28,58,0.5,3,2,19,9,54,颗粒物(PM10)
宁德市,宁德一中,119.5231,26.6562,2024-12-10T1500,38,48,0.8,29,3,28,21,54,细颗粒物(PM2.5)
怒江傈僳族自治州,州监测站,98.8601,25.8567,2024-12-10T1500,15,29,0.4,10,5,84,49,29,
怒江傈僳族自治州,泸水一中,98.8546,25.8417,2024-12-10T1500,23,29,0.5,15,6,70,34,33,
攀枝花市,弄弄坪,101.6891,26.571,2024-12-10T1500,20,25,0.4,12,12,85,39,29,
攀枝花市,河门口,101.5769,26.5928,2024-12-10T1500,16,36,0.7,18,9,89,57,36,
攀枝花市,炳草岗,101.7169,26.585,2024-12-10T1500,13,28,0.5,11,15,92,40,29,
攀枝花市,仁和,101.7369,26.5008,2024-12-10T1500,15,24,0.3,7,6,101,50,32,
攀枝花市,四十中小,101.7227,26.567,2024-12-10T1500,30,68,0.5,6,5,95,47,59,颗粒物(PM10)
盘锦市,开发区,122.0303,41.1489,2024-12-10T1500,10,29,0.8,10,6,63,56,29,
盘锦市,兴隆台,122.0485,41.0883,2024-12-10T1500,6,19,0.4,12,8,62,58,20,
盘锦市,新生街道,121.8297,41.1028,2024-12-10T1500,12,13,0.5,13,9,64,48,20,
平顶山市,新华旅馆,113.3257,33.742,2024-12-10T1500,60,95,0.7,24,9,48,27,82,细颗粒物(PM2.5)
平顶山市,规划设计院,113.2919,33.737,2024-12-10T1500,63,91,0.6,21,7,59,38,85,细颗粒物(PM2.5)
平顶山市,平顶山工学院,113.182,33.774,2024-12-10T1500,58,113,0.8,19,9,53,23,82,颗粒物(PM10)
平顶山市,规划局,113.3025,33.73,2024-12-10T1500,66,88,0.9,18,8,55,36,89,细颗粒物(PM2.5)
平顶山市,石龙区,112.8867,33.9116,2024-12-10T1500,82,120,0.7,26,18,42,25,109,细颗粒物(PM2.5)
平凉市,聚贤嘉苑,106.6692,35.5461,2024-12-10T1500,77,113,0.9,25,14,53,40,103,细颗粒物(PM2.5)
平凉市,博物馆,106.7021,35.5307,2024-12-10T1500,74,86,0.9,33,10,61,57,99,细颗粒物(PM2.5)
萍乡市,武功山,114.0997,27.5002,2024-12-10T1500,61,87,0.4,32,14,42,30,83,细颗粒物(PM2.5)
萍乡市,中医院,113.8385,27.6434,2024-12-10T1500,63,94,0.9,32,10,47,42,85,细颗粒物(PM2.5)
萍乡市,市政府车库,113.8493,27.6253,2024-12-10T1500,71,81,0.8,23,13,52,45,95,细颗粒物(PM2.5)
萍乡市,市环保局,113.8676,27.6435,2024-12-10T1500,63,91,0.9,24,12,,43,,
萍乡市,安源区政府,113.866,27.6198,2024-12-10T1500,65,,,30,12,49,41,,
莆田市,荔城区仓后路,119.0141,25.4325,2024-12-10T1500,8,34,0.5,10,1,91,70,34,
莆田市,莆田市监测站,119.0015,25.4553,2024-12-10T1500,7,35,0.4,11,3,94,75,35,
莆田市,涵江区六中,119.1119,25.4561,2024-12-10T1500,8,33,0.4,9,2,85,66,33,
莆田市,秀屿区政府,119.1013,25.3215,2024-12-10T1500,10,45,0.5,14,2,87,66,45,
莆田市,东圳水库,118.981,25.4792,2024-12-10T1500,,,,,,,,,
濮阳市,环保局,115.0312,35.7636,2024-12-10T1500,77,84,0.5,40,8,58,41,103,细颗粒物(PM2.5)
濮阳市,油田运输公司,115.0574,35.7609,2024-12-10T1500,80,112,0.6,47,8,43,31,107,细颗粒物(PM2.5)
濮阳市,油田物探公司,115.0866,35.7754,2024-12-10T1500,87,118,0.5,46,9,39,30,115,细颗粒物(PM2.5)
濮阳市,濮水河管理处,115,35.7668,2024-12-10T1500,81,125,0.6,42,8,43,22,108,细颗粒物(PM2.5)
普洱市,市环保局,100.98,22.7633,2024-12-10T1500,32,,0.4,6,5,75,42,46,
普洱市,普洱第二中学,100.9817,22.8322,2024-12-10T1500,15,34,0.5,5,7,74,38,34,
七台河市,新一中,131.0518,45.8751,2024-12-10T1500,29,36,1.5,16,13,73,66,42,
七台河市,中波台,131.0577,45.7879,2024-12-10T1500,28,40,0.6,17,10,57,46,40,
七台河市,人民广场,131.0176,45.7761,2024-12-10T1500,31,50,0.6,21,9,58,46,50,
七台河市,新建矿广场,130.8781,45.8222,2024-12-10T1500,19,34,0.4,18,8,58,49,34,
齐齐哈尔市,安居小区,123.9305,47.3636,2024-12-10T1500,12,31,0.3,14,5,58,58,31,
齐齐哈尔市,中心广场,123.9488,47.3386,2024-12-10T1500,12,22,0.5,15,5,50,52,22,
齐齐哈尔市,农牧车辆厂,123.9483,47.3227,2024-12-10T1500,3,22,0.3,18,7,54,54,22,
齐齐哈尔市,市环境监测站,123.945,47.2988,2024-12-10T1500,14,22,0.3,14,6,56,55,22,
齐齐哈尔市,富区青少年活动中心,123.6333,47.2075,2024-12-10T1500,11,20,0.5,16,9,45,46,20,
黔东南苗族侗族自治州,市环境监测站,107.9783,26.5747,2024-12-10T1500,9,12,0.9,16,2,35,33,13,
黔东南苗族侗族自治州,凯里学院,107.8908,26.5311,2024-12-10T1500,6,,0.7,14,3,32,36,10,
黔南布依族苗族自治州,小围寨,107.5228,26.2403,2024-12-10T1500,3,6,0.6,8,6,34,30,11,
黔南布依族苗族自治州,沙坝,107.5175,26.2978,2024-12-10T1500,3,6,0.6,7,4,41,30,13,
黔西南布依族苗族自治州,场坝街,104.9022,25.0925,2024-12-10T1500,8,15,0.4,6,2,41,26,15,
黔西南布依族苗族自治州,坪东大道,104.8811,25.0992,2024-12-10T1500,6,11,0.3,4,3,44,24,14,
钦州市,市环保站,108.6236,21.9667,2024-12-10T1500,36,70,0.8,23,8,84,46,60,颗粒物(PM10)
钦州市,沙埠小学,108.6549,21.9481,2024-12-10T1500,45,57,0.7,22,10,100,54,63,细颗粒物(PM2.5)
钦州市,港区一小,108.5989,21.7431,2024-12-10T1500,38,62,0.9,22,8,114,54,56,颗粒物(PM10)
钦州市,北职校,108.5959,21.9633,2024-12-10T1500,62,,1.0,27,12,74,45,84,细颗粒物(PM2.5)
秦皇岛市,北戴河环保局,119.5134,39.8207,2024-12-10T1500,6,21,0.2,9,3,68,48,22,
秦皇岛市,第一关,119.7493,40.0116,2024-12-10T1500,31,39,0.4,19,9,56,36,45,
秦皇岛市,监测站,119.5897,39.9499,2024-12-10T1500,23,47,0.5,24,10,51,35,47,
秦皇岛市,建设大厦,119.5251,39.9041,2024-12-10T1500,,,,,7,55,35,,
秦皇岛市,文明里,119.610547,39.943889,2024-12-10T1500,28,61,0.3,20,9,58,40,56,颗粒物(PM10)
青岛市,仰口,120.6659,36.2403,2024-12-10T1500,66,75,0.6,18,12,69,61,89,细颗粒物(PM2.5)
青岛市,市南区东部子站,120.4134,36.0658,2024-12-10T1500,56,102,0.8,45,16,60,42,77,细颗粒物(PM2.5)
青岛市,四方区子站,120.3664,36.1032,2024-12-10T1500,66,95,0.9,45,18,63,40,89,细颗粒物(PM2.5)
青岛市,市南区西部子站,120.2994,36.054,2024-12-10T1500,85,124,1.0,48,19,60,46,113,细颗粒物(PM2.5)
青岛市,崂山区子站,120.4581,36.0858,2024-12-10T1500,48,83,0.9,42,16,67,46,67,"颗粒物(PM10),细颗粒物(PM2.5)"
青岛市,黄岛区子站,120.1983,35.9608,2024-12-10T1500,63,95,0.8,56,15,48,33,85,细颗粒物(PM2.5)
青岛市,城阳区子站,120.3999,36.3083,2024-12-10T1500,56,97,1.0,23,14,62,35,77,细颗粒物(PM2.5)
青岛市,黄岛区4号,120.0405,35.8735,2024-12-10T1500,70,102,0.9,56,15,79,54,94,细颗粒物(PM2.5)
青岛市,即墨2号,120.5014,36.4034,2024-12-10T1500,70,89,1.0,45,14,52,38,94,细颗粒物(PM2.5)
青岛市,市北区南部,120.3503,36.0736,2024-12-10T1500,80,146,0.9,,24,38,34,107,细颗粒物(PM2.5)
青岛市,李沧区北部,120.3948,36.1805,2024-12-10T1500,75,107,,39,17,65,44,,
清远市,环保大楼,113.0426,23.691,2024-12-10T1500,29,37,0.9,15,8,74,48,42,
清远市,凤城街办,113.0208,23.7106,2024-12-10T1500,29,38,1.0,18,11,75,45,42,
清远市,技师学院,113.0477,23.6344,2024-12-10T1500,24,39,0.9,18,10,72,40,39,
清远市,清新太和,112.9903,23.7403,2024-12-10T1500,38,63,1.0,20,12,80,40,57,颗粒物(PM10)
清远市,清城东城,113.076,23.7198,2024-12-10T1500,23,31,1.0,11,9,78,52,33,
庆阳市,庆阳五中,107.6325,35.7357,2024-12-10T1500,28,46,0.5,15,11,74,51,46,
庆阳市,市环保局,107.6364,35.7067,2024-12-10T1500,20,39,0.7,16,6,74,50,39,
曲靖市,环境监测站,103.7897,25.5035,2024-12-10T1500,10,25,0.3,6,7,91,72,29,
曲靖市,烟厂办公区,103.8,25.5364,2024-12-10T1500,21,25,0.2,5,4,91,72,30,
曲靖市,南苑二区,103.7947,25.462,2024-12-10T1500,8,25,0.5,,4,98,76,,
曲靖市,曲靖师范学院,103.7444,25.5261,2024-12-10T1500,13,16,0.4,4,8,102,82,32,
衢州市,环保大楼,118.8692,28.9398,2024-12-10T1500,55,71,0.7,42,5,37,26,75,细颗粒物(PM2.5)
衢州市,实验学校,118.8709,28.9666,2024-12-10T1500,56,70,0.5,37,11,51,38,77,细颗粒物(PM2.5)
衢州市,衢州学院,118.8621,28.9808,2024-12-10T1500,57,75,0.6,35,6,60,44,78,细颗粒物(PM2.5)
泉州市,涂山街,118.5819,24.9117,2024-12-10T1500,13,32,0.4,10,1,113,70,36,
泉州市,津头埔,118.5972,24.8978,2024-12-10T1500,14,40,0.4,16,4,115,66,40,
泉州市,万安,118.6663,24.9424,2024-12-10T1500,13,37,0.5,16,3,127,79,40,
泉州市,清源山,118.6117,24.9604,2024-12-10T1500,,,,,,,,,
泉州市,城华南路,118.6333,24.9264,2024-12-10T1500,18,31,0.4,15,3,122,71,39,
日喀则市,日喀则监测站,88.8876,29.2718,2024-12-10T1500,3,11,0.3,2,5,126,114,40,
日喀则市,林业技术推广中心,88.8781,29.2426,2024-12-10T1500,3,10,0.4,2,6,114,116,36,
日照市,监测站,119.471,35.4209,2024-12-10T1500,46,70,0.6,31,12,71,46,64,细颗粒物(PM2.5)
日照市,市政府广场,119.523,35.4216,2024-12-10T1500,,,,,,,37,,
日照市,港务局,119.5587,35.4044,2024-12-10T1500,56,75,,26,13,76,58,,
日照市,职业技术学院,119.5328,35.4625,2024-12-10T1500,44,70,0.6,32,13,75,54,62,细颗粒物(PM2.5)
日照市,岚山环保分局,119.3266,35.1044,2024-12-10T1500,58,102,0.9,41,14,59,47,79,细颗粒物(PM2.5)
三门峡市,市政府,111.1922,34.7752,2024-12-10T1500,53,,0.7,18,7,68,41,73,细颗粒物(PM2.5)
三门峡市,开发区,111.1587,34.7942,2024-12-10T1500,46,69,0.5,15,6,72,41,64,细颗粒物(PM2.5)
三门峡市,风景区,111.143,34.7955,2024-12-10T1500,37,45,0.5,21,16,73,40,53,细颗粒物(PM2.5)
三门峡市,三门峡市第一小学,111.1911,34.7829,2024-12-10T1500,44,45,0.5,18,8,70,41,62,细颗粒物(PM2.5)
三门峡市,富达温泉假日酒店,111.1,34.7167,2024-12-10T1500,46,63,0.5,23,8,74,38,64,细颗粒物(PM2.5)
三明市,三钢,117.6211,26.2625,2024-12-10T1500,18,34,1.9,19,13,71,47,34,
三明市,三明二中,117.635,26.2714,2024-12-10T1500,22,39,1.4,21,10,72,47,39,
三明市,三元区政府,117.6028,26.2378,2024-12-10T1500,22,38,1.2,21,6,72,46,38,
三明市,洋溪,117.7275,26.3108,2024-12-10T1500,,,,,,,,,
三亚市,河东子站,109.5078,18.2489,2024-12-10T1500,9,28,0.2,1,3,83,88,28,
三亚市,河西子站,109.4964,18.2681,2024-12-10T1500,10,24,0.4,7,3,81,82,26,
三亚市,君悦子站,109.7348,18.3443,2024-12-10T1500,9,38,0.5,4,2,87,72,38,
山南市,山南监测站,91.7608,29.2313,2024-12-10T1500,14,47,0.3,2,3,122,104,47,
山南市,山南人民医院,91.7706,29.2436,2024-12-10T1500,23,,0.4,6,2,117,99,,
汕头市,金平子站,116.6794,23.3667,2024-12-10T1500,12,24,0.6,11,8,104,76,33,
汕头市,龙湖子站,116.7244,23.3633,2024-12-10T1500,15,25,0.6,7,9,104,74,33,
汕头市,濠江子站,116.7258,23.2775,2024-12-10T1500,20,40,0.6,11,3,103,77,40,
汕头市,澄海子站,116.7519,23.4714,2024-12-10T1500,18,34,0.7,11,9,106,74,34,
汕头市,潮阳子站,116.6092,23.2539,2024-12-10T1500,14,28,0.6,10,6,100,73,32,
汕头市,潮南峡山,116.454,23.2684,2024-12-10T1500,19,31,,13,9,,72,,
汕头市,潮南子站,116.4069,23.2533,2024-12-10T1500,16,31,0.6,14,9,99,71,31,
汕尾市,市环保局,115.3653,22.775,2024-12-10T1500,,,0.7,12,,105,77,,
汕尾市,市政府,115.3706,22.7898,2024-12-10T1500,27,,0.6,11,9,103,78,39,
汕尾市,新城中学,115.3622,22.7925,2024-12-10T1500,21,31,0.6,11,9,100,76,32,
商洛市,监测站,109.9154,33.8715,2024-12-10T1500,53,122,0.5,13,3,72,62,86,颗粒物(PM10)
商洛市,商州区中学,109.9643,33.8471,2024-12-10T1500,52,55,0.6,24,3,62,51,72,细颗粒物(PM2.5)
商丘市,环境监测站,115.6702,34.4285,2024-12-10T1500,78,92,0.9,39,25,44,28,104,细颗粒物(PM2.5)
商丘市,粮食局,115.6458,34.4045,2024-12-10T1500,69,90,0.6,46,39,42,34,93,细颗粒物(PM2.5)
商丘市,睢阳区环保局,115.6293,34.3948,2024-12-10T1500,79,93,0.7,40,40,42,37,105,细颗粒物(PM2.5)
商丘市,梁园区档案局,115.6071,34.4465,2024-12-10T1500,80,87,1.0,39,14,50,28,107,细颗粒物(PM2.5)
上海市,普陀,121.4,31.238,2024-12-10T1500,40,42,0.7,40,6,44,54,57,细颗粒物(PM2.5)
上海市,十五厂,121.478,31.2036,2024-12-10T1500,23,40,0.5,56,,36,59,,
上海市,虹口,121.467,31.3008,2024-12-10T1500,29,41,0.6,52,8,37,52,42,
上海市,徐汇上师大,121.412,31.1654,2024-12-10T1500,25,33,0.7,54,7,31,57,36,
上海市,杨浦四漂,121.536,31.2659,2024-12-10T1500,3,54,0.9,75,7,17,55,52,颗粒物(PM10)
上海市,静安监测站,121.425,31.2261,2024-12-10T1500,28,38,0.8,48,8,46,52,40,
上海市,浦东川沙,121.703,31.1907,2024-12-10T1500,18,33,0.7,25,6,66,72,33,
上海市,浦东新区监测站,121.533,31.2284,2024-12-10T1500,24,40,0.8,52,7,35,59,40,
上海市,浦东张江,121.577,31.2071,2024-12-10T1500,24,38,0.6,43,5,54,60,38,
上海市,宝山庙行,121.4316,31.3322,2024-12-10T1500,28,42,0.3,41,5,50,57,42,
上海市,崇明上实东滩,121.8791,31.4662,2024-12-10T1500,15,23,0.5,13,9,77,80,25,
上海市,嘉定南翔,121.3162,31.2838,2024-12-10T1500,25,45,0.6,54,8,28,46,45,
上海市,金山新城,121.3359,30.7456,2024-12-10T1500,27,40,0.3,29,6,47,45,40,
上海市,闵行浦江,121.4996,31.0739,2024-12-10T1500,16,32,0.6,45,6,44,58,32,
上海市,青浦徐泾,121.2886,31.1663,2024-12-10T1500,27,40,0.6,54,8,33,46,40,
上海市,松江图书馆,121.2186,31.0378,2024-12-10T1500,20,32,0.6,48,6,35,44,32,
上海市,长宁仙霞,121.3902,31.2059,2024-12-10T1500,24,38,0.7,42,7,52,56,38,
上海市,浦东惠南,121.7965,31.0507,2024-12-10T1500,20,29,0.6,23,7,67,70,29,
上海市,奉贤南桥新城,121.4891,30.925,2024-12-10T1500,26,28,0.5,26,6,59,57,38,
上饶市,百草园,118.005,28.4572,2024-12-10T1500,8,51,0.6,15,5,50,36,51,颗粒物(PM10)
上饶市,市监测站,117.9756,28.4436,2024-12-10T1500,23,50,0.7,29,7,55,41,50,
上饶市,凤凰光学,117.9519,28.4628,2024-12-10T1500,27,49,0.9,34,9,52,38,49,
上饶市,广丰区教体局,118.1953,28.4401,2024-12-10T1500,41,58,0.8,31,5,50,37,58,细颗粒物(PM2.5)
上饶市,双创科技城,117.897,28.4315,2024-12-10T1500,30,52,0.8,29,4,58,40,51,颗粒物(PM10)
韶关市,市八中,113.5824,24.7733,2024-12-10T1500,61,80,0.8,15,11,81,49,83,细颗粒物(PM2.5)
韶关市,园林处,113.5917,24.7972,2024-12-10T1500,62,,0.6,13,14,82,49,84,细颗粒物(PM2.5)
韶关市,韶关学院,113.6735,24.7791,2024-12-10T1500,53,67,0.7,16,15,75,38,73,细颗粒物(PM2.5)
韶关市,曲江监测站,113.5971,24.6863,2024-12-10T1500,64,82,0.7,17,15,70,39,87,细颗粒物(PM2.5)
韶关市,碧湖山庄,113.5556,24.8082,2024-12-10T1500,45,66,0.8,11,12,82,49,63,细颗粒物(PM2.5)
邵阳市,市水土所,111.5239,27.3033,2024-12-10T1500,,,,,,,,,
邵阳市,市一中,111.4733,27.2317,2024-12-10T1500,24,26,1.3,18,8,35,43,35,
邵阳市,市化工厂,111.5283,27.2442,2024-12-10T1500,25,,,18,5,30,42,,
邵阳市,市罐头厂,111.4503,27.2537,2024-12-10T1500,25,,1.0,19,7,40,44,36,
邵阳市,市环保局,111.4328,27.2272,2024-12-10T1500,18,24,1.4,18,8,39,44,26,
绍兴市,城东开发委,120.6053,29.9928,2024-12-10T1500,38,56,0.4,61,6,22,15,54,细颗粒物(PM2.5)
绍兴市,树下王站,120.5483,30.0003,2024-12-10T1500,45,64,0.6,55,5,21,20,63,细颗粒物(PM2.5)
绍兴市,绍兴中专,120.5683,29.9361,2024-12-10T1500,43,61,0.6,56,8,21,16,60,细颗粒物(PM2.5)
绍兴市,柯桥区政府,120.4906,30.0861,2024-12-10T1500,30,43,0.8,56,6,16,20,43,
绍兴市,重华小学,120.8752,30.0249,2024-12-10T1500,28,37,0.7,37,7,39,15,40,
绍兴市,上虞中学,120.8369,30.0137,2024-12-10T1500,32,37,0.6,41,6,30,16,46,
绍兴市,柯桥妇保,120.4722,30.0415,2024-12-10T1500,35,52,0.4,47,5,15,19,51,颗粒物(PM10)
绍兴市,袍江中学,120.6153,30.0764,2024-12-10T1500,49,55,0.9,56,4,19,25,68,细颗粒物(PM2.5)
深圳市,通心岭子站,114.1063,22.5545,2024-12-10T1500,10,22,0.6,8,6,112,83,35,
深圳市,洪湖,114.117,22.5625,2024-12-10T1500,16,23,0.4,18,7,105,69,33,
深圳市,华侨城,113.987,22.5417,2024-12-10T1500,14,25,0.5,11,6,107,75,34,
深圳市,南海子站,113.9181,22.5171,2024-12-10T1500,11,30,0.5,13,6,119,85,38,
深圳市,盐田,114.2458,22.5689,2024-12-10T1500,21,45,0.7,33,8,102,75,45,
深圳市,龙岗,114.2283,22.7244,2024-12-10T1500,10,24,0.5,12,8,121,72,38,
深圳市,南澳,114.494,22.5422,2024-12-10T1500,24,34,0.6,,9,129,97,,
深圳市,葵涌,114.41,22.6342,2024-12-10T1500,20,133,0.6,11,7,129,83,92,颗粒物(PM10)
深圳市,梅沙,114.297,22.5978,2024-12-10T1500,26,39,0.6,12,9,140,100,44,
深圳市,观澜,114.0678,22.738,2024-12-10T1500,13,31,0.6,19,5,115,78,36,
深圳市,莲花,114.0731,22.559,2024-12-10T1500,12,25,0.7,14,7,110,74,35,
深圳市,民治,114.0261,22.6198,2024-12-10T1500,11,21,0.6,12,5,105,62,33,
深圳市,横岗,114.1871,22.6451,2024-12-10T1500,16,28,0.5,23,8,105,69,33,
深圳市,坪山,114.3551,22.7151,2024-12-10T1500,16,29,0.6,12,6,123,69,39,
深圳市,西乡,113.8953,22.5861,2024-12-10T1500,30,73,0.7,42,8,137,80,62,颗粒物(PM10)
沈阳市,森林路,123.6836,41.9339,2024-12-10T1500,,,,,,,,,
沈阳市,浑南东路,123.505,41.7406,2024-12-10T1500,45,62,0.7,41,17,31,21,63,细颗粒物(PM2.5)
沈阳市,新秀街,123.4231,41.6989,2024-12-10T1500,34,52,0.9,43,29,26,18,51,颗粒物(PM10)
沈阳市,东陵路,123.5903,41.8411,2024-12-10T1500,39,46,0.7,32,12,34,23,55,细颗粒物(PM2.5)
沈阳市,陵东街,123.4264,41.8467,2024-12-10T1500,14,33,0.5,20,10,48,29,33,
沈阳市,文化路,123.4114,41.7653,2024-12-10T1500,20,39,0.7,30,27,34,20,39,
沈阳市,小河沿,123.4678,41.7867,2024-12-10T1500,21,39,0.6,28,11,39,23,39,
沈阳市,太原街,123.4017,41.7972,2024-12-10T1500,25,27,0.9,30,15,41,27,36,
沈阳市,京沈街,123.3783,41.9228,2024-12-10T1500,14,22,0.6,16,14,50,30,22,
沈阳市,沈辽西路,123.2444,41.7347,2024-12-10T1500,20,30,0.6,26,13,47,30,30,
沈阳市,裕农路,123.5953,41.9086,2024-12-10T1500,33,33,0.5,28,11,40,26,48,
十堰市,武当山,111.0419,32.395,2024-12-10T1500,32,33,0.6,21,9,58,79,46,
十堰市,滨河新村,110.78,32.6494,2024-12-10T1500,60,66,0.7,31,9,42,51,82,细颗粒物(PM2.5)
十堰市,刘家沟,110.7258,32.6389,2024-12-10T1500,59,77,1.0,29,9,44,50,80,细颗粒物(PM2.5)
十堰市,铁二处,110.8839,32.5714,2024-12-10T1500,62,,0.8,32,12,43,31,84,细颗粒物(PM2.5)
十堰市,郧阳区金沙路,110.8054,32.8401,2024-12-10T1500,46,,0.6,27,18,58,53,64,细颗粒物(PM2.5)
石河子市,艾青诗歌馆,86.0497,44.2967,2024-12-10T1500,6,17,0.4,6,9,48,41,17,
石河子市,南区管委会,86.047,44.2331,2024-12-10T1500,10,34,0.5,16,5,47,43,34,
石河子市,世纪广场,86.0791,44.3017,2024-12-10T1500,3,33,0.5,5,6,47,41,33,
石家庄市,职工医院,114.4422,38.0444,2024-12-10T1500,26,63,0.7,44,7,14,12,57,颗粒物(PM10)
石家庄市,高新区,114.6063,38.0266,2024-12-10T1500,,,,,,,14,,
石家庄市,西北水源,114.4898,38.1328,2024-12-10T1500,36,66,1.0,40,10,23,13,58,颗粒物(PM10)
石家庄市,西南高教,114.4586,38.0058,2024-12-10T1500,56,133,1.1,66,9,10,14,92,颗粒物(PM10)
石家庄市,世纪公园,114.5331,38.0178,2024-12-10T1500,37,51,1.0,51,8,11,12,53,细颗粒物(PM2.5)
石家庄市,人民会堂,114.509,38.0457,2024-12-10T1500,47,73,1.3,53,8,12,12,65,细颗粒物(PM2.5)
石家庄市,封龙山,114.3524,37.8911,2024-12-10T1500,37,75,0.8,44,12,22,40,63,颗粒物(PM10)
石家庄市,22中南校区,114.5481,38.0378,2024-12-10T1500,43,85,1.0,55,8,10,11,68,颗粒物(PM10)
石家庄市,鹿泉一中,114.289,38.0906,2024-12-10T1500,32,76,0.7,36,6,24,16,63,颗粒物(PM10)
石家庄市,藁城区实验学校,114.8506765,38.0322033,2024-12-10T1500,48,101,0.3,46,6,23,15,76,颗粒物(PM10)
石家庄市,井陉矿区区委大楼,114.0504658,38.0591645,2024-12-10T1500,16,62,0.6,35,17,30,4,56,颗粒物(PM10)
石家庄市,栾城区星河路,114.6549,37.9020,2024-12-10T1500,55,86,1.0,49,12,24,13,75,细颗粒物(PM2.5)
石嘴山市,沙湖旅游区,106.3394,38.817,2024-12-10T1500,,,,,,,,,
石嘴山市,大武口朝阳西街,106.3668,39.0145,2024-12-10T1500,41,49,1.2,25,20,38,38,58,细颗粒物(PM2.5)
石嘴山市,惠农南大街,106.7704,39.2282,2024-12-10T1500,50,131,1.9,45,53,15,12,91,颗粒物(PM10)
石嘴山市,红果子镇惠新街,106.7099,39.1325,2024-12-10T1500,12,24,0.6,29,7,51,29,24,
石嘴山市,妇女儿童医院,106.3495,38.9836,2024-12-10T1500,36,51,0.9,35,17,38,33,52,细颗粒物(PM2.5)
石嘴山市,石大公路,106.7492,39.2069,2024-12-10T1500,84,121,4.1,56,58,16,15,112,细颗粒物(PM2.5)
双鸭山市,双合村,131.1511,46.6937,2024-12-10T1500,51,61,0.5,18,8,64,39,70,细颗粒物(PM2.5)
双鸭山市,南小市,131.1652,46.6191,2024-12-10T1500,78,88,0.7,29,13,54,46,104,细颗粒物(PM2.5)
双鸭山市,环保局,131.1524,46.6554,2024-12-10T1500,91,97,1.3,37,34,41,40,120,细颗粒物(PM2.5)
双鸭山市,苗圃,131.12,46.5656,2024-12-10T1500,76,,0.7,27,4,59,52,102,细颗粒物(PM2.5)
朔州市,平朔,112.4397,39.3522,2024-12-10T1500,54,87,1.0,46,50,18,12,74,细颗粒物(PM2.5)
朔州市,朔唯,112.4575,39.3617,2024-12-10T1500,53,96,0.3,54,43,19,15,73,"颗粒物(PM10),细颗粒物(PM2.5)"
朔州市,区政府,112.4258,39.3197,2024-12-10T1500,,,,50,54,19,7,,
朔州市,市环保局,112.4072,39.3278,2024-12-10T1500,45,104,1.0,50,60,22,18,77,颗粒物(PM10)
朔州市,市二中,112.4272,39.3681,2024-12-10T1500,47,110,0.7,49,49,16,10,80,颗粒物(PM10)
朔州市,一水厂,112.2931,39.53,2024-12-10T1500,28,67,1.0,57,83,25,26,59,颗粒物(PM10)
四平市,一商场,124.4002,43.1713,2024-12-10T1500,28,34,0.8,15,10,57,39,40,
四平市,境园,124.388,43.193,2024-12-10T1500,28,42,2.3,13,15,61,41,42,
四平市,植物园,124.4036,43.1411,2024-12-10T1500,32,44,0.7,17,8,59,37,46,
四平市,世纪城,124.3419,43.1666,2024-12-10T1500,12,18,0.3,12,7,62,42,20,
松原市,江南,124.8006,45.1214,2024-12-10T1500,16,21,0.2,12,6,59,39,23,
松原市,江北,124.7965,45.1722,2024-12-10T1500,15,17,0.3,9,3,58,40,22,
苏州市,上方山,120.561,31.2472,2024-12-10T1500,28,36,0.8,40,5,37,38,40,
苏州市,彩香,120.591,31.3019,2024-12-10T1500,29,54,0.9,31,7,40,40,52,颗粒物(PM10)
苏州市,轧钢厂,120.596,31.3264,2024-12-10T1500,27,50,0.8,40,6,38,36,50,
苏州市,吴中区,120.613,31.2703,2024-12-10T1500,29,50,0.8,41,7,34,33,50,
苏州市,苏州新区,120.543,31.2994,2024-12-10T1500,30,46,0.6,43,7,42,35,46,
苏州市,苏州工业园区,120.669,31.3097,2024-12-10T1500,30,50,0.7,37,6,46,42,50,
苏州市,相城区,120.641,31.3708,2024-12-10T1500,30,48,1.0,39,6,48,45,48,
苏州市,方洲路,120.743,31.3188,2024-12-10T1500,28,46,0.6,44,7,39,38,46,
苏州市,木渎中学,120.5031,31.2774,2024-12-10T1500,28,52,0.7,43,7,42,40,51,颗粒物(PM10)
苏州市,越秀幼儿园,120.624,31.1733,2024-12-10T1500,27,38,0.8,55,3,19,25,39,
苏州市,高铁新城,120.6505,31.416,2024-12-10T1500,33,55,0.6,34,7,45,43,53,颗粒物(PM10)
宿迁市,宿迁学院,118.293,33.9528,2024-12-10T1500,74,105,1.1,42,8,45,33,99,细颗粒物(PM2.5)
宿迁市,宿迁中学,118.2442,33.9592,2024-12-10T1500,84,109,0.6,44,6,47,35,112,细颗粒物(PM2.5)
宿迁市,市供电局,118.283,33.965,2024-12-10T1500,80,110,0.9,41,11,40,30,107,细颗粒物(PM2.5)
宿迁市,宿豫区政府,118.3225,33.9447,2024-12-10T1500,70,104,1.0,37,9,50,34,94,细颗粒物(PM2.5)
宿州市,远航博物馆,116.9509,33.666,2024-12-10T1500,76,107,0.8,35,12,46,37,102,细颗粒物(PM2.5)
宿州市,社会福利中心,116.9708,33.591,2024-12-10T1500,70,103,0.6,41,15,46,42,94,细颗粒物(PM2.5)
宿州市,宿州学院,116.9884,33.6305,2024-12-10T1500,83,125,,35,14,46,38,110,细颗粒物(PM2.5)
宿州市,皖北煤电集团,116.9648,33.6252,2024-12-10T1500,74,98,0.6,39,13,48,42,99,细颗粒物(PM2.5)
绥化市,人和东街,126.9785,46.6365,2024-12-10T1500,84,,0.7,26,3,54,40,112,细颗粒物(PM2.5)
绥化市,党政办公中心,126.964,46.6528,2024-12-10T1500,105,105,0.9,26,6,56,41,138,细颗粒物(PM2.5)
随州市,市委党校,113.3583,31.7275,2024-12-10T1500,52,73,0.9,31,7,45,30,72,细颗粒物(PM2.5)
随州市,市林业局,113.3833,31.6908,2024-12-10T1500,58,68,1.1,35,9,39,25,79,细颗粒物(PM2.5)
随州市,市立交桥水厂,113.3983,31.7308,2024-12-10T1500,57,66,0.9,27,8,36,21,78,细颗粒物(PM2.5)
遂宁市,石溪浩,105.5453,30.5678,2024-12-10T1500,32,44,0.6,12,4,44,24,46,
遂宁市,市监测站,105.5582,30.5232,2024-12-10T1500,29,40,0.3,18,7,42,24,42,
遂宁市,行政中心,105.5861,30.5366,2024-12-10T1500,27,39,0.3,16,8,43,27,39,
遂宁市,美宁食品公司,105.5918,30.4728,2024-12-10T1500,33,45,0.3,15,6,36,22,48,
塔城地区,东门外小游园,82.9994,46.7432,2024-12-10T1500,16,43,0.4,22,6,27,32,43,
台州市,黄岩环保大楼,121.273,28.6459,2024-12-10T1500,21,51,0.4,40,4,45,38,51,颗粒物(PM10)
台州市,台州环保大楼,121.419,28.6542,2024-12-10T1500,21,34,0.4,30,6,62,40,34,
台州市,路桥田洋王,121.377,28.5773,2024-12-10T1500,27,46,0.5,39,6,61,39,46,
台州市,台州科技职业学院,121.2568,28.6681,2024-12-10T1500,18,37,,30,6,57,38,,
太原市,尖草坪,112.522,37.8873,2024-12-10T1500,28,58,0.6,44,17,33,27,54,颗粒物(PM10)
太原市,上兰,112.434,38.0108,2024-12-10T1500,26,44,0.6,24,12,41,29,44,
太原市,晋源,112.469,37.7124,2024-12-10T1500,26,60,0.9,40,21,41,27,55,颗粒物(PM10)
太原市,小店,112.5583,37.7394,2024-12-10T1500,40,58,1.2,52,19,29,25,57,细颗粒物(PM2.5)
太原市,桃园,112.5369,37.8692,2024-12-10T1500,25,63,0.7,41,14,39,25,57,颗粒物(PM10)
太原市,坞城,112.57,37.8195,2024-12-10T1500,19,41,0.4,35,15,50,29,41,
太原市,南寨,112.549,37.9854,2024-12-10T1500,19,48,0.4,31,14,53,29,48,
太原市,金胜,112.4719,37.7831,2024-12-10T1500,23,53,1.1,41,25,40,30,52,颗粒物(PM10)
太原市,育英中学,112.5608,37.8807,2024-12-10T1500,23,47,0.4,36,16,48,29,47,
泰安市,监测站,117.1437,36.1937,2024-12-10T1500,63,88,1.4,43,13,51,32,85,细颗粒物(PM2.5)
泰安市,人口学校,117.0885,36.2017,2024-12-10T1500,66,107,0.6,39,13,53,36,89,细颗粒物(PM2.5)
泰安市,电力学校,117.1089,36.1758,2024-12-10T1500,67,90,1.0,47,9,48,30,90,细颗粒物(PM2.5)
泰安市,国网新校,117.1812,36.2275,2024-12-10T1500,66,90,0.9,34,11,47,38,89,细颗粒物(PM2.5)
泰安市,交通技校,117.0313,36.2018,2024-12-10T1500,69,95,0.8,40,9,53,33,93,细颗粒物(PM2.5)
泰安市,山东第一医科大学,117.0829,36.13,2024-12-10T1500,55,78,0.9,41,11,52,30,75,细颗粒物(PM2.5)
泰州市,公园路,119.905,32.4878,2024-12-10T1500,22,29,0.2,22,4,75,61,32,
泰州市,莲花,119.9189,32.4625,2024-12-10T1500,29,37,0.5,26,6,75,65,42,
泰州市,留学生创业园,119.888,32.4639,2024-12-10T1500,27,44,0.5,25,8,79,68,44,
泰州市,王营,119.8767,32.3289,2024-12-10T1500,29,47,0.5,26,5,76,68,47,
泰州市,姜堰区政府广场,120.1259,32.5099,2024-12-10T1500,22,32,0.4,24,12,83,66,32,
泰州市,周山河街区,119.9192,32.4322,2024-12-10T1500,33,49,0.6,28,9,73,64,49,
唐山市,雷达站,118.131,39.6363,2024-12-10T1500,27,41,0.9,21,13,64,39,41,
唐山市,物资局,118.1725,39.6334,2024-12-10T1500,17,33,0.7,21,13,62,36,33,
唐山市,十二中,118.1705,39.6506,2024-12-10T1500,22,,0.7,21,10,62,36,32,
唐山市,小山,118.1869,39.622,2024-12-10T1500,14,38,0.7,23,13,57,31,38,
唐山市,冀东油田职工医院,118.4359,39.2762,2024-12-10T1500,16,18,0.1,7,5,65,37,23,
唐山市,正泰大街热力站,118.09279,39.58089,2024-12-10T1500,13,30,1.0,23,13,57,27,30,
唐山市,丰润区政府,118.1562,39.8322,2024-12-10T1500,10,25,0.4,15,8,64,38,25,
唐山市,金山小学,118.43673,39.73809,2024-12-10T1500,15,23,0.5,10,9,67,43,23,
唐山市,政府服务中心,118.24498,39.66941,2024-12-10T1500,14,31,0.6,,11,63,33,,
唐山市,消防缸窑路中队,118.2059,39.6585,2024-12-10T1500,19,43,0.7,21,13,64,34,43,
唐山市,路南电大,118.1436,39.6202,2024-12-10T1500,20,38,0.8,25,12,57,31,38,
天津市,勤俭道,117.1444,39.1661,2024-12-10T1500,22,40,1.0,36,11,36,24,40,
天津市,大直沽八号路,117.237,39.1082,2024-12-10T1500,23,43,1.1,32,12,41,21,43,
天津市,前进道,117.202,39.0927,2024-12-10T1500,24,44,1.0,35,13,44,27,44,
天津市,淮河道,117.1837,39.2133,2024-12-10T1500,24,40,0.9,31,11,43,26,40,
天津市,跃进路,117.307,39.0877,2024-12-10T1500,30,54,1.2,35,13,42,22,52,颗粒物(PM10)
天津市,第四大街,117.707,39.0343,2024-12-10T1500,34,62,1.7,52,22,31,16,56,颗粒物(PM10)
天津市,永明路,117.457,38.8394,2024-12-10T1500,37,68,1.8,62,27,21,14,59,颗粒物(PM10)
天津市,汉北路,117.764,39.1587,2024-12-10T1500,28,81,2.0,66,30,22,24,66,颗粒物(PM10)
天津市,团泊洼,117.157,38.9194,2024-12-10T1500,,,,,,,,,
天津市,河西一经路,117.7918,39.2474,2024-12-10T1500,29,59,0.8,26,12,52,28,55,颗粒物(PM10)
天津市,津沽路,117.3747,38.9846,2024-12-10T1500,27,51,1.9,50,,,17,,
天津市,宾水西道,117.1589,39.0845,2024-12-10T1500,25,33,1.1,36,10,39,22,36,
天津市,大理道,117.1941,39.1067,2024-12-10T1500,24,39,1.0,34,12,46,27,39,
天津市,中山北路,117.2101,39.1699,2024-12-10T1500,21,38,0.9,34,10,42,21,38,
天津市,西四道,117.3876,39.1488,2024-12-10T1500,28,49,1.0,36,13,45,26,49,
天津市,雍阳西道,117.0365,39.3828,2024-12-10T1500,20,34,0.5,24,9,55,39,34,
天津市,辛老路,117.0296,39.0605,2024-12-10T1500,22,41,1.2,37,16,35,22,41,
天津市,地纬路,116.9638,38.9375,2024-12-10T1500,32,52,1.4,50,16,30,17,51,颗粒物(PM10)
天津市,北环路,117.4067,40.0583,2024-12-10T1500,9,15,0.4,14,6,66,44,21,
天津市,建设路,117.3045,39.7169,2024-12-10T1500,20,36,0.4,24,9,49,26,36,
天津市,滨水东路,117.8199,39.3521,2024-12-10T1500,32,58,1.0,32,13,54,25,54,颗粒物(PM10)
天水市,麦积山,106.0055,34.343,2024-12-10T1500,,,,,,,,,
天水市,公园小学,105.7205,34.5786,2024-12-10T1500,46,73,0.7,21,10,64,50,64,细颗粒物(PM2.5)
天水市,麦积国土局,105.8945,34.5538,2024-12-10T1500,42,48,0.6,21,10,70,50,59,细颗粒物(PM2.5)
铁岭市,汇工街西,123.8139,42.3022,2024-12-10T1500,19,26,0.7,13,10,52,31,28,
铁岭市,水上乐园,123.8649,42.2923,2024-12-10T1500,19,33,0.8,9,15,55,31,33,
铁岭市,银州路东段,123.8486,42.2867,2024-12-10T1500,24,32,0.3,16,10,50,27,35,
铁岭市,金沙江路北,123.7153,42.2217,2024-12-10T1500,19,26,0.5,16,6,48,32,28,
通化市,光明,125.9358,41.7173,2024-12-10T1500,39,89,0.6,44,39,35,18,70,颗粒物(PM10)
通化市,铁路,125.9446,41.7325,2024-12-10T1500,40,94,1.0,52,37,27,17,72,颗粒物(PM10)
通辽市,艺术职业学校,122.2532,43.6801,2024-12-10T1500,3,29,0.5,6,6,56,52,29,
通辽市,老干部活动中心,122.2584,43.6333,2024-12-10T1500,8,35,0.2,2,7,55,51,35,
通辽市,东方明珠社区,122.2922,43.6189,2024-12-10T1500,14,37,0.4,10,10,54,48,37,
铜川市,党校,109.0656,35.0994,2024-12-10T1500,,,,,,,,,
铜川市,王益区政府,109.0697,35.0697,2024-12-10T1500,45,,0.9,25,12,67,38,63,细颗粒物(PM2.5)
铜川市,新区管委会,108.9344,34.9058,2024-12-10T1500,86,115,1.3,35,22,61,35,114,细颗粒物(PM2.5)
铜川市,旺旺集团,108.9543,34.8732,2024-12-10T1500,89,125,1.4,34,21,59,28,118,细颗粒物(PM2.5)
铜陵市,市第四中学,117.8177,30.9412,2024-12-10T1500,46,83,0.6,59,9,13,22,67,颗粒物(PM10)
铜陵市,市公路局,117.8059,30.9273,2024-12-10T1500,,62,0.8,54,1,,21,,
铜陵市,市新民污水厂,117.7807,30.9413,2024-12-10T1500,47,71,0.8,56,2,9,12,65,细颗粒物(PM2.5)
铜陵市,市第九中学,117.7439,30.8792,2024-12-10T1500,57,87,1.7,65,2,4,16,78,细颗粒物(PM2.5)
铜陵市,车站新区,117.846,30.9413,2024-12-10T1500,39,86,0.8,59,4,8,22,68,颗粒物(PM10)
铜陵市,市职教基地,117.8483,30.97,2024-12-10T1500,37,57,0.9,51,6,13,16,54,颗粒物(PM10)
铜仁市,铜仁卫校,109.1839,27.7344,2024-12-10T1500,22,32,0.5,17,2,40,50,32,
铜仁市,铜仁七中,109.1753,27.6944,2024-12-10T1500,8,11,0.6,11,4,43,,14,
吐鲁番市,市环保局,89.1904,42.9418,2024-12-10T1500,33,68,0.6,15,5,57,46,59,颗粒物(PM10)
吐鲁番市,地区环保局,89.1673,42.9559,2024-12-10T1500,36,58,1.2,17,2,54,37,54,颗粒物(PM10)
威海市,华夏技校,122.1214,37.4236,2024-12-10T1500,18,31,0.6,22,6,68,54,31,
威海市,山大分校,122.0508,37.5236,2024-12-10T1500,20,29,0.5,20,8,78,56,29,
威海市,市监测站,122.1067,37.5072,2024-12-10T1500,24,37,0.6,16,5,68,44,37,
威海市,文登开发区,122.0693,37.2174,2024-12-10T1500,48,73,0.6,34,12,50,38,67,细颗粒物(PM2.5)
威海市,临港区管委会,122.1379,37.3414,2024-12-10T1500,21,36,0.6,30,4,59,39,36,
潍坊市,环保局,119.1437,36.7023,2024-12-10T1500,80,112,1.0,54,17,43,24,107,细颗粒物(PM2.5)
潍坊市,坊子邮政,119.1641,36.6523,2024-12-10T1500,70,100,0.8,44,18,49,27,94,细颗粒物(PM2.5)
潍坊市,潍坊七中,119.0587,36.721,2024-12-10T1500,78,112,0.9,47,22,45,22,104,细颗粒物(PM2.5)
潍坊市,高新实验学校,119.1977,36.6872,2024-12-10T1500,80,117,0.9,50,17,,20,107,细颗粒物(PM2.5)
潍坊市,潍坊学院,119.1755,36.7149,2024-12-10T1500,77,110,1.0,58,19,52,34,103,细颗粒物(PM2.5)
潍坊市,寒亭区实验一小,119.2041,36.7699,2024-12-10T1500,95,127,1.2,59,21,47,28,125,细颗粒物(PM2.5)
渭南市,农科所,109.5293,34.5101,2024-12-10T1500,,,,,,,,,
渭南市,日报社,109.4974,34.4877,2024-12-10T1500,85,107,0.8,42,7,47,16,113,细颗粒物(PM2.5)
渭南市,体育馆,109.4636,34.493,2024-12-10T1500,68,117,0.7,39,11,44,16,92,细颗粒物(PM2.5)
渭南市,高新一小,109.4259,34.5023,2024-12-10T1500,80,108,0.9,46,8,38,16,107,细颗粒物(PM2.5)
温州市,瓯海,120.634,28.0089,2024-12-10T1500,43,71,0.6,70,8,13,13,61,颗粒物(PM10)
温州市,南浦,120.6748,27.9939,2024-12-10T1500,29,51,0.5,67,8,19,17,51,颗粒物(PM10)
温州市,龙湾,120.76,27.9747,2024-12-10T1500,32,52,0.6,66,8,20,16,51,颗粒物(PM10)
温州市,市站,120.6709,28.0167,2024-12-10T1500,23,51,0.5,55,8,29,20,51,颗粒物(PM10)
温州市,茶山,120.6985,27.9251,2024-12-10T1500,23,41,0.5,,6,33,22,,
文山壮族苗族自治州,州水务局,104.2533,23.3594,2024-12-10T1500,3,17,0.3,4,10,66,43,21,
文山壮族苗族自治州,市便民服务中心,104.2319,23.3892,2024-12-10T1500,44,,0.4,7,6,70,48,62,细颗粒物(PM2.5)
乌海市,市林业局,106.8174,39.6973,2024-12-10T1500,26,46,0.5,18,8,40,23,46,
乌海市,中海勃湾学校,106.7907,39.6667,2024-12-10T1500,8,36,0.4,18,9,40,28,36,
乌海市,海北新区,106.813,39.7274,2024-12-10T1500,10,33,0.6,21,15,35,20,33,
乌海市,聚英学校,106.8288,39.6778,2024-12-10T1500,20,28,0.6,23,16,38,21,29,
乌兰察布市,集宁新区,113.1306,40.9923,2024-12-10T1500,12,19,0.3,7,6,79,42,25,
乌兰察布市,光明街小学,113.1076,41.0385,2024-12-10T1500,13,23,0.3,7,11,85,50,27,
乌兰察布市,北京八中,113.1376,40.9509,2024-12-10T1500,12,,0.3,9,10,75,28,24,
乌兰察布市,市委党校,113.1775,40.9779,2024-12-10T1500,20,23,0.4,7,10,79,36,29,
乌鲁木齐市,监测站,87.5801,43.8303,2024-12-10T1500,45,54,0.6,41,2,30,19,63,细颗粒物(PM2.5)
乌鲁木齐市,收费所,87.6046,43.768,2024-12-10T1500,52,56,0.6,,8,31,23,,
乌鲁木齐市,新疆农科院农场,87.4754,43.9469,2024-12-10T1500,72,,0.9,20,5,41,20,97,细颗粒物(PM2.5)
乌鲁木齐市,铁路局,87.5525,43.8711,2024-12-10T1500,60,62,0.7,38,3,28,17,82,细颗粒物(PM2.5)
乌鲁木齐市,三十一中学,87.6432,43.831,2024-12-10T1500,49,56,0.7,23,3,29,27,68,细颗粒物(PM2.5)
乌鲁木齐市,米东区环保局,87.7216,44.1747,2024-12-10T1500,47,58,0.7,21,4,53,43,65,细颗粒物(PM2.5)
乌鲁木齐市,培训基地,87.4651,43.4569,2024-12-10T1500,3,12,0.6,11,3,64,63,20,
乌鲁木齐市,达坂城区环保局,88.3118,43.3658,2024-12-10T1500,17,17,0.4,9,4,55,44,25,
乌鲁木齐市,红光山片区,87.6162,43.8801,2024-12-10T1500,52,58,0.8,40,7,23,19,72,细颗粒物(PM2.5)
乌鲁木齐市,新师大温泉校区,87.7024,43.8004,2024-12-10T1500,60,61,0.6,32,8,43,42,82,细颗粒物(PM2.5)
乌鲁木齐市,大绿谷,87.4921,43.8411,2024-12-10T1500,48,52,0.6,27,2,41,25,67,细颗粒物(PM2.5)
无锡市,雪浪,120.269,31.4867,2024-12-10T1500,22,36,1.1,29,8,41,39,36,
无锡市,黄巷,120.275,31.6219,2024-12-10T1500,27,55,0.9,50,6,43,32,53,颗粒物(PM10)
无锡市,曹张,120.294,31.56,2024-12-10T1500,19,34,1.0,37,12,42,35,34,
无锡市,漆塘,120.242,31.5031,2024-12-10T1500,24,39,0.8,38,5,43,40,39,
无锡市,东亭,120.3489,31.5863,2024-12-10T1500,24,39,0.7,29,5,40,35,39,
无锡市,旺庄,120.354,31.5475,2024-12-10T1500,27,41,0.6,43,11,39,38,41,
无锡市,荣巷,120.245,31.5631,2024-12-10T1500,19,34,0.5,43,4,41,40,34,
无锡市,堰桥,120.299,31.6817,2024-12-10T1500,31,41,1.1,27,10,50,43,45,
无锡市,华庄,120.3142,31.4753,2024-12-10T1500,28,51,0.5,49,5,33,32,51,颗粒物(PM10)
吴忠市,教育园区,106.1532,37.9648,2024-12-10T1500,48,63,0.6,22,12,39,31,67,细颗粒物(PM2.5)
吴忠市,新区二泵站,106.1856,37.9956,2024-12-10T1500,38,,0.5,27,11,55,38,54,细颗粒物(PM2.5)
吴忠市,文卫南街,106.2112,37.9768,2024-12-10T1500,31,50,0.8,20,10,52,32,50,
芜湖市,监测站,118.3606,31.3519,2024-12-10T1500,43,63,0.9,48,8,28,20,60,细颗粒物(PM2.5)
芜湖市,科创中心,118.3714,31.4134,2024-12-10T1500,44,65,1.2,53,9,30,22,62,细颗粒物(PM2.5)
芜湖市,四水厂,118.3673,31.3131,2024-12-10T1500,39,62,1.1,38,10,32,24,56,颗粒物(PM10)
芜湖市,市气象局,118.4209,31.3707,2024-12-10T1500,43,60,1.0,40,9,36,27,60,细颗粒物(PM2.5)
芜湖市,清苑社区,118.4781,31.3225,2024-12-10T1500,39,68,1.0,51,8,27,21,59,颗粒物(PM10)
芜湖市,扬子职业技术学院,118.2746,31.2326,2024-12-10T1500,44,58,1.1,53,8,22,19,62,细颗粒物(PM2.5)
梧州市,市逸夫小学,111.3014,23.4832,2024-12-10T1500,27,51,0.9,14,11,103,58,51,颗粒物(PM10)
梧州市,市十一中,111.3239,23.4794,2024-12-10T1500,26,42,0.7,19,10,108,65,42,
梧州市,龙圩,111.247,23.4189,2024-12-10T1500,,,1.2,22,,88,52,,
梧州市,龙新,111.2711,23.4835,2024-12-10T1500,33,61,0.9,19,10,99,60,56,颗粒物(PM10)
五家渠市,农水大厦,87.5475,44.1756,2024-12-10T1500,48,69,0.5,14,5,47,34,67,细颗粒物(PM2.5)
五家渠市,经开区管委会,87.546,44.1912,2024-12-10T1500,50,65,0.7,17,4,48,38,69,细颗粒物(PM2.5)
武汉市,东湖梨园,114.3677,30.5584,2024-12-10T1500,42,50,0.5,39,6,29,19,59,细颗粒物(PM2.5)
武汉市,汉阳月湖,114.2529,30.558,2024-12-10T1500,48,59,0.6,34,8,24,18,67,细颗粒物(PM2.5)
武汉市,汉口花桥,114.282,30.6189,2024-12-10T1500,42,59,0.4,32,6,33,21,59,细颗粒物(PM2.5)
武汉市,武昌紫阳,114.3025,30.5332,2024-12-10T1500,50,,0.7,29,7,38,20,69,细颗粒物(PM2.5)
武汉市,青山钢花,114.3646,30.6217,2024-12-10T1500,58,,0.5,42,8,21,15,79,细颗粒物(PM2.5)
武汉市,沌口新区,114.1566,30.4825,2024-12-10T1500,66,,,35,8,28,22,,
武汉市,汉口江滩,114.3014,30.5944,2024-12-10T1500,53,56,0.6,42,6,18,17,73,细颗粒物(PM2.5)
武汉市,吴家山,114.135,30.6319,2024-12-10T1500,49,,0.6,30,7,35,20,68,细颗粒物(PM2.5)
武汉市,沉湖七壕,113.8454,30.2917,2024-12-10T1500,42,51,0.6,28,4,29,20,59,细颗粒物(PM2.5)
武汉市,民族大道182号,114.3877,30.4908,2024-12-10T1500,58,,0.7,38,7,31,13,79,细颗粒物(PM2.5)
武威市,监测站,102.6201,37.9251,2024-12-10T1500,41,,0.4,8,11,68,60,58,细颗粒物(PM2.5)
武威市,东关招商场,102.6486,37.9325,2024-12-10T1500,34,,0.3,11,8,71,57,49,
西安市,兴庆小区,108.993,34.2629,2024-12-10T1500,77,,0.8,32,5,46,33,103,细颗粒物(PM2.5)
西安市,纺织城,109.06,34.2572,2024-12-10T1500,80,95,0.7,41,8,36,20,107,细颗粒物(PM2.5)
西安市,小寨,108.9356,34.2173,2024-12-10T1500,74,105,0.6,28,5,46,36,99,细颗粒物(PM2.5)
西安市,市人民体育场,108.954,34.2713,2024-12-10T1500,75,85,0.6,31,6,49,33,100,细颗粒物(PM2.5)
西安市,高新西区,108.8922,34.2322,2024-12-10T1500,72,80,0.6,27,6,50,38,97,细颗粒物(PM2.5)
西安市,经开区,108.935,34.3474,2024-12-10T1500,77,,0.4,22,6,54,30,103,细颗粒物(PM2.5)
西安市,长安区,108.906,34.1546,2024-12-10T1500,85,96,0.6,30,7,50,34,113,细颗粒物(PM2.5)
西安市,临潼区,109.2186,34.3731,2024-12-10T1500,88,120,0.9,42,7,36,17,117,细颗粒物(PM2.5)
西安市,草滩,108.869,34.378,2024-12-10T1500,52,81,0.3,27,5,48,24,72,细颗粒物(PM2.5)
西安市,曲江文化产业集团,108.985,34.1978,2024-12-10T1500,75,93,0.7,30,9,48,32,100,细颗粒物(PM2.5)
西安市,广运潭,109.051,34.3213,2024-12-10T1500,78,97,0.8,36,4,43,22,104,细颗粒物(PM2.5)
西安市,文体局,108.6116,34.1164,2024-12-10T1500,73,,0.5,15,11,58,46,98,细颗粒物(PM2.5)
西安市,无线电监控中心,109.09,34.5236,2024-12-10T1500,84,104,0.6,34,13,48,23,112,细颗粒物(PM2.5)
西安市,行知小学,108.8869,34.2662,2024-12-10T1500,68,92,0.5,22,8,54,34,92,细颗粒物(PM2.5)
西宁市,第五水厂,101.524,36.6867,2024-12-10T1500,,,,,,,,,
西宁市,城北区政府,101.7775,36.6428,2024-12-10T1500,36,36,0.6,25,9,55,36,52,细颗粒物(PM2.5)
西宁市,世纪职校,101.8305,36.5786,2024-12-10T1500,40,,0.8,28,10,58,36,57,细颗粒物(PM2.5)
西宁市,师大城西校区,101.7413,36.6397,2024-12-10T1500,39,53,0.7,24,10,58,38,55,细颗粒物(PM2.5)
西双版纳傣族自治州,景洪市江南,100.7939,22.0019,2024-12-10T1500,22,37,0.5,12,7,87,32,37,
西双版纳傣族自治州,景洪市江北,100.8017,22.0225,2024-12-10T1500,17,20,0.5,10,10,90,38,29,
西咸新区,北杜,108.7108,34.46,2024-12-10T1500,69,72,0.6,29,10,63,37,93,细颗粒物(PM2.5)
