area,positionname,longitude,latitude,timepoint,pm2_5,pm10,co,no2,so2,o3,o3_8h,aqi,primarypollutant
阿坝藏族羌族自治州,州农科所,102.1879,31.914,2024-11-13T1400,7,9,0,6,8,71,45,23,
阿坝藏族羌族自治州,马师校,102.2502,31.8896,2024-11-13T1400,3,6,0.4,5,4,72,37,23,
阿坝藏族羌族自治州,马尔康中学西区,102.2165,31.9024,2024-11-13T1400,3,9,0.5,8,4,68,40,22,
阿克苏地区,电视台,80.292,41.1694,2024-11-13T1400,28,105,0.5,24,6,75,49,78,颗粒物(PM10)
阿克苏地区,艺术中心,80.2613,41.1551,2024-11-13T1400,27,88,0.5,20,4,78,51,69,颗粒物(PM10)
阿拉善盟,西城区西花园,105.6467,38.8363,2024-11-13T1400,17,50,0.6,11,10,108,83,50,
阿拉善盟,蒙二幼,105.6985,38.8411,2024-11-13T1400,6,13,0.5,10,8,103,76,33,
阿拉善盟,环保局新楼,105.724,38.8516,2024-11-13T1400,3,13,0.4,8,8,102,86,32,
阿勒泰地区,市站,88.1264,47.8517,2024-11-13T1400,9,,0.2,7,7,62,49,20,
阿里地区,阿里监测站,80.1161,32.5,2024-11-13T1400,3,8,0.5,2,5,93,88,30,
阿里地区,阿里藏医院,80.0903,32.5028,2024-11-13T1400,3,18,0.5,2,5,97,95,31,
安康市,香溪洞,109.0318,32.6537,2024-11-13T1400,13,18,0.9,25,8,30,23,19,
安康市,汉滨区检察院,109.0072,32.6975,2024-11-13T1400,30,56,0.8,37,6,14,8,53,颗粒物(PM10)
安康市,市邮政管理局,109.0325,32.6913,2024-11-13T1400,21,44,0.9,33,6,16,9,44,
安庆市,环科院,117.0809,30.5177,2024-11-13T1400,25,44,0.7,26,12,108,71,44,
安庆市,马山宾馆,117.0331,30.5119,2024-11-13T1400,10,44,0.7,22,8,112,78,44,
安庆市,安庆大学,116.9896,30.6145,2024-11-13T1400,25,47,0.7,21,12,127,80,47,
安庆市,市人大,117.0598,30.5351,2024-11-13T1400,28,41,,28,13,105,74,,
安顺市,伍家关,105.9606,26.2611,2024-11-13T1400,14,21,0.6,2,3,77,68,25,
安顺市,凤凰山,105.9408,26.2431,2024-11-13T1400,16,23,0.4,5,6,92,81,29,
安顺市,金钟山,105.9439,26.2564,2024-11-13T1400,20,26,0.5,4,7,91,80,29,
安顺市,娄家坡,105.8983,26.2481,2024-11-13T1400,20,22,0.4,6,8,91,86,29,
安阳市,棉研所,114.4839,36.0621,2024-11-13T1400,95,,1.1,38,6,14,17,125,细颗粒物(PM2.5)
安阳市,红庙街,114.3551,36.1017,2024-11-13T1400,96,108,1.1,34,3,20,27,127,细颗粒物(PM2.5)
安阳市,银杏小区,114.361,36.0681,2024-11-13T1400,101,,1.5,29,3,21,33,133,细颗粒物(PM2.5)
安阳市,信访局,114.3922,36.0878,2024-11-13T1400,101,,1.2,37,3,10,22,133,细颗粒物(PM2.5)
安阳市,左辅环卫站,114.4705,36.0637,2024-11-13T1400,92,116,0.9,29,1,14,16,122,细颗粒物(PM2.5)
安阳市,安钢职工学校,114.2917,36.0949,2024-11-13T1400,103,,1.3,31,1,31,30,135,细颗粒物(PM2.5)
鞍山市,深沟寺,123.044,41.1196,2024-11-13T1400,26,44,0.7,20,9,87,69,44,
鞍山市,太阳城,123.011,41.0931,2024-11-13T1400,22,40,0.6,21,10,87,72,40,
鞍山市,太平,123.0485,41.1442,2024-11-13T1400,37,59,0.5,28,14,81,63,55,颗粒物(PM10)
鞍山市,铁西三道街,122.9642,41.0971,2024-11-13T1400,44,98,0.7,33,11,78,47,74,颗粒物(PM10)
鞍山市,铁西工业园区,122.9341,41.0833,2024-11-13T1400,33,73,0.8,27,16,79,48,62,颗粒物(PM10)
鞍山市,明达新区,123.022,41.0821,2024-11-13T1400,23,41,0.9,16,12,84,68,41,
鞍山市,千山,123.1289,41.0228,2024-11-13T1400,,,,,,,49,,
巴彦淖尔市,附二中,107.4212,40.761,2024-11-13T1400,68,128,0.8,40,16,29,10,92,细颗粒物(PM2.5)
巴彦淖尔市,市环保大楼,107.37,40.7372,2024-11-13T1400,51,145,0.9,43,14,23,11,98,颗粒物(PM10)
巴音郭楞蒙古自治州,孔雀公园,86.1472,41.7538,2024-11-13T1400,26,91,0.4,34,10,52,26,71,颗粒物(PM10)
巴音郭楞蒙古自治州,棉纺厂,86.1972,41.7166,2024-11-13T1400,12,96,0.3,18,3,70,32,73,颗粒物(PM10)
巴音郭楞蒙古自治州,经济开发区,86.2357,41.7173,2024-11-13T1400,33,100,0.2,12,4,74,37,75,颗粒物(PM10)
巴中市,苏山坪,106.7677,31.8794,2024-11-13T1400,13,17,0.4,8,3,35,50,19,
巴中市,丽阳花园,106.7656,31.8545,2024-11-13T1400,21,28,0.5,23,3,18,8,30,
巴中市,圣泉水务公司,106.7418,31.8654,2024-11-13T1400,21,30,0.5,20,3,20,8,30,
巴中市,市中心医院,106.7616,31.8344,2024-11-13T1400,18,26,0.5,25,5,16,5,26,
白城市,洮北区环保局,122.7911,45.6077,2024-11-13T1400,38,48,0.6,17,8,66,48,54,细颗粒物(PM2.5)
白城市,市环保局,122.8738,45.5725,2024-11-13T1400,34,70,0.6,15,6,68,47,60,颗粒物(PM10)
白山市,喜丰,126.4219,41.9171,2024-11-13T1400,12,34,0.5,12,12,78,36,34,
白山市,环保局,126.4077,41.9419,2024-11-13T1400,3,24,,7,5,74,34,,
白银市,第三小学,104.1724,36.5446,2024-11-13T1400,28,30,1.1,16,13,77,67,40,
白银市,动力公司,104.1465,36.5482,2024-11-13T1400,32,32,0.7,18,14,72,68,46,
百色市,市监测站,106.6103,23.9011,2024-11-13T1400,52,85,0.8,15,18,154,71,72,细颗粒物(PM2.5)
百色市,市中心血站,106.6538,23.8859,2024-11-13T1400,50,85,0.8,,,124,51,,
百色市,祈福高中,106.6085,23.8798,2024-11-13T1400,66,122,1.0,17,26,163,63,89,细颗粒物(PM2.5)
蚌埠市,工人疗养院,117.396,32.939,2024-11-13T1400,68,91,0.7,22,6,100,63,92,细颗粒物(PM2.5)
蚌埠市,百货大楼,117.3605,32.9427,2024-11-13T1400,58,91,0.9,21,6,92,60,79,细颗粒物(PM2.5)
蚌埠市,蚌埠学院,117.4185,32.8911,2024-11-13T1400,58,68,0.7,17,6,103,70,79,细颗粒物(PM2.5)
蚌埠市,淮上区政府,117.3533,32.9673,2024-11-13T1400,63,80,0.7,22,9,93,62,85,细颗粒物(PM2.5)
蚌埠市,高新区,117.3145,32.8977,2024-11-13T1400,62,66,0.7,20,6,96,66,84,细颗粒物(PM2.5)
蚌埠市,蚌埠田家炳中学,117.3092,32.9314,2024-11-13T1400,57,90,0.6,18,6,96,65,78,细颗粒物(PM2.5)
包头市,市环境监测站,109.8756,40.6532,2024-11-13T1400,34,83,1.0,58,26,30,16,67,颗粒物(PM10)
包头市,包头八中,109.9991,40.5842,2024-11-13T1400,42,88,0.9,42,29,41,16,69,颗粒物(PM10)
包头市,青山宾馆,109.8538,40.6821,2024-11-13T1400,54,101,1.5,69,35,18,11,76,颗粒物(PM10)
包头市,惠龙物流,109.8642,40.6288,2024-11-13T1400,31,78,0.8,49,23,35,16,64,颗粒物(PM10)
包头市,东河鸿龙湾,110.0377,40.5546,2024-11-13T1400,29,74,0.8,48,26,28,14,62,颗粒物(PM10)
包头市,滨河大厦,109.9154,40.5685,2024-11-13T1400,33,64,0.7,42,20,35,17,57,颗粒物(PM10)
包头市,包头市委党校,109.9447,40.6261,2024-11-13T1400,28,80,0.8,42,22,41,19,65,颗粒物(PM10)
包头市,昆区政府,109.8331,40.6576,2024-11-13T1400,54,82,1.3,66,30,18,14,74,细颗粒物(PM2.5)
宝鸡市,庙沟村,107.185,34.3063,2024-11-13T1400,35,62,1.6,16,8,24,28,56,颗粒物(PM10)
宝鸡市,竹园沟,107.0708,34.3017,2024-11-13T1400,69,105,1.7,23,7,22,24,93,细颗粒物(PM2.5)
宝鸡市,三陆医院,107.1906,34.3672,2024-11-13T1400,69,86,1.7,32,6,4,16,93,细颗粒物(PM2.5)
宝鸡市,监测站,107.1431,34.3547,2024-11-13T1400,62,77,1.7,30,6,11,20,84,细颗粒物(PM2.5)
宝鸡市,技工学校,107.1186,34.3739,2024-11-13T1400,87,,1.9,28,7,16,25,115,细颗粒物(PM2.5)
宝鸡市,陈仓区环保局家属楼,107.3906,34.3528,2024-11-13T1400,63,73,,23,7,11,15,,
宝鸡市,文理学院,107.2058,34.3497,2024-11-13T1400,44,77,1.7,23,8,15,21,64,颗粒物(PM10)
宝鸡市,三迪小学,107.2386,34.3622,2024-11-13T1400,82,,1.5,30,7,14,22,109,细颗粒物(PM2.5)
保定市,游泳馆,115.493,38.8632,2024-11-13T1400,105,113,0.7,26,4,44,25,138,细颗粒物(PM2.5)
保定市,华电二区,115.5213,38.8959,2024-11-13T1400,,,0.6,23,5,28,14,,
保定市,接待中心,115.4713,38.9108,2024-11-13T1400,125,,0.6,20,2,30,15,165,细颗粒物(PM2.5)
保定市,地表水厂,115.4612,38.8416,2024-11-13T1400,98,,0.8,22,3,,9,129,细颗粒物(PM2.5)
保定市,满城区生态环境分局,115.31981,38.95208,2024-11-13T1400,80,97,0.6,26,3,50,30,107,细颗粒物(PM2.5)
保定市,清苑区第二中学,115.47694,38.76408,2024-11-13T1400,80,,0.7,14,3,42,20,107,细颗粒物(PM2.5)
保定市,徐水物探局,115.62909,39.02311,2024-11-13T1400,97,,0.6,42,6,6,4,128,细颗粒物(PM2.5)
保定市,双鹰农机,115.4202,38.8656,2024-11-13T1400,100,111,0.7,23,1,43,24,132,细颗粒物(PM2.5)
保定市,植保所站,115.5150,38.8590,2024-11-13T1400,103,106,0.7,24,5,33,18,135,细颗粒物(PM2.5)
保山市,市环境监测站,99.1678,25.1081,2024-11-13T1400,3,26,0.2,6,4,93,50,30,
保山市,市环保局,99.1711,25.1328,2024-11-13T1400,3,22,0.3,6,5,98,64,31,
北海市,牛尾岭水库,109.2262,21.588,2024-11-13T1400,50,,0.7,7,8,136,99,69,细颗粒物(PM2.5)
北海市,海滩公园,109.1436,21.4086,2024-11-13T1400,54,78,1.2,16,11,176,135,74,细颗粒物(PM2.5)
北海市,新市环保局,109.0981,21.4661,2024-11-13T1400,36,62,0.6,10,10,154,126,56,颗粒物(PM10)
北海市,北海工业园,109.1778,21.5233,2024-11-13T1400,61,,0.7,13,11,164,105,83,细颗粒物(PM2.5)
北海市,龙潭自来水厂,109.1911,21.4415,2024-11-13T1400,46,56,0.8,10,10,156,107,64,细颗粒物(PM2.5)
北京市,万寿西宫,116.3621,39.8784,2024-11-13T1400,30,36,1.1,41,2,15,10,43,
北京市,定陵,116.2202,40.2915,2024-11-13T1400,48,54,0.9,35,3,0,,67,细颗粒物(PM2.5)
北京市,东四,116.4174,39.9289,2024-11-13T1400,29,42,1.1,36,5,28,12,42,
北京市,天坛,116.4072,39.8863,2024-11-13T1400,30,38,1.2,37,1,26,9,43,
北京市,农展馆,116.462,39.9365,2024-11-13T1400,28,43,0.9,2,3,27,10,43,
北京市,官园,116.3392,39.9295,2024-11-13T1400,,,,,,,41,,
北京市,海淀万柳,116.2878,39.9611,2024-11-13T1400,33,49,1.0,37,3,16,8,49,
北京市,顺义新城,116.6636,40.135,2024-11-13T1400,30,42,0.7,27,1,26,11,43,
北京市,怀柔镇,116.6275,40.3275,2024-11-13T1400,50,60,0.9,37,,12,24,,
北京市,昌平镇,116.2296,40.217,2024-11-13T1400,48,92,1.0,42,5,4,3,71,颗粒物(PM10)
北京市,奥体中心,116.3966,39.9821,2024-11-13T1400,29,46,1.1,45,2,17,7,46,
北京市,古城,116.184,39.9136,2024-11-13T1400,34,35,,21,4,22,6,,
北京市,延庆夏都,115.9718,40.4529,2024-11-13T1400,,111,,21,3,29,22,,
北京市,平谷新城,117.0709,40.1465,2024-11-13T1400,45,69,0.6,17,3,25,31,63,细颗粒物(PM2.5)
北京市,密云新城,116.8336,40.4095,2024-11-13T1400,38,55,0.6,23,3,25,10,54,细颗粒物(PM2.5)
北京市,门头沟三家店,116.088,39.9726,2024-11-13T1400,40,57,0.8,40,7,16,6,57,细颗粒物(PM2.5)
北京市,丰台云岗,116.1541,39.8204,2024-11-13T1400,33,46,1.1,37,4,10,2,48,
北京市,通州东关,116.6804,39.9081,2024-11-13T1400,34,58,0.8,43,1,10,8,54,颗粒物(PM10)
北京市,房山燕山,115.9577,39.7603,2024-11-13T1400,71,83,0.7,33,1,7,5,95,细颗粒物(PM2.5)
北京市,大兴旧宫,116.4672,39.7733,2024-11-13T1400,31,39,1.1,45,1,10,6,45,
北京市,延庆石河营,115.986,40.4563,2024-11-13T1400,86,97,0.6,15,1,32,12,114,细颗粒物(PM2.5)
北京市,怀柔新城,116.6151,40.3053,2024-11-13T1400,50,71,0.9,33,3,13,22,69,细颗粒物(PM2.5)
北京市,丰台小屯,116.2545,39.8768,2024-11-13T1400,38,57,1.1,50,2,4,2,54,"颗粒物(PM10),细颗粒物(PM2.5)"
北京市,密云镇,116.84,40.3844,2024-11-13T1400,37,57,0.7,27,2,18,4,54,颗粒物(PM10)
本溪市,大峪,123.8275,41.3064,2024-11-13T1400,15,24,0.3,10,12,79,25,25,
本溪市,溪湖,123.7567,41.3325,2024-11-13T1400,7,34,0.6,15,11,75,26,34,
本溪市,彩屯,123.7169,41.3094,2024-11-13T1400,16,25,1.1,20,14,70,28,25,
本溪市,东明,123.7669,41.2864,2024-11-13T1400,7,27,0.4,,9,79,33,,
本溪市,新立屯,123.7992,41.2664,2024-11-13T1400,13,59,,14,6,81,36,,
本溪市,威宁,123.8142,41.3472,2024-11-13T1400,9,67,0.5,27,11,60,21,59,颗粒物(PM10)
毕节市,八中,105.2864,27.3125,2024-11-13T1400,16,26,0.5,10,12,95,47,30,
毕节市,师专,105.31,27.2944,2024-11-13T1400,18,28,0.4,10,11,93,46,30,
毕节市,长征村,105.3631,27.3533,2024-11-13T1400,27,34,0.5,6,8,105,56,39,
滨州市,第二水厂,118.0018,37.3617,2024-11-13T1400,97,122,1.1,26,9,68,27,128,细颗粒物(PM2.5)
滨州市,北中新校,117.9776,37.393,2024-11-13T1400,90,124,1.0,32,6,66,27,119,细颗粒物(PM2.5)
滨州市,中海酒店,117.9378,37.3956,2024-11-13T1400,80,110,1.1,27,6,84,44,107,细颗粒物(PM2.5)
滨州市,开发区一中,117.9378,37.3553,2024-11-13T1400,95,112,1.2,37,10,65,30,125,细颗粒物(PM2.5)
滨州市,金海六路,118.0917,37.694,2024-11-13T1400,141,168,1.3,45,7,27,48,188,细颗粒物(PM2.5)
滨州市,滨州市西街道办事处,117.9956,37.3753,2024-11-13T1400,105,,1.3,21,7,74,29,138,细颗粒物(PM2.5)
亳州市,污水处理厂,115.8072,33.8399,2024-11-13T1400,42,74,0.7,12,,,60,,
亳州市,三国揽胜宫,115.7789,33.8518,2024-11-13T1400,60,78,0.5,14,3,91,68,82,细颗粒物(PM2.5)
亳州市,亳州学院,115.7633,33.8034,2024-11-13T1400,45,68,0.6,13,3,95,65,63,细颗粒物(PM2.5)
博尔塔拉蒙古自治州,市党校,82.0485,44.8556,2024-11-13T1400,11,46,0.4,18,15,20,37,46,
博尔塔拉蒙古自治州,市环保局,82.0806,44.8969,2024-11-13T1400,15,38,1.0,15,9,21,30,38,
沧州市,沧县城建局,116.8842,38.2991,2024-11-13T1400,77,,1.1,33,2,8,8,103,细颗粒物(PM2.5)
沧州市,电视转播站,116.8584,38.3254,2024-11-13T1400,61,69,1.1,34,3,8,8,83,细颗粒物(PM2.5)
沧州市,市环保局,116.8709,38.3228,2024-11-13T1400,46,58,1.1,31,1,8,7,64,细颗粒物(PM2.5)
沧州市,河北水利电力学院,116.8136,38.3004,2024-11-13T1400,56,,1.0,34,4,5,8,77,细颗粒物(PM2.5)
昌都市,昌都监测站,97.1806,31.1273,2024-11-13T1400,3,10,0.6,5,7,98,53,31,
昌都市,昌都会议中心,97.1714,31.1406,2024-11-13T1400,3,17,0.5,1,6,100,66,32,
昌吉回族自治州,天山天池,88.1236,43.8886,2024-11-13T1400,8,,0.5,5,6,82,70,26,
昌吉回族自治州,新区政务中心,87.2717,44.0297,2024-11-13T1400,37,41,0.5,,6,39,29,,
昌吉回族自治州,亚心广场,87.3095,44.0142,2024-11-13T1400,46,56,0.6,22,1,38,33,64,细颗粒物(PM2.5)
长春市,食品厂,125.3325,43.9166,2024-11-13T1400,35,57,0.4,25,9,69,40,54,颗粒物(PM10)
长春市,客车厂,125.2863,43.9027,2024-11-13T1400,39,65,0.3,21,10,75,46,58,颗粒物(PM10)
长春市,邮电学院,125.2841,43.8463,2024-11-13T1400,28,69,0.4,30,16,74,44,60,颗粒物(PM10)
长春市,劳动公园,125.3716,43.8772,2024-11-13T1400,20,39,0.3,16,10,82,50,39,
长春市,园林处,125.3297,43.8805,2024-11-13T1400,30,57,0.4,17,9,80,41,54,颗粒物(PM10)
长春市,净月潭,125.4605,43.79,2024-11-13T1400,12,22,0.3,8,8,79,55,25,
长春市,甩湾子,125.7194,43.515,2024-11-13T1400,,,,,,,,,
长春市,经开区环卫处,125.3863,43.8447,2024-11-13T1400,17,31,0.4,18,11,74,45,31,
长春市,高新区管委会,125.245,43.7783,2024-11-13T1400,15,85,0.5,16,7,79,22,68,颗粒物(PM10)
长春市,岱山公园,125.1761,43.8325,2024-11-13T1400,16,48,0.4,15,8,69,44,48,
长沙市,经开区环保局,113.0833,28.2325,2024-11-13T1400,39,69,0.5,18,3,160,76,60,颗粒物(PM10)
长沙市,高开区环保局,112.8872,28.2189,2024-11-13T1400,76,86,0.7,20,6,167,80,102,细颗粒物(PM2.5)
长沙市,马坡岭,113.0792,28.2053,2024-11-13T1400,36,52,0.5,11,6,161,80,52,"细颗粒物(PM2.5),臭氧1小时"
长沙市,湖南师范大学,112.9394,28.19,2024-11-13T1400,60,83,0.9,20,9,168,91,82,细颗粒物(PM2.5)
长沙市,雨花区环保局,113.0178,28.1322,2024-11-13T1400,20,44,0.5,6,7,150,85,47,
长沙市,伍家岭,112.9792,28.2597,2024-11-13T1400,82,84,0.8,17,5,169,80,109,细颗粒物(PM2.5)
长沙市,火车新站,113.0014,28.1944,2024-11-13T1400,56,80,0.6,18,,158,85,,
长沙市,天心区环保局,112.9844,28.1178,2024-11-13T1400,26,43,0.6,11,3,148,80,47,
长沙市,湖南中医药大学,112.8908,28.1308,2024-11-13T1400,30,57,0.5,15,9,172,92,65,臭氧1小时
长沙市,沙坪,112.9581,28.3611,2024-11-13T1400,37,66,0.5,19,9,152,71,58,颗粒物(PM10)
长治市,清华站,113.1147,36.1547,2024-11-13T1400,14,15,0.6,14,7,88,61,28,
长治市,监测站,113.1031,36.1989,2024-11-13T1400,12,22,0.7,12,10,84,46,27,
长治市,审计局,113.0886,36.2125,2024-11-13T1400,,,,,,,36,,
长治市,长治八中,113.0844,36.1856,2024-11-13T1400,17,,0.7,12,6,90,53,29,
长治市,德盛苑,113.1569,36.1911,2024-11-13T1400,19,27,1.3,19,5,56,54,28,
长治市,向阳小学,113.06,36.0464,2024-11-13T1400,31,38,0.5,13,7,96,88,45,
长治市,屯留一中,112.8792,36.3144,2024-11-13T1400,29,,0.8,15,7,94,82,42,
长治市,潞城四中,113.235,36.3489,2024-11-13T1400,64,,1.7,28,9,40,61,87,细颗粒物(PM2.5)
常德市,市二中,111.6975,28.9703,2024-11-13T1400,57,94,0.9,16,7,137,84,78,细颗粒物(PM2.5)
常德市,白鹤山,111.7158,29.1456,2024-11-13T1400,,,,,,,,,
常德市,武陵区永安,111.7153,29.0289,2024-11-13T1400,42,67,0.8,16,7,116,84,59,"颗粒物(PM10),细颗粒物(PM2.5)"
常德市,鼎城区玉霞,111.6892,28.9881,2024-11-13T1400,50,67,0.9,15,8,133,74,69,细颗粒物(PM2.5)
常德市,武陵区长庚,111.6625,29.0531,2024-11-13T1400,46,59,0.8,14,6,101,76,64,细颗粒物(PM2.5)
常州市,市监测站,119.9633,31.762,2024-11-13T1400,43,65,0.9,28,9,109,79,60,细颗粒物(PM2.5)
常州市,武进监测站,119.9468,31.7069,2024-11-13T1400,27,59,0.6,18,5,110,79,55,颗粒物(PM10)
常州市,安家,119.9255,31.9087,2024-11-13T1400,41,58,0.6,18,8,118,74,58,细颗粒物(PM2.5)
常州市,行政中心,119.9805,31.8174,2024-11-13T1400,35,54,0.7,17,12,112,74,52,颗粒物(PM10)
常州市,经开区,120.0522,31.7748,2024-11-13T1400,40,96,0.6,23,8,120,83,73,颗粒物(PM10)
常州市,钟楼,119.9025,31.7964,2024-11-13T1400,39,65,0.8,24,8,110,78,58,颗粒物(PM10)
常州市,武进经发区,119.8598,31.7066,2024-11-13T1400,18,35,0.6,10,4,119,85,38,
常州市,金坛城区,119.5826,31.7245,2024-11-13T1400,23,27,0.5,8,6,125,85,40,
朝阳市,西梁,120.4318,41.5881,2024-11-13T1400,43,53,0.9,9,9,86,48,60,细颗粒物(PM2.5)
朝阳市,河畔小区,120.4521,41.5646,2024-11-13T1400,38,56,1.3,23,13,80,54,54,细颗粒物(PM2.5)
朝阳市,八里堡,120.4176,41.5648,2024-11-13T1400,30,77,,21,10,82,44,,
朝阳市,农业园区,120.3806,41.5969,2024-11-13T1400,52,,1.0,11,7,88,49,72,细颗粒物(PM2.5)
潮州市,西园路,116.6367,23.6719,2024-11-13T1400,15,,0.4,6,4,61,32,22,
潮州市,市政府,116.6183,23.6608,2024-11-13T1400,12,18,0.5,7,6,69,42,22,
潮州市,金山,116.6461,23.6761,2024-11-13T1400,16,31,0.5,7,7,62,33,31,
郴州市,马头岭,113.0073,25.9061,2024-11-13T1400,30,80,0.7,18,34,117,64,65,颗粒物(PM10)
郴州市,市职中,113.0116,25.8226,2024-11-13T1400,37,53,0.6,5,17,135,62,53,细颗粒物(PM2.5)
郴州市,兴隆步行街,113.0161,25.8001,2024-11-13T1400,32,59,0.5,11,,136,74,,
郴州市,市审计局,113.0383,25.8071,2024-11-13T1400,43,52,0.7,11,18,126,58,60,细颗粒物(PM2.5)
郴州市,市环保局,113.0348,25.7759,2024-11-13T1400,44,73,0.8,20,,116,50,,
成都市,金泉两河,103.9728,30.7236,2024-11-13T1400,7,19,0.5,15,2,47,22,19,
成都市,十里店,104.176,30.6872,2024-11-13T1400,3,6,0.6,21,2,36,15,12,
成都市,三瓦窑,104.079,30.5706,2024-11-13T1400,9,34,0.6,20,2,23,14,34,
成都市,沙河铺,104.1114,30.63,2024-11-13T1400,14,22,0.6,23,3,29,12,22,
成都市,君平街,104.0786,30.6531,2024-11-13T1400,18,36,0.4,30,4,27,12,36,
成都市,灵岩寺,103.613,31.0283,2024-11-13T1400,,,,,,,,,
成都市,大石西路,104.0239,30.65639,2024-11-13T1400,24,32,0.8,26,4,21,10,35,
成都市,龙泉驿区区政府,104.2725,30.5589,2024-11-13T1400,14,,0.5,14,2,45,24,20,
成都市,金博路,104.0106,30.6931,2024-11-13T1400,13,,0.5,17,1,34,14,19,
成都市,华阳,104.0578,30.5225,2024-11-13T1400,14,24,0.6,14,1,24,8,24,
成都市,车城东七路,104.2394,30.5319,2024-11-13T1400,21,27,0.6,21,3,38,20,30,
成都市,青白江技师分院,104.3853,30.7453,2024-11-13T1400,3,15,0.6,13,2,46,21,15,
成都市,科学城,104.0789,30.4072,2024-11-13T1400,24,27,0.5,11,3,50,23,35,
成都市,光华大道三段,103.8506,30.6947,2024-11-13T1400,3,14,0.6,22,1,30,17,14,
承德市,铁路,117.9531,40.9081,2024-11-13T1400,38,70,0.7,43,4,2,3,60,颗粒物(PM10)
承德市,中国银行,117.9392,40.9763,2024-11-13T1400,32,48,0.7,37,2,7,6,48,
承德市,开发区,117.9503,40.928,2024-11-13T1400,31,78,0.8,40,6,6,6,64,颗粒物(PM10)
承德市,文化中心,117.8051,40.9655,2024-11-13T1400,31,74,1.1,40,8,7,5,62,颗粒物(PM10)
承德市,离宫,117.9268,41.0026,2024-11-13T1400,38,40,0.6,28,2,6,6,54,细颗粒物(PM2.5)
池州市,池州学院,117.47,30.6618,2024-11-13T1400,23,42,0.6,29,11,96,79,42,
池州市,展览馆,117.4918,30.6617,2024-11-13T1400,17,30,0.5,12,6,114,77,36,
池州市,第八中学,117.5627,30.695,2024-11-13T1400,18,31,0.4,13,5,116,76,37,
池州市,第十二中学,117.5038,30.6243,2024-11-13T1400,18,32,0.6,12,3,116,75,37,
赤峰市,松山一中,118.9233,42.2816,2024-11-13T1400,40,76,1.0,26,12,57,53,63,颗粒物(PM10)
赤峰市,哈达街,118.9576,42.2728,2024-11-13T1400,54,83,0.8,22,9,57,41,74,细颗粒物(PM2.5)
赤峰市,天义路,118.8788,42.2554,2024-11-13T1400,50,78,0.7,30,7,52,50,69,细颗粒物(PM2.5)
赤峰市,银河街,119.2658,42.0353,2024-11-13T1400,,,,,,,54,,
赤峰市,桥北物流园区,118.9359,42.3147,2024-11-13T1400,73,79,1.3,38,7,51,54,98,细颗粒物(PM2.5)
崇左市,市环保局江州分局,107.3476,22.4136,2024-11-13T1400,30,61,0.5,7,7,115,76,56,颗粒物(PM10)
崇左市,城南新区,107.3702,22.3707,2024-11-13T1400,28,48,0.5,3,7,108,81,48,
滁州市,老年大学,118.3093,32.3153,2024-11-13T1400,46,50,0.5,18,7,121,69,64,细颗粒物(PM2.5)
滁州市,人大宾馆,118.3244,32.2786,2024-11-13T1400,48,70,0.5,22,7,121,71,67,细颗粒物(PM2.5)
滁州市,市政府原办公楼,118.3118,32.3038,2024-11-13T1400,47,53,0.7,17,5,121,68,65,细颗粒物(PM2.5)
滁州市,图书馆,118.3267,32.2634,2024-11-13T1400,32,63,0.3,18,5,120,70,57,颗粒物(PM10)
楚雄彝族自治州,州环境监测站,101.5482,25.0441,2024-11-13T1400,3,8,0.4,3,5,71,35,23,
楚雄彝族自治州,市经济开发区,101.538,25.0492,2024-11-13T1400,3,,0.5,4,5,70,34,22,
达州市,达州职业技术学院,107.5277,31.2827,2024-11-13T1400,21,29,0.6,19,6,11,5,30,
达州市,市环境监测站,107.5086,31.2186,2024-11-13T1400,14,36,0.6,32,6,6,3,36,
达州市,凤凰小区,107.4988,31.2132,2024-11-13T1400,12,27,0.6,31,7,10,6,27,
达州市,达县机关宾馆,107.5082,31.1986,2024-11-13T1400,12,24,0.6,35,6,6,5,24,
达州市,市政中心,107.4644,31.2124,2024-11-13T1400,12,36,0.6,29,6,10,6,36,
大理白族自治州,大理市环境监测站,100.1542,25.7054,2024-11-13T1400,11,32,0.4,7,6,81,66,32,
大理白族自治州,大理古城,100.2171,25.5811,2024-11-13T1400,3,24,0.2,6,5,105,68,33,
大连市,甘井子,121.612,38.9741,2024-11-13T1400,3,22,0.9,25,7,64,57,22,
大连市,周水子,121.565,38.9511,2024-11-13T1400,6,24,0.4,22,4,59,44,24,
大连市,星海三站,121.5637,38.8845,2024-11-13T1400,3,19,0.5,18,7,64,66,20,
大连市,青泥洼桥,121.6302,38.9117,2024-11-13T1400,3,10,0.4,,9,63,55,,
大连市,傅家庄,121.6251,38.8638,2024-11-13T1400,3,23,0.4,17,9,68,70,23,
大连市,七贤岭,121.5213,38.8661,2024-11-13T1400,3,15,0.4,17,8,68,71,22,
大连市,旅顺,121.2529,38.8061,2024-11-13T1400,3,15,0.5,12,7,78,70,25,
大连市,金州,121.7485,39.1311,2024-11-13T1400,11,18,0.6,17,7,74,67,24,
大连市,开发区,121.7811,39.0496,2024-11-13T1400,3,26,0.4,16,8,66,46,26,
大连市,双D港,121.9762,39.0631,2024-11-13T1400,3,14,0.5,15,8,79,79,25,
大庆市,大同区,124.81117,46.03138,2024-11-13T1400,298,367,1.3,66,19,55,42,348,细颗粒物(PM2.5)
大庆市,龙凤区,125.129,46.533,2024-11-13T1400,123,161,0.8,25,9,81,51,162,细颗粒物(PM2.5)
大庆市,红岗区,124.902,46.408,2024-11-13T1400,360,391,1.4,53,17,94,57,407,细颗粒物(PM2.5)
大庆市,萨尔图区,125.153,46.586,2024-11-13T1400,,,,31,14,85,51,,
大庆市,让胡路区,124.9042,46.6215,2024-11-13T1400,142,,0.7,26,10,98,56,189,细颗粒物(PM2.5)
大庆市,萨区政府监测点,125.141,46.634,2024-11-13T1400,163,,0.8,26,10,89,46,213,细颗粒物(PM2.5)
大同市,果树场,113.3819,40.1097,2024-11-13T1400,36,52,0.6,32,10,40,12,52,细颗粒物(PM2.5)
大同市,云冈宾馆,113.2994,40.0758,2024-11-13T1400,42,66,0.7,23,10,53,24,59,细颗粒物(PM2.5)
大同市,大同大学,113.3444,40.0917,2024-11-13T1400,36,63,0.6,22,11,45,17,57,颗粒物(PM10)
大同市,安家小村,113.2661,40.1269,2024-11-13T1400,35,76,0.7,36,17,40,18,63,颗粒物(PM10)
大同市,教育学院,113.2711,40.0844,2024-11-13T1400,33,70,0.7,26,10,48,17,60,颗粒物(PM10)
大同市,大同市卫生学校,113.3397,40.0597,2024-11-13T1400,46,76,0.6,29,12,43,21,64,细颗粒物(PM2.5)
大同市,云冈站,113.1367,40.1122,2024-11-13T1400,54,85,0.7,41,12,38,21,74,细颗粒物(PM2.5)
大同市,图书馆,113.1186,40.2556,2024-11-13T1400,,,1.1,,20,35,14,,
大同市,区一中,113.5931,40.0461,2024-11-13T1400,23,65,0.8,36,14,31,32,58,颗粒物(PM10)
大同市,第二人民医院,113.2802,40.0995,2024-11-13T1400,40,81,0.7,30,13,50,22,66,颗粒物(PM10)
大兴安岭地区,科技局,124.1069,50.4097,2024-11-13T1400,54,75,0.4,14,6,71,42,74,细颗粒物(PM2.5)
大兴安岭地区,红旗社区,124.1164,50.4278,2024-11-13T1400,55,73,0.5,18,5,66,31,75,细颗粒物(PM2.5)
丹东市,江湾东路,124.3303,40.0625,2024-11-13T1400,17,49,0.5,16,18,65,36,49,
丹东市,临江后街,124.4256,40.1503,2024-11-13T1400,30,74,1.1,27,21,65,33,62,颗粒物(PM10)
丹东市,元宝山,124.3933,40.1461,2024-11-13T1400,18,39,0.9,19,14,68,32,39,
丹东市,民主桥,124.3633,40.1092,2024-11-13T1400,16,42,0.7,17,15,69,30,42,
儋州市,第一中学子站,109.5726,19.5167,2024-11-13T1400,21,28,0.4,4,6,114,92,36,
儋州市,东坡学校子站,109.5567,19.5187,2024-11-13T1400,20,29,0.5,3,5,125,95,40,
德宏傣族景颇族自治州,德宏州监测站,98.5842,24.428,2024-11-13T1400,13,28,0.6,15,26,82,41,28,
德宏傣族景颇族自治州,芒市人民政府综合楼,98.5881,24.4368,2024-11-13T1400,19,38,0.6,14,20,82,38,38,
德阳市,东山公园,104.4239,31.1208,2024-11-13T1400,11,32,0.6,6,1,63,27,32,
德阳市,西小区,104.3826,31.1317,2024-11-13T1400,14,27,0.7,8,2,60,26,27,
德阳市,耐火材料厂,104.3553,31.1091,2024-11-13T1400,19,22,0.5,10,3,60,23,28,
德阳市,市教育局,104.4019,31.1244,2024-11-13T1400,12,25,0.6,8,2,63,26,25,
德州市,儿童乐园,116.3032,37.4674,2024-11-13T1400,156,161,1.2,38,8,30,15,206,细颗粒物(PM2.5)
德州市,监理站,116.2991,37.4451,2024-11-13T1400,173,,1.2,36,11,29,16,223,细颗粒物(PM2.5)
德州市,九衢泉纯净水厂,116.2721,37.4379,2024-11-13T1400,119,163,1.3,33,7,20,11,156,细颗粒物(PM2.5)
德州市,开发区人民医院,116.3728,37.4403,2024-11-13T1400,122,151,1.0,39,7,33,16,160,细颗粒物(PM2.5)
德州市,太阳城中学,116.3572,37.4094,2024-11-13T1400,129,151,1.1,49,5,26,17,170,细颗粒物(PM2.5)
德州市,陵城艺术中心,116.5652,37.3319,2024-11-13T1400,132,,0.9,58,10,36,19,175,细颗粒物(PM2.5)
迪庆藏族自治州,迪庆州站,99.7056,27.8317,2024-11-13T1400,7,12,0.3,8,6,87,62,28,
迪庆藏族自治州,质量技术监督局,99.7136,27.8094,2024-11-13T1400,8,18,0.3,8,7,87,57,28,
定西市,东关小学,104.6241,35.5734,2024-11-13T1400,26,64,0.6,10,7,70,34,57,颗粒物(PM10)
定西市,供电公司,104.6194,35.5934,2024-11-13T1400,27,48,0.4,9,10,75,40,48,
东莞市,莞城梨川,113.7547,23.0494,2024-11-13T1400,17,27,0.6,11,8,72,60,27,
东莞市,东城石井,113.7944,23.0128,2024-11-13T1400,17,25,0.6,12,10,82,63,26,
东莞市,南城西平,113.7383,22.9658,2024-11-13T1400,16,27,0.6,15,11,82,55,27,
东莞市,万江金泰,113.7338,23.0381,2024-11-13T1400,16,26,0.7,10,8,73,63,26,
东莞市,南城元岭,113.7533,23.0202,2024-11-13T1400,16,26,0.7,6,7,73,61,26,
东莞市,东城主山,113.7875,23.0457,2024-11-13T1400,17,29,0.6,11,7,74,60,29,
东营市,市环保局,118.6614,37.4309,2024-11-13T1400,112,117,1.0,34,8,52,64,147,细颗粒物(PM2.5)
东营市,开发区管委会,118.6904,37.4338,2024-11-13T1400,124,131,0.7,36,8,55,68,163,细颗粒物(PM2.5)
东营市,垦利区民丰路,118.5719,37.565,2024-11-13T1400,114,119,1.0,32,7,57,52,149,细颗粒物(PM2.5)
东营市,河口城区,118.5055,37.8612,2024-11-13T1400,129,158,1.3,30,4,51,62,170,细颗粒物(PM2.5)
东营市,胜利站,118.4978,37.4623,2024-11-13T1400,107,,1.3,35,6,52,57,140,细颗粒物(PM2.5)
东营市,理想之城,118.35,37.26,2024-11-13T1400,119,156,1.1,35,5,56,58,156,细颗粒物(PM2.5)
鄂尔多斯市,综合楼,110.0023,39.8129,2024-11-13T1400,14,24,0.7,42,7,48,56,24,
鄂尔多斯市,巴音孟克林场办事处,109.9486,39.8261,2024-11-13T1400,19,27,0.6,46,,9,55,,
鄂尔多斯市,康泽苑,109.7736,39.5986,2024-11-13T1400,22,24,0.5,26,6,40,34,32,
鄂尔多斯市,华泰汽车城,109.8119,39.5989,2024-11-13T1400,24,31,0.7,30,5,40,30,35,
鄂尔多斯市,奥林花园,109.9734,39.7884,2024-11-13T1400,14,27,0.5,36,5,43,44,27,
鄂州市,市政府,114.8938,30.3994,2024-11-13T1400,27,49,1.2,19,8,136,84,49,
鄂州市,赵家坝,114.8989,30.3714,2024-11-13T1400,24,44,0.8,16,8,138,84,44,
鄂州市,精准医疗中心,114.8094,30.4089,2024-11-13T1400,26,42,1.4,22,19,133,87,42,
恩施土家族苗族自治州,湖北民院,109.4978,30.2981,2024-11-13T1400,36,42,0.5,27,5,16,14,52,细颗粒物(PM2.5)
恩施土家族苗族自治州,州电力总公司,109.4707,30.2798,2024-11-13T1400,27,35,0.6,22,6,17,13,39,
恩施土家族苗族自治州,龙凤新区,109.5061,30.3772,2024-11-13T1400,32,35,0.6,21,6,14,8,46,
防城港市,沙万,108.3411,21.6158,2024-11-13T1400,36,72,0.7,18,14,142,95,61,颗粒物(PM10)
防城港市,防城档案局,108.3514,21.7731,2024-11-13T1400,49,79,1.3,18,18,201,94,101,臭氧1小时
防城港市,大海花园,108.3506,21.6414,2024-11-13T1400,39,83,0.9,24,21,160,99,67,颗粒物(PM10)
佛山市,湾梁,113.1294,23.0067,2024-11-13T1400,25,44,0.6,21,8,150,81,47,
佛山市,华材职中,113.1083,23.0478,2024-11-13T1400,24,34,0.5,18,9,140,70,44,
佛山市,南海气象局,113.144,23.0453,2024-11-13T1400,26,51,0.5,18,8,138,69,51,颗粒物(PM10)
佛山市,顺德苏岗,113.2881,22.8094,2024-11-13T1400,14,34,0.6,20,8,86,47,34,
佛山市,高明孔堂,112.8383,22.8678,2024-11-13T1400,29,40,,14,9,166,82,,
佛山市,三水监测站,112.8836,23.1588,2024-11-13T1400,26,34,0.5,13,6,130,82,41,
佛山市,三水云东海,112.867,23.185,2024-11-13T1400,25,31,0.7,13,12,140,78,44,
佛山市,容桂街道办,113.2544,22.7642,2024-11-13T1400,19,29,0.6,21,7,94,53,30,
福州市,鼓山,119.3903,26.0543,2024-11-13T1400,,,,,,,88,,
福州市,师大,119.2681,26.0504,2024-11-13T1400,18,34,0.6,10,4,88,96,34,
福州市,五四北路,119.2984,26.1028,2024-11-13T1400,14,25,0.6,11,2,84,97,27,
福州市,杨桥西路,119.2648,26.0768,2024-11-13T1400,14,26,0.5,9,2,90,96,29,
福州市,紫阳,119.317,26.0746,2024-11-13T1400,19,48,0.4,16,4,77,90,48,
福州市,九龙,119.5799,26.0936,2024-11-13T1400,13,26,0.2,11,3,76,93,26,
福州市,吴航,119.5189,25.9664,2024-11-13T1400,16,26,0.2,10,4,87,98,28,
抚顺市,望花区,123.7977,41.8491,2024-11-13T1400,16,39,0.6,20,8,74,34,39,
抚顺市,顺城区,123.9161,41.8822,2024-11-13T1400,11,32,0.6,22,9,76,43,32,
抚顺市,东洲区,124.0436,41.8611,2024-11-13T1400,8,28,0.5,16,9,67,46,28,
抚顺市,新抚区,123.9247,41.8642,2024-11-13T1400,13,45,0.6,20,8,72,38,45,
抚顺市,大伙房水库,124.0972,41.8961,2024-11-13T1400,8,20,0.5,8,9,75,53,24,
抚顺市,沈抚新城,123.7086,41.8391,2024-11-13T1400,21,48,0.5,17,15,79,39,48,
抚州市,桐源党溪,116.2127,28.0814,2024-11-13T1400,38,56,0.5,4,13,118,72,54,细颗粒物(PM2.5)
抚州市,市站,116.3544,27.9831,2024-11-13T1400,24,47,0.6,13,5,114,75,47,
抚州市,血防站,116.3565,27.963,2024-11-13T1400,31,50,0.9,10,3,126,71,50,
抚州市,采茶剧团,116.3564,28.0007,2024-11-13T1400,28,44,0.9,8,8,126,74,44,
抚州市,医学分院,116.385,27.9647,2024-11-13T1400,20,43,0.9,8,4,116,71,43,
阜新市,工业园区,121.6094,41.998,2024-11-13T1400,32,62,0.8,32,21,57,38,56,颗粒物(PM10)
阜新市,长青街,121.6697,42.0279,2024-11-13T1400,43,66,0.8,37,19,59,38,60,细颗粒物(PM2.5)
阜新市,农业园区,121.6673,42.0705,2024-11-13T1400,36,62,0.6,31,19,65,46,56,颗粒物(PM10)
阜新市,东苑,121.6717,42.0224,2024-11-13T1400,49,69,0.8,35,23,55,35,68,细颗粒物(PM2.5)
阜新市,玉龙新城,121.6506,42.0498,2024-11-13T1400,38,61,1.3,32,22,64,39,56,颗粒物(PM10)
阜阳市,市监测站,115.8277,32.8929,2024-11-13T1400,48,62,0.5,16,6,96,55,67,细颗粒物(PM2.5)
阜阳市,开发区,115.8554,32.8605,2024-11-13T1400,56,78,0.7,28,7,82,49,77,细颗粒物(PM2.5)
阜阳市,阜阳职业技术学院,115.784,32.8892,2024-11-13T1400,38,66,0.6,12,6,98,59,58,颗粒物(PM10)
阜阳市,市规划展馆,115.7901,32.8613,2024-11-13T1400,57,,0.6,16,7,100,61,78,细颗粒物(PM2.5)
阜阳市,枣园社区,115.836,32.9183,2024-11-13T1400,59,,0.5,16,7,96,57,80,细颗粒物(PM2.5)
甘南藏族自治州,州政府,102.9099,34.9841,2024-11-13T1400,13,20,0.4,4,4,73,58,23,
甘南藏族自治州,甘肃民族师范学院,102.8914,34.9617,2024-11-13T1400,11,,0.3,10,4,74,60,24,
甘孜藏族自治州,水桥子,101.9603,30.0475,2024-11-13T1400,7,11,0.3,,7,55,30,,
甘孜藏族自治州,州环保局,101.9533,29.9972,2024-11-13T1400,3,18,0.3,10,4,59,40,19,
赣江新区,桑海产业园,115.8347,28.932,2024-11-13T1400,19,36,0.2,15,9,106,60,36,
赣州市,通天岩,114.9017,25.9149,2024-11-13T1400,38,45,0.4,11,1,128,76,54,细颗粒物(PM2.5)
赣州市,地委,114.9367,25.8664,2024-11-13T1400,32,41,0.8,8,8,129,85,46,
赣州市,气象台,114.9461,25.8481,2024-11-13T1400,28,36,0.5,6,8,,79,,
赣州市,市图书馆,114.9322,25.8333,2024-11-13T1400,23,27,0.8,6,5,109,89,35,
赣州市,华坚鞋城,114.8905,25.8471,2024-11-13T1400,19,34,0.3,8,7,99,80,34,
赣州市,赣县区卫计委,115.0093,25.8613,2024-11-13T1400,24,40,0.6,10,9,101,59,40,
固原市,马园,106.2319,36.1417,2024-11-13T1400,29,56,0.9,18,13,57,22,53,颗粒物(PM10)
固原市,监测站,106.2792,36.0022,2024-11-13T1400,43,54,0.4,30,7,49,38,60,细颗粒物(PM2.5)
固原市,新区,106.2375,36.0211,2024-11-13T1400,43,74,0.6,26,6,46,33,62,颗粒物(PM10)
固原市,原州区十五小,106.2177,35.9959,2024-11-13T1400,52,86,0.7,25,8,49,36,72,细颗粒物(PM2.5)
广安市,小平旧居,106.6308,30.5278,2024-11-13T1400,,,,,,,,,
广安市,市委,106.6303,30.4576,2024-11-13T1400,35,51,0.5,25,3,31,33,51,颗粒物(PM10)
广安市,友谊中学,106.6271,30.4663,2024-11-13T1400,24,41,0.6,23,2,31,33,41,
广安市,广电花园,106.6388,30.4551,2024-11-13T1400,28,39,0.6,26,6,28,30,40,
广安市,北辰小学,106.6351,30.4865,2024-11-13T1400,22,41,0.6,17,5,34,31,41,
广元市,黑石坡,105.8945,32.4535,2024-11-13T1400,3,24,0.6,15,6,0,0,24,
广元市,老城,105.821,32.4444,2024-11-13T1400,7,10,0.8,19,5,23,8,10,
广元市,监测站,105.8628,32.4287,2024-11-13T1400,3,12,0.8,,2,24,15,,
广元市,经开区,105.8047,32.4166,2024-11-13T1400,6,10,0.8,19,4,27,9,10,
广州市,广雅中学,113.2347,23.1423,2024-11-13T1400,27,56,0.7,22,8,133,73,53,颗粒物(PM10)
广州市,市五中,113.2612,23.105,2024-11-13T1400,32,32,0.6,,5,119,76,,
广州市,广东商学院,113.3478,23.0916,2024-11-13T1400,19,31,0.5,9,6,104,71,33,
广州市,市八十六中,113.4332,23.1047,2024-11-13T1400,26,51,0.6,19,5,89,55,51,颗粒物(PM10)
广州市,番禺中学,113.3505,22.9483,2024-11-13T1400,16,32,0.5,18,7,93,59,32,
广州市,花都师范,113.2146,23.3916,2024-11-13T1400,18,26,0.3,14,,104,71,,
广州市,市监测站,113.2597,23.1331,2024-11-13T1400,24,40,0.5,13,6,120,72,40,
广州市,九龙镇镇龙,113.5618,23.312,2024-11-13T1400,18,28,0.5,8,6,71,57,28,
广州市,麓湖,113.2765,23.1544,2024-11-13T1400,26,43,0.6,,5,128,68,,
广州市,帽峰山森林公园,113.443,23.3035,2024-11-13T1400,16,21,0.6,9,8,93,80,30,
广州市,体育西,113.3221,23.1322,2024-11-13T1400,24,35,0.6,9,4,107,66,35,
广州市,从化街口,113.5717,23.5491,2024-11-13T1400,21,30,0.6,9,8,82,59,30,
广州市,白云竹料,113.3472,23.3692,2024-11-13T1400,20,35,0.7,9,7,99,82,35,
广州市,白云嘉禾,113.2981,23.237,2024-11-13T1400,27,56,0.9,24,7,122,76,53,颗粒物(PM10)
广州市,黄埔科学城,113.4256,23.1716,2024-11-13T1400,20,30,0.6,11,7,94,59,30,
广州市,番禺大学城,113.3942,23.0483,2024-11-13T1400,20,38,0.9,15,9,86,48,38,
广州市,南沙黄阁,113.4922,22.8168,2024-11-13T1400,18,48,0.6,23,8,88,56,48,
广州市,南沙街,113.5342,22.7896,2024-11-13T1400,16,48,0.6,19,10,89,58,48,
广州市,花都梯面,113.2902,23.5544,2024-11-13T1400,16,24,0.4,6,8,102,88,32,
广州市,从化良口,113.7858,23.7478,2024-11-13T1400,16,16,0.7,6,6,74,57,24,
广州市,增城荔城,113.8051,23.2614,2024-11-13T1400,18,25,0.5,7,6,62,65,26,
贵港市,德智高中,109.568,23.1478,2024-11-13T1400,,,,,,,,,
贵港市,江南子站,109.6047,23.0666,2024-11-13T1400,30,46,0.7,9,12,148,78,47,
贵港市,贵城子站,109.6014,23.0948,2024-11-13T1400,26,44,0.6,9,12,127,80,44,
贵港市,荷城子站,109.5669,23.1065,2024-11-13T1400,34,61,0.6,13,16,153,88,56,颗粒物(PM10)
贵港市,新世纪学校,109.5886,23.1172,2024-11-13T1400,37,56,0.7,13,12,153,89,53,"颗粒物(PM10),细颗粒物(PM2.5)"
贵阳市,马鞍山,106.6899,26.5998,2024-11-13T1400,12,22,0.5,8,4,92,83,29,
贵阳市,市环保站,106.6971,26.5694,2024-11-13T1400,22,22,0.5,10,6,94,86,32,
贵阳市,鉴湖路,106.6243,26.6266,2024-11-13T1400,7,29,0.3,4,6,86,79,29,
贵阳市,燕子冲,106.7487,26.6343,2024-11-13T1400,22,,0.4,,9,,2,,
贵阳市,碧云窝,106.6555,26.4365,2024-11-13T1400,,,0.4,6,,,88,,
贵阳市,中院村,106.694,26.5161,2024-11-13T1400,17,34,0.5,9,5,85,72,34,
贵阳市,红边门,106.7109,26.6027,2024-11-13T1400,,,0.7,,,90,80,,
贵阳市,新华路,106.7164,26.5699,2024-11-13T1400,14,22,0.4,7,7,95,82,30,
贵阳市,太慈桥,106.674,26.5424,2024-11-13T1400,14,31,0.3,6,7,91,78,31,
贵阳市,桐木岭,106.805,26.3003,2024-11-13T1400,31,44,0.4,1,6,100,108,45,
桂林市,电子科大尧山校区,110.4144,25.3167,2024-11-13T1400,40,52,0.6,6,9,134,99,57,细颗粒物(PM2.5)
桂林市,监测站,110.2819,25.2697,2024-11-13T1400,,,,,,,128,,
桂林市,龙隐路小学,110.3089,25.2708,2024-11-13T1400,41,57,0.7,10,11,157,116,58,细颗粒物(PM2.5)
桂林市,八中,110.2869,25.2178,2024-11-13T1400,38,57,0.6,11,10,150,97,54,"颗粒物(PM10),细颗粒物(PM2.5)"
桂林市,创业大厦,110.1764,25.2381,2024-11-13T1400,39,51,0.5,11,12,161,87,55,细颗粒物(PM2.5)
桂林市,旅游学院,110.296,25.1253,2024-11-13T1400,24,41,0.7,8,11,131,79,41,
果洛藏族自治州,玛沁县大武镇,100.2561,34.4714,2024-11-13T1400,7,23,0.5,1,14,103,53,33,
哈尔滨市,岭北,126.5422,45.755,2024-11-13T1400,38,56,0,17,13,95,72,54,细颗粒物(PM2.5)
哈尔滨市,松北商大,126.561,45.8167,2024-11-13T1400,40,54,0.5,22,10,69,41,57,细颗粒物(PM2.5)
哈尔滨市,阿城会宁,126.979,45.5419,2024-11-13T1400,27,41,0.3,11,10,80,50,41,
哈尔滨市,南岗学府路,126.599,45.7222,2024-11-13T1400,50,92,0.5,24,13,78,49,71,颗粒物(PM10)
哈尔滨市,太平宏伟公园,126.689,45.7733,2024-11-13T1400,37,57,0.5,20,7,74,39,54,颗粒物(PM10)
哈尔滨市,道外承德广场,126.635,45.7667,2024-11-13T1400,35,66,0.4,28,12,71,45,58,颗粒物(PM10)
哈尔滨市,香坊红旗大街,126.685,45.7319,2024-11-13T1400,33,73,0.4,27,7,56,33,62,颗粒物(PM10)
哈尔滨市,动力和平路,126.6411,45.7258,2024-11-13T1400,47,79,0.4,25,11,72,39,65,"颗粒物(PM10),细颗粒物(PM2.5)"
哈尔滨市,道里建国路,126.593,45.7478,2024-11-13T1400,43,68,0.4,26,10,72,42,60,细颗粒物(PM2.5)
哈尔滨市,平房东轻厂,126.615,45.61,2024-11-13T1400,59,79,0.5,14,8,81,58,80,细颗粒物(PM2.5)
哈尔滨市,呼兰师专,126.595,45.9855,2024-11-13T1400,30,66,0.4,30,7,,37,,
哈尔滨市,省农科院,126.6206,45.6842,2024-11-13T1400,58,81,0.5,27,8,69,40,79,细颗粒物(PM2.5)
哈密市,地区监测站,93.5128,42.8172,2024-11-13T1400,17,68,0.2,9,7,79,60,59,颗粒物(PM10)
哈密市,哈密师范学校,93.4961,42.8328,2024-11-13T1400,,,0.4,14,5,78,63,,
海北藏族自治州,海晏县西海镇,100.9048,36.9639,2024-11-13T1400,19,26,0.5,8,5,96,82,30,
海东市,平安区公安北苑,102.0738,36.5056,2024-11-13T1400,39,,0.8,21,12,75,49,55,细颗粒物(PM2.5)
海口市,东寨港,110.576,19.9507,2024-11-13T1400,,,,,,,,,
海口市,海南大学,110.3232,20.0574,2024-11-13T1400,25,35,0.5,9,6,151,132,48,
海口市,秀英海南医院,110.283,20.0053,2024-11-13T1400,26,51,0.4,10,8,155,101,51,颗粒物(PM10)
海口市,海南师范大学,110.338,19.9969,2024-11-13T1400,24,42,0.5,9,9,156,133,49,
海口市,龙华路环保局宿舍,110.33,20.0356,2024-11-13T1400,25,39,0.4,10,6,148,129,47,
海口市,桂林洋子站,110.5111,19.9736,2024-11-13T1400,20,28,0.4,7,8,152,102,48,
海南藏族自治州,共和县恰卜恰镇,100.6188,36.2866,2024-11-13T1400,,21,0.3,2,11,91,60,,
海西蒙古族藏族自治州,德令哈市,97.3731,37.3753,2024-11-13T1400,10,34,0.5,10,16,95,82,34,
邯郸市,东污水处理厂,114.5302,36.6116,2024-11-13T1400,110,,1.0,50,2,11,14,144,细颗粒物(PM2.5)
邯郸市,矿院,114.4918,36.5713,2024-11-13T1400,107,130,0.9,36,3,21,16,140,细颗粒物(PM2.5)
邯郸市,丛台公园,114.484,36.6133,2024-11-13T1400,115,,1.0,44,4,17,16,150,细颗粒物(PM2.5)
邯郸市,香泉濮院小区,114.7895,36.5593,2024-11-13T1400,58,65,0.9,30,4,11,6,79,细颗粒物(PM2.5)
邯郸市,永年区实验高中,114.50634,36.77178,2024-11-13T1400,103,116,1.2,36,3,20,19,135,细颗粒物(PM2.5)
邯郸市,峰峰矿区临水派出所,114.20016,36.44293,2024-11-13T1400,84,,1.1,16,4,40,33,112,细颗粒物(PM2.5)
汉中市,汉川机床厂子校,106.9893,33.1842,2024-11-13T1400,17,29,0.7,19,5,28,23,29,
汉中市,市监测站,107.0154,33.0706,2024-11-13T1400,22,44,0.9,23,8,22,19,44,
汉中市,鑫源开发区,107.0089,33.1138,2024-11-13T1400,16,26,0.7,19,10,42,33,26,
汉中市,南郑大河坎水厂,107.007,33.0323,2024-11-13T1400,25,38,0.9,26,8,26,19,38,
杭州市,滨江,120.2072,30.2111,2024-11-13T1400,18,33,0.5,17,5,100,58,33,
杭州市,西溪,120.0633,30.2747,2024-11-13T1400,30,45,0.5,24,8,102,47,45,
杭州市,下沙,120.3461,30.3153,2024-11-13T1400,39,52,0.7,28,8,118,64,55,细颗粒物(PM2.5)
杭州市,卧龙桥,120.1269,30.2456,2024-11-13T1400,20,43,0.5,21,7,106,58,43,
杭州市,浙江农大,120.1903,30.2692,2024-11-13T1400,22,37,0.6,24,5,94,60,37,
杭州市,和睦小学,120.1197,30.3119,2024-11-13T1400,33,46,0.3,23,9,118,55,48,
杭州市,临平镇,120.3019,30.4183,2024-11-13T1400,37,50,0.6,19,6,129,64,53,细颗粒物(PM2.5)
杭州市,城厢镇,120.2697,30.1819,2024-11-13T1400,25,39,0.6,20,6,104,63,39,
杭州市,云栖,120.0883,30.1808,2024-11-13T1400,20,33,0.6,25,8,104,63,33,
杭州市,镇二中,119.9464,30.0494,2024-11-13T1400,13,22,0.7,18,6,93,49,30,
杭州市,市府大楼,119.7183,30.2367,2024-11-13T1400,22,43,0.6,27,6,100,54,43,
杭州市,消防大队,120.1556,30.2864,2024-11-13T1400,36,54,0.5,25,8,107,56,52,"颗粒物(PM10),细颗粒物(PM2.5)"
合肥市,明珠广场,117.1959,31.7848,2024-11-13T1400,31,48,0.4,17,8,,64,,
合肥市,三里街,117.3072,31.8764,2024-11-13T1400,29,48,0.7,15,6,101,58,48,
合肥市,琥珀山庄,117.2588,31.8707,2024-11-13T1400,32,61,0.5,23,10,117,74,56,颗粒物(PM10)
合肥市,董铺水库,117.1604,31.9052,2024-11-13T1400,31,58,0.5,22,4,106,67,54,颗粒物(PM10)
合肥市,长江中路,117.25,31.8571,2024-11-13T1400,44,68,0.6,26,8,111,67,62,细颗粒物(PM2.5)
合肥市,庐阳区,117.266,31.9436,2024-11-13T1400,34,51,0.5,16,5,113,68,51,颗粒物(PM10)
合肥市,瑶海区,117.336,31.8586,2024-11-13T1400,31,61,0.6,22,3,110,68,56,颗粒物(PM10)
合肥市,包河区,117.3027,31.7964,2024-11-13T1400,24,46,0.6,12,5,115,65,46,
合肥市,滨湖新区,117.2776,31.7385,2024-11-13T1400,29,44,0.5,10,6,117,74,44,
合肥市,高新区,117.1318,31.8403,2024-11-13T1400,29,44,0.7,16,4,110,68,44,
合肥市,高教基地,117.3803,31.9147,2024-11-13T1400,15,41,0.4,,7,,62,,
和田地区,地区环保局,79.924,37.0877,2024-11-13T1400,38,128,0.4,8,9,81,49,89,颗粒物(PM10)
和田地区,市环保局,79.9131,37.113,2024-11-13T1400,54,127,0.6,11,9,81,36,89,颗粒物(PM10)
河池市,东仁乐园,108.2011,24.715,2024-11-13T1400,37,104,1.0,25,19,,61,,
河池市,市环保站,108.0497,24.6947,2024-11-13T1400,41,66,0.6,9,15,128,73,58,"颗粒物(PM10),细颗粒物(PM2.5)"
河池市,市疾控中心,108.0983,24.6989,2024-11-13T1400,38,53,,,17,117,59,,
河源市,源西,114.6778,23.7569,2024-11-13T1400,25,31,0.6,11,6,72,57,36,
河源市,东埔,114.6944,23.7586,2024-11-13T1400,28,40,0.7,15,5,77,59,40,
河源市,老城,114.6892,23.7233,2024-11-13T1400,26,39,0.6,13,5,73,59,39,
菏泽市,气象局,115.4208,35.2464,2024-11-13T1400,95,133,0.6,14,3,93,50,125,细颗粒物(PM2.5)
菏泽市,市政协,115.4747,35.2375,2024-11-13T1400,96,114,0.6,20,5,93,48,127,细颗粒物(PM2.5)
菏泽市,定陶老年大学,115.5564,35.0891,2024-11-13T1400,80,110,0.5,21,5,77,44,107,细颗粒物(PM2.5)
菏泽市,菏泽医专,115.4702,35.2706,2024-11-13T1400,100,127,0.6,18,6,90,45,132,细颗粒物(PM2.5)
贺州市,环保小区,111.5264,24.4172,2024-11-13T1400,47,62,0.6,11,7,132,78,65,细颗粒物(PM2.5)
贺州市,政协大楼,111.5608,24.4078,2024-11-13T1400,35,52,0.5,12,11,136,74,51,颗粒物(PM10)
贺州市,西湾,111.4744,24.4553,2024-11-13T1400,46,83,0.6,10,9,125,72,67,颗粒物(PM10)
鹤壁市,市监测站,114.17,35.9019,2024-11-13T1400,69,76,1.1,27,3,27,34,93,细颗粒物(PM2.5)
鹤壁市,市交警支队,114.2956,35.7511,2024-11-13T1400,95,122,1.0,25,3,26,40,125,细颗粒物(PM2.5)
鹤壁市,迎宾馆,114.2878,35.7306,2024-11-13T1400,99,132,1.2,25,,28,45,130,细颗粒物(PM2.5)
鹤壁市,大新区,114.2617,35.6822,2024-11-13T1400,88,111,1.2,22,1,27,44,117,细颗粒物(PM2.5)
鹤壁市,南山宾馆,114.1572,35.9603,2024-11-13T1400,58,,1.5,20,3,29,34,79,细颗粒物(PM2.5)
鹤岗市,哈啤分公司,130.2537,47.3416,2024-11-13T1400,36,36,0.5,12,14,45,33,52,细颗粒物(PM2.5)
鹤岗市,斯达机电,130.2684,47.3086,2024-11-13T1400,34,40,0.4,15,12,53,41,49,
鹤岗市,东山纸板厂,130.3114,47.3388,2024-11-13T1400,41,64,0.2,14,14,48,33,58,细颗粒物(PM2.5)
鹤岗市,五号水库,130.1097,47.3382,2024-11-13T1400,21,36,0.4,8,9,64,51,36,
黑河市,交通局,127.4833,50.2524,2024-11-13T1400,21,34,0.4,11,6,50,44,34,
黑河市,环保局,127.5144,50.2341,2024-11-13T1400,22,29,0.3,9,4,55,53,32,
黑河市,大黑河岛,127.5291,50.2472,2024-11-13T1400,29,,0.6,8,2,39,28,42,
衡水市,电机北厂,115.6838,37.7541,2024-11-13T1400,114,,1.0,39,2,6,4,149,细颗粒物(PM2.5)
衡水市,市监测站,115.6303,37.7316,2024-11-13T1400,104,,0.9,42,3,7,4,137,细颗粒物(PM2.5)
衡水市,市城管局,115.6683,37.7217,2024-11-13T1400,104,,1.1,42,3,5,4,137,细颗粒物(PM2.5)
衡水市,地表水厂,115.5989,37.5491,2024-11-13T1400,103,,1.1,35,4,7,4,135,细颗粒物(PM2.5)
衡阳市,原169医院,112.5003,26.9167,2024-11-13T1400,36,74,,7,11,122,83,,
衡阳市,衡阳化工总厂,112.6194,26.9258,2024-11-13T1400,35,75,0.6,10,11,155,91,63,颗粒物(PM10)
衡阳市,珠晖区环保局,112.6211,26.8956,2024-11-13T1400,28,48,0.8,6,11,141,90,48,
衡阳市,市委党校,112.6197,26.8733,2024-11-13T1400,25,66,0.7,8,12,151,103,58,颗粒物(PM10)
衡阳市,市监测站,112.6006,26.8919,2024-11-13T1400,32,50,0.7,8,12,148,102,50,
衡阳市,真空机电公司,112.5664,26.9056,2024-11-13T1400,34,48,0.9,7,8,149,93,49,
衡阳市,师范学院,112.6703,26.882,2024-11-13T1400,43,44,0.7,5,12,142,100,60,细颗粒物(PM2.5)
红河哈尼族彝族自治州,污水处理厂,103.3772,23.3993,2024-11-13T1400,13,18,0.4,5,5,71,59,23,
红河哈尼族彝族自治州,监测站,103.3861,23.35,2024-11-13T1400,17,20,0.3,5,6,78,66,25,
红河哈尼族彝族自治州,州图书馆,103.3758,23.368,2024-11-13T1400,7,16,0.4,4,5,76,64,24,
呼和浩特市,呼市一监,111.6507,40.7517,2024-11-13T1400,43,70,0.9,40,19,42,24,60,"颗粒物(PM10),细颗粒物(PM2.5)"
呼和浩特市,小召,111.6572,40.8033,2024-11-13T1400,45,68,0.7,41,16,52,36,63,细颗粒物(PM2.5)
呼和浩特市,如意水处理厂,111.7516,40.8369,2024-11-13T1400,48,118,0.6,52,12,33,,84,颗粒物(PM10)
呼和浩特市,二十九中,111.7276,40.8062,2024-11-13T1400,42,71,0.7,42,11,38,22,61,颗粒物(PM10)
呼和浩特市,工大金川校区,111.5512,40.7866,2024-11-13T1400,39,75,0.7,50,20,35,24,63,颗粒物(PM10)
呼和浩特市,化肥厂生活区,111.717,40.7612,2024-11-13T1400,39,80,0.5,30,14,58,25,65,颗粒物(PM10)
呼和浩特市,红旗小学,111.5968,40.8178,2024-11-13T1400,42,83,0.6,50,17,37,23,67,颗粒物(PM10)
呼和浩特市,海东办,111.6518,40.8389,2024-11-13T1400,44,73,0.8,43,17,43,22,62,"颗粒物(PM10),细颗粒物(PM2.5)"
呼伦贝尔市,区环保局,119.7594,49.2261,2024-11-13T1400,8,21,0.3,7,5,49,48,21,
呼伦贝尔市,国华电力东,119.7512,49.1577,2024-11-13T1400,6,25,0.3,3,5,53,48,25,
湖州市,城西水厂,120.0751,30.8669,2024-11-13T1400,28,51,0.4,17,7,118,62,51,颗粒物(PM10)
湖州市,仁皇山新区,120.0875,30.8955,2024-11-13T1400,26,33,0.6,19,6,118,62,38,
湖州市,吴兴区站,120.1844,30.8596,2024-11-13T1400,,,0.7,13,6,114,61,,
湖州市,南浔区站,120.4148,30.8538,2024-11-13T1400,23,30,0.6,16,4,110,61,35,
葫芦岛市,龙港区,120.9092,40.7136,2024-11-13T1400,15,24,0.5,25,11,42,25,24,
葫芦岛市,化工街,120.8392,40.7514,2024-11-13T1400,14,34,0.7,42,23,34,21,34,
葫芦岛市,新区,120.8341,40.7073,2024-11-13T1400,35,47,,52,13,28,17,,
葫芦岛市,东城区,120.8695,40.7677,2024-11-13T1400,19,35,0.6,36,19,33,20,35,
怀化市,林科所,109.5981,27.5721,2024-11-13T1400,48,54,1.3,10,,106,86,,
怀化市,河西地税局,109.9453,27.5444,2024-11-13T1400,57,75,0.5,12,16,107,87,78,细颗粒物(PM2.5)
怀化市,市四医院,109.9781,27.5342,2024-11-13T1400,41,77,0.8,9,11,112,84,64,颗粒物(PM10)
怀化市,监测楼,109.9972,27.5578,2024-11-13T1400,39,60,0.6,10,9,112,85,55,"颗粒物(PM10),细颗粒物(PM2.5)"
怀化市,市委党校,110.0394,27.583,2024-11-13T1400,42,59,0.6,12,10,118,83,59,细颗粒物(PM2.5)
淮安市,钵池山,119.036,33.5981,2024-11-13T1400,75,,0.6,20,4,104,85,100,细颗粒物(PM2.5)
淮安市,北京南路,119.007,33.575,2024-11-13T1400,62,85,0.6,16,6,103,84,84,细颗粒物(PM2.5)
淮安市,市监测站,118.989,33.6067,2024-11-13T1400,51,63,0.7,19,3,106,89,70,细颗粒物(PM2.5)
淮安市,楚州区监测站,119.135,33.5039,2024-11-13T1400,53,61,0.7,15,6,106,81,73,细颗粒物(PM2.5)
淮安市,淮阴区监测站,119.0186,33.6297,2024-11-13T1400,68,73,0.6,28,4,96,85,92,细颗粒物(PM2.5)
淮安市,新华书店,118.8755,33.2894,2024-11-13T1400,57,62,0.6,19,4,107,76,78,细颗粒物(PM2.5)
淮北市,监测站,116.8004,33.975,2024-11-13T1400,28,35,0.5,7,2,98,68,40,
淮北市,烈山区政府,116.8091,33.9007,2024-11-13T1400,53,,0.5,14,,98,75,,
淮北市,杜集区检察院,116.8873,33.9836,2024-11-13T1400,57,60,0.8,9,2,106,80,78,细颗粒物(PM2.5)
淮北市,市博物馆,116.7923,33.9535,2024-11-13T1400,24,39,0.8,11,4,104,78,39,
淮南市,潘集区政府,116.8305,32.7727,2024-11-13T1400,51,70,0.7,18,7,91,55,70,细颗粒物(PM2.5)
淮南市,师范学院,117.0067,32.6524,2024-11-13T1400,48,67,0.4,15,11,94,58,67,细颗粒物(PM2.5)
淮南市,谢家集区政府,116.8569,32.5951,2024-11-13T1400,42,53,0.4,16,9,96,54,59,细颗粒物(PM2.5)
淮南市,八公山区政府,116.8281,32.633,2024-11-13T1400,48,69,0.5,13,10,96,62,67,细颗粒物(PM2.5)
淮南市,焦岗湖风景区管理处,116.6325,32.6201,2024-11-13T1400,37,59,0.3,15,5,80,48,55,颗粒物(PM10)
淮南市,经济技术开发区消防队,117.0566,32.6531,2024-11-13T1400,36,48,0.5,15,5,106,62,52,细颗粒物(PM2.5)
淮南市,山南新区,117.0108,32.5893,2024-11-13T1400,44,53,0.6,15,5,109,64,62,细颗粒物(PM2.5)
黄冈市,职工中心,114.9028,30.4742,2024-11-13T1400,31,53,0.6,16,10,130,89,52,颗粒物(PM10)
黄冈市,红卫路,114.8858,30.4519,2024-11-13T1400,24,44,0.6,16,9,129,92,44,
黄冈市,市林业局,114.9136,30.4445,2024-11-13T1400,26,52,0.5,12,9,138,97,51,颗粒物(PM10)
黄南藏族自治州,同仁县隆务镇,102.0199,35.5102,2024-11-13T1400,32,,0.7,9,5,87,70,46,
黄山市,延安路89号,118.2903,29.6963,2024-11-13T1400,,,0.4,5,7,114,69,,
黄山市,黄山东路89号,118.327,29.7178,2024-11-13T1400,8,35,0.4,7,6,108,74,35,
黄山市,黄山区政府5号楼,118.1371,30.2756,2024-11-13T1400,15,29,0.3,7,7,102,57,32,
黄石市,沈家营,115.0601,30.2313,2024-11-13T1400,25,43,0.7,14,18,129,80,43,
黄石市,陈家湾,115.0817,30.2006,2024-11-13T1400,32,39,0.6,9,11,129,100,46,
黄石市,铁山,114.8988,30.2019,2024-11-13T1400,33,41,0.5,10,10,142,113,48,
黄石市,团城山,115.0307,30.2092,2024-11-13T1400,29,40,0.6,13,9,137,92,43,
黄石市,笔架山北路,115.0235,30.1578,2024-11-13T1400,24,36,0.7,16,8,139,103,44,
惠州市,河南岸金山湖子站,114.4183,23.0528,2024-11-13T1400,24,34,0.5,8,7,71,56,35,
惠州市,下埔横江三路子站,114.4053,23.0822,2024-11-13T1400,23,36,0.6,10,6,75,61,36,
惠州市,江北云山西路子站,114.4103,23.1142,2024-11-13T1400,21,30,0.6,9,7,78,66,30,
惠州市,惠阳区承修路船湖子站,114.4645,22.7833,2024-11-13T1400,19,32,0.5,11,8,62,46,32,
惠州市,大亚湾管委会子站,114.5317,22.7422,2024-11-13T1400,20,27,0.6,10,2,68,55,29,
惠州市,惠阳秋长,114.4338,22.8134,2024-11-13T1400,18,,0.6,,7,69,54,,
惠州市,大亚湾霞涌,114.6517,22.775,2024-11-13T1400,19,,0.5,10,6,56,50,28,
鸡西市,环保局,130.9762,45.3001,2024-11-13T1400,128,169,0.5,28,13,48,17,169,细颗粒物(PM2.5)
鸡西市,第一中学,130.9429,45.3039,2024-11-13T1400,106,144,0.5,36,12,51,27,139,细颗粒物(PM2.5)
鸡西市,欧美日汽修厂,131.0207,45.3073,2024-11-13T1400,88,96,0.5,19,13,63,30,117,细颗粒物(PM2.5)
鸡西市,市政设施管理处,130.9967,45.3106,2024-11-13T1400,85,146,0.5,23,9,56,26,113,细颗粒物(PM2.5)
吉安市,红声器材厂,114.9754,27.0803,2024-11-13T1400,37,64,0.6,16,17,141,77,57,颗粒物(PM10)
吉安市,市森林工业局,114.9658,27.0999,2024-11-13T1400,41,59,0.6,13,13,134,82,58,细颗粒物(PM2.5)
吉安市,市环境监测站,114.99,27.1312,2024-11-13T1400,33,53,0.6,21,,143,89,,
吉安市,青原区法院,115.0093,27.0968,2024-11-13T1400,35,62,0.8,17,16,145,71,56,颗粒物(PM10)
吉林市,哈达湾,126.54,43.8622,2024-11-13T1400,9,21,0.4,13,6,69,52,22,
吉林市,东局子,126.5844,43.8358,2024-11-13T1400,12,12,0.5,8,5,73,51,23,
吉林市,电力学院,126.5052,43.8245,2024-11-13T1400,15,,0.5,10,6,62,32,22,
吉林市,江北,126.6133,43.8972,2024-11-13T1400,8,11,0.6,11,9,73,48,23,
吉林市,江南公园,126.555,43.8306,2024-11-13T1400,11,14,0.4,14,8,65,44,21,
吉林市,丰满,126.7061,43.7133,2024-11-13T1400,11,,0.4,4,8,73,58,23,
吉林市,九站,126.4739,43.953,2024-11-13T1400,11,26,0.4,13,6,69,47,26,
济南市,科干所,116.9862,36.6114,2024-11-13T1400,66,95,1.0,16,3,92,67,89,细颗粒物(PM2.5)
济南市,农科所,116.9376,36.665,2024-11-13T1400,71,93,0.6,15,5,80,31,95,细颗粒物(PM2.5)
济南市,开发区,117.1265,36.6734,2024-11-13T1400,56,78,0.8,10,4,97,44,77,细颗粒物(PM2.5)
济南市,省种子仓库,117.0624,36.6868,2024-11-13T1400,70,85,0.7,10,3,92,24,94,细颗粒物(PM2.5)
济南市,机床二厂,116.9489,36.6447,2024-11-13T1400,46,76,0.8,13,4,90,41,64,细颗粒物(PM2.5)
济南市,市监测站,117.0495,36.663,2024-11-13T1400,63,63,0.5,8,4,102,38,85,细颗粒物(PM2.5)
济南市,长清党校,116.7675,36.5484,2024-11-13T1400,73,93,0.9,32,7,102,79,98,细颗粒物(PM2.5)
济南市,技术学院,117.6795,36.229,2024-11-13T1400,78,105,1.3,15,7,94,54,104,细颗粒物(PM2.5)
济南市,东山小学,117.532,36.6868,2024-11-13T1400,68,90,0.7,20,6,83,37,92,细颗粒物(PM2.5)
济南市,泰兴公司,117.7161,36.2049,2024-11-13T1400,73,92,0.7,24,24,89,48,98,细颗粒物(PM2.5)
济南市,莱芜战役纪念馆,117.6867,36.2171,2024-11-13T1400,68,95,0.9,25,6,89,53,92,细颗粒物(PM2.5)
济南市,济阳区政府,117.1673,36.9782,2024-11-13T1400,85,85,1.0,33,6,59,28,113,细颗粒物(PM2.5)
济南市,锦屏中学,117.1171,36.63,2024-11-13T1400,56,56,0.6,13,4,104,52,77,细颗粒物(PM2.5)
济南市,济南四建,116.9814,36.6819,2024-11-13T1400,54,,0.7,10,3,86,31,74,细颗粒物(PM2.5)
济宁市,火炬城,116.6251,35.4302,2024-11-13T1400,61,102,0.9,16,10,101,73,83,细颗粒物(PM2.5)
济宁市,电化厂,116.5491,35.4042,2024-11-13T1400,51,101,0.7,18,7,99,75,76,颗粒物(PM10)
济宁市,北湖一中,116.5814,35.3707,2024-11-13T1400,80,97,0.8,15,6,101,73,107,细颗粒物(PM2.5)
济宁市,服务中心,116.8249,35.5593,2024-11-13T1400,69,103,1.1,24,6,89,59,93,细颗粒物(PM2.5)
济宁市,市第七中学,116.5907,35.4054,2024-11-13T1400,75,91,0.9,18,3,102,76,100,细颗粒物(PM2.5)
佳木斯市,佳纺,130.2751,46.8028,2024-11-13T1400,88,90,0.7,11,6,72,35,117,细颗粒物(PM2.5)
佳木斯市,发电厂,130.3995,46.8307,2024-11-13T1400,99,,0.6,16,4,66,29,130,细颗粒物(PM2.5)
佳木斯市,环保局,130.3258,46.7975,2024-11-13T1400,90,96,0.8,,8,66,5,119,细颗粒物(PM2.5)
佳木斯市,十一中,130.3648,46.8032,2024-11-13T1400,91,,0.8,17,6,61,31,120,细颗粒物(PM2.5)
佳木斯市,四丰,130.3794,46.7588,2024-11-13T1400,72,92,0.3,18,1,67,45,97,细颗粒物(PM2.5)
嘉兴市,清河小学,120.7436,30.778,2024-11-13T1400,12,35,0.6,12,8,121,70,38,
嘉兴市,嘉兴学院,120.726,30.7478,2024-11-13T1400,18,28,0.3,13,5,113,73,36,
嘉兴市,南湖区残联,120.7846,30.7525,2024-11-13T1400,17,37,0.5,11,6,129,81,41,
嘉兴市,秀洲住建,120.6916,30.7739,2024-11-13T1400,,,0.4,7,8,124,69,,
嘉峪关市,气象局,98.2908,39.7711,2024-11-13T1400,19,46,0.4,9,15,101,52,46,
嘉峪关市,酒钢宾馆,98.2672,39.7978,2024-11-13T1400,24,61,1.1,21,36,89,59,56,颗粒物(PM10)
嘉峪关市,雄关区,98.2643,39.7724,2024-11-13T1400,13,45,0.4,14,14,99,55,45,
江门市,北街,113.1064,22.6058,2024-11-13T1400,22,51,0.6,19,6,135,65,51,颗粒物(PM10)
江门市,西区,113.0731,22.5835,2024-11-13T1400,28,50,0.2,25,8,138,65,50,
江门市,圭峰西,113.0219,22.5311,2024-11-13T1400,28,62,0.5,27,4,144,77,56,颗粒物(PM10)
江门市,东湖,113.0828,22.5947,2024-11-13T1400,26,43,0.5,20,8,136,66,43,
江门市,江海富民,113.1075,22.5647,2024-11-13T1400,24,69,0.5,22,,136,63,,
江门市,新会银湖,113.05,22.4667,2024-11-13T1400,23,43,0.5,25,8,135,67,43,
焦作市,市环保局,113.227,35.2125,2024-11-13T1400,119,129,1.0,22,2,39,32,156,细颗粒物(PM2.5)
焦作市,影视城,113.1992,35.2590,2024-11-13T1400,81,,0.9,11,6,58,65,108,细颗粒物(PM2.5)
焦作市,太极体育中心,113.2725,35.2067,2024-11-13T1400,110,136,1.2,24,2,32,29,144,细颗粒物(PM2.5)
焦作市,马村街道办,113.3137,35.2641,2024-11-13T1400,117,,1.1,20,3,34,32,153,细颗粒物(PM2.5)
焦作市,焦作技师学院,113.2465,35.2373,2024-11-13T1400,80,115,1.1,19,2,38,34,107,细颗粒物(PM2.5)
焦作市,中站许衡医院,113.1656,35.2539,2024-11-13T1400,63,85,1.0,20,3,43,48,85,细颗粒物(PM2.5)
焦作市,原李万街道办,113.2449,35.1803,2024-11-13T1400,102,114,0.5,28,8,34,17,134,细颗粒物(PM2.5)
揭阳市,新兴,116.3701,23.5345,2024-11-13T1400,16,31,0.5,16,9,78,43,31,
揭阳市,西马,116.3264,23.5443,2024-11-13T1400,17,52,0.7,10,11,76,45,51,颗粒物(PM10)
揭阳市,东兴,116.3611,23.5626,2024-11-13T1400,15,30,0.8,8,11,72,39,30,
揭阳市,渔湖,116.4151,23.5294,2024-11-13T1400,12,27,0.5,11,9,85,44,27,
揭阳市,曲溪,116.403,23.5699,2024-11-13T1400,11,23,0.6,12,11,80,42,25,
金昌市,天庆家园,102.1692,38.5167,2024-11-13T1400,16,24,0.5,8,21,96,80,30,
金昌市,市委党校,102.1864,38.5253,2024-11-13T1400,15,36,0.4,9,56,94,78,36,
金昌市,金川区人防中心,102.1647,38.5371,2024-11-13T1400,18,27,0.4,8,34,98,84,31,
金华市,十五中,119.647,29.077,2024-11-13T1400,12,33,0.4,23,4,107,75,34,
金华市,监测站,119.686,29.1029,2024-11-13T1400,17,30,0.4,22,3,108,70,34,
金华市,气象局,119.656,29.1131,2024-11-13T1400,12,30,0.6,28,4,101,77,32,
锦州市,南山,121.1115,41.0879,2024-11-13T1400,24,26,0.6,39,17,41,24,35,
锦州市,开发区,121.0533,40.8434,2024-11-13T1400,33,76,0.8,65,16,16,10,63,颗粒物(PM10)
锦州市,百股街道,121.1836,41.1119,2024-11-13T1400,14,42,0.8,40,13,43,21,42,
锦州市,天安街道,121.1178,41.1222,2024-11-13T1400,28,41,0.8,40,17,41,24,41,
锦州市,北湖公园,121.1303,41.1386,2024-11-13T1400,30,46,0.7,41,16,41,25,46,
晋城市,自来水公司,112.85,35.5051,2024-11-13T1400,34,53,,,4,94,102,,
晋城市,白云商贸,112.8318,35.4936,2024-11-13T1400,31,48,0.7,18,4,96,98,48,
晋城市,市环保局,112.8508,35.4887,2024-11-13T1400,31,44,0.7,17,5,92,99,45,
晋城市,技术学院,112.8676,35.4897,2024-11-13T1400,29,35,0.8,22,3,88,100,42,
晋城市,白马寺,112.8453,35.546,2024-11-13T1400,21,43,0.7,,8,86,100,,
晋城市,泽州一中,112.8271,35.4828,2024-11-13T1400,29,38,0.9,17,4,92,94,42,
晋中市,锦纶小区,112.7532,37.6945,2024-11-13T1400,63,70,1.1,46,9,19,,85,细颗粒物(PM2.5)
晋中市,南都小区,112.7249,37.7067,2024-11-13T1400,48,66,0.9,47,7,22,43,67,细颗粒物(PM2.5)
晋中市,榆次区政府,112.6991,37.6982,2024-11-13T1400,41,68,0.9,48,9,25,39,59,颗粒物(PM10)
晋中市,榆次三中,112.7195,37.6828,2024-11-13T1400,53,66,1.0,48,10,19,38,73,细颗粒物(PM2.5)
荆门市,竹园小学,112.2014,31.0481,2024-11-13T1400,102,132,0.7,21,10,68,61,134,细颗粒物(PM2.5)
荆门市,掇刀,112.1969,30.9891,2024-11-13T1400,96,111,0.8,28,12,80,84,127,细颗粒物(PM2.5)
荆门市,石化一小,112.2213,31.0386,2024-11-13T1400,,,0.6,20,8,77,58,,
荆门市,西山林语,112.1849,31.0362,2024-11-13T1400,100,120,0.5,28,6,64,87,132,细颗粒物(PM2.5)
荆门市,龙泉中学南校,112.1632,31.0138,2024-11-13T1400,56,70,0.7,25,9,83,93,77,细颗粒物(PM2.5)
荆州市,市图书馆,112.2494,30.3197,2024-11-13T1400,44,60,0.9,22,7,93,62,62,细颗粒物(PM2.5)
荆州市,市委党校,112.2008,30.3544,2024-11-13T1400,46,62,0.9,17,8,107,68,64,细颗粒物(PM2.5)
荆州市,管委会,112.2747,30.3122,2024-11-13T1400,51,78,0.8,19,11,98,60,70,细颗粒物(PM2.5)
荆州市,学苑路,112.1655,30.3364,2024-11-13T1400,62,,0.9,17,11,110,69,84,细颗粒物(PM2.5)
景德镇市,王港中学,117.3102,29.3867,2024-11-13T1400,,,,,,,,,
景德镇市,老干部活动中心,117.2117,29.2933,2024-11-13T1400,20,,0.2,5,6,94,67,30,
景德镇市,兽医站,117.1894,29.2789,2024-11-13T1400,18,25,0.4,3,7,104,77,33,
景德镇市,台达陶瓷,117.1547,29.2617,2024-11-13T1400,19,35,0.3,9,27,93,69,35,
景德镇市,陶研所,117.2461,29.2956,2024-11-13T1400,12,20,0.2,8,9,100,64,32,
九江市,十里,115.9872,29.6815,2024-11-13T1400,30,42,1.0,14,12,132,76,43,
九江市,茅山头,115.9584,29.7046,2024-11-13T1400,34,46,1.1,19,16,123,75,49,
九江市,西园,115.9877,29.7295,2024-11-13T1400,31,51,0.7,27,13,127,85,51,颗粒物(PM10)
九江市,五七二七厂,116.0172,29.6547,2024-11-13T1400,29,29,0.9,18,12,120,68,42,
九江市,综合工业园,115.9114,29.6038,2024-11-13T1400,52,,1.1,38,36,124,62,72,细颗粒物(PM2.5)
九江市,石化总厂,116.0721,29.7535,2024-11-13T1400,30,53,1.5,44,22,112,71,52,颗粒物(PM10)
九江市,庐山气象台,115.9773,29.5698,2024-11-13T1400,12,12,1.7,4,23,83,94,26,
九江市,外国语学校,116.0254,29.6994,2024-11-13T1400,23,29,0.7,29,21,122,72,39,
酒泉市,仓门街子站,98.5061,39.7443,2024-11-13T1400,18,41,0.3,8,8,97,58,41,
酒泉市,油田生活基地,98.4989,39.7256,2024-11-13T1400,30,51,0.3,6,8,93,52,51,颗粒物(PM10)
喀什地区,巡警大队,76.0072,39.4467,2024-11-13T1400,,,,,,,52,,
喀什地区,吾办,75.9755,39.4694,2024-11-13T1400,49,156,0.7,28,8,56,10,103,颗粒物(PM10)
喀什地区,老干局,75.9483,39.4689,2024-11-13T1400,52,163,0.4,24,7,76,20,107,颗粒物(PM10)
开封市,肿瘤医院,114.3389,34.7781,2024-11-13T1400,177,,0.9,32,,32,16,227,细颗粒物(PM2.5)
开封市,世纪星幼儿园,114.2885,34.7965,2024-11-13T1400,73,151,0.8,32,3,40,19,101,颗粒物(PM10)
开封市,龙亭公园,114.3438,34.8106,2024-11-13T1400,91,181,1.0,29,3,35,16,120,细颗粒物(PM2.5)
开封市,汴京公园,114.3644,34.7964,2024-11-13T1400,159,182,0.8,30,3,31,14,209,细颗粒物(PM2.5)
开封市,技师学院,114.2485,34.8306,2024-11-13T1400,81,164,0.9,30,3,34,13,108,细颗粒物(PM2.5)
开封市,祥符区生态环境局,114.4644,34.7556,2024-11-13T1400,81,96,0.8,34,4,39,17,108,细颗粒物(PM2.5)
克拉玛依市,长征新村,84.895,45.6094,2024-11-13T1400,14,,0.2,10,6,37,34,20,
克拉玛依市,南林小区,84.8988,45.5893,2024-11-13T1400,8,9,0.4,12,2,39,39,13,
克拉玛依市,独山子区,84.905,44.3396,2024-11-13T1400,26,69,0.5,31,5,13,40,60,颗粒物(PM10)
克拉玛依市,乌尔禾区商贸楼,85.6979,46.098,2024-11-13T1400,3,6,0.4,8,3,48,45,15,
克拉玛依市,白碱滩区新站,85.1045,45.6899,2024-11-13T1400,10,14,0.2,6,,46,42,,
克孜勒苏柯尔克孜自治州,市人民政府,76.1454,39.7142,2024-11-13T1400,22,80,0.5,8,5,96,55,65,颗粒物(PM10)
克孜勒苏柯尔克孜自治州,克州文化中心,76.1658,39.7157,2024-11-13T1400,26,61,0.5,11,9,95,62,56,颗粒物(PM10)
昆明市,呈贡新区,102.8204,24.8886,2024-11-13T1400,3,10,0.4,5,5,90,49,29,
昆明市,西山森林公园,102.6251,24.9608,2024-11-13T1400,,,,,,,,,
昆明市,龙泉镇,102.7252,25.0902,2024-11-13T1400,8,,0.2,11,7,80,2,,
昆明市,东风东路,102.7266,25.0375,2024-11-13T1400,10,14,0.4,10,7,79,40,25,
昆明市,金鼎山,102.6742,25.0669,2024-11-13T1400,8,17,0.4,11,4,88,42,28,
昆明市,碧鸡广场,102.6644,25.0401,2024-11-13T1400,3,11,0.4,9,5,85,40,27,
昆明市,官渡区博物馆,102.7494,25.0119,2024-11-13T1400,10,27,0.3,6,8,89,39,28,
昆明市,青年创业园,102.8017,24.8336,2024-11-13T1400,7,9,0.4,2,5,91,44,29,
昆明市,昆明学院,102.7997,24.9786,2024-11-13T1400,6,10,0.3,8,7,92,44,29,
昆明市,晋宁区生态环境分局,102.5967,24.6736,2024-11-13T1400,7,17,0.1,7,2,84,49,27,
昆明市,云天化总部,102.6678,24.9856,2024-11-13T1400,,,,,,,51,,
拉萨市,八廓街,91.1319,29.6514,2024-11-13T1400,13,21,0.2,9,7,108,85,34,
拉萨市,市环保局,91.1221,29.6747,2024-11-13T1400,10,18,0.3,15,8,104,69,33,
拉萨市,区监测站,91.0874,29.6475,2024-11-13T1400,6,19,0.6,8,6,100,71,32,
拉萨市,西藏大学,91.1774,29.6541,2024-11-13T1400,3,26,0.3,9,7,107,85,34,
拉萨市,区辐射站,90.9798,29.6588,2024-11-13T1400,9,23,0.4,11,9,93,87,30,
拉萨市,拉萨火车站,91.0834,29.6292,2024-11-13T1400,8,19,0.4,13,7,100,85,32,
来宾市,来宾技工学校,109.2203,23.7256,2024-11-13T1400,50,92,0.9,11,15,163,89,71,颗粒物(PM10)
来宾市,兴宾区政府,109.1781,23.7297,2024-11-13T1400,66,84,0.8,10,11,159,95,89,细颗粒物(PM2.5)
来宾市,中南小学,109.2416,23.7461,2024-11-13T1400,51,93,0.9,11,12,166,82,72,颗粒物(PM10)
兰州市,兰炼宾馆,103.631,36.1031,2024-11-13T1400,39,85,0.9,34,20,77,51,68,颗粒物(PM10)
兰州市,榆中兰大校区,104.1373,35.9454,2024-11-13T1400,,,,,,,,,
兰州市,生物制品所,103.8412,36.0726,2024-11-13T1400,27,46,0.5,26,15,72,45,46,
兰州市,铁路设计院,103.831,36.0464,2024-11-13T1400,34,61,0.5,26,13,71,37,56,颗粒物(PM10)
兰州市,教育港,103.7158,36.1058,2024-11-13T1400,40,77,0.8,,19,65,39,,
兰州市,百合公园,103.7439,36.0842,2024-11-13T1400,28,59,0.7,28,16,59,32,55,颗粒物(PM10)
兰州市,和平,103.9611,35.998,2024-11-13T1400,29,64,0.6,13,22,83,55,57,颗粒物(PM10)
兰州新区,新区管委会,103.6633,36.533,2024-11-13T1400,34,57,0.5,18,11,80,53,54,颗粒物(PM10)
兰州新区,舟曲中学,103.6975,36.4789,2024-11-13T1400,38,57,0.5,15,12,78,53,54,"颗粒物(PM10),细颗粒物(PM2.5)"
廊坊市,药材公司,116.6708,39.5111,2024-11-13T1400,34,47,1.6,51,3,6,3,49,
廊坊市,开发区,116.7214,39.5589,2024-11-13T1400,30,40,1.6,46,3,6,2,43,
廊坊市,北华航天学院,116.7244,39.5269,2024-11-13T1400,35,48,1.7,45,3,6,3,50,
廊坊市,河北工业大学,116.7022,39.5453,2024-11-13T1400,38,45,1.6,,3,8,4,,
乐山市,花湖湾,103.7723,29.5462,2024-11-13T1400,26,43,0.9,20,5,45,19,43,
乐山市,牛耳桥,103.7627,29.5844,2024-11-13T1400,28,32,0.6,22,4,49,20,40,
乐山市,市第三水厂,103.7508,29.6006,2024-11-13T1400,29,,0.7,22,3,49,28,42,
乐山市,市监测站,103.7571,29.5664,2024-11-13T1400,25,31,0.7,24,4,41,24,36,
乐山市,理工大学,103.7311,29.5628,2024-11-13T1400,,,0.6,16,5,54,25,,
丽江市,西南郊,100.2143,26.8576,2024-11-13T1400,6,20,0.4,2,5,100,84,32,
丽江市,丽江古城,100.2497,26.8802,2024-11-13T1400,6,14,0.3,7,9,90,72,29,
丽江市,市中心,100.2203,26.8906,2024-11-13T1400,7,9,0.5,6,6,91,73,29,
丽水市,监测站大楼,119.914,28.4514,2024-11-13T1400,14,35,0.5,4,6,100,82,35,
丽水市,莲都小学,119.93,28.4586,2024-11-13T1400,13,24,0.4,7,4,96,78,30,
丽水市,余庄前,119.879,28.4231,2024-11-13T1400,12,26,0.3,5,5,103,75,33,
连云港市,市环境监测站,119.176,34.5885,2024-11-13T1400,46,66,0.6,16,7,102,96,64,细颗粒物(PM2.5)
连云港市,德源药业,119.3581,34.6972,2024-11-13T1400,34,53,0.3,14,6,103,92,52,颗粒物(PM10)
连云港市,新城一中,119.178,34.844,2024-11-13T1400,22,68,0.7,20,6,95,72,59,颗粒物(PM10)
连云港市,胡沟管理处,119.3608,34.7519,2024-11-13T1400,36,53,0.5,18,6,90,88,52,"颗粒物(PM10),细颗粒物(PM2.5)"
连云港市,矿山设计院,119.1478,34.5911,2024-11-13T1400,53,73,0.7,15,6,100,93,73,细颗粒物(PM2.5)
连云港市,工贸学校,119.2413,34.6539,2024-11-13T1400,32,54,0.7,16,7,106,103,52,颗粒物(PM10)
连云港市,连云街道,119.4172,34.7341,2024-11-13T1400,24,34,0.6,11,6,110,111,35,
凉山彝族自治州,青龙寺,102.3431,27.8099,2024-11-13T1400,3,6,0.5,3,5,103,58,33,
凉山彝族自治州,邛海宾馆,102.2721,27.8415,2024-11-13T1400,9,20,0.6,4,8,100,55,32,
凉山彝族自治州,西昌市政府,102.2625,27.898,2024-11-13T1400,10,24,0.7,7,11,96,53,30,
凉山彝族自治州,凉山州政府,102.2685,27.8851,2024-11-13T1400,8,20,0.3,5,12,95,53,30,
凉山彝族自治州,长安,102.237,27.8914,2024-11-13T1400,11,20,0.5,8,10,89,40,28,
辽阳市,宏伟区,123.2,41.1953,2024-11-13T1400,15,42,0.5,16,9,76,64,42,
辽阳市,新华园,123.1683,41.2495,2024-11-13T1400,24,39,0.6,21,9,75,48,39,
辽阳市,滨河路,123.2354,41.2639,2024-11-13T1400,15,100,0.8,20,13,78,51,75,颗粒物(PM10)
辽阳市,铁西工业园,123.149,41.2991,2024-11-13T1400,22,55,1.6,24,26,68,49,53,颗粒物(PM10)
辽源市,环保局,125.1358,42.8845,2024-11-13T1400,16,38,0.4,10,7,93,42,38,
辽源市,银鹰制药,125.0764,42.9078,2024-11-13T1400,12,28,0.4,11,6,81,41,28,
聊城市,区政府,115.9848,36.4372,2024-11-13T1400,94,133,0.8,20,7,100,47,124,细颗粒物(PM2.5)
聊城市,聊大东校,116.0072,36.4343,2024-11-13T1400,86,124,0.7,16,8,109,49,114,细颗粒物(PM2.5)
聊城市,监控中心,115.9819,36.4978,2024-11-13T1400,102,110,0.8,18,8,102,58,134,细颗粒物(PM2.5)
聊城市,九州社区,116.0445,36.4361,2024-11-13T1400,80,131,0.8,14,8,107,43,107,细颗粒物(PM2.5)
聊城市,星美广场,116.0567,36.4608,2024-11-13T1400,85,127,0.9,15,8,117,49,113,细颗粒物(PM2.5)
林芝市,林芝监测站,94.3681,29.6376,2024-11-13T1400,3,10,0.3,2,7,86,72,27,
林芝市,林芝人民医院,94.3616,29.6616,2024-11-13T1400,3,6,0.2,2,6,85,70,27,
临沧市,市环保局,100.0781,23.8982,2024-11-13T1400,10,22,0.3,8,9,80,33,25,
临沧市,市气象局,100.0894,23.8822,2024-11-13T1400,6,19,0.4,8,8,88,35,28,
临汾市,临钢医院,111.5531,36.0783,2024-11-13T1400,41,70,1.8,38,6,31,12,60,颗粒物(PM10)
临汾市,技工学校,111.5028,36.0714,2024-11-13T1400,48,51,1.4,34,6,29,12,67,细颗粒物(PM2.5)
临汾市,市委,111.5018,36.0855,2024-11-13T1400,46,65,1.5,28,6,31,11,64,细颗粒物(PM2.5)
临汾市,唐尧大酒店,111.505,36.1014,2024-11-13T1400,47,56,1.5,28,5,30,12,65,细颗粒物(PM2.5)
临汾市,城南,111.5036,36.0414,2024-11-13T1400,43,,1.5,33,6,35,13,60,细颗粒物(PM2.5)
临夏回族自治州,环保局,103.2069,35.5993,2024-11-13T1400,9,58,0.6,17,13,80,53,54,颗粒物(PM10)
临夏回族自治州,建设大厦,103.2417,35.6057,2024-11-13T1400,18,41,0.5,10,14,86,57,41,
临沂市,沂河小区,118.3429,35.0532,2024-11-13T1400,47,92,0.5,14,6,101,70,71,颗粒物(PM10)
临沂市,鲁南制药厂,118.295,35.0583,2024-11-13T1400,40,92,1.0,22,5,96,64,71,颗粒物(PM10)
临沂市,新光毛纺厂,118.2794,34.9976,2024-11-13T1400,40,78,0.9,20,5,101,76,64,颗粒物(PM10)
临沂市,河东保险公司,118.3956,35.0888,2024-11-13T1400,54,78,0.8,14,4,105,66,74,细颗粒物(PM2.5)
临沂市,十里堡居委,118.3564,35.0215,2024-11-13T1400,58,70,,,5,105,72,,
临沂市,南坊新区,118.3604,35.1084,2024-11-13T1400,53,75,0.8,20,,109,68,,
临沂市,皇山花园小区,118.3920,35.0300,2024-11-13T1400,63,80,0.8,21,3,101,68,85,细颗粒物(PM2.5)
柳州市,柳东小学,109.4856,24.3895,2024-11-13T1400,46,49,0.6,9,11,146,96,64,细颗粒物(PM2.5)
柳州市,环保监测站,109.4157,24.3277,2024-11-13T1400,48,60,0.7,14,12,178,92,73,臭氧1小时
柳州市,河西水厂,109.389,24.341,2024-11-13T1400,43,55,0.9,12,12,167,89,60,细颗粒物(PM2.5)
柳州市,市四中,109.4311,24.2921,2024-11-13T1400,48,92,0.5,14,10,176,90,71,颗粒物(PM10)
柳州市,市九中,109.4006,24.3631,2024-11-13T1400,45,68,0.9,12,10,182,102,78,臭氧1小时
柳州市,古亭山,109.4958,24.3134,2024-11-13T1400,41,68,0.8,13,12,144,90,59,颗粒物(PM10)
柳州市,市二中,109.5422,24.3996,2024-11-13T1400,36,60,0.7,15,13,,71,,
六安市,监测大楼,116.5079,31.737,2024-11-13T1400,37,,0.6,18,6,105,72,53,细颗粒物(PM2.5)
六安市,皖西学院,116.4738,31.7643,2024-11-13T1400,36,55,0.6,18,6,98,72,53,颗粒物(PM10)
六安市,朝阳厂,116.4996,31.7905,2024-11-13T1400,33,48,0.6,20,3,98,62,48,
六安市,开发区,116.5567,31.7886,2024-11-13T1400,32,49,0.5,18,5,105,64,49,
六盘水市,窑上,104.8,26.5892,2024-11-13T1400,16,28,0.4,5,8,96,52,30,
六盘水市,黄土坡,104.83,26.5917,2024-11-13T1400,11,16,0.4,5,9,102,55,32,
六盘水市,水钢,104.89,26.5939,2024-11-13T1400,8,21,0.3,,,105,69,,
六盘水市,民中,104.8475,26.5894,2024-11-13T1400,7,12,0.4,5,9,101,55,32,
六盘水市,双水,104.9544,26.5506,2024-11-13T1400,12,19,0.2,6,8,98,71,31,
龙岩市,龙岩师专,117.0189,25.1181,2024-11-13T1400,,,,,,,,,
龙岩市,龙岩市监测站,117.0217,25.1033,2024-11-13T1400,12,13,0.5,7,7,72,64,23,
龙岩市,闽西职业技术学院,117.0258,25.0661,2024-11-13T1400,9,16,0.5,4,2,71,63,23,
龙岩市,龙岩学院,117.0196,25.0306,2024-11-13T1400,10,11,0.5,6,5,72,61,23,
陇南市,汉王镇固水子,105.0822,33.3261,2024-11-13T1400,,,,,,,,,
陇南市,滨江中学,104.9339,33.3826,2024-11-13T1400,11,32,0.6,14,6,31,16,32,
陇南市,市总工会,104.955,33.371,2024-11-13T1400,18,34,0.6,12,5,35,19,34,
娄底市,电视发射台,111.9589,27.8901,2024-11-13T1400,45,49,0.7,12,9,145,93,63,细颗粒物(PM2.5)
娄底市,市监测站,111.9975,27.725,2024-11-13T1400,43,60,0.6,10,12,154,97,60,细颗粒物(PM2.5)
娄底市,市委党校,112.0194,27.7314,2024-11-13T1400,44,70,0.6,,18,148,107,,
娄底市,涟钢,111.9561,27.7569,2024-11-13T1400,45,61,0.7,19,22,141,86,63,细颗粒物(PM2.5)
娄底市,市政府,111.9892,27.7044,2024-11-13T1400,40,52,0.6,8,14,150,84,57,细颗粒物(PM2.5)
泸州市,九狮山,105.4324,28.9634,2024-11-13T1400,13,15,0.5,15,5,23,14,19,
泸州市,小市上码头,105.4427,28.9063,2024-11-13T1400,18,30,0.8,24,4,34,37,30,
泸州市,兰田宪桥,105.4241,28.8573,2024-11-13T1400,14,22,0.7,17,4,38,30,22,
泸州市,市环监站,105.4379,28.8833,2024-11-13T1400,25,28,0.7,25,6,29,31,36,
泸州市,纳溪区环保局,105.3617,28.7703,2024-11-13T1400,26,32,0.7,13,4,39,23,38,
吕梁市,环保局,111.1406,37.5211,2024-11-13T1400,29,50,1.2,41,2,10,6,50,
吕梁市,自来水公司,111.1297,37.5136,2024-11-13T1400,38,40,1.3,41,4,8,5,54,细颗粒物(PM2.5)
吕梁市,马茂庄小学,111.1283,37.51,2024-11-13T1400,32,51,,42,1,15,6,,
洛阳市,市委党校,112.3931,34.6516,2024-11-13T1400,176,184,1.1,28,1,19,33,226,细颗粒物(PM2.5)
洛阳市,豫西宾馆,112.4657,34.6871,2024-11-13T1400,152,159,1.0,23,2,20,35,202,细颗粒物(PM2.5)
洛阳市,河南林校,112.494,34.6886,2024-11-13T1400,172,,0.9,25,3,19,29,222,细颗粒物(PM2.5)
洛阳市,开发区管委会,112.3844,34.623,2024-11-13T1400,156,204,0.8,22,6,24,34,206,细颗粒物(PM2.5)
洛阳市,市委新办公区,112.4267,34.6258,2024-11-13T1400,166,195,0.8,21,1,24,31,216,细颗粒物(PM2.5)
洛阳市,伊滨,112.6005,34.6326,2024-11-13T1400,172,175,1.2,21,3,21,26,222,细颗粒物(PM2.5)
洛阳市,中移产业园,112.4951,34.6332,2024-11-13T1400,176,,,24,3,23,33,226,细颗粒物(PM2.5)
洛阳市,吉利监测站,112.5736,34.8993,2024-11-13T1400,154,282,1.0,19,1,26,34,204,细颗粒物(PM2.5)
洛阳市,河科大西苑校区,112.3677,34.662,2024-11-13T1400,143,195,1.0,24,2,24,34,190,细颗粒物(PM2.5)
洛阳市,英才小学,112.4388,34.6781,2024-11-13T1400,163,180,,26,2,15,34,213,细颗粒物(PM2.5)
漯河市,三五一五工厂,114.051,33.5699,2024-11-13T1400,59,90,0.7,15,6,99,50,80,细颗粒物(PM2.5)
漯河市,漯河大学,114.0055,33.5698,2024-11-13T1400,75,99,0.7,19,7,91,49,100,细颗粒物(PM2.5)
漯河市,市水利局,114.0138,33.5828,2024-11-13T1400,,,0.7,11,7,92,38,,
漯河市,市广电局,114.0261,33.5698,2024-11-13T1400,72,83,0.8,12,6,96,52,97,细颗粒物(PM2.5)
漯河市,市图书馆,113.9749,33.5664,2024-11-13T1400,80,108,0.7,17,6,89,48,107,细颗粒物(PM2.5)
漯河市,召陵区卫健委,114.0967,33.5906,2024-11-13T1400,89,104,0.8,13,9,94,45,118,细颗粒物(PM2.5)
马鞍山市,湖东路四小,118.5092,31.6837,2024-11-13T1400,14,50,0.6,12,6,130,87,50,
马鞍山市,开发区,118.5024,31.6449,2024-11-13T1400,20,37,0.6,17,8,125,78,40,
马鞍山市,慈湖,118.5228,31.7231,2024-11-13T1400,24,47,0.7,14,10,125,85,47,
马鞍山市,濮塘,118.6245,31.7241,2024-11-13T1400,22,28,0.5,18,7,121,82,38,
马鞍山市,雨山,118.4918,31.6809,2024-11-13T1400,19,52,0.9,9,6,,79,,
茂名市,电白南海,111.0286,21.4688,2024-11-13T1400,44,61,0.7,10,9,147,116,62,细颗粒物(PM2.5)
茂名市,茂石化七小,110.9294,21.6533,2024-11-13T1400,46,66,0.8,9,17,160,136,64,细颗粒物(PM2.5)
茂名市,健康路,110.9107,21.6687,2024-11-13T1400,31,58,0.7,8,22,162,132,54,颗粒物(PM10)
茂名市,高岭,110.8592,21.6828,2024-11-13T1400,39,53,0.7,9,15,138,92,55,细颗粒物(PM2.5)
茂名市,电白水东,111.01,21.5165,2024-11-13T1400,39,53,0.7,14,14,137,112,55,细颗粒物(PM2.5)
眉山市,黑龙滩水库,104.0308,30.0478,2024-11-13T1400,16,18,0.6,2,2,53,48,23,
眉山市,气象局,103.8416,30.0874,2024-11-13T1400,17,23,0.6,18,6,27,18,25,
眉山市,市委党校,103.8578,30.0744,2024-11-13T1400,14,27,0.5,24,4,25,16,27,
眉山市,区人社局,103.8291,30.0564,2024-11-13T1400,14,35,0.6,22,6,27,20,35,
梅州市,梅江月梅,116.1231,24.3284,2024-11-13T1400,14,15,0.4,3,9,70,42,22,
梅州市,梅县新城,116.0797,24.2719,2024-11-13T1400,13,19,0.5,6,7,69,36,22,
梅州市,环境监控中心,116.1248,24.2654,2024-11-13T1400,11,21,0.3,6,9,66,41,21,
梅州市,梅龙,116.1233,24.2991,2024-11-13T1400,9,9,0.5,7,8,65,40,21,
绵阳市,富乐山,104.7778,31.4741,2024-11-13T1400,13,26,0.6,8,3,59,22,26,
绵阳市,市人大,104.7563,31.4535,2024-11-13T1400,20,26,0.4,10,4,54,21,29,
绵阳市,高新区自来水公司,104.6697,31.4668,2024-11-13T1400,17,29,0.5,12,3,54,19,29,
绵阳市,三水厂,104.7287,31.5075,2024-11-13T1400,21,36,0.6,12,,53,18,,
绵阳市,西科大附属小学,104.69,31.5322,2024-11-13T1400,23,43,0.5,10,4,53,20,43,
绵阳市,安州区旅游局,104.5648,31.5343,2024-11-13T1400,24,,0.7,12,7,52,22,35,
牡丹江市,环保大楼,129.61,44.561,2024-11-13T1400,21,32,0.3,17,7,64,36,32,
牡丹江市,文化广场,129.6115,44.5782,2024-11-13T1400,30,37,0.4,26,10,54,31,43,
牡丹江市,第一医院,129.5904,44.5963,2024-11-13T1400,40,48,0.4,22,8,68,41,57,细颗粒物(PM2.5)
牡丹江市,机车工厂,129.6364,44.6075,2024-11-13T1400,33,45,0.3,18,8,61,33,48,
牡丹江市,第一中学,129.6386,44.5462,2024-11-13T1400,29,34,0.3,14,7,69,40,42,
内江市,市监测站,105.0703,29.61,2024-11-13T1400,42,,0.7,21,11,61,28,59,细颗粒物(PM2.5)
内江市,东兴区政府,105.0717,29.5947,2024-11-13T1400,33,,0.6,13,7,69,29,48,
内江市,内江二中,105.0653,29.5817,2024-11-13T1400,45,,0.7,18,8,55,25,63,细颗粒物(PM2.5)
内江市,内江日报社,105.0406,29.5822,2024-11-13T1400,45,,0.6,22,7,58,25,63,细颗粒物(PM2.5)
那曲市,那曲监测站,92.0657,31.4846,2024-11-13T1400,12,27,0.4,8,5,106,56,34,
那曲市,那曲会议中心,92.0506,31.4797,2024-11-13T1400,3,17,0.4,3,2,105,51,33,
南昌市,省外办,115.8931,28.6843,2024-11-13T1400,29,49,0.6,23,7,116,74,49,
南昌市,省林业公司,115.8886,28.7003,2024-11-13T1400,27,46,0.6,14,8,130,74,46,
南昌市,林科所,115.8126,28.7442,2024-11-13T1400,29,34,0.5,16,7,127,82,42,
南昌市,建工学校,115.8518,28.687,2024-11-13T1400,28,39,0.5,14,7,134,85,42,
南昌市,象湖,115.8921,28.6424,2024-11-13T1400,38,54,0.9,19,16,147,88,54,细颗粒物(PM2.5)
南昌市,武术学校,115.7423,28.7996,2024-11-13T1400,6,43,0.5,10,3,97,52,43,
南昌市,省站,115.9314,28.6842,2024-11-13T1400,35,54,0.6,15,9,120,74,52,颗粒物(PM10)
南昌市,机电学校,115.9084,28.6062,2024-11-13T1400,31,55,0.8,19,13,133,80,53,颗粒物(PM10)
南昌市,外国语学校,115.9721,28.7031,2024-11-13T1400,10,41,0.6,11,8,131,86,41,
南充市,西山风景区,106.056,30.8064,2024-11-13T1400,35,,0.8,18,1,24,16,50,
南充市,南充市委,106.0789,30.8023,2024-11-13T1400,40,50,0.3,18,3,43,16,57,细颗粒物(PM2.5)
南充市,南充炼油厂,106.1031,30.8217,2024-11-13T1400,38,53,0.4,16,2,38,17,54,细颗粒物(PM2.5)
南充市,高坪区监测站,106.1064,30.7856,2024-11-13T1400,37,51,0.3,20,3,32,16,53,细颗粒物(PM2.5)
南充市,嘉陵区环保局,106.0642,30.7636,2024-11-13T1400,31,59,0.5,26,3,34,14,55,颗粒物(PM10)
南充市,市环境监测站,106.1087,30.8388,2024-11-13T1400,46,56,0.3,18,4,33,18,64,细颗粒物(PM2.5)
南京市,迈皋桥,118.8086,32.1065,2024-11-13T1400,22,38,0.5,11,4,123,82,39,
南京市,草场门,118.7538,32.0551,2024-11-13T1400,27,39,0.5,24,4,116,80,39,
南京市,山西路,118.7794,32.0745,2024-11-13T1400,29,51,0.5,5,4,132,91,51,颗粒物(PM10)
南京市,中华门,118.7752,32.0023,2024-11-13T1400,34,48,0.5,13,4,118,84,49,
南京市,瑞金路,118.8109,32.0309,2024-11-13T1400,,,0.7,,,110,77,,
南京市,玄武湖,118.7997,32.0754,2024-11-13T1400,18,26,0.5,20,5,114,80,36,
南京市,浦口,118.6414,32.0931,2024-11-13T1400,29,35,0.4,14,5,103,71,42,
南京市,奥体中心,118.7356,31.9996,2024-11-13T1400,31,52,0.3,16,7,117,84,51,颗粒物(PM10)
南京市,仙林大学城,118.9125,32.1028,2024-11-13T1400,24,39,0.5,12,6,126,90,40,
南京市,江宁彩虹桥,118.8436,31.9198,2024-11-13T1400,24,49,0.6,9,4,122,78,49,
南京市,溧水永阳,119.0138,31.6494,2024-11-13T1400,30,41,0.5,18,3,115,82,43,
南京市,高淳老职中,118.879,31.3302,2024-11-13T1400,30,30,0.2,9,4,123,88,43,
南京市,六合雄州,118.8554,32.3578,2024-11-13T1400,35,45,1.0,12,,106,63,,
南宁市,二十一中,108.3103,22.7881,2024-11-13T1400,51,91,1.1,16,10,188,90,85,臭氧1小时
南宁市,北湖,108.3141,22.8528,2024-11-13T1400,49,73,1.3,12,11,173,73,68,细颗粒物(PM2.5)
南宁市,市监测站,108.3206,22.8225,2024-11-13T1400,50,80,0.8,18,13,168,86,69,细颗粒物(PM2.5)
南宁市,大自然花园,108.3829,22.8037,2024-11-13T1400,47,67,0.5,12,13,164,97,65,细颗粒物(PM2.5)
南宁市,仙葫,108.4394,22.7904,2024-11-13T1400,48,71,0.7,11,12,147,73,67,细颗粒物(PM2.5)
南宁市,区农职院,108.2397,22.8467,2024-11-13T1400,51,94,0.9,17,12,196,78,95,臭氧1小时
南宁市,英华嘉园,108.3275,22.735,2024-11-13T1400,46,81,,,12,,35,,
南宁市,沙井镇街道办,108.2257,22.7757,2024-11-13T1400,42,76,0.8,10,10,147,78,63,颗粒物(PM10)
南宁市,红星社区,108.4834,22.7618,2024-11-13T1400,56,79,0.9,12,16,173,81,77,细颗粒物(PM2.5)
南平市,茫荡山,118.0966,26.6761,2024-11-13T1400,,,,,,,,,
南平市,南平市监测站,118.1681,26.6369,2024-11-13T1400,16,23,0.2,10,4,74,58,24,
南平市,南平铝业有限公司,118.1825,26.6489,2024-11-13T1400,15,25,0.4,8,3,75,58,25,
南平市,南平七中,118.1756,26.6272,2024-11-13T1400,13,29,0.3,10,3,72,59,29,
南通市,狼山街道,120.9098,31.9663,2024-11-13T1400,25,40,0.5,10,7,119,93,40,
南通市,虹桥,120.86,32.0005,2024-11-13T1400,30,46,0.5,13,5,114,94,46,
南通市,城中,120.87,32.02,2024-11-13T1400,32,54,0.6,13,6,117,88,52,颗粒物(PM10)
南通市,星湖花园,120.94,31.93,2024-11-13T1400,29,40,0.7,13,4,111,88,42,
南通市,紫琅学院,120.81,32.0417,2024-11-13T1400,32,40,0.6,14,3,107,80,46,
南通市,通州监测站,121.067,32.062,2024-11-13T1400,19,41,0.5,9,2,118,101,41,
南通市,环境教育馆,120.9348,31.9883,2024-11-13T1400,29,44,0.5,18,3,123,86,44,
南阳市,瓦房庄,112.5224,33.0122,2024-11-13T1400,101,,0.8,17,4,72,53,133,细颗粒物(PM2.5)
南阳市,汉画馆,112.5003,32.9735,2024-11-13T1400,93,104,0.8,20,7,75,55,123,细颗粒物(PM2.5)
南阳市,气象站,112.5573,33.027,2024-11-13T1400,102,,0.8,21,5,73,47,134,细颗粒物(PM2.5)
南阳市,理工学院,112.5481,32.9689,2024-11-13T1400,71,92,0.8,21,4,69,45,95,细颗粒物(PM2.5)
南阳市,卧龙区政府,112.5234,32.9922,2024-11-13T1400,101,,0.8,22,4,72,53,133,细颗粒物(PM2.5)
宁波市,区环保大楼,121.8358,29.911,2024-11-13T1400,22,51,0.6,42,9,84,41,51,颗粒物(PM10)
宁波市,万里学院,121.56,29.82,2024-11-13T1400,35,53,0.7,33,9,108,59,52,颗粒物(PM10)
宁波市,龙赛医院,121.713,29.9572,2024-11-13T1400,29,59,0.7,28,,120,51,,
宁波市,钱湖水厂,121.633,29.7733,2024-11-13T1400,21,35,0.8,25,7,104,55,35,
宁波市,太古小学,121.5856,29.8635,2024-11-13T1400,44,69,1.0,50,13,92,50,62,细颗粒物(PM2.5)
宁波市,市环境监测中心,121.524,29.8674,2024-11-13T1400,32,58,0.8,46,13,100,56,54,颗粒物(PM10)
宁波市,万里国际学校,121.6147,29.9017,2024-11-13T1400,34,49,0.7,43,11,107,53,49,
宁波市,白沙活动中心,121.5594,29.8975,2024-11-13T1400,31,49,0.7,55,16,101,58,49,
宁德市,金涵水库,119.5001,26.6946,2024-11-13T1400,,,,,,,,,
宁德市,宁德市监测站,119.5388,26.6612,2024-11-13T1400,18,30,0.4,10,2,81,73,30,
宁德市,宁德一中,119.5231,26.6562,2024-11-13T1400,17,26,0.3,8,1,92,84,29,
怒江傈僳族自治州,州监测站,98.8601,25.8567,2024-11-13T1400,20,,0.2,,3,74,46,,
怒江傈僳族自治州,泸水一中,98.8546,25.8417,2024-11-13T1400,15,27,0.4,10,8,63,30,27,
攀枝花市,弄弄坪,101.6891,26.571,2024-11-13T1400,18,35,1.4,26,,85,38,,
攀枝花市,河门口,101.5769,26.5928,2024-11-13T1400,10,14,1.7,20,20,100,38,32,
攀枝花市,炳草岗,101.7169,26.585,2024-11-13T1400,14,32,1.6,23,18,89,30,32,
攀枝花市,仁和,101.7369,26.5008,2024-11-13T1400,25,44,1.7,21,20,108,43,44,
攀枝花市,四十中小,101.7227,26.567,2024-11-13T1400,25,50,1.4,21,15,85,27,50,
盘锦市,开发区,122.0303,41.1489,2024-11-13T1400,25,52,0.3,19,7,72,47,51,颗粒物(PM10)
盘锦市,兴隆台,122.0485,41.0883,2024-11-13T1400,32,36,0.5,26,4,72,44,46,
盘锦市,新生街道,121.8297,41.1028,2024-11-13T1400,18,35,0.5,16,10,81,48,35,
平顶山市,新华旅馆,113.3257,33.742,2024-11-13T1400,112,114,0.7,25,,62,36,147,细颗粒物(PM2.5)
平顶山市,规划设计院,113.2919,33.737,2024-11-13T1400,121,160,0.9,24,6,59,30,159,细颗粒物(PM2.5)
平顶山市,平顶山工学院,113.182,33.774,2024-11-13T1400,146,188,0.9,21,5,40,22,195,细颗粒物(PM2.5)
平顶山市,规划局,113.3025,33.73,2024-11-13T1400,146,151,0.9,28,6,61,34,195,细颗粒物(PM2.5)
平顶山市,石龙区,112.8867,33.9116,2024-11-13T1400,140,,1.4,11,8,47,48,186,细颗粒物(PM2.5)
平凉市,聚贤嘉苑,106.6692,35.5461,2024-11-13T1400,47,63,0.8,22,8,41,17,65,细颗粒物(PM2.5)
平凉市,博物馆,106.7021,35.5307,2024-11-13T1400,45,80,0.8,27,9,38,22,65,颗粒物(PM10)
萍乡市,武功山,114.0997,27.5002,2024-11-13T1400,3,11,0.3,6,13,104,61,33,
萍乡市,中医院,113.8385,27.6434,2024-11-13T1400,31,46,0.9,12,16,139,91,46,
萍乡市,市政府车库,113.8493,27.6253,2024-11-13T1400,43,43,0.9,12,16,139,87,60,细颗粒物(PM2.5)
萍乡市,市环保局,113.8676,27.6435,2024-11-13T1400,34,48,0.6,8,19,134,82,49,
萍乡市,安源区政府,113.866,27.6198,2024-11-13T1400,30,39,0.7,13,28,140,86,44,
莆田市,荔城区仓后路,119.0141,25.4325,2024-11-13T1400,12,25,0.4,7,1,83,90,26,
莆田市,莆田市监测站,119.0015,25.4553,2024-11-13T1400,11,27,0.3,4,2,86,93,27,
莆田市,涵江区六中,119.1119,25.4561,2024-11-13T1400,11,23,0.4,7,2,89,92,28,
莆田市,秀屿区政府,119.1013,25.3215,2024-11-13T1400,13,23,0.4,10,3,88,96,28,
莆田市,东圳水库,118.981,25.4792,2024-11-13T1400,,,,,,,,,
濮阳市,环保局,115.0312,35.7636,2024-11-13T1400,208,263,1.2,37,2,14,8,258,细颗粒物(PM2.5)
濮阳市,油田运输公司,115.0574,35.7609,2024-11-13T1400,200,318,1.2,36,4,12,6,250,细颗粒物(PM2.5)
濮阳市,油田物探公司,115.0866,35.7754,2024-11-13T1400,200,292,1.1,38,3,13,4,250,细颗粒物(PM2.5)
濮阳市,濮水河管理处,115,35.7668,2024-11-13T1400,194,315,1.1,29,2,7,4,244,细颗粒物(PM2.5)
普洱市,市环保局,100.98,22.7633,2024-11-13T1400,17,18,,8,,67,32,,
普洱市,普洱第二中学,100.9817,22.8322,2024-11-13T1400,10,14,0.3,4,7,61,29,20,
七台河市,新一中,131.0518,45.8751,2024-11-13T1400,86,107,1.3,18,13,81,47,114,细颗粒物(PM2.5)
七台河市,中波台,131.0577,45.7879,2024-11-13T1400,95,106,1.0,24,14,58,30,125,细颗粒物(PM2.5)
七台河市,人民广场,131.0176,45.7761,2024-11-13T1400,97,128,1.0,26,11,62,32,128,细颗粒物(PM2.5)
七台河市,新建矿广场,130.8781,45.8222,2024-11-13T1400,89,110,0.9,27,15,62,28,118,细颗粒物(PM2.5)
齐齐哈尔市,安居小区,123.9305,47.3636,2024-11-13T1400,76,96,0.8,26,10,,48,102,细颗粒物(PM2.5)
齐齐哈尔市,中心广场,123.9488,47.3386,2024-11-13T1400,75,100,0.7,27,6,59,47,100,细颗粒物(PM2.5)
齐齐哈尔市,农牧车辆厂,123.9483,47.3227,2024-11-13T1400,64,95,0.3,19,7,71,52,87,细颗粒物(PM2.5)
齐齐哈尔市,市环境监测站,123.945,47.2988,2024-11-13T1400,75,96,0.5,20,5,74,56,100,细颗粒物(PM2.5)
齐齐哈尔市,富区青少年活动中心,123.6333,47.2075,2024-11-13T1400,53,80,0.4,10,6,60,48,73,细颗粒物(PM2.5)
黔东南苗族侗族自治州,市环境监测站,107.9783,26.5747,2024-11-13T1400,55,83,0.7,36,7,63,70,75,细颗粒物(PM2.5)
黔东南苗族侗族自治州,凯里学院,107.8908,26.5311,2024-11-13T1400,35,39,0.3,5,5,98,77,50,
黔南布依族苗族自治州,小围寨,107.5228,26.2403,2024-11-13T1400,27,31,0.4,4,7,100,96,39,
黔南布依族苗族自治州,沙坝,107.5175,26.2978,2024-11-13T1400,22,39,0.5,4,5,105,98,39,
黔西南布依族苗族自治州,场坝街,104.9022,25.0925,2024-11-13T1400,3,11,0.2,3,3,82,63,26,
黔西南布依族苗族自治州,坪东大道,104.8811,25.0992,2024-11-13T1400,6,14,0.2,3,2,79,63,25,
钦州市,市环保站,108.6236,21.9667,2024-11-13T1400,27,46,0.7,16,11,158,77,50,
钦州市,沙埠小学,108.6549,21.9481,2024-11-13T1400,23,58,0.9,,11,161,84,,
钦州市,港区一小,108.5989,21.7431,2024-11-13T1400,39,54,0.9,17,13,160,78,55,细颗粒物(PM2.5)
钦州市,北职校,108.5959,21.9633,2024-11-13T1400,16,33,0.7,11,11,137,72,43,
秦皇岛市,北戴河环保局,119.5134,39.8207,2024-11-13T1400,16,53,0.5,56,4,17,23,52,颗粒物(PM10)
秦皇岛市,第一关,119.7493,40.0116,2024-11-13T1400,35,54,0.5,54,3,14,11,52,颗粒物(PM10)
秦皇岛市,监测站,119.5897,39.9499,2024-11-13T1400,8,52,0.7,63,4,16,17,51,颗粒物(PM10)
秦皇岛市,建设大厦,119.5251,39.9041,2024-11-13T1400,18,56,0.6,67,2,9,7,53,颗粒物(PM10)
秦皇岛市,文明里,119.610547,39.943889,2024-11-13T1400,19,83,0.5,70,4,4,14,67,颗粒物(PM10)
青岛市,仰口,120.6659,36.2403,2024-11-13T1400,8,23,0.3,4,7,73,96,23,
青岛市,市南区东部子站,120.4134,36.0658,2024-11-13T1400,9,34,0.4,11,10,91,108,34,
青岛市,四方区子站,120.3664,36.1032,2024-11-13T1400,9,34,0.7,17,10,90,102,34,
青岛市,市南区西部子站,120.2994,36.054,2024-11-13T1400,10,36,0.6,15,10,96,112,36,
青岛市,崂山区子站,120.4581,36.0858,2024-11-13T1400,7,29,0.5,18,9,92,114,29,
青岛市,黄岛区子站,120.1983,35.9608,2024-11-13T1400,17,39,0.7,15,7,102,113,39,
青岛市,城阳区子站,120.3999,36.3083,2024-11-13T1400,10,39,0.5,21,9,90,52,39,
青岛市,黄岛区4号,120.0405,35.8735,2024-11-13T1400,9,39,0.6,17,8,109,120,39,
青岛市,即墨2号,120.5014,36.4034,2024-11-13T1400,3,31,0.5,18,7,82,78,31,
青岛市,市北区南部,120.3503,36.0736,2024-11-13T1400,7,43,0.6,20,10,91,102,43,
青岛市,李沧区北部,120.3948,36.1805,2024-11-13T1400,14,31,0.6,29,10,80,77,31,
清远市,环保大楼,113.0426,23.691,2024-11-13T1400,20,22,0.9,3,6,124,91,39,
清远市,凤城街办,113.0208,23.7106,2024-11-13T1400,21,29,0.7,6,5,112,68,35,
清远市,技师学院,113.0477,23.6344,2024-11-13T1400,16,26,0.8,5,8,115,84,36,
清远市,清新太和,112.9903,23.7403,2024-11-13T1400,26,40,0.8,10,6,142,72,45,
清远市,清城东城,113.076,23.7198,2024-11-13T1400,16,30,0.6,4,8,112,86,35,
庆阳市,庆阳五中,107.6325,35.7357,2024-11-13T1400,18,26,0.6,18,7,22,21,26,
庆阳市,市环保局,107.6364,35.7067,2024-11-13T1400,16,27,0.8,12,6,28,24,27,
曲靖市,环境监测站,103.7897,25.5035,2024-11-13T1400,7,,0.4,7,5,90,54,29,
曲靖市,烟厂办公区,103.8,25.5364,2024-11-13T1400,6,8,0.2,6,5,90,56,29,
曲靖市,南苑二区,103.7947,25.462,2024-11-13T1400,3,14,0.5,3,4,96,61,30,
曲靖市,曲靖师范学院,103.7444,25.5261,2024-11-13T1400,11,,0.4,8,9,95,53,30,
衢州市,环保大楼,118.8692,28.9398,2024-11-13T1400,26,44,0.5,19,5,99,83,44,
衢州市,实验学校,118.8709,28.9666,2024-11-13T1400,25,34,0.4,17,8,101,90,36,
衢州市,衢州学院,118.8621,28.9808,2024-11-13T1400,23,38,0.4,16,7,106,94,38,
泉州市,涂山街,118.5819,24.9117,2024-11-13T1400,19,25,0.3,9,1,88,84,28,
泉州市,津头埔,118.5972,24.8978,2024-11-13T1400,20,32,0.4,12,2,83,80,32,
泉州市,万安,118.6663,24.9424,2024-11-13T1400,22,36,0.4,9,1,90,85,36,
泉州市,清源山,118.6117,24.9604,2024-11-13T1400,,,,,,,,,
泉州市,城华南路,118.6333,24.9264,2024-11-13T1400,16,34,0.3,9,1,87,82,34,
日喀则市,日喀则监测站,88.8876,29.2718,2024-11-13T1400,3,6,0.3,4,4,84,36,27,
日喀则市,林业技术推广中心,88.8781,29.2426,2024-11-13T1400,3,12,0.3,3,6,87,52,28,
日照市,监测站,119.471,35.4209,2024-11-13T1400,38,51,0.4,17,5,100,54,54,细颗粒物(PM2.5)
日照市,市政府广场,119.523,35.4216,2024-11-13T1400,23,58,0.6,15,5,113,92,54,颗粒物(PM10)
日照市,港务局,119.5587,35.4044,2024-11-13T1400,38,48,0.5,12,6,115,112,54,细颗粒物(PM2.5)
日照市,职业技术学院,119.5328,35.4625,2024-11-13T1400,29,56,0.5,17,4,115,100,53,颗粒物(PM10)
日照市,岚山环保分局,119.3266,35.1044,2024-11-13T1400,39,56,0.4,19,4,104,99,55,细颗粒物(PM2.5)
三门峡市,市政府,111.1922,34.7752,2024-11-13T1400,81,,0.7,19,1,48,53,108,细颗粒物(PM2.5)
三门峡市,开发区,111.1587,34.7942,2024-11-13T1400,80,88,0.8,18,2,52,52,107,细颗粒物(PM2.5)
三门峡市,风景区,111.143,34.7955,2024-11-13T1400,83,,1.0,16,8,55,54,110,细颗粒物(PM2.5)
三门峡市,三门峡市第一小学,111.1911,34.7829,2024-11-13T1400,72,,0.8,16,1,50,51,97,细颗粒物(PM2.5)
三门峡市,富达温泉假日酒店,111.1,34.7167,2024-11-13T1400,49,,0.4,22,3,52,54,68,细颗粒物(PM2.5)
三明市,三钢,117.6211,26.2625,2024-11-13T1400,16,20,0.3,5,4,75,65,24,
三明市,三明二中,117.635,26.2714,2024-11-13T1400,10,36,0.3,7,3,73,61,36,
三明市,三元区政府,117.6028,26.2378,2024-11-13T1400,13,25,0.4,8,4,74,63,25,
三明市,洋溪,117.7275,26.3108,2024-11-13T1400,,,,,,,,,
三亚市,河东子站,109.5078,18.2489,2024-11-13T1400,15,31,0.4,8,2,128,103,40,
三亚市,河西子站,109.4964,18.2681,2024-11-13T1400,16,21,0.3,14,4,117,92,37,
三亚市,君悦子站,109.7348,18.3443,2024-11-13T1400,16,38,0.2,6,2,125,75,40,
山南市,山南监测站,91.7608,29.2313,2024-11-13T1400,14,23,0.4,5,5,85,67,27,
山南市,山南人民医院,91.7706,29.2436,2024-11-13T1400,3,22,0.4,6,5,86,76,27,
汕头市,金平子站,116.6794,23.3667,2024-11-13T1400,9,48,0.4,9,7,104,78,48,
汕头市,龙湖子站,116.7244,23.3633,2024-11-13T1400,10,27,0.6,7,8,99,76,31,
汕头市,濠江子站,116.7258,23.2775,2024-11-13T1400,15,32,0.4,6,7,112,88,35,
汕头市,澄海子站,116.7519,23.4714,2024-11-13T1400,11,29,0.2,9,8,107,76,34,
汕头市,潮阳子站,116.6092,23.2539,2024-11-13T1400,11,23,0.6,3,5,97,79,31,
汕头市,潮南峡山,116.454,23.2684,2024-11-13T1400,3,19,0.4,12,7,91,67,29,
汕头市,潮南子站,116.4069,23.2533,2024-11-13T1400,10,25,0.5,12,6,82,57,26,
汕尾市,市环保局,115.3653,22.775,2024-11-13T1400,11,14,0.7,8,7,53,39,17,
汕尾市,市政府,115.3706,22.7898,2024-11-13T1400,12,15,0.6,8,7,57,44,18,
汕尾市,新城中学,115.3622,22.7925,2024-11-13T1400,10,12,0.7,9,6,57,46,18,
商洛市,监测站,109.9154,33.8715,2024-11-13T1400,15,16,0.9,25,6,81,93,26,
商洛市,商州区中学,109.9643,33.8471,2024-11-13T1400,18,29,,30,5,67,78,,
商丘市,环境监测站,115.6702,34.4285,2024-11-13T1400,73,73,0.7,16,6,100,58,98,细颗粒物(PM2.5)
商丘市,粮食局,115.6458,34.4045,2024-11-13T1400,66,79,0.7,17,3,,55,,
商丘市,睢阳区环保局,115.6293,34.3948,2024-11-13T1400,77,,0.6,16,7,94,58,103,细颗粒物(PM2.5)
商丘市,梁园区档案局,115.6071,34.4465,2024-11-13T1400,75,,0.6,12,3,109,72,100,细颗粒物(PM2.5)
上海市,普陀,121.4,31.238,2024-11-13T1400,36,,0.7,26,5,107,79,52,细颗粒物(PM2.5)
上海市,十五厂,121.478,31.2036,2024-11-13T1400,38,,0.7,28,8,105,96,54,细颗粒物(PM2.5)
上海市,虹口,121.467,31.3008,2024-11-13T1400,33,,0.7,26,8,100,79,48,
上海市,徐汇上师大,121.412,31.1654,2024-11-13T1400,41,,0.7,23,9,116,93,58,细颗粒物(PM2.5)
上海市,杨浦四漂,121.536,31.2659,2024-11-13T1400,33,41,0.7,27,7,103,74,48,
上海市,静安监测站,121.425,31.2261,2024-11-13T1400,36,,0.6,28,8,110,90,52,细颗粒物(PM2.5)
上海市,浦东川沙,121.703,31.1907,2024-11-13T1400,24,,0.6,21,6,116,93,37,
上海市,浦东新区监测站,121.533,31.2284,2024-11-13T1400,28,,0.7,28,8,107,86,40,
上海市,浦东张江,121.577,31.2071,2024-11-13T1400,33,,0.8,20,6,114,89,48,
上海市,宝山庙行,121.4316,31.3322,2024-11-13T1400,34,,0.3,18,11,101,62,49,
上海市,崇明上实东滩,121.8791,31.4662,2024-11-13T1400,9,16,0.8,6,10,115,95,36,
上海市,嘉定南翔,121.3162,31.2838,2024-11-13T1400,36,,0.7,26,10,101,67,52,细颗粒物(PM2.5)
上海市,金山新城,121.3359,30.7456,2024-11-13T1400,33,,0.5,9,4,128,97,48,
上海市,闵行浦江,121.4996,31.0739,2024-11-13T1400,34,,0.6,19,6,123,88,49,
上海市,青浦徐泾,121.2886,31.1663,2024-11-13T1400,,,0.6,,,,75,,
上海市,松江图书馆,121.2186,31.0378,2024-11-13T1400,39,42,0.7,22,6,124,81,55,细颗粒物(PM2.5)
上海市,长宁仙霞,121.3902,31.2059,2024-11-13T1400,41,,0.8,26,8,111,85,58,细颗粒物(PM2.5)
上海市,浦东惠南,121.7965,31.0507,2024-11-13T1400,29,,0.7,13,10,128,96,42,
上海市,奉贤南桥新城,121.4891,30.925,2024-11-13T1400,38,,0.7,17,1,125,82,54,细颗粒物(PM2.5)
上饶市,百草园,118.005,28.4572,2024-11-13T1400,54,,0.7,7,4,124,101,74,细颗粒物(PM2.5)
上饶市,市监测站,117.9756,28.4436,2024-11-13T1400,25,42,0.7,13,5,122,97,42,
上饶市,凤凰光学,117.9519,28.4628,2024-11-13T1400,19,42,0.9,10,8,124,95,42,
上饶市,广丰区教体局,118.1953,28.4401,2024-11-13T1400,29,54,0.7,16,9,125,82,52,颗粒物(PM10)
上饶市,双创科技城,117.897,28.4315,2024-11-13T1400,25,74,0.6,11,5,128,99,62,颗粒物(PM10)
韶关市,市八中,113.5824,24.7733,2024-11-13T1400,23,32,0.5,2,9,107,61,34,
韶关市,园林处,113.5917,24.7972,2024-11-13T1400,19,,0.4,2,11,104,61,33,
韶关市,韶关学院,113.6735,24.7791,2024-11-13T1400,14,22,0.4,6,10,104,56,33,
韶关市,曲江监测站,113.5971,24.6863,2024-11-13T1400,22,32,0.8,6,15,111,60,35,
韶关市,碧湖山庄,113.5556,24.8082,2024-11-13T1400,23,30,0.5,3,11,108,59,34,
邵阳市,市水土所,111.5239,27.3033,2024-11-13T1400,,,,,,,,,
邵阳市,市一中,111.4733,27.2317,2024-11-13T1400,44,49,0.7,6,11,152,115,62,细颗粒物(PM2.5)
邵阳市,市化工厂,111.5283,27.2442,2024-11-13T1400,31,50,0.7,9,13,150,105,50,
邵阳市,市罐头厂,111.4503,27.2537,2024-11-13T1400,37,71,0.6,5,13,164,112,61,颗粒物(PM10)
邵阳市,市环保局,111.4328,27.2272,2024-11-13T1400,31,61,0.8,9,12,148,108,56,颗粒物(PM10)
绍兴市,城东开发委,120.6053,29.9928,2024-11-13T1400,22,39,0.6,22,7,98,58,39,
绍兴市,树下王站,120.5483,30.0003,2024-11-13T1400,28,38,0.2,18,6,105,59,40,
绍兴市,绍兴中专,120.5683,29.9361,2024-11-13T1400,19,32,0.5,16,8,102,56,32,
绍兴市,柯桥区政府,120.4906,30.0861,2024-11-13T1400,25,48,0.8,24,7,99,61,48,
绍兴市,重华小学,120.8752,30.0249,2024-11-13T1400,24,34,0.7,19,7,111,64,35,
绍兴市,上虞中学,120.8369,30.0137,2024-11-13T1400,26,33,0.7,13,6,113,57,38,
绍兴市,柯桥妇保,120.4722,30.0415,2024-11-13T1400,25,41,0.9,22,4,97,56,41,
绍兴市,袍江中学,120.6153,30.0764,2024-11-13T1400,38,54,0.8,26,6,111,62,54,细颗粒物(PM2.5)
深圳市,通心岭子站,114.1063,22.5545,2024-11-13T1400,29,39,0.7,24,5,77,58,42,
深圳市,洪湖,114.117,22.5625,2024-11-13T1400,18,37,0.5,27,6,72,37,37,
深圳市,华侨城,113.987,22.5417,2024-11-13T1400,25,38,0.6,19,5,75,41,38,
深圳市,南海子站,113.9181,22.5171,2024-11-13T1400,25,50,0.6,30,6,88,52,50,
深圳市,盐田,114.2458,22.5689,2024-11-13T1400,,,0.6,9,7,,43,,
深圳市,龙岗,114.2283,22.7244,2024-11-13T1400,13,21,0.6,15,8,66,54,21,
深圳市,南澳,114.494,22.5422,2024-11-13T1400,15,21,0.5,8,8,67,56,22,
深圳市,葵涌,114.41,22.6342,2024-11-13T1400,17,23,0.5,12,6,68,54,25,
深圳市,梅沙,114.297,22.5978,2024-11-13T1400,18,27,0.5,12,8,74,66,27,
深圳市,观澜,114.0678,22.738,2024-11-13T1400,22,43,0.6,20,,77,51,,
深圳市,莲花,114.0731,22.559,2024-11-13T1400,35,49,0.6,27,6,48,46,50,
深圳市,民治,114.0261,22.6198,2024-11-13T1400,28,45,0.7,20,6,93,51,45,
深圳市,横岗,114.1871,22.6451,2024-11-13T1400,18,26,0.5,18,6,68,44,26,
深圳市,坪山,114.3551,22.7151,2024-11-13T1400,18,28,0.5,17,6,62,48,28,
深圳市,西乡,113.8953,22.5861,2024-11-13T1400,16,33,0.6,22,6,103,54,33,
沈阳市,森林路,123.6836,41.9339,2024-11-13T1400,,,,,,,,,
沈阳市,浑南东路,123.505,41.7406,2024-11-13T1400,30,47,0.8,24,16,82,41,47,
沈阳市,新秀街,123.4231,41.6989,2024-11-13T1400,27,51,0.8,26,15,75,36,51,颗粒物(PM10)
沈阳市,东陵路,123.5903,41.8411,2024-11-13T1400,22,43,0.8,21,12,77,38,43,
沈阳市,陵东街,123.4264,41.8467,2024-11-13T1400,27,47,0.7,21,13,78,33,47,
沈阳市,文化路,123.4114,41.7653,2024-11-13T1400,31,54,0.7,22,12,80,41,52,颗粒物(PM10)
沈阳市,小河沿,123.4678,41.7867,2024-11-13T1400,26,52,0.8,19,13,85,38,51,颗粒物(PM10)
沈阳市,太原街,123.4017,41.7972,2024-11-13T1400,30,52,0.7,26,19,74,36,51,颗粒物(PM10)
沈阳市,京沈街,123.3783,41.9228,2024-11-13T1400,29,55,0.7,22,16,73,38,53,颗粒物(PM10)
沈阳市,沈辽西路,123.2444,41.7347,2024-11-13T1400,28,67,0.9,23,14,75,38,59,颗粒物(PM10)
沈阳市,裕农路,123.5953,41.9086,2024-11-13T1400,17,40,0.7,25,12,74,48,40,
十堰市,武当山,111.0419,32.395,2024-11-13T1400,3,13,0.8,17,9,72,70,23,
十堰市,滨河新村,110.78,32.6494,2024-11-13T1400,42,70,0.8,20,7,54,67,60,颗粒物(PM10)
十堰市,刘家沟,110.7258,32.6389,2024-11-13T1400,41,96,0.8,20,6,52,61,73,颗粒物(PM10)
十堰市,铁二处,110.8839,32.5714,2024-11-13T1400,56,68,0.8,35,9,42,54,77,细颗粒物(PM2.5)
十堰市,郧阳区金沙路,110.8054,32.8401,2024-11-13T1400,65,,0.7,25,6,38,47,88,细颗粒物(PM2.5)
石河子市,艾青诗歌馆,86.0497,44.2967,2024-11-13T1400,62,96,1.0,27,9,11,11,84,细颗粒物(PM2.5)
石河子市,南区管委会,86.047,44.2331,2024-11-13T1400,,,1.1,31,8,13,14,,
石河子市,世纪广场,86.0791,44.3017,2024-11-13T1400,65,69,1.0,31,6,15,16,88,细颗粒物(PM2.5)
石家庄市,职工医院,114.4422,38.0444,2024-11-13T1400,111,128,0.9,28,4,,15,145,细颗粒物(PM2.5)
石家庄市,高新区,114.6063,38.0266,2024-11-13T1400,95,115,1.0,28,2,32,27,125,细颗粒物(PM2.5)
石家庄市,西北水源,114.4898,38.1328,2024-11-13T1400,112,119,0.9,14,1,24,17,147,细颗粒物(PM2.5)
石家庄市,西南高教,114.4586,38.0058,2024-11-13T1400,117,144,0.6,18,2,41,27,153,细颗粒物(PM2.5)
石家庄市,世纪公园,114.5331,38.0178,2024-11-13T1400,73,94,1.0,22,3,38,31,98,细颗粒物(PM2.5)
石家庄市,人民会堂,114.509,38.0457,2024-11-13T1400,103,,0.9,24,2,37,36,135,细颗粒物(PM2.5)
石家庄市,封龙山,114.3524,37.8911,2024-11-13T1400,,,,,,,,,
石家庄市,22中南校区,114.5481,38.0378,2024-11-13T1400,114,,0.9,30,2,37,38,149,细颗粒物(PM2.5)
石家庄市,鹿泉一中,114.289,38.0906,2024-11-13T1400,121,125,0.9,11,2,42,16,159,细颗粒物(PM2.5)
石家庄市,藁城区实验学校,114.8506765,38.0322033,2024-11-13T1400,97,110,1.0,33,4,24,11,128,细颗粒物(PM2.5)
石家庄市,井陉矿区区委大楼,114.0504658,38.0591645,2024-11-13T1400,93,107,0.9,28,2,44,22,123,细颗粒物(PM2.5)
石家庄市,栾城区星河路,114.6549,37.9020,2024-11-13T1400,102,,1.0,28,3,39,25,134,细颗粒物(PM2.5)
石嘴山市,沙湖旅游区,106.3394,38.817,2024-11-13T1400,,,,,,,,,
石嘴山市,大武口朝阳西街,106.3668,39.0145,2024-11-13T1400,58,108,1.2,28,18,44,19,79,"颗粒物(PM10),细颗粒物(PM2.5)"
石嘴山市,惠农南大街,106.7704,39.2282,2024-11-13T1400,157,171,3.0,46,24,28,14,207,细颗粒物(PM2.5)
石嘴山市,红果子镇惠新街,106.7099,39.1325,2024-11-13T1400,200,221,3.1,46,14,28,16,250,细颗粒物(PM2.5)
石嘴山市,妇女儿童医院,106.3495,38.9836,2024-11-13T1400,76,108,0.8,26,19,46,20,102,细颗粒物(PM2.5)
石嘴山市,石大公路,106.7492,39.2069,2024-11-13T1400,194,,3.2,,12,29,16,244,细颗粒物(PM2.5)
双鸭山市,双合村,131.1511,46.6937,2024-11-13T1400,105,125,0.7,28,20,56,34,138,细颗粒物(PM2.5)
双鸭山市,南小市,131.1652,46.6191,2024-11-13T1400,88,110,0.4,13,8,72,44,117,细颗粒物(PM2.5)
双鸭山市,环保局,131.1524,46.6554,2024-11-13T1400,83,102,0.7,16,10,70,46,110,细颗粒物(PM2.5)
双鸭山市,苗圃,131.12,46.5656,2024-11-13T1400,68,,0.4,15,3,73,48,92,细颗粒物(PM2.5)
朔州市,平朔,112.4397,39.3522,2024-11-13T1400,68,81,1.1,42,6,20,24,92,细颗粒物(PM2.5)
朔州市,朔唯,112.4575,39.3617,2024-11-13T1400,66,79,0.9,49,8,19,26,89,细颗粒物(PM2.5)
朔州市,区政府,112.4258,39.3197,2024-11-13T1400,60,75,0.9,38,6,26,32,82,细颗粒物(PM2.5)
朔州市,市环保局,112.4072,39.3278,2024-11-13T1400,54,71,0.9,37,10,28,23,74,细颗粒物(PM2.5)
朔州市,市二中,112.4272,39.3681,2024-11-13T1400,73,78,0.8,46,6,15,14,98,细颗粒物(PM2.5)
朔州市,一水厂,112.2931,39.53,2024-11-13T1400,46,66,0.8,33,9,29,16,64,细颗粒物(PM2.5)
四平市,一商场,124.4002,43.1713,2024-11-13T1400,19,55,0.4,16,7,76,63,53,颗粒物(PM10)
四平市,境园,124.388,43.193,2024-11-13T1400,16,28,0.3,13,5,79,54,28,
四平市,植物园,124.4036,43.1411,2024-11-13T1400,29,50,0.4,19,7,80,62,50,
四平市,世纪城,124.3419,43.1666,2024-11-13T1400,15,30,0.5,12,8,77,55,30,
松原市,江南,124.8006,45.1214,2024-11-13T1400,,,,,,,48,,
松原市,江北,124.7965,45.1722,2024-11-13T1400,196,,1.0,32,8,114,60,246,细颗粒物(PM2.5)
苏州市,上方山,120.561,31.2472,2024-11-13T1400,29,49,0.7,15,8,124,80,49,
苏州市,彩香,120.591,31.3019,2024-11-13T1400,29,45,0.7,12,7,119,79,45,
苏州市,轧钢厂,120.596,31.3264,2024-11-13T1400,23,36,0.8,22,7,120,72,38,
苏州市,吴中区,120.613,31.2703,2024-11-13T1400,24,39,0.6,12,7,118,73,39,
苏州市,苏州新区,120.543,31.2994,2024-11-13T1400,24,36,0.8,18,6,124,76,39,
苏州市,苏州工业园区,120.669,31.3097,2024-11-13T1400,24,38,0.6,22,6,116,76,38,
苏州市,相城区,120.641,31.3708,2024-11-13T1400,,,,,,,63,,
苏州市,方洲路,120.743,31.3188,2024-11-13T1400,39,39,0.7,18,7,115,66,55,细颗粒物(PM2.5)
苏州市,木渎中学,120.5031,31.2774,2024-11-13T1400,10,30,0.5,,8,118,78,,
苏州市,越秀幼儿园,120.624,31.1733,2024-11-13T1400,35,44,0.7,12,4,115,76,50,
苏州市,高铁新城,120.6505,31.416,2024-11-13T1400,28,46,0.7,28,7,99,74,46,
宿迁市,宿迁学院,118.293,33.9528,2024-11-13T1400,55,,0.7,12,3,,69,,
宿迁市,宿迁中学,118.2442,33.9592,2024-11-13T1400,60,,0.8,11,2,104,82,82,细颗粒物(PM2.5)
宿迁市,市供电局,118.283,33.965,2024-11-13T1400,78,,0.6,14,4,96,73,104,细颗粒物(PM2.5)
宿迁市,宿豫区政府,118.3225,33.9447,2024-11-13T1400,58,,0.6,14,2,100,79,79,细颗粒物(PM2.5)
宿州市,远航博物馆,116.9509,33.666,2024-11-13T1400,33,70,0.4,12,3,95,70,60,颗粒物(PM10)
宿州市,社会福利中心,116.9708,33.591,2024-11-13T1400,42,71,0.5,12,5,88,65,61,颗粒物(PM10)
宿州市,宿州学院,116.9884,33.6305,2024-11-13T1400,42,62,0.7,18,5,88,68,59,细颗粒物(PM2.5)
宿州市,皖北煤电集团,116.9648,33.6252,2024-11-13T1400,32,54,,12,,96,68,,
绥化市,人和东街,126.9785,46.6365,2024-11-13T1400,108,142,0.6,17,5,66,45,142,细颗粒物(PM2.5)
绥化市,党政办公中心,126.964,46.6528,2024-11-13T1400,123,,0.4,17,6,67,47,162,细颗粒物(PM2.5)
随州市,市委党校,113.3583,31.7275,2024-11-13T1400,44,61,0.6,16,7,109,66,62,细颗粒物(PM2.5)
随州市,市林业局,113.3833,31.6908,2024-11-13T1400,45,50,0.7,14,13,103,64,63,细颗粒物(PM2.5)
随州市,市立交桥水厂,113.3983,31.7308,2024-11-13T1400,42,46,0.8,16,12,102,58,59,细颗粒物(PM2.5)
遂宁市,石溪浩,105.5453,30.5678,2024-11-13T1400,31,34,0.6,12,7,51,22,45,
遂宁市,市监测站,105.5582,30.5232,2024-11-13T1400,23,39,0.4,18,6,49,24,39,
遂宁市,行政中心,105.5861,30.5366,2024-11-13T1400,24,40,0.4,19,9,45,24,40,
遂宁市,美宁食品公司,105.5918,30.4728,2024-11-13T1400,21,38,0.4,18,6,45,22,38,
塔城地区,东门外小游园,82.9994,46.7432,2024-11-13T1400,3,14,0.1,,4,41,36,,
台州市,黄岩环保大楼,121.273,28.6459,2024-11-13T1400,24,42,0.5,11,4,103,73,42,
台州市,台州环保大楼,121.419,28.6542,2024-11-13T1400,20,32,0.4,12,4,117,82,37,
台州市,路桥田洋王,121.377,28.5773,2024-11-13T1400,21,27,0.3,10,4,114,82,36,
台州市,台州科技职业学院,121.2568,28.6681,2024-11-13T1400,20,41,0.6,18,6,100,,41,
太原市,尖草坪,112.522,37.8873,2024-11-13T1400,58,64,0.7,38,7,34,35,79,细颗粒物(PM2.5)
太原市,上兰,112.434,38.0108,2024-11-13T1400,56,58,0.8,26,4,27,34,77,细颗粒物(PM2.5)
太原市,晋源,112.469,37.7124,2024-11-13T1400,60,64,1.1,36,10,36,63,82,细颗粒物(PM2.5)
太原市,小店,112.5583,37.7394,2024-11-13T1400,71,77,1.8,47,9,21,41,95,细颗粒物(PM2.5)
太原市,桃园,112.5369,37.8692,2024-11-13T1400,54,67,1.2,35,8,41,29,74,细颗粒物(PM2.5)
太原市,坞城,112.57,37.8195,2024-11-13T1400,65,,1.4,34,9,36,50,88,细颗粒物(PM2.5)
太原市,南寨,112.549,37.9854,2024-11-13T1400,70,78,0.8,,,34,24,,
太原市,金胜,112.4719,37.7831,2024-11-13T1400,43,55,0.7,29,7,43,62,60,细颗粒物(PM2.5)
太原市,育英中学,112.5608,37.8807,2024-11-13T1400,64,75,0.8,39,8,35,44,87,细颗粒物(PM2.5)
泰安市,监测站,117.1437,36.1937,2024-11-13T1400,90,110,0.9,22,7,83,54,119,细颗粒物(PM2.5)
泰安市,人口学校,117.0885,36.2017,2024-11-13T1400,73,110,1.2,23,9,92,65,98,细颗粒物(PM2.5)
泰安市,电力学校,117.1089,36.1758,2024-11-13T1400,66,102,0.8,24,5,,44,,
泰安市,国网新校,117.1812,36.2275,2024-11-13T1400,66,90,0.7,11,5,90,61,89,细颗粒物(PM2.5)
泰安市,交通技校,117.0313,36.2018,2024-11-13T1400,55,88,0.7,13,4,89,74,75,细颗粒物(PM2.5)
泰安市,山东第一医科大学,117.0829,36.13,2024-11-13T1400,56,85,0.4,14,3,96,49,77,细颗粒物(PM2.5)
泰州市,公园路,119.905,32.4878,2024-11-13T1400,46,53,0.8,17,5,120,84,64,细颗粒物(PM2.5)
泰州市,莲花,119.9189,32.4625,2024-11-13T1400,44,56,0.9,16,5,124,83,62,细颗粒物(PM2.5)
泰州市,留学生创业园,119.888,32.4639,2024-11-13T1400,44,55,0.8,18,7,130,90,62,细颗粒物(PM2.5)
泰州市,王营,119.8767,32.3289,2024-11-13T1400,34,78,0.9,19,6,129,91,64,颗粒物(PM10)
泰州市,姜堰区政府广场,120.1259,32.5099,2024-11-13T1400,25,48,0.6,15,12,125,86,48,
泰州市,周山河街区,119.9192,32.4322,2024-11-13T1400,44,,0.7,18,8,121,83,62,细颗粒物(PM2.5)
唐山市,雷达站,118.131,39.6363,2024-11-13T1400,37,58,2.1,62,8,6,17,54,颗粒物(PM10)
唐山市,物资局,118.1725,39.6334,2024-11-13T1400,22,62,1.6,58,11,8,10,56,颗粒物(PM10)
唐山市,十二中,118.1705,39.6506,2024-11-13T1400,32,45,1.7,59,,3,14,,
唐山市,小山,118.1869,39.622,2024-11-13T1400,26,59,1.6,53,14,2,7,55,颗粒物(PM10)
唐山市,冀东油田职工医院,118.4359,39.2762,2024-11-13T1400,23,37,0.6,43,4,5,8,37,
唐山市,正泰大街热力站,118.09279,39.58089,2024-11-13T1400,27,53,2.0,61,6,4,9,52,颗粒物(PM10)
唐山市,丰润区政府,118.1562,39.8322,2024-11-13T1400,30,,1.4,35,6,15,8,,
唐山市,金山小学,118.43673,39.73809,2024-11-13T1400,28,65,1.6,50,11,18,48,58,颗粒物(PM10)
唐山市,政府服务中心,118.24498,39.66941,2024-11-13T1400,36,57,1.7,47,12,8,17,54,颗粒物(PM10)
唐山市,消防缸窑路中队,118.2059,39.6585,2024-11-13T1400,24,51,2.2,,11,5,19,,
唐山市,路南电大,118.1436,39.6202,2024-11-13T1400,33,72,1.6,,11,6,13,,
天津市,勤俭道,117.1444,39.1661,2024-11-13T1400,21,33,1.4,42,7,1,2,33,
天津市,大直沽八号路,117.237,39.1082,2024-11-13T1400,28,45,0.8,44,5,0,0,45,
天津市,前进道,117.202,39.0927,2024-11-13T1400,22,34,0.9,51,6,5,6,34,
天津市,淮河道,117.1837,39.2133,2024-11-13T1400,22,42,1.4,42,5,2,2,42,
天津市,跃进路,117.307,39.0877,2024-11-13T1400,31,48,1.0,41,4,1,1,48,
天津市,第四大街,117.707,39.0343,2024-11-13T1400,43,66,1.1,63,4,4,21,60,细颗粒物(PM2.5)
天津市,永明路,117.457,38.8394,2024-11-13T1400,78,91,1.2,42,4,18,31,104,细颗粒物(PM2.5)
天津市,汉北路,117.764,39.1587,2024-11-13T1400,27,45,0.6,42,8,5,4,45,
天津市,团泊洼,117.157,38.9194,2024-11-13T1400,,,,,,,,,
天津市,河西一经路,117.7918,39.2474,2024-11-13T1400,35,52,0.8,49,5,4,5,51,颗粒物(PM10)
天津市,津沽路,117.3747,38.9846,2024-11-13T1400,38,48,1.1,,,5,13,,
天津市,宾水西道,117.1589,39.0845,2024-11-13T1400,20,28,1.1,,4,3,6,,
天津市,大理道,117.1941,39.1067,2024-11-13T1400,28,44,1.1,50,4,2,4,44,
天津市,中山北路,117.2101,39.1699,2024-11-13T1400,26,42,1.2,47,4,3,3,42,
天津市,西四道,117.3876,39.1488,2024-11-13T1400,30,51,1.2,42,6,2,2,51,颗粒物(PM10)
天津市,雍阳西道,117.0365,39.3828,2024-11-13T1400,30,50,1.4,48,5,6,4,50,
天津市,辛老路,117.0296,39.0605,2024-11-13T1400,32,48,1.1,41,3,6,10,48,
天津市,地纬路,116.9638,38.9375,2024-11-13T1400,28,38,0.9,46,5,3,3,40,
天津市,北环路,117.4067,40.0583,2024-11-13T1400,31,50,1.4,38,7,24,21,50,
天津市,建设路,117.3045,39.7169,2024-11-13T1400,28,50,2.4,40,7,18,8,50,
天津市,滨水东路,117.8199,39.3521,2024-11-13T1400,30,59,1.3,44,3,3,3,55,颗粒物(PM10)
天水市,麦积山,106.0055,34.343,2024-11-13T1400,,,,,,,,,
天水市,公园小学,105.7205,34.5786,2024-11-13T1400,24,42,,,10,39,22,,
天水市,麦积国土局,105.8945,34.5538,2024-11-13T1400,25,33,1.2,25,6,39,22,36,
铁岭市,汇工街西,123.8139,42.3022,2024-11-13T1400,16,42,0.8,27,12,61,46,42,
铁岭市,水上乐园,123.8649,42.2923,2024-11-13T1400,14,37,0.5,26,17,65,52,37,
铁岭市,银州路东段,123.8486,42.2867,2024-11-13T1400,18,,0.7,28,14,55,45,,
铁岭市,金沙江路北,123.7153,42.2217,2024-11-13T1400,21,45,0.8,,14,61,45,,
通化市,光明,125.9358,41.7173,2024-11-13T1400,12,15,0.3,11,11,78,32,25,
通化市,铁路,125.9446,41.7325,2024-11-13T1400,9,17,0.4,11,12,77,33,25,
通辽市,艺术职业学校,122.2532,43.6801,2024-11-13T1400,27,71,0.6,24,11,70,48,61,颗粒物(PM10)
通辽市,老干部活动中心,122.2584,43.6333,2024-11-13T1400,27,55,0.2,,14,77,54,,
通辽市,东方明珠社区,122.2922,43.6189,2024-11-13T1400,33,49,0,17,13,80,52,49,
铜川市,党校,109.0656,35.0994,2024-11-13T1400,,,,,,,,,
铜川市,王益区政府,109.0697,35.0697,2024-11-13T1400,29,,0.7,14,6,52,38,42,
铜川市,新区管委会,108.9344,34.9058,2024-11-13T1400,43,61,1.1,22,8,45,35,60,细颗粒物(PM2.5)
铜川市,旺旺集团,108.9543,34.8732,2024-11-13T1400,40,56,1.0,21,6,50,40,57,细颗粒物(PM2.5)
铜陵市,市第四中学,117.8177,30.9412,2024-11-13T1400,28,54,0.4,11,9,126,84,52,颗粒物(PM10)
铜陵市,市公路局,117.8059,30.9273,2024-11-13T1400,24,51,0.4,13,4,122,76,51,颗粒物(PM10)
铜陵市,市新民污水厂,117.7807,30.9413,2024-11-13T1400,19,41,0.5,14,8,126,81,41,
铜陵市,市第九中学,117.7439,30.8792,2024-11-13T1400,23,59,0.6,50,6,92,54,55,颗粒物(PM10)
铜陵市,车站新区,117.846,30.9413,2024-11-13T1400,31,42,0.4,11,6,126,77,45,
铜陵市,市职教基地,117.8483,30.97,2024-11-13T1400,15,40,0.6,10,6,125,88,40,
铜仁市,铜仁卫校,109.1839,27.7344,2024-11-13T1400,37,61,0.4,10,,91,73,,
铜仁市,铜仁七中,109.1753,27.6944,2024-11-13T1400,47,55,0.5,13,3,97,74,65,细颗粒物(PM2.5)
吐鲁番市,市环保局,89.1904,42.9418,2024-11-13T1400,25,60,0.7,18,6,82,60,55,颗粒物(PM10)
吐鲁番市,地区环保局,89.1673,42.9559,2024-11-13T1400,33,77,0.9,23,6,70,35,64,颗粒物(PM10)
威海市,华夏技校,122.1214,37.4236,2024-11-13T1400,3,22,0.2,19,4,64,66,22,
威海市,山大分校,122.0508,37.5236,2024-11-13T1400,3,12,0.4,14,,69,59,,
威海市,市监测站,122.1067,37.5072,2024-11-13T1400,3,24,0.7,16,4,65,42,24,
威海市,文登开发区,122.0693,37.2174,2024-11-13T1400,9,25,0.2,31,7,61,40,25,
威海市,临港区管委会,122.1379,37.3414,2024-11-13T1400,3,17,0.3,18,5,61,55,20,
潍坊市,环保局,119.1437,36.7023,2024-11-13T1400,88,124,0.7,36,9,73,63,117,细颗粒物(PM2.5)
潍坊市,坊子邮政,119.1641,36.6523,2024-11-13T1400,88,114,0.5,33,8,68,50,117,细颗粒物(PM2.5)
潍坊市,潍坊七中,119.0587,36.721,2024-11-13T1400,83,114,0.6,20,7,88,55,110,细颗粒物(PM2.5)
潍坊市,高新实验学校,119.1977,36.6872,2024-11-13T1400,88,124,0.4,31,6,66,35,117,细颗粒物(PM2.5)
潍坊市,潍坊学院,119.1755,36.7149,2024-11-13T1400,91,129,0.8,40,7,72,59,120,细颗粒物(PM2.5)
潍坊市,寒亭区实验一小,119.2041,36.7699,2024-11-13T1400,95,129,0.9,42,9,70,34,125,细颗粒物(PM2.5)
渭南市,农科所,109.5293,34.5101,2024-11-13T1400,,,,,,,,,
渭南市,日报社,109.4974,34.4877,2024-11-13T1400,95,97,1.2,23,9,38,20,125,细颗粒物(PM2.5)
渭南市,体育馆,109.4636,34.493,2024-11-13T1400,3,6,1.2,,6,41,23,,
渭南市,高新一小,109.4259,34.5023,2024-11-13T1400,90,98,1.2,19,9,42,26,119,细颗粒物(PM2.5)
温州市,瓯海,120.634,28.0089,2024-11-13T1400,26,39,0.4,10,5,102,87,39,
温州市,南浦,120.6748,27.9939,2024-11-13T1400,16,30,0.5,12,7,114,96,36,
温州市,龙湾,120.76,27.9747,2024-11-13T1400,22,37,0.4,32,5,97,73,37,
温州市,市站,120.6709,28.0167,2024-11-13T1400,19,37,0.4,13,5,104,87,37,
温州市,茶山,120.6985,27.9251,2024-11-13T1400,20,34,0.5,13,6,116,87,37,
文山壮族苗族自治州,州水务局,104.2533,23.3594,2024-11-13T1400,3,22,0.2,6,4,87,60,28,
文山壮族苗族自治州,市便民服务中心,104.2319,23.3892,2024-11-13T1400,19,25,0.3,6,4,87,62,28,
乌海市,市林业局,106.8174,39.6973,2024-11-13T1400,46,67,0.8,38,22,53,14,64,细颗粒物(PM2.5)
乌海市,中海勃湾学校,106.7907,39.6667,2024-11-13T1400,27,61,1.0,29,28,63,16,56,颗粒物(PM10)
乌海市,海北新区,106.813,39.7274,2024-11-13T1400,30,59,0.8,33,30,62,18,55,颗粒物(PM10)
乌海市,聚英学校,106.8288,39.6778,2024-11-13T1400,30,76,0.8,30,31,67,18,63,颗粒物(PM10)
乌兰察布市,集宁新区,113.1306,40.9923,2024-11-13T1400,31,49,0.5,24,14,82,47,49,
乌兰察布市,光明街小学,113.1076,41.0385,2024-11-13T1400,31,42,0.5,24,16,67,38,45,
乌兰察布市,北京八中,113.1376,40.9509,2024-11-13T1400,16,51,1.6,27,18,61,31,51,颗粒物(PM10)
乌兰察布市,市委党校,113.1775,40.9779,2024-11-13T1400,21,56,0.8,23,16,73,37,53,颗粒物(PM10)
乌鲁木齐市,监测站,87.5801,43.8303,2024-11-13T1400,74,106,1.5,55,3,10,7,99,细颗粒物(PM2.5)
乌鲁木齐市,收费所,87.6046,43.768,2024-11-13T1400,73,96,1.6,63,3,9,7,98,细颗粒物(PM2.5)
乌鲁木齐市,新疆农科院农场,87.4754,43.9469,2024-11-13T1400,62,,0.8,16,7,33,20,84,细颗粒物(PM2.5)
乌鲁木齐市,铁路局,87.5525,43.8711,2024-11-13T1400,70,96,0.9,37,1,20,10,94,细颗粒物(PM2.5)
乌鲁木齐市,三十一中学,87.6432,43.831,2024-11-13T1400,69,114,1.2,56,2,11,4,93,细颗粒物(PM2.5)
乌鲁木齐市,米东区环保局,87.7216,44.1747,2024-11-13T1400,34,46,0.8,21,4,33,26,49,
乌鲁木齐市,培训基地,87.4651,43.4569,2024-11-13T1400,14,29,0.5,13,4,68,60,29,
乌鲁木齐市,达坂城区环保局,88.3118,43.3658,2024-11-13T1400,27,58,0.6,29,6,41,18,54,颗粒物(PM10)
乌鲁木齐市,红光山片区,87.6162,43.8801,2024-11-13T1400,75,95,1.4,51,6,11,6,100,细颗粒物(PM2.5)
乌鲁木齐市,新师大温泉校区,87.7024,43.8004,2024-11-13T1400,74,101,1.3,51,8,15,12,99,细颗粒物(PM2.5)
乌鲁木齐市,大绿谷,87.4921,43.8411,2024-11-13T1400,43,74,0.8,40,6,18,8,62,颗粒物(PM10)
无锡市,雪浪,120.269,31.4867,2024-11-13T1400,29,61,0.6,32,7,99,75,56,颗粒物(PM10)
无锡市,黄巷,120.275,31.6219,2024-11-13T1400,39,70,0.9,39,4,87,66,60,颗粒物(PM10)
无锡市,曹张,120.294,31.56,2024-11-13T1400,31,54,0.8,25,7,102,82,52,颗粒物(PM10)
无锡市,漆塘,120.242,31.5031,2024-11-13T1400,34,61,0.8,26,3,103,75,56,颗粒物(PM10)
无锡市,东亭,120.3489,31.5863,2024-11-13T1400,31,56,1.1,22,5,104,76,53,颗粒物(PM10)
无锡市,旺庄,120.354,31.5475,2024-11-13T1400,34,56,0.7,22,4,106,77,53,颗粒物(PM10)
无锡市,荣巷,120.245,31.5631,2024-11-13T1400,39,56,0.9,33,4,91,73,55,细颗粒物(PM2.5)
无锡市,堰桥,120.299,31.6817,2024-11-13T1400,34,58,0.9,19,8,119,84,54,颗粒物(PM10)
无锡市,华庄,120.3142,31.4753,2024-11-13T1400,26,37,0.8,25,6,103,71,38,
吴忠市,教育园区,106.1532,37.9648,2024-11-13T1400,59,69,0.9,41,26,38,25,80,细颗粒物(PM2.5)
吴忠市,新区二泵站,106.1856,37.9956,2024-11-13T1400,41,42,0.8,32,14,51,30,58,细颗粒物(PM2.5)
吴忠市,文卫南街,106.2112,37.9768,2024-11-13T1400,31,43,0.5,29,13,59,26,45,
芜湖市,监测站,118.3606,31.3519,2024-11-13T1400,17,34,0.5,18,10,111,74,35,
芜湖市,科创中心,118.3714,31.4134,2024-11-13T1400,17,60,0.5,19,8,118,75,55,颗粒物(PM10)
芜湖市,四水厂,118.3673,31.3131,2024-11-13T1400,20,58,0.7,22,9,124,81,54,颗粒物(PM10)
芜湖市,市气象局,118.4209,31.3707,2024-11-13T1400,18,37,0.5,19,7,123,81,39,
芜湖市,清苑社区,118.4781,31.3225,2024-11-13T1400,17,36,0.5,18,9,121,80,38,
芜湖市,扬子职业技术学院,118.2746,31.2326,2024-11-13T1400,25,54,0.5,18,7,132,86,52,颗粒物(PM10)
梧州市,市逸夫小学,111.3014,23.4832,2024-11-13T1400,41,52,0.7,8,11,121,61,58,细颗粒物(PM2.5)
梧州市,市十一中,111.3239,23.4794,2024-11-13T1400,24,40,0.7,11,10,124,57,40,
梧州市,龙圩,111.247,23.4189,2024-11-13T1400,37,59,0.8,9,10,131,62,55,颗粒物(PM10)
梧州市,龙新,111.2711,23.4835,2024-11-13T1400,32,63,0.9,10,10,126,58,57,颗粒物(PM10)
五家渠市,农水大厦,87.5475,44.1756,2024-11-13T1400,26,27,0.5,2,4,29,25,38,
五家渠市,经开区管委会,87.546,44.1912,2024-11-13T1400,20,,0.5,8,3,32,27,29,
武汉市,东湖梨园,114.3677,30.5584,2024-11-13T1400,29,44,0.8,20,12,141,78,45,
武汉市,汉阳月湖,114.2529,30.558,2024-11-13T1400,31,53,0.9,21,13,129,77,52,颗粒物(PM10)
武汉市,汉口花桥,114.282,30.6189,2024-11-13T1400,29,52,0.9,17,12,120,77,51,颗粒物(PM10)
武汉市,武昌紫阳,114.3025,30.5332,2024-11-13T1400,30,54,1.0,17,14,133,72,52,颗粒物(PM10)
武汉市,青山钢花,114.3646,30.6217,2024-11-13T1400,46,53,0.7,25,11,135,80,64,细颗粒物(PM2.5)
武汉市,沌口新区,114.1566,30.4825,2024-11-13T1400,31,55,0.7,18,12,129,75,53,颗粒物(PM10)
武汉市,汉口江滩,114.3014,30.5944,2024-11-13T1400,34,51,0.8,22,12,126,79,51,颗粒物(PM10)
武汉市,吴家山,114.135,30.6319,2024-11-13T1400,29,64,1.0,28,11,120,73,57,颗粒物(PM10)
武汉市,沉湖七壕,113.8454,30.2917,2024-11-13T1400,30,47,0.7,12,8,144,78,47,
武汉市,民族大道182号,114.3877,30.4908,2024-11-13T1400,28,34,0.6,10,10,136,81,43,
武威市,监测站,102.6201,37.9251,2024-11-13T1400,12,28,0.3,8,6,92,67,29,
武威市,东关招商场,102.6486,37.9325,2024-11-13T1400,15,21,0.3,6,4,90,72,29,
西安市,高压开关厂,108.882,34.2749,2024-11-13T1400,58,118,1.1,25,6,32,14,84,颗粒物(PM10)
西安市,兴庆小区,108.993,34.2629,2024-11-13T1400,56,92,1.0,28,6,31,15,77,细颗粒物(PM2.5)
西安市,纺织城,109.06,34.2572,2024-11-13T1400,87,128,1.2,27,8,27,13,115,细颗粒物(PM2.5)
西安市,小寨,108.9356,34.2173,2024-11-13T1400,64,150,1.3,,5,24,7,,
西安市,市人民体育场,108.954,34.2713,2024-11-13T1400,79,123,,26,8,35,14,105,细颗粒物(PM2.5)
西安市,高新西区,108.8922,34.2322,2024-11-13T1400,85,148,1.3,27,6,17,10,113,细颗粒物(PM2.5)
西安市,经开区,108.935,34.3474,2024-11-13T1400,38,83,0.9,20,5,37,20,67,颗粒物(PM10)
西安市,长安区,108.906,34.1546,2024-11-13T1400,83,163,1.3,29,6,10,8,110,细颗粒物(PM2.5)
西安市,临潼区,109.2186,34.3731,2024-11-13T1400,63,114,1.1,23,6,31,17,85,细颗粒物(PM2.5)
西安市,草滩,108.869,34.378,2024-11-13T1400,73,80,0.6,15,1,39,22,98,细颗粒物(PM2.5)
西安市,曲江文化产业集团,108.985,34.1978,2024-11-13T1400,134,181,1.5,34,8,15,9,178,细颗粒物(PM2.5)
西安市,广运潭,109.051,34.3213,2024-11-13T1400,59,97,1.1,27,3,33,19,80,细颗粒物(PM2.5)
西安市,文体局,108.6116,34.1164,2024-11-13T1400,83,193,1.6,23,3,16,11,122,颗粒物(PM10)
西安市,无线电监控中心,109.09,34.5236,2024-11-13T1400,47,54,0.9,16,8,53,30,65,细颗粒物(PM2.5)
西宁市,第五水厂,101.524,36.6867,2024-11-13T1400,,,,,,,,,
西宁市,城北区政府,101.7775,36.6428,2024-11-13T1400,13,,1.0,24,16,75,49,24,
西宁市,世纪职校,101.8305,36.5786,2024-11-13T1400,45,47,1.1,36,17,71,46,63,细颗粒物(PM2.5)
西宁市,师大城西校区,101.7413,36.6397,2024-11-13T1400,35,43,1.2,32,,63,46,,
西双版纳傣族自治州,景洪市江南,100.7939,22.0019,2024-11-13T1400,13,27,0.7,6,8,57,20,27,
西双版纳傣族自治州,景洪市江北,100.8017,22.0225,2024-11-13T1400,3,10,0.7,3,8,44,19,14,
西咸新区,北杜,108.7108,34.46,2024-11-13T1400,78,,0.9,25,7,35,23,104,细颗粒物(PM2.5)
西咸新区,同德佳苑,108.7096,34.2956,2024-11-13T1400,77,108,1.0,25,6,32,21,103,细颗粒物(PM2.5)
西咸新区,崇文塔,108.8558,34.4978,2024-11-13T1400,57,73,1.0,23,5,54,33,78,细颗粒物(PM2.5)
锡林郭勒盟,市环保监测站,116.1042,43.9317,2024-11-13T1400,9,29,0.3,7,8,82,56,29,
锡林郭勒盟,市政府,116.0781,43.9311,2024-11-13T1400,11,27,0.2,6,7,86,66,27,
厦门市,溪东,118.1608,24.8169,2024-11-13T1400,,,,,,,,,
厦门市,洪文,118.1514,24.4767,2024-11-13T1400,16,33,0.5,7,3,75,62,33,
厦门市,鼓浪屿,118.0661,24.4444,2024-11-13T1400,16,33,0.4,4,2,72,61,33,
厦门市,湖里中学,118.0936,24.5058,2024-11-13T1400,13,28,0.3,12,1,64,56,28,
厦门市,集美中学,118.0958,24.5688,2024-11-13T1400,13,19,0.3,6,1,83,74,26,
厦门市,同安二实小,118.1493,24.7245,2024-11-13T1400,12,17,0.3,3,1,83,75,26,
咸宁市,森林公园,114.3175,29.8142,2024-11-13T1400,26,26,0.6,11,6,122,93,39,
咸宁市,市发改委,114.3107,29.8454,2024-11-13T1400,26,29,0.5,10,7,131,104,41,
咸宁市,咸安区政府,114.2936,29.8566,2024-11-13T1400,19,26,0.6,,6,129,104,,
咸宁市,长江产业园,114.3375,29.8683,2024-11-13T1400,27,34,0.5,11,8,133,101,42,
