area,positionname,longitude,latitude,timepoint,pm2_5,pm10,co,no2,so2,o3,o3_8h,aqi,primarypollutant
阿坝藏族羌族自治州,州农科所,102.1879,31.914,2024-11-10T0000,7,24,0.1,14,7,31,62,24,
阿坝藏族羌族自治州,马师校,102.2502,31.8896,2024-11-10T0000,12,21,0.6,28,5,9,10,21,
阿坝藏族羌族自治州,马尔康中学西区,102.2165,31.9024,2024-11-10T0000,22,,0.5,28,5,14,56,32,
阿克苏地区,电视台,80.292,41.1694,2024-11-10T0000,52,181,1.2,74,2,11,87,116,颗粒物(PM10)
阿克苏地区,艺术中心,80.2613,41.1551,2024-11-10T0000,47,189,1.9,95,4,5,86,120,颗粒物(PM10)
阿拉善盟,西城区西花园,105.6467,38.8363,2024-11-10T0000,32,42,0.8,22,9,56,99,46,
阿拉善盟,蒙二幼,105.6985,38.8411,2024-11-10T0000,3,32,0.5,14,7,64,96,32,
阿拉善盟,环保局新楼,105.724,38.8516,2024-11-10T0000,3,13,0.5,6,8,79,96,25,
阿勒泰地区,市站,88.1264,47.8517,2024-11-10T0000,3,6,0.1,8,7,51,55,16,
阿里地区,阿里监测站,80.1161,32.5,2024-11-10T0000,3,8,0.7,16,7,88,108,28,
阿里地区,阿里藏医院,80.0903,32.5028,2024-11-10T0000,3,13,0.4,2,5,107,115,34,
安康市,香溪洞,109.0318,32.6537,2024-11-10T0000,31,45,0.4,12,9,80,101,45,
安康市,汉滨区检察院,109.0072,32.6975,2024-11-10T0000,36,54,0.6,24,7,44,105,52,"颗粒物(PM10),细颗粒物(PM2.5)"
安康市,市邮政管理局,109.0325,32.6913,2024-11-10T0000,35,59,0.6,24,7,56,95,55,颗粒物(PM10)
安庆市,环科院,117.0809,30.5177,2024-11-10T0000,36,54,0.8,26,9,34,80,52,"颗粒物(PM10),细颗粒物(PM2.5)"
安庆市,马山宾馆,117.0331,30.5119,2024-11-10T0000,36,53,0.9,32,6,33,88,52,"颗粒物(PM10),细颗粒物(PM2.5)"
安庆市,安庆大学,116.9896,30.6145,2024-11-10T0000,37,54,0.7,26,9,31,75,53,细颗粒物(PM2.5)
安庆市,市人大,117.0598,30.5351,2024-11-10T0000,35,50,0.6,29,11,33,80,50,
安顺市,伍家关,105.9606,26.2611,2024-11-10T0000,55,58,0.8,8,9,76,86,75,细颗粒物(PM2.5)
安顺市,凤凰山,105.9408,26.2431,2024-11-10T0000,58,61,0.6,10,12,89,100,79,细颗粒物(PM2.5)
安顺市,金钟山,105.9439,26.2564,2024-11-10T0000,58,66,0.7,9,13,90,103,79,细颗粒物(PM2.5)
安顺市,娄家坡,105.8983,26.2481,2024-11-10T0000,60,74,0.6,11,14,84,100,82,细颗粒物(PM2.5)
安阳市,棉研所,114.4839,36.0621,2024-11-10T0000,67,95,0.3,28,6,37,69,90,细颗粒物(PM2.5)
安阳市,红庙街,114.3551,36.1017,2024-11-10T0000,63,70,0.4,29,2,34,73,85,细颗粒物(PM2.5)
安阳市,银杏小区,114.361,36.0681,2024-11-10T0000,60,74,0.5,26,3,33,76,82,细颗粒物(PM2.5)
安阳市,信访局,114.3922,36.0878,2024-11-10T0000,66,77,0.6,26,2,29,69,89,细颗粒物(PM2.5)
安阳市,左辅环卫站,114.4705,36.0637,2024-11-10T0000,63,106,0.6,19,2,36,66,85,细颗粒物(PM2.5)
安阳市,安钢职工学校,114.2917,36.0949,2024-11-10T0000,62,83,0.5,33,4,29,70,84,细颗粒物(PM2.5)
鞍山市,深沟寺,123.044,41.1196,2024-11-10T0000,20,35,0.6,8,6,118,116,37,
鞍山市,太阳城,123.011,41.0931,2024-11-10T0000,20,37,0.4,12,5,122,119,39,
鞍山市,太平,123.0485,41.1442,2024-11-10T0000,19,34,0.4,12,10,113,109,36,
鞍山市,铁西三道街,122.9642,41.0971,2024-11-10T0000,26,49,1.0,26,12,102,107,49,
鞍山市,铁西工业园区,122.9341,41.0833,2024-11-10T0000,26,45,0.6,10,8,110,110,45,
鞍山市,明达新区,123.022,41.0821,2024-11-10T0000,20,36,0.5,7,7,120,116,38,
鞍山市,千山,123.1289,41.0228,2024-11-10T0000,,,,,,,80,,
巴彦淖尔市,附二中,107.4212,40.761,2024-11-10T0000,39,100,0.7,54,10,21,82,75,颗粒物(PM10)
巴彦淖尔市,市环保大楼,107.37,40.7372,2024-11-10T0000,45,109,0.6,53,3,9,81,80,颗粒物(PM10)
巴音郭楞蒙古自治州,孔雀公园,86.1472,41.7538,2024-11-10T0000,35,66,0.5,58,5,30,72,58,颗粒物(PM10)
巴音郭楞蒙古自治州,棉纺厂,86.1972,41.7166,2024-11-10T0000,23,88,0.4,37,2,49,74,69,颗粒物(PM10)
巴音郭楞蒙古自治州,经济开发区,86.2357,41.7173,2024-11-10T0000,19,52,0.2,11,1,75,82,51,颗粒物(PM10)
巴中市,苏山坪,106.7677,31.8794,2024-11-10T0000,12,19,0.3,12,5,56,76,19,
巴中市,丽阳花园,106.7656,31.8545,2024-11-10T0000,20,30,0.5,41,4,4,68,30,
巴中市,圣泉水务公司,106.7418,31.8654,2024-11-10T0000,16,25,0.5,42,4,4,71,25,
巴中市,市中心医院,106.7616,31.8344,2024-11-10T0000,23,43,0.5,35,4,3,67,43,
白城市,洮北区环保局,122.7911,45.6077,2024-11-10T0000,82,104,0.5,17,11,62,57,109,细颗粒物(PM2.5)
白城市,市环保局,122.8738,45.5725,2024-11-10T0000,74,90,0.8,15,5,67,51,99,细颗粒物(PM2.5)
白山市,喜丰,126.4219,41.9171,2024-11-10T0000,34,95,0.8,55,15,10,96,73,颗粒物(PM10)
白山市,环保局,126.4077,41.9419,2024-11-10T0000,34,86,1.0,26,6,24,80,68,颗粒物(PM10)
白银市,第三小学,104.1724,36.5446,2024-11-10T0000,17,72,1.2,28,8,57,104,61,颗粒物(PM10)
白银市,动力公司,104.1465,36.5482,2024-11-10T0000,17,58,0.9,20,2,51,101,54,颗粒物(PM10)
百色市,市监测站,106.6103,23.9011,2024-11-10T0000,39,58,0.7,19,6,39,95,55,细颗粒物(PM2.5)
百色市,市中心血站,106.6538,23.8859,2024-11-10T0000,49,96,0.9,56,9,15,98,73,颗粒物(PM10)
百色市,祈福高中,106.6085,23.8798,2024-11-10T0000,38,80,0.7,41,5,26,88,65,颗粒物(PM10)
蚌埠市,工人疗养院,117.396,32.939,2024-11-10T0000,71,97,0.4,37,4,14,63,95,细颗粒物(PM2.5)
蚌埠市,百货大楼,117.3605,32.9427,2024-11-10T0000,69,96,0.5,46,4,7,58,93,细颗粒物(PM2.5)
蚌埠市,蚌埠学院,117.4185,32.8911,2024-11-10T0000,38,53,0.4,37,8,25,60,54,细颗粒物(PM2.5)
蚌埠市,淮上区政府,117.3533,32.9673,2024-11-10T0000,72,100,0.6,43,6,7,56,97,细颗粒物(PM2.5)
蚌埠市,高新区,117.3145,32.8977,2024-11-10T0000,67,80,0.5,54,16,7,60,90,细颗粒物(PM2.5)
蚌埠市,蚌埠田家炳中学,117.3092,32.9314,2024-11-10T0000,69,101,0.5,43,5,5,58,93,细颗粒物(PM2.5)
包头市,市环境监测站,109.8756,40.6532,2024-11-10T0000,29,40,0.6,20,8,60,54,42,
包头市,包头八中,109.9991,40.5842,2024-11-10T0000,6,57,0.5,22,10,55,49,54,颗粒物(PM10)
包头市,青山宾馆,109.8538,40.6821,2024-11-10T0000,14,42,0.6,24,11,50,52,42,
包头市,惠龙物流,109.8642,40.6288,2024-11-10T0000,18,42,0.4,16,8,63,50,42,
包头市,东河鸿龙湾,110.0377,40.5546,2024-11-10T0000,9,42,0.4,21,10,50,52,42,
包头市,滨河大厦,109.9154,40.5685,2024-11-10T0000,16,40,0.4,22,10,54,50,40,
包头市,包头市委党校,109.9447,40.6261,2024-11-10T0000,8,64,0.5,18,5,58,58,57,颗粒物(PM10)
包头市,昆区政府,109.8331,40.6576,2024-11-10T0000,11,51,0.5,17,10,58,46,51,颗粒物(PM10)
宝鸡市,庙沟村,107.185,34.3063,2024-11-10T0000,46,64,0.4,21,8,48,73,64,细颗粒物(PM2.5)
宝鸡市,竹园沟,107.0708,34.3017,2024-11-10T0000,56,72,0.6,24,6,27,74,77,细颗粒物(PM2.5)
宝鸡市,三陆医院,107.1906,34.3672,2024-11-10T0000,127,146,1.0,57,8,6,58,168,细颗粒物(PM2.5)
宝鸡市,监测站,107.1431,34.3547,2024-11-10T0000,77,84,0.8,28,6,20,67,103,细颗粒物(PM2.5)
宝鸡市,技工学校,107.1186,34.3739,2024-11-10T0000,97,,1.1,38,7,26,75,128,细颗粒物(PM2.5)
宝鸡市,陈仓区环保局家属楼,107.3906,34.3528,2024-11-10T0000,134,156,1.1,66,8,2,72,178,细颗粒物(PM2.5)
宝鸡市,文理学院,107.2058,34.3497,2024-11-10T0000,79,94,0.9,34,8,22,65,105,细颗粒物(PM2.5)
宝鸡市,三迪小学,107.2386,34.3622,2024-11-10T0000,116,139,1.1,73,8,5,57,152,细颗粒物(PM2.5)
保定市,游泳馆,115.493,38.8632,2024-11-10T0000,176,201,1.0,84,5,4,76,226,细颗粒物(PM2.5)
保定市,华电二区,115.5213,38.8959,2024-11-10T0000,182,205,1.3,86,7,2,75,232,细颗粒物(PM2.5)
保定市,接待中心,115.4713,38.9108,2024-11-10T0000,159,179,1.1,64,3,4,68,209,细颗粒物(PM2.5)
保定市,地表水厂,115.4612,38.8416,2024-11-10T0000,176,239,1.0,95,2,2,73,226,细颗粒物(PM2.5)
保定市,满城区生态环境分局,115.31981,38.95208,2024-11-10T0000,149,188,0.9,61,4,5,69,199,细颗粒物(PM2.5)
保定市,清苑区第二中学,115.47694,38.76408,2024-11-10T0000,155,208,0.8,89,6,6,76,205,细颗粒物(PM2.5)
保定市,徐水物探局,115.62909,39.02311,2024-11-10T0000,168,199,0.4,72,7,2,57,218,细颗粒物(PM2.5)
保定市,双鹰农机,115.4202,38.8656,2024-11-10T0000,141,184,1.0,64,2,6,80,188,细颗粒物(PM2.5)
保定市,植保所站,115.5150,38.8590,2024-11-10T0000,198,230,1.1,79,11,3,68,248,细颗粒物(PM2.5)
保山市,市环境监测站,99.1678,25.1081,2024-11-10T0000,8,22,0.6,7,5,27,81,22,
保山市,市环保局,99.1711,25.1328,2024-11-10T0000,19,,0.5,3,5,40,80,28,
北海市,牛尾岭水库,109.2262,21.588,2024-11-10T0000,57,65,0.8,,8,88,130,,
北海市,海滩公园,109.1436,21.4086,2024-11-10T0000,46,75,0.9,14,13,147,165,64,细颗粒物(PM2.5)
北海市,新市环保局,109.0981,21.4661,2024-11-10T0000,53,73,0.8,16,11,139,161,73,细颗粒物(PM2.5)
北海市,北海工业园,109.1778,21.5233,2024-11-10T0000,61,83,0.7,22,23,131,152,83,细颗粒物(PM2.5)
北海市,龙潭自来水厂,109.1911,21.4415,2024-11-10T0000,63,74,0.7,15,11,130,150,85,细颗粒物(PM2.5)
北京市,万寿西宫,116.3621,39.8784,2024-11-10T0000,131,174,1.0,64,3,16,52,173,细颗粒物(PM2.5)
北京市,定陵,116.2202,40.2915,2024-11-10T0000,129,169,0.8,24,3,11,49,170,细颗粒物(PM2.5)
北京市,东四,116.4174,39.9289,2024-11-10T0000,138,199,0.9,66,7,22,54,183,细颗粒物(PM2.5)
北京市,天坛,116.4072,39.8863,2024-11-10T0000,123,146,1.2,43,3,0,47,162,细颗粒物(PM2.5)
北京市,农展馆,116.462,39.9365,2024-11-10T0000,109,152,1.2,84,1,1,53,143,细颗粒物(PM2.5)
北京市,官园,116.3392,39.9295,2024-11-10T0000,139,185,1.4,76,5,1,55,185,细颗粒物(PM2.5)
北京市,海淀万柳,116.2878,39.9611,2024-11-10T0000,130,186,1.0,49,4,7,55,172,细颗粒物(PM2.5)
北京市,顺义新城,116.6636,40.135,2024-11-10T0000,128,164,0.8,37,1,19,51,169,细颗粒物(PM2.5)
北京市,怀柔镇,116.6275,40.3275,2024-11-10T0000,121,149,0.7,32,2,32,75,159,细颗粒物(PM2.5)
北京市,昌平镇,116.2296,40.217,2024-11-10T0000,130,186,0.9,65,4,13,54,172,细颗粒物(PM2.5)
北京市,奥体中心,116.3966,39.9821,2024-11-10T0000,119,170,1.5,85,2,1,52,156,细颗粒物(PM2.5)
北京市,古城,116.184,39.9136,2024-11-10T0000,139,209,1.4,40,4,1,55,185,细颗粒物(PM2.5)
北京市,延庆夏都,115.9718,40.4529,2024-11-10T0000,136,171,0.7,34,3,34,82,180,细颗粒物(PM2.5)
北京市,平谷新城,117.0709,40.1465,2024-11-10T0000,109,142,0.7,39,3,3,67,143,细颗粒物(PM2.5)
北京市,密云新城,116.8336,40.4095,2024-11-10T0000,108,173,0.7,38,3,14,75,142,细颗粒物(PM2.5)
北京市,门头沟三家店,116.088,39.9726,2024-11-10T0000,137,184,0.7,43,6,11,58,182,细颗粒物(PM2.5)
北京市,丰台云岗,116.1541,39.8204,2024-11-10T0000,146,188,0.8,71,4,3,54,195,细颗粒物(PM2.5)
北京市,通州东关,116.6804,39.9081,2024-11-10T0000,119,192,1.1,81,4,0,48,156,细颗粒物(PM2.5)
北京市,房山燕山,115.9577,39.7603,2024-11-10T0000,150,165,0.7,27,3,27,68,200,细颗粒物(PM2.5)
北京市,大兴旧宫,116.4672,39.7733,2024-11-10T0000,96,,0.7,32,3,0,48,127,细颗粒物(PM2.5)
北京市,延庆石河营,115.986,40.4563,2024-11-10T0000,133,167,0.7,33,3,29,83,176,细颗粒物(PM2.5)
北京市,怀柔新城,116.6151,40.3053,2024-11-10T0000,122,163,0.8,23,3,35,71,160,细颗粒物(PM2.5)
北京市,丰台小屯,116.2545,39.8768,2024-11-10T0000,135,192,1.1,71,2,1,49,179,细颗粒物(PM2.5)
北京市,密云镇,116.84,40.3844,2024-11-10T0000,109,153,0.8,58,3,0,67,143,细颗粒物(PM2.5)
本溪市,大峪,123.8275,41.3064,2024-11-10T0000,22,32,0.7,10,10,120,120,38,
本溪市,溪湖,123.7567,41.3325,2024-11-10T0000,32,50,0.8,17,11,110,112,50,
本溪市,彩屯,123.7169,41.3094,2024-11-10T0000,51,72,2.0,34,18,86,100,70,细颗粒物(PM2.5)
本溪市,东明,123.7669,41.2864,2024-11-10T0000,28,38,0.7,16,8,118,118,40,
本溪市,新立屯,123.7992,41.2664,2024-11-10T0000,19,35,0.6,18,6,117,119,37,
本溪市,威宁,123.8142,41.3472,2024-11-10T0000,22,42,0.8,13,9,110,108,42,
毕节市,八中,105.2864,27.3125,2024-11-10T0000,41,48,0.6,8,6,53,67,58,细颗粒物(PM2.5)
毕节市,师专,105.31,27.2944,2024-11-10T0000,32,36,0.6,7,5,55,67,46,
毕节市,长征村,105.3631,27.3533,2024-11-10T0000,38,45,0.6,7,6,51,73,54,细颗粒物(PM2.5)
滨州市,第二水厂,118.0018,37.3617,2024-11-10T0000,75,127,1.0,52,11,24,88,100,细颗粒物(PM2.5)
滨州市,北中新校,117.9776,37.393,2024-11-10T0000,75,129,1.5,70,6,4,80,100,细颗粒物(PM2.5)
滨州市,中海酒店,117.9378,37.3956,2024-11-10T0000,68,132,1.3,88,8,18,98,92,细颗粒物(PM2.5)
滨州市,开发区一中,117.9378,37.3553,2024-11-10T0000,61,117,0.9,86,11,29,86,84,颗粒物(PM10)
滨州市,金海六路,118.0917,37.694,2024-11-10T0000,51,90,0.7,80,8,4,92,70,"颗粒物(PM10),细颗粒物(PM2.5)"
滨州市,滨州市西街道办事处,117.9956,37.3753,2024-11-10T0000,88,134,2.0,68,8,3,90,117,细颗粒物(PM2.5)
亳州市,污水处理厂,115.8072,33.8399,2024-11-10T0000,53,68,0.6,20,5,25,56,73,细颗粒物(PM2.5)
亳州市,三国揽胜宫,115.7789,33.8518,2024-11-10T0000,65,82,0.5,24,2,36,60,88,细颗粒物(PM2.5)
亳州市,亳州学院,115.7633,33.8034,2024-11-10T0000,59,59,0.5,26,2,27,55,80,细颗粒物(PM2.5)
博尔塔拉蒙古自治州,市党校,82.0485,44.8556,2024-11-10T0000,17,26,0.3,12,5,36,53,26,
博尔塔拉蒙古自治州,市环保局,82.0806,44.8969,2024-11-10T0000,9,23,0.2,8,2,39,43,23,
沧州市,沧县城建局,116.8842,38.2991,2024-11-10T0000,43,86,0.6,43,5,30,83,68,颗粒物(PM10)
沧州市,电视转播站,116.8584,38.3254,2024-11-10T0000,51,64,0.5,37,1,35,90,70,细颗粒物(PM2.5)
沧州市,市环保局,116.8709,38.3228,2024-11-10T0000,48,72,0.5,32,5,35,81,67,细颗粒物(PM2.5)
沧州市,河北水利电力学院,116.8136,38.3004,2024-11-10T0000,47,66,0.4,38,4,34,78,65,细颗粒物(PM2.5)
昌都市,昌都监测站,97.1806,31.1273,2024-11-10T0000,38,54,1.4,56,8,2,73,54,细颗粒物(PM2.5)
昌都市,昌都会议中心,97.1714,31.1406,2024-11-10T0000,9,18,0.6,12,6,43,72,18,
昌吉回族自治州,天山天池,88.1236,43.8886,2024-11-10T0000,3,8,0.7,7,8,37,63,12,
昌吉回族自治州,新区政务中心,87.2717,44.0297,2024-11-10T0000,13,17,0.1,9,5,47,42,19,
昌吉回族自治州,亚心广场,87.3095,44.0142,2024-11-10T0000,3,6,0.3,12,1,49,46,16,
长春市,食品厂,125.3325,43.9166,2024-11-10T0000,37,46,0.6,16,10,92,91,53,细颗粒物(PM2.5)
长春市,客车厂,125.2863,43.9027,2024-11-10T0000,47,56,0.4,22,13,82,85,65,细颗粒物(PM2.5)
长春市,邮电学院,125.2841,43.8463,2024-11-10T0000,68,,0.5,22,13,95,86,92,细颗粒物(PM2.5)
长春市,劳动公园,125.3716,43.8772,2024-11-10T0000,33,46,0.3,21,9,85,103,48,
长春市,园林处,125.3297,43.8805,2024-11-10T0000,57,71,0.6,15,9,95,103,78,细颗粒物(PM2.5)
长春市,净月潭,125.4605,43.79,2024-11-10T0000,34,47,0.5,9,8,83,102,49,
长春市,甩湾子,125.7194,43.515,2024-11-10T0000,,,,,,,,,
长春市,经开区环卫处,125.3863,43.8447,2024-11-10T0000,40,54,0.5,16,10,87,98,57,细颗粒物(PM2.5)
长春市,高新区管委会,125.245,43.7783,2024-11-10T0000,93,,0.7,20,8,93,94,123,细颗粒物(PM2.5)
长春市,岱山公园,125.1761,43.8325,2024-11-10T0000,42,49,0.5,26,8,79,83,59,细颗粒物(PM2.5)
长沙市,经开区环保局,113.0833,28.2325,2024-11-10T0000,124,151,0.8,29,4,39,137,163,细颗粒物(PM2.5)
长沙市,高开区环保局,112.8872,28.2189,2024-11-10T0000,115,119,0.7,27,7,41,134,150,细颗粒物(PM2.5)
长沙市,马坡岭,113.0792,28.2053,2024-11-10T0000,121,127,0.8,29,6,46,139,159,细颗粒物(PM2.5)
长沙市,湖南师范大学,112.9394,28.19,2024-11-10T0000,112,149,0.8,28,7,47,140,147,细颗粒物(PM2.5)
长沙市,雨花区环保局,113.0178,28.1322,2024-11-10T0000,108,123,0.7,27,7,52,142,142,细颗粒物(PM2.5)
长沙市,伍家岭,112.9792,28.2597,2024-11-10T0000,118,136,0.9,27,5,39,137,155,细颗粒物(PM2.5)
长沙市,火车新站,113.0014,28.1944,2024-11-10T0000,100,133,0.8,26,5,53,140,132,细颗粒物(PM2.5)
长沙市,天心区环保局,112.9844,28.1178,2024-11-10T0000,88,147,1.1,32,7,47,139,117,细颗粒物(PM2.5)
长沙市,湖南中医药大学,112.8908,28.1308,2024-11-10T0000,107,131,1.1,30,10,47,149,140,细颗粒物(PM2.5)
长沙市,沙坪,112.9581,28.3611,2024-11-10T0000,99,155,0.8,25,8,33,134,130,细颗粒物(PM2.5)
长治市,清华站,113.1147,36.1547,2024-11-10T0000,24,37,0.5,22,11,71,94,37,
长治市,监测站,113.1031,36.1989,2024-11-10T0000,29,41,0.5,19,12,67,93,42,
长治市,审计局,113.0886,36.2125,2024-11-10T0000,27,41,0.7,21,8,66,98,41,
长治市,长治八中,113.0844,36.1856,2024-11-10T0000,38,38,0.8,26,9,63,96,54,细颗粒物(PM2.5)
长治市,德盛苑,113.1569,36.1911,2024-11-10T0000,22,35,0.8,21,6,71,96,35,
长治市,向阳小学,113.06,36.0464,2024-11-10T0000,44,65,0.6,36,10,61,97,62,细颗粒物(PM2.5)
长治市,屯留一中,112.8792,36.3144,2024-11-10T0000,29,42,1.1,23,8,71,110,42,
长治市,潞城四中,113.235,36.3489,2024-11-10T0000,30,66,0.7,36,8,59,96,58,颗粒物(PM10)
常德市,市二中,111.6975,28.9703,2024-11-10T0000,70,95,0.9,54,6,5,77,94,细颗粒物(PM2.5)
常德市,白鹤山,111.7158,29.1456,2024-11-10T0000,,,,,,,,,
常德市,武陵区永安,111.7153,29.0289,2024-11-10T0000,60,74,1.0,40,6,37,78,82,细颗粒物(PM2.5)
常德市,鼎城区玉霞,111.6892,28.9881,2024-11-10T0000,56,86,0.9,53,7,6,78,77,细颗粒物(PM2.5)
常德市,武陵区长庚,111.6625,29.0531,2024-11-10T0000,67,92,0.8,36,5,26,69,90,细颗粒物(PM2.5)
常州市,市监测站,119.9633,31.762,2024-11-10T0000,19,42,0.7,33,8,45,61,42,
常州市,武进监测站,119.9468,31.7069,2024-11-10T0000,16,45,0.9,23,5,48,60,45,
常州市,安家,119.9255,31.9087,2024-11-10T0000,40,59,1.1,70,8,7,52,57,细颗粒物(PM2.5)
常州市,行政中心,119.9805,31.8174,2024-11-10T0000,14,29,0.5,27,10,56,65,29,
常州市,经开区,120.0522,31.7748,2024-11-10T0000,23,42,0.5,42,9,42,63,42,
常州市,钟楼,119.9025,31.7964,2024-11-10T0000,11,37,0.6,29,7,54,68,37,
常州市,武进经发区,119.8598,31.7066,2024-11-10T0000,20,48,1.1,25,10,52,59,48,
常州市,金坛城区,119.5826,31.7245,2024-11-10T0000,16,40,0.7,28,8,51,59,40,
朝阳市,西梁,120.4318,41.5881,2024-11-10T0000,58,74,1.0,23,18,78,115,79,细颗粒物(PM2.5)
朝阳市,河畔小区,120.4521,41.5646,2024-11-10T0000,54,,0.9,25,9,87,118,74,细颗粒物(PM2.5)
朝阳市,八里堡,120.4176,41.5648,2024-11-10T0000,52,56,1.6,25,21,73,113,72,细颗粒物(PM2.5)
朝阳市,农业园区,120.3806,41.5969,2024-11-10T0000,66,,0.8,16,8,88,126,89,细颗粒物(PM2.5)
潮州市,西园路,116.6367,23.6719,2024-11-10T0000,24,37,0.3,16,6,66,93,37,
潮州市,市政府,116.6183,23.6608,2024-11-10T0000,24,47,0.6,26,12,55,89,47,
潮州市,金山,116.6461,23.6761,2024-11-10T0000,24,34,0.6,15,11,64,93,35,
郴州市,马头岭,113.0073,25.9061,2024-11-10T0000,34,63,0.9,30,11,42,120,57,颗粒物(PM10)
郴州市,市职中,113.0116,25.8226,2024-11-10T0000,55,71,0.8,22,8,53,131,75,细颗粒物(PM2.5)
郴州市,兴隆步行街,113.0161,25.8001,2024-11-10T0000,49,73,0.8,26,9,66,139,68,细颗粒物(PM2.5)
郴州市,市审计局,113.0383,25.8071,2024-11-10T0000,54,81,0.7,36,8,49,137,74,细颗粒物(PM2.5)
郴州市,市环保局,113.0348,25.7759,2024-11-10T0000,56,71,0.9,48,9,37,126,77,细颗粒物(PM2.5)
成都市,金泉两河,103.9728,30.7236,2024-11-10T0000,16,28,0.4,17,2,29,28,28,
成都市,十里店,104.176,30.6872,2024-11-10T0000,15,33,0.4,28,2,24,39,33,
成都市,三瓦窑,104.079,30.5706,2024-11-10T0000,33,41,0.3,5,1,52,42,48,
成都市,沙河铺,104.1114,30.63,2024-11-10T0000,16,37,0.4,17,2,34,34,37,
成都市,君平街,104.0786,30.6531,2024-11-10T0000,18,32,0.6,23,3,30,37,32,
成都市,灵岩寺,103.613,31.0283,2024-11-10T0000,,,,,,,,,
成都市,大石西路,104.0239,30.65639,2024-11-10T0000,25,30,0.5,20,2,27,32,36,
成都市,龙泉驿区区政府,104.2725,30.5589,2024-11-10T0000,22,27,0.3,10,2,50,54,32,
成都市,金博路,104.0106,30.6931,2024-11-10T0000,18,32,0.4,21,3,23,25,32,
成都市,华阳,104.0578,30.5225,2024-11-10T0000,29,36,0.4,8,1,37,32,42,
成都市,车城东七路,104.2394,30.5319,2024-11-10T0000,27,30,0.3,11,2,54,50,39,
成都市,青白江技师分院,104.3853,30.7453,2024-11-10T0000,11,25,0.4,12,2,54,49,25,
成都市,科学城,104.0789,30.4072,2024-11-10T0000,29,33,0.4,10,3,49,47,42,
成都市,光华大道三段,103.8506,30.6947,2024-11-10T0000,12,36,0.4,12,4,38,33,36,
承德市,铁路,117.9531,40.9081,2024-11-10T0000,63,100,0.9,48,4,17,50,85,细颗粒物(PM2.5)
承德市,中国银行,117.9392,40.9763,2024-11-10T0000,72,113,1.0,56,2,2,63,97,细颗粒物(PM2.5)
承德市,开发区,117.9503,40.928,2024-11-10T0000,74,110,1.0,42,5,8,54,99,细颗粒物(PM2.5)
承德市,文化中心,117.8051,40.9655,2024-11-10T0000,64,110,0.9,56,4,2,70,87,细颗粒物(PM2.5)
承德市,离宫,117.9268,41.0026,2024-11-10T0000,90,111,0.7,53,3,12,78,119,细颗粒物(PM2.5)
池州市,池州学院,117.47,30.6618,2024-11-10T0000,40,66,0.8,37,6,12,69,58,颗粒物(PM10)
池州市,展览馆,117.4918,30.6617,2024-11-10T0000,23,55,0.7,36,10,22,68,53,颗粒物(PM10)
池州市,第八中学,117.5627,30.695,2024-11-10T0000,24,56,0.8,34,8,20,67,53,颗粒物(PM10)
池州市,第十二中学,117.5038,30.6243,2024-11-10T0000,34,53,0.9,35,6,18,69,52,颗粒物(PM10)
赤峰市,松山一中,118.9233,42.2816,2024-11-10T0000,47,75,0.8,17,11,95,89,65,细颗粒物(PM2.5)
赤峰市,哈达街,118.9576,42.2728,2024-11-10T0000,58,74,0.7,15,9,103,90,79,细颗粒物(PM2.5)
赤峰市,天义路,118.8788,42.2554,2024-11-10T0000,52,78,0.5,18,7,97,92,72,细颗粒物(PM2.5)
赤峰市,银河街,119.2658,42.0353,2024-11-10T0000,52,78,0.8,19,17,80,94,72,细颗粒物(PM2.5)
赤峰市,桥北物流园区,118.9359,42.3147,2024-11-10T0000,73,81,1.1,20,9,98,94,98,细颗粒物(PM2.5)
崇左市,市环保局江州分局,107.3476,22.4136,2024-11-10T0000,40,86,0.6,32,4,45,152,68,颗粒物(PM10)
崇左市,城南新区,107.3702,22.3707,2024-11-10T0000,47,71,0.6,22,6,67,160,65,细颗粒物(PM2.5)
滁州市,老年大学,118.3093,32.3153,2024-11-10T0000,29,45,0.3,26,6,30,62,45,
滁州市,人大宾馆,118.3244,32.2786,2024-11-10T0000,29,52,0.3,39,7,25,59,51,颗粒物(PM10)
滁州市,市政府原办公楼,118.3118,32.3038,2024-11-10T0000,30,51,0.6,36,6,24,58,51,颗粒物(PM10)
滁州市,图书馆,118.3267,32.2634,2024-11-10T0000,22,46,0.2,34,6,24,62,46,
楚雄彝族自治州,州环境监测站,101.5482,25.0441,2024-11-10T0000,35,,0.9,28,25,5,77,50,
楚雄彝族自治州,市经济开发区,101.538,25.0492,2024-11-10T0000,22,47,0.8,27,10,5,76,47,
达州市,达州职业技术学院,107.5277,31.2827,2024-11-10T0000,22,29,0.5,38,5,4,30,32,
达州市,市环境监测站,107.5086,31.2186,2024-11-10T0000,3,30,0.4,40,4,5,44,30,
达州市,凤凰小区,107.4988,31.2132,2024-11-10T0000,14,24,0.3,43,6,8,54,24,
达州市,达县机关宾馆,107.5082,31.1986,2024-11-10T0000,14,29,0.4,45,4,3,41,29,
达州市,市政中心,107.4644,31.2124,2024-11-10T0000,9,33,0.4,39,3,17,49,33,
大理白族自治州,大理市环境监测站,100.1542,25.7054,2024-11-10T0000,24,30,0.7,31,7,0,46,35,
大理白族自治州,大理古城,100.2171,25.5811,2024-11-10T0000,3,16,,,8,41,,,
大连市,甘井子,121.612,38.9741,2024-11-10T0000,31,61,0.6,25,9,94,119,56,颗粒物(PM10)
大连市,周水子,121.565,38.9511,2024-11-10T0000,32,62,0.6,19,7,90,110,56,颗粒物(PM10)
大连市,星海三站,121.5637,38.8845,2024-11-10T0000,28,59,0.6,10,7,104,124,55,颗粒物(PM10)
大连市,青泥洼桥,121.6302,38.9117,2024-11-10T0000,31,65,0.7,13,10,95,114,58,颗粒物(PM10)
大连市,傅家庄,121.6251,38.8638,2024-11-10T0000,30,61,0.5,16,10,106,124,56,颗粒物(PM10)
大连市,七贤岭,121.5213,38.8661,2024-11-10T0000,28,64,0.5,13,8,96,116,57,颗粒物(PM10)
大连市,旅顺,121.2529,38.8061,2024-11-10T0000,27,54,0.6,24,9,91,127,52,颗粒物(PM10)
大连市,金州,121.7485,39.1311,2024-11-10T0000,30,43,0.7,18,9,100,119,43,
大连市,开发区,121.7811,39.0496,2024-11-10T0000,29,56,0.4,18,9,92,118,53,颗粒物(PM10)
大连市,双D港,121.9762,39.0631,2024-11-10T0000,28,43,0.7,18,8,109,132,43,
大庆市,大同区,124.81117,46.03138,2024-11-10T0000,46,68,0.1,12,5,78,59,64,细颗粒物(PM2.5)
大庆市,龙凤区,125.129,46.533,2024-11-10T0000,49,84,0.6,11,5,68,57,68,细颗粒物(PM2.5)
大庆市,红岗区,124.902,46.408,2024-11-10T0000,47,63,0.5,12,10,76,59,65,细颗粒物(PM2.5)
大庆市,萨尔图区,125.153,46.586,2024-11-10T0000,42,49,0.5,17,8,76,62,59,细颗粒物(PM2.5)
大庆市,让胡路区,124.9042,46.6215,2024-11-10T0000,57,72,0.4,9,6,72,62,78,细颗粒物(PM2.5)
大庆市,萨区政府监测点,125.141,46.634,2024-11-10T0000,41,56,0.5,18,7,72,62,58,细颗粒物(PM2.5)
大同市,果树场,113.3819,40.1097,2024-11-10T0000,118,145,1.4,61,12,4,69,155,细颗粒物(PM2.5)
大同市,云冈宾馆,113.2994,40.0758,2024-11-10T0000,120,155,1.5,50,10,27,80,158,细颗粒物(PM2.5)
大同市,大同大学,113.3444,40.0917,2024-11-10T0000,83,139,1.2,56,15,22,80,110,细颗粒物(PM2.5)
大同市,安家小村,113.2661,40.1269,2024-11-10T0000,102,158,1.0,66,15,12,87,134,细颗粒物(PM2.5)
大同市,教育学院,113.2711,40.0844,2024-11-10T0000,103,156,1.4,63,12,23,76,135,细颗粒物(PM2.5)
大同市,大同市卫生学校,113.3397,40.0597,2024-11-10T0000,112,174,1.2,71,10,10,86,147,细颗粒物(PM2.5)
大同市,云冈站,113.1367,40.1122,2024-11-10T0000,116,171,1.0,60,13,7,80,152,细颗粒物(PM2.5)
大同市,图书馆,113.1186,40.2556,2024-11-10T0000,71,135,1.3,40,14,23,70,95,细颗粒物(PM2.5)
大同市,区一中,113.5931,40.0461,2024-11-10T0000,66,201,1.3,30,12,43,77,126,颗粒物(PM10)
大同市,第二人民医院,113.2802,40.0995,2024-11-10T0000,92,158,1.5,60,15,25,86,122,细颗粒物(PM2.5)
大兴安岭地区,科技局,124.1069,50.4097,2024-11-10T0000,230,314,1.1,26,5,45,58,280,细颗粒物(PM2.5)
大兴安岭地区,红旗社区,124.1164,50.4278,2024-11-10T0000,246,285,1.1,28,5,44,56,296,细颗粒物(PM2.5)
丹东市,江湾东路,124.3303,40.0625,2024-11-10T0000,101,145,2.8,59,15,7,83,133,细颗粒物(PM2.5)
丹东市,临江后街,124.4256,40.1503,2024-11-10T0000,55,81,0.9,20,8,43,88,75,细颗粒物(PM2.5)
丹东市,元宝山,124.3933,40.1461,2024-11-10T0000,51,86,1.0,28,7,47,92,70,细颗粒物(PM2.5)
丹东市,民主桥,124.3633,40.1092,2024-11-10T0000,56,92,1.2,46,8,22,96,77,细颗粒物(PM2.5)
儋州市,第一中学子站,109.5726,19.5167,2024-11-10T0000,29,45,0.5,9,8,136,141,45,
儋州市,东坡学校子站,109.5567,19.5187,2024-11-10T0000,31,48,0.6,10,7,140,155,48,
德宏傣族景颇族自治州,德宏州监测站,98.5842,24.428,2024-11-10T0000,18,34,0.7,17,6,30,75,34,
德宏傣族景颇族自治州,芒市人民政府综合楼,98.5881,24.4368,2024-11-10T0000,19,29,0.8,11,5,28,74,29,
德阳市,东山公园,104.4239,31.1208,2024-11-10T0000,15,31,0.5,11,1,39,53,31,
德阳市,西小区,104.3826,31.1317,2024-11-10T0000,19,34,0.6,35,2,8,51,34,
德阳市,耐火材料厂,104.3553,31.1091,2024-11-10T0000,18,28,0.5,26,2,11,43,28,
德阳市,市教育局,104.4019,31.1244,2024-11-10T0000,16,26,0.5,18,2,34,49,26,
德州市,儿童乐园,116.3032,37.4674,2024-11-10T0000,44,75,0.6,32,10,49,81,63,颗粒物(PM10)
德州市,监理站,116.2991,37.4451,2024-11-10T0000,44,68,0.5,32,12,52,82,62,细颗粒物(PM2.5)
德州市,九衢泉纯净水厂,116.2721,37.4379,2024-11-10T0000,41,70,0.6,31,10,47,78,60,颗粒物(PM10)
德州市,开发区人民医院,116.3728,37.4403,2024-11-10T0000,41,70,0.6,30,8,53,80,60,颗粒物(PM10)
德州市,太阳城中学,116.3572,37.4094,2024-11-10T0000,53,78,0.6,57,6,18,78,73,细颗粒物(PM2.5)
德州市,陵城艺术中心,116.5652,37.3319,2024-11-10T0000,36,58,0.5,34,11,53,85,54,颗粒物(PM10)
迪庆藏族自治州,迪庆州站,99.7056,27.8317,2024-11-10T0000,18,33,0.6,10,7,32,77,33,
迪庆藏族自治州,质量技术监督局,99.7136,27.8094,2024-11-10T0000,36,39,1.0,20,7,19,73,52,细颗粒物(PM2.5)
定西市,东关小学,104.6241,35.5734,2024-11-10T0000,41,97,0.6,37,5,17,90,74,颗粒物(PM10)
定西市,供电公司,104.6194,35.5934,2024-11-10T0000,32,71,0.6,52,9,18,87,61,颗粒物(PM10)
东莞市,莞城梨川,113.7547,23.0494,2024-11-10T0000,27,50,0.7,29,10,59,115,50,
东莞市,东城石井,113.7944,23.0128,2024-11-10T0000,23,40,0.8,27,12,66,115,40,
东莞市,南城西平,113.7383,22.9658,2024-11-10T0000,23,40,0.6,35,10,59,116,40,
东莞市,万江金泰,113.7338,23.0381,2024-11-10T0000,20,37,0.7,24,8,59,113,37,
东莞市,南城元岭,113.7533,23.0202,2024-11-10T0000,26,47,0.8,24,10,56,109,47,
东莞市,东城主山,113.7875,23.0457,2024-11-10T0000,26,47,0.6,29,9,58,113,47,
东营市,市环保局,118.6614,37.4309,2024-11-10T0000,39,75,0.6,67,5,13,95,63,颗粒物(PM10)
东营市,开发区管委会,118.6904,37.4338,2024-11-10T0000,46,76,0.5,58,11,16,94,64,细颗粒物(PM2.5)
东营市,垦利区民丰路,118.5719,37.565,2024-11-10T0000,44,78,0.7,51,8,20,90,64,颗粒物(PM10)
东营市,河口城区,118.5055,37.8612,2024-11-10T0000,49,75,0.6,22,2,54,103,68,细颗粒物(PM2.5)
东营市,胜利站,118.4978,37.4623,2024-11-10T0000,46,69,0.9,61,6,14,80,64,细颗粒物(PM2.5)
东营市,理想之城,118.35,37.26,2024-11-10T0000,48,85,0.8,67,5,13,93,68,颗粒物(PM10)
鄂尔多斯市,综合楼,110.0023,39.8129,2024-11-10T0000,34,80,0.3,40,10,59,85,65,颗粒物(PM10)
鄂尔多斯市,巴音孟克林场办事处,109.9486,39.8261,2024-11-10T0000,39,75,0.6,43,8,48,74,63,颗粒物(PM10)
鄂尔多斯市,康泽苑,109.7736,39.5986,2024-11-10T0000,36,61,0.3,13,7,72,87,56,颗粒物(PM10)
鄂尔多斯市,华泰汽车城,109.8119,39.5989,2024-11-10T0000,41,68,0.6,28,6,50,82,59,颗粒物(PM10)
鄂尔多斯市,奥林花园,109.9734,39.7884,2024-11-10T0000,39,75,0.8,32,7,55,72,63,颗粒物(PM10)
鄂州市,市政府,114.8938,30.3994,2024-11-10T0000,32,48,0.8,30,5,45,99,48,
鄂州市,赵家坝,114.8989,30.3714,2024-11-10T0000,27,51,0.6,25,6,53,109,51,颗粒物(PM10)
鄂州市,精准医疗中心,114.8094,30.4089,2024-11-10T0000,41,65,0.6,44,7,24,99,58,"颗粒物(PM10),细颗粒物(PM2.5)"
恩施土家族苗族自治州,湖北民院,109.4978,30.2981,2024-11-10T0000,51,,0.2,23,5,4,,70,细颗粒物(PM2.5)
恩施土家族苗族自治州,州电力总公司,109.4707,30.2798,2024-11-10T0000,28,35,0.4,15,7,19,23,40,
恩施土家族苗族自治州,龙凤新区,109.5061,30.3772,2024-11-10T0000,28,43,0.7,15,6,4,28,43,
防城港市,沙万,108.3411,21.6158,2024-11-10T0000,40,54,0.5,17,12,134,149,57,细颗粒物(PM2.5)
防城港市,防城档案局,108.3514,21.7731,2024-11-10T0000,46,88,0.6,44,6,70,142,69,颗粒物(PM10)
防城港市,大海花园,108.3506,21.6414,2024-11-10T0000,37,58,0.6,15,8,145,156,54,颗粒物(PM10)
佛山市,湾梁,113.1294,23.0067,2024-11-10T0000,30,53,0.7,42,9,64,127,52,颗粒物(PM10)
佛山市,华材职中,113.1083,23.0478,2024-11-10T0000,36,70,0.7,61,11,42,131,60,颗粒物(PM10)
佛山市,南海气象局,113.144,23.0453,2024-11-10T0000,34,59,0.5,34,9,65,126,55,颗粒物(PM10)
佛山市,顺德苏岗,113.2881,22.8094,2024-11-10T0000,24,44,0.8,39,10,43,102,44,
佛山市,高明孔堂,112.8383,22.8678,2024-11-10T0000,43,74,0.7,40,13,63,146,62,颗粒物(PM10)
佛山市,三水监测站,112.8836,23.1588,2024-11-10T0000,43,68,0.6,51,11,57,132,60,细颗粒物(PM2.5)
佛山市,三水云东海,112.867,23.185,2024-11-10T0000,42,67,0.7,46,14,41,126,59,"颗粒物(PM10),细颗粒物(PM2.5)"
佛山市,容桂街道办,113.2544,22.7642,2024-11-10T0000,24,44,0.7,38,10,47,111,44,
福州市,鼓山,119.3903,26.0543,2024-11-10T0000,,,,,,,73,,
福州市,师大,119.2681,26.0504,2024-11-10T0000,16,37,0.4,20,2,74,67,37,
福州市,五四北路,119.2984,26.1028,2024-11-10T0000,19,36,0.4,25,2,59,61,36,
福州市,杨桥西路,119.2648,26.0768,2024-11-10T0000,16,38,0.4,24,3,60,62,38,
福州市,紫阳,119.317,26.0746,2024-11-10T0000,22,42,0.5,32,4,50,49,42,
福州市,九龙,119.5799,26.0936,2024-11-10T0000,3,16,0.3,9,3,58,95,19,
福州市,吴航,119.5189,25.9664,2024-11-10T0000,11,20,0.2,15,2,56,99,20,
抚顺市,望花区,123.7977,41.8491,2024-11-10T0000,32,46,0.6,15,7,98,107,46,
抚顺市,顺城区,123.9161,41.8822,2024-11-10T0000,29,44,0.4,12,7,111,107,44,
抚顺市,东洲区,124.0436,41.8611,2024-11-10T0000,28,41,0.6,10,10,103,103,41,
抚顺市,新抚区,123.9247,41.8642,2024-11-10T0000,22,37,0.3,10,5,109,105,37,
抚顺市,大伙房水库,124.0972,41.8961,2024-11-10T0000,24,42,0.5,5,9,120,118,42,
抚顺市,沈抚新城,123.7086,41.8391,2024-11-10T0000,33,56,0.4,12,8,108,114,53,颗粒物(PM10)
抚州市,桐源党溪,116.2127,28.0814,2024-11-10T0000,54,73,0.9,17,8,50,112,74,细颗粒物(PM2.5)
抚州市,市站,116.3544,27.9831,2024-11-10T0000,48,74,0.9,19,4,70,105,67,细颗粒物(PM2.5)
抚州市,血防站,116.3565,27.963,2024-11-10T0000,40,67,0.8,17,5,71,121,59,颗粒物(PM10)
抚州市,采茶剧团,116.3564,28.0007,2024-11-10T0000,60,76,1.0,18,6,58,110,82,细颗粒物(PM2.5)
抚州市,医学分院,116.385,27.9647,2024-11-10T0000,39,74,1.0,14,4,61,117,62,颗粒物(PM10)
阜新市,工业园区,121.6094,41.998,2024-11-10T0000,36,66,1.3,27,22,75,112,58,颗粒物(PM10)
阜新市,长青街,121.6697,42.0279,2024-11-10T0000,49,98,0.8,26,17,79,108,74,颗粒物(PM10)
阜新市,农业园区,121.6673,42.0705,2024-11-10T0000,80,108,0.9,23,18,,110,107,细颗粒物(PM2.5)
阜新市,东苑,121.6717,42.0224,2024-11-10T0000,38,57,1.2,22,21,75,96,54,"颗粒物(PM10),细颗粒物(PM2.5)"
阜新市,玉龙新城,121.6506,42.0498,2024-11-10T0000,49,61,0.7,24,17,80,114,68,细颗粒物(PM2.5)
阜阳市,市监测站,115.8277,32.8929,2024-11-10T0000,48,63,0.7,26,5,27,32,67,细颗粒物(PM2.5)
阜阳市,开发区,115.8554,32.8605,2024-11-10T0000,51,75,0.6,29,6,18,26,70,细颗粒物(PM2.5)
阜阳市,阜阳职业技术学院,115.784,32.8892,2024-11-10T0000,36,58,0.5,17,5,33,35,54,颗粒物(PM10)
阜阳市,市规划展馆,115.7901,32.8613,2024-11-10T0000,52,,0.5,20,6,41,38,72,细颗粒物(PM2.5)
阜阳市,枣园社区,115.836,32.9183,2024-11-10T0000,50,52,0.5,26,6,27,37,69,细颗粒物(PM2.5)
甘南藏族自治州,州政府,102.9099,34.9841,2024-11-10T0000,20,24,0.6,12,1,44,71,29,
甘南藏族自治州,甘肃民族师范学院,102.8914,34.9617,2024-11-10T0000,3,6,0.4,11,3,55,75,18,
甘孜藏族自治州,水桥子,101.9603,30.0475,2024-11-10T0000,16,30,0.4,32,7,4,52,30,
甘孜藏族自治州,州环保局,101.9533,29.9972,2024-11-10T0000,9,21,0.3,15,3,29,65,21,
赣江新区,桑海产业园,115.8347,28.932,2024-11-10T0000,45,78,0.5,31,13,65,109,64,颗粒物(PM10)
赣州市,通天岩,114.9017,25.9149,2024-11-10T0000,24,36,0.1,11,1,51,116,36,
赣州市,地委,114.9367,25.8664,2024-11-10T0000,40,75,0.7,14,1,118,117,63,颗粒物(PM10)
赣州市,气象台,114.9461,25.8481,2024-11-10T0000,38,53,0.7,15,15,115,115,54,细颗粒物(PM2.5)
赣州市,市图书馆,114.9322,25.8333,2024-11-10T0000,32,63,0.7,14,10,126,119,57,颗粒物(PM10)
赣州市,华坚鞋城,114.8905,25.8471,2024-11-10T0000,39,57,0.7,13,9,120,108,55,细颗粒物(PM2.5)
赣州市,赣县区卫计委,115.0093,25.8613,2024-11-10T0000,35,65,0.6,42,5,42,111,58,颗粒物(PM10)
固原市,马园,106.2319,36.1417,2024-11-10T0000,28,93,0.9,57,8,6,80,72,颗粒物(PM10)
固原市,监测站,106.2792,36.0022,2024-11-10T0000,30,61,1.2,36,7,39,90,56,颗粒物(PM10)
固原市,新区,106.2375,36.0211,2024-11-10T0000,23,67,0.6,68,4,9,91,59,颗粒物(PM10)
固原市,原州区十五小,106.2177,35.9959,2024-11-10T0000,18,50,0.6,28,6,68,104,50,
广安市,小平旧居,106.6308,30.5278,2024-11-10T0000,,,,,,,,,
广安市,市委,106.6303,30.4576,2024-11-10T0000,15,33,0.3,12,3,51,70,33,
广安市,友谊中学,106.6271,30.4663,2024-11-10T0000,19,31,0.4,14,2,48,71,31,
广安市,广电花园,106.6388,30.4551,2024-11-10T0000,21,32,0.4,14,4,48,66,32,
广安市,北辰小学,106.6351,30.4865,2024-11-10T0000,16,30,0.4,9,3,50,72,30,
广元市,黑石坡,105.8945,32.4535,2024-11-10T0000,12,23,0.3,22,5,6,49,23,
广元市,老城,105.821,32.4444,2024-11-10T0000,20,37,0.6,32,4,2,66,37,
广元市,监测站,105.8628,32.4287,2024-11-10T0000,17,32,0.6,26,5,14,62,32,
广元市,经开区,105.8047,32.4166,2024-11-10T0000,18,27,0.5,25,4,15,70,27,
广州市,广雅中学,113.2347,23.1423,2024-11-10T0000,31,58,0.7,51,8,50,116,54,颗粒物(PM10)
广州市,市五中,113.2612,23.105,2024-11-10T0000,39,57,0.7,34,7,66,128,55,细颗粒物(PM2.5)
广州市,广东商学院,113.3478,23.0916,2024-11-10T0000,35,48,0.5,37,8,57,108,50,
广州市,市八十六中,113.4332,23.1047,2024-11-10T0000,22,44,0.6,34,6,58,94,44,
广州市,番禺中学,113.3505,22.9483,2024-11-10T0000,39,49,0.6,39,8,58,109,55,细颗粒物(PM2.5)
广州市,花都师范,113.2146,23.3916,2024-11-10T0000,44,70,1.0,27,17,91,128,62,细颗粒物(PM2.5)
广州市,市监测站,113.2597,23.1331,2024-11-10T0000,34,58,0.6,48,7,41,114,54,颗粒物(PM10)
广州市,九龙镇镇龙,113.5618,23.312,2024-11-10T0000,31,47,0.6,16,7,74,100,47,
广州市,麓湖,113.2765,23.1544,2024-11-10T0000,33,49,0.7,71,6,20,118,49,
广州市,帽峰山森林公园,113.443,23.3035,2024-11-10T0000,24,34,0.6,22,9,69,117,35,
广州市,体育西,113.3221,23.1322,2024-11-10T0000,42,58,0.6,32,4,50,102,59,细颗粒物(PM2.5)
广州市,从化街口,113.5717,23.5491,2024-11-10T0000,37,56,0.8,36,8,43,112,53,"颗粒物(PM10),细颗粒物(PM2.5)"
广州市,白云竹料,113.3472,23.3692,2024-11-10T0000,42,70,0.8,37,9,54,126,60,颗粒物(PM10)
广州市,白云嘉禾,113.2981,23.237,2024-11-10T0000,31,58,0.8,44,9,59,116,54,颗粒物(PM10)
广州市,黄埔科学城,113.4256,23.1716,2024-11-10T0000,29,50,0.7,31,7,57,100,50,
广州市,番禺大学城,113.3942,23.0483,2024-11-10T0000,31,52,0.9,35,9,51,97,51,颗粒物(PM10)
广州市,南沙黄阁,113.4922,22.8168,2024-11-10T0000,34,58,0.8,61,10,30,129,54,颗粒物(PM10)
广州市,南沙街,113.5342,22.7896,2024-11-10T0000,31,56,0.6,35,9,54,133,53,颗粒物(PM10)
广州市,花都梯面,113.2902,23.5544,2024-11-10T0000,34,50,0.5,17,17,92,134,50,
广州市,从化良口,113.7858,23.7478,2024-11-10T0000,19,28,0.6,14,6,67,102,28,
广州市,增城荔城,113.8051,23.2614,2024-11-10T0000,23,32,0.6,14,10,84,109,33,
贵港市,德智高中,109.568,23.1478,2024-11-10T0000,,,,,,,,,
贵港市,江南子站,109.6047,23.0666,2024-11-10T0000,37,61,0.8,27,11,102,156,56,颗粒物(PM10)
贵港市,贵城子站,109.6014,23.0948,2024-11-10T0000,35,53,0.7,19,10,118,148,52,颗粒物(PM10)
贵港市,荷城子站,109.5669,23.1065,2024-11-10T0000,24,56,0.6,23,13,113,141,53,颗粒物(PM10)
贵港市,新世纪学校,109.5886,23.1172,2024-11-10T0000,27,61,0.6,15,11,128,146,56,颗粒物(PM10)
贵阳市,马鞍山,106.6899,26.5998,2024-11-10T0000,19,27,0.5,13,4,72,101,28,
贵阳市,市环保站,106.6971,26.5694,2024-11-10T0000,30,,0.5,10,6,99,116,43,
贵阳市,鉴湖路,106.6243,26.6266,2024-11-10T0000,24,36,0.4,9,6,88,103,36,
贵阳市,燕子冲,106.7487,26.6343,2024-11-10T0000,27,34,0.5,8,7,88,114,39,
贵阳市,碧云窝,106.6555,26.4365,2024-11-10T0000,34,51,0.5,21,7,66,105,51,颗粒物(PM10)
贵阳市,中院村,106.694,26.5161,2024-11-10T0000,29,39,0.5,13,7,88,97,42,
贵阳市,红边门,106.7109,26.6027,2024-11-10T0000,22,39,0.6,12,8,96,111,39,
贵阳市,新华路,106.7164,26.5699,2024-11-10T0000,24,31,0.4,9,6,94,109,35,
贵阳市,太慈桥,106.674,26.5424,2024-11-10T0000,19,36,0.4,12,6,93,104,36,
贵阳市,桐木岭,106.805,26.3003,2024-11-10T0000,31,48,0.5,5,10,104,114,48,
桂林市,电子科大尧山校区,110.4144,25.3167,2024-11-10T0000,37,47,0.5,14,9,125,141,53,细颗粒物(PM2.5)
桂林市,监测站,110.2819,25.2697,2024-11-10T0000,27,47,0.7,14,14,123,142,47,
桂林市,龙隐路小学,110.3089,25.2708,2024-11-10T0000,36,44,0.6,13,14,128,149,52,细颗粒物(PM2.5)
桂林市,八中,110.2869,25.2178,2024-11-10T0000,34,46,0.8,14,13,120,141,49,
桂林市,创业大厦,110.1764,25.2381,2024-11-10T0000,39,56,0.4,13,19,127,146,55,细颗粒物(PM2.5)
桂林市,旅游学院,110.296,25.1253,2024-11-10T0000,34,39,0.5,13,16,118,150,49,
果洛藏族自治州,玛沁县大武镇,100.2561,34.4714,2024-11-10T0000,20,37,0.3,4,16,54,86,37,
哈尔滨市,岭北,126.5422,45.755,2024-11-10T0000,68,80,0.2,25,11,75,87,92,细颗粒物(PM2.5)
哈尔滨市,松北商大,126.561,45.8167,2024-11-10T0000,67,82,0.7,22,11,67,75,90,细颗粒物(PM2.5)
哈尔滨市,阿城会宁,126.979,45.5419,2024-11-10T0000,85,,0.8,12,3,72,75,113,细颗粒物(PM2.5)
哈尔滨市,南岗学府路,126.599,45.7222,2024-11-10T0000,65,113,0.8,23,8,61,69,88,细颗粒物(PM2.5)
哈尔滨市,太平宏伟公园,126.689,45.7733,2024-11-10T0000,70,102,0.7,25,12,60,67,94,细颗粒物(PM2.5)
哈尔滨市,道外承德广场,126.635,45.7667,2024-11-10T0000,67,116,0.6,25,12,65,73,90,细颗粒物(PM2.5)
哈尔滨市,香坊红旗大街,126.685,45.7319,2024-11-10T0000,71,107,0.7,31,19,70,74,95,细颗粒物(PM2.5)
哈尔滨市,动力和平路,126.6411,45.7258,2024-11-10T0000,68,88,0.7,21,15,67,62,92,细颗粒物(PM2.5)
哈尔滨市,道里建国路,126.593,45.7478,2024-11-10T0000,67,95,0.5,22,23,65,73,90,细颗粒物(PM2.5)
哈尔滨市,平房东轻厂,126.615,45.61,2024-11-10T0000,57,86,0.7,11,8,63,74,78,细颗粒物(PM2.5)
哈尔滨市,呼兰师专,126.595,45.9855,2024-11-10T0000,78,83,0.7,32,10,60,59,104,细颗粒物(PM2.5)
哈尔滨市,省农科院,126.6206,45.6842,2024-11-10T0000,47,116,0.7,24,6,59,62,83,颗粒物(PM10)
哈密市,地区监测站,93.5128,42.8172,2024-11-10T0000,25,,0.2,26,13,47,60,36,
哈密市,哈密师范学校,93.4961,42.8328,2024-11-10T0000,27,34,0.6,39,10,34,64,39,
海北藏族自治州,海晏县西海镇,100.9048,36.9639,2024-11-10T0000,,,,,,,38,,
海东市,平安区公安北苑,102.0738,36.5056,2024-11-10T0000,48,89,0.7,20,15,56,81,70,颗粒物(PM10)
海口市,东寨港,110.576,19.9507,2024-11-10T0000,,,,,,,,,
海口市,海南大学,110.3232,20.0574,2024-11-10T0000,55,79,0.7,30,10,92,160,75,细颗粒物(PM2.5)
海口市,秀英海南医院,110.283,20.0053,2024-11-10T0000,54,59,0.6,27,10,94,159,74,细颗粒物(PM2.5)
海口市,海南师范大学,110.338,19.9969,2024-11-10T0000,51,54,0.6,25,12,104,157,70,细颗粒物(PM2.5)
海口市,龙华路环保局宿舍,110.33,20.0356,2024-11-10T0000,55,,0.6,23,10,96,157,75,细颗粒物(PM2.5)
海口市,桂林洋子站,110.5111,19.9736,2024-11-10T0000,43,68,0.5,17,10,114,156,60,细颗粒物(PM2.5)
海南藏族自治州,共和县恰卜恰镇,100.6188,36.2866,2024-11-10T0000,39,69,0.7,18,14,65,75,60,颗粒物(PM10)
海西蒙古族藏族自治州,德令哈市,97.3731,37.3753,2024-11-10T0000,30,38,0.4,5,12,65,93,43,
邯郸市,东污水处理厂,114.5302,36.6116,2024-11-10T0000,56,86,0.5,20,2,36,76,77,细颗粒物(PM2.5)
邯郸市,矿院,114.4918,36.5713,2024-11-10T0000,63,99,0.4,23,1,38,76,85,细颗粒物(PM2.5)
邯郸市,丛台公园,114.484,36.6133,2024-11-10T0000,66,81,0.4,27,3,36,78,89,细颗粒物(PM2.5)
邯郸市,香泉濮院小区,114.7895,36.5593,2024-11-10T0000,57,99,0.4,22,6,40,84,78,细颗粒物(PM2.5)
邯郸市,永年区实验高中,114.50634,36.77178,2024-11-10T0000,53,94,0.3,18,4,57,83,73,细颗粒物(PM2.5)
邯郸市,峰峰矿区临水派出所,114.20016,36.44293,2024-11-10T0000,49,61,0.4,16,5,48,71,68,细颗粒物(PM2.5)
汉中市,汉川机床厂子校,106.9893,33.1842,2024-11-10T0000,14,26,0.5,16,5,32,75,26,
汉中市,市监测站,107.0154,33.0706,2024-11-10T0000,45,77,1.0,41,9,8,56,64,颗粒物(PM10)
汉中市,鑫源开发区,107.0089,33.1138,2024-11-10T0000,49,68,0.7,44,11,16,60,68,细颗粒物(PM2.5)
汉中市,南郑大河坎水厂,107.007,33.0323,2024-11-10T0000,60,74,1.0,33,9,10,54,82,细颗粒物(PM2.5)
杭州市,滨江,120.2072,30.2111,2024-11-10T0000,14,32,0.4,25,6,50,77,32,
杭州市,西溪,120.0633,30.2747,2024-11-10T0000,14,15,0.5,25,6,31,76,20,
杭州市,下沙,120.3461,30.3153,2024-11-10T0000,17,37,0.5,62,6,16,79,37,
杭州市,卧龙桥,120.1269,30.2456,2024-11-10T0000,13,35,0.4,27,7,28,89,35,
杭州市,浙江农大,120.1903,30.2692,2024-11-10T0000,19,33,0.5,34,4,32,74,33,
杭州市,和睦小学,120.1197,30.3119,2024-11-10T0000,18,31,0.5,25,8,55,86,31,
杭州市,临平镇,120.3019,30.4183,2024-11-10T0000,14,44,0.4,41,5,35,81,44,
杭州市,城厢镇,120.2697,30.1819,2024-11-10T0000,13,38,0.5,31,5,44,83,38,
杭州市,云栖,120.0883,30.1808,2024-11-10T0000,12,25,0.5,31,7,40,86,25,
杭州市,镇二中,119.9464,30.0494,2024-11-10T0000,8,16,0.7,15,6,62,82,20,
杭州市,市府大楼,119.7183,30.2367,2024-11-10T0000,15,31,0.4,31,6,53,80,31,
杭州市,消防大队,120.1556,30.2864,2024-11-10T0000,20,44,0.3,36,8,42,82,44,
合肥市,明珠广场,117.1959,31.7848,2024-11-10T0000,34,48,0.7,50,6,4,42,49,
合肥市,三里街,117.3072,31.8764,2024-11-10T0000,29,48,0.7,36,5,12,38,48,
合肥市,琥珀山庄,117.2588,31.8707,2024-11-10T0000,30,41,0.9,39,8,17,44,43,
合肥市,董铺水库,117.1604,31.9052,2024-11-10T0000,29,51,0.4,34,4,18,47,51,颗粒物(PM10)
合肥市,长江中路,117.25,31.8571,2024-11-10T0000,34,61,0.8,39,7,14,44,56,颗粒物(PM10)
合肥市,庐阳区,117.266,31.9436,2024-11-10T0000,27,51,0.9,39,3,15,45,51,颗粒物(PM10)
合肥市,瑶海区,117.336,31.8586,2024-11-10T0000,28,53,0.7,42,6,13,42,52,颗粒物(PM10)
合肥市,包河区,117.3027,31.7964,2024-11-10T0000,34,51,0.8,56,6,2,25,51,颗粒物(PM10)
合肥市,滨湖新区,117.2776,31.7385,2024-11-10T0000,31,41,0.7,42,5,9,37,45,
合肥市,高新区,117.1318,31.8403,2024-11-10T0000,38,53,0.9,40,3,13,43,54,细颗粒物(PM2.5)
合肥市,高教基地,117.3803,31.9147,2024-11-10T0000,23,45,0.4,31,5,13,43,45,
和田地区,地区环保局,79.924,37.0877,2024-11-10T0000,79,304,1.2,35,12,53,89,177,颗粒物(PM10)
和田地区,市环保局,79.9131,37.113,2024-11-10T0000,84,228,1.4,50,11,33,85,139,颗粒物(PM10)
河池市,东仁乐园,108.2011,24.715,2024-11-10T0000,,,,,,,27,,
河池市,市环保站,108.0497,24.6947,2024-11-10T0000,46,58,0.6,45,11,24,107,64,细颗粒物(PM2.5)
河池市,市疾控中心,108.0983,24.6989,2024-11-10T0000,39,67,0.6,46,10,16,103,59,颗粒物(PM10)
河源市,源西,114.6778,23.7569,2024-11-10T0000,25,32,0.6,24,9,61,89,36,
河源市,东埔,114.6944,23.7586,2024-11-10T0000,34,43,0.7,30,6,53,100,49,
河源市,老城,114.6892,23.7233,2024-11-10T0000,35,41,0.7,33,6,48,97,50,
菏泽市,气象局,115.4208,35.2464,2024-11-10T0000,73,105,0.6,45,5,25,75,98,细颗粒物(PM2.5)
菏泽市,市政协,115.4747,35.2375,2024-11-10T0000,67,97,0.5,40,4,22,72,90,细颗粒物(PM2.5)
菏泽市,定陶老年大学,115.5564,35.0891,2024-11-10T0000,56,88,0.4,36,5,17,62,77,细颗粒物(PM2.5)
菏泽市,菏泽医专,115.4702,35.2706,2024-11-10T0000,61,95,0.6,38,7,33,73,83,细颗粒物(PM2.5)
贺州市,环保小区,111.5264,24.4172,2024-11-10T0000,66,,0.8,24,8,78,131,89,细颗粒物(PM2.5)
贺州市,政协大楼,111.5608,24.4078,2024-11-10T0000,50,72,0.6,27,11,79,133,69,细颗粒物(PM2.5)
贺州市,西湾,111.4744,24.4553,2024-11-10T0000,57,70,0.7,20,9,83,126,78,细颗粒物(PM2.5)
鹤壁市,市监测站,114.17,35.9019,2024-11-10T0000,64,89,0.5,26,5,33,65,87,细颗粒物(PM2.5)
鹤壁市,市交警支队,114.2956,35.7511,2024-11-10T0000,56,97,0.6,38,1,21,65,77,细颗粒物(PM2.5)
鹤壁市,迎宾馆,114.2878,35.7306,2024-11-10T0000,65,116,0.6,42,2,21,68,88,细颗粒物(PM2.5)
鹤壁市,大新区,114.2617,35.6822,2024-11-10T0000,80,,0.6,52,4,5,59,107,细颗粒物(PM2.5)
鹤壁市,南山宾馆,114.1572,35.9603,2024-11-10T0000,50,81,0.3,23,3,28,66,69,细颗粒物(PM2.5)
鹤岗市,哈啤分公司,130.2537,47.3416,2024-11-10T0000,50,76,0.9,34,21,18,32,69,细颗粒物(PM2.5)
鹤岗市,斯达机电,130.2684,47.3086,2024-11-10T0000,57,71,0.6,27,19,35,31,78,细颗粒物(PM2.5)
鹤岗市,东山纸板厂,130.3114,47.3388,2024-11-10T0000,55,,0.4,30,17,21,21,75,细颗粒物(PM2.5)
鹤岗市,五号水库,130.1097,47.3382,2024-11-10T0000,45,80,1.0,39,16,9,44,65,颗粒物(PM10)
黑河市,交通局,127.4833,50.2524,2024-11-10T0000,72,111,0.9,20,7,22,43,97,细颗粒物(PM2.5)
黑河市,环保局,127.5144,50.2341,2024-11-10T0000,75,110,0.8,15,6,32,54,100,细颗粒物(PM2.5)
黑河市,大黑河岛,127.5291,50.2472,2024-11-10T0000,56,88,1.1,16,2,27,33,77,细颗粒物(PM2.5)
衡水市,电机北厂,115.6838,37.7541,2024-11-10T0000,39,58,0.3,21,3,48,84,55,细颗粒物(PM2.5)
衡水市,市监测站,115.6303,37.7316,2024-11-10T0000,39,80,0.3,34,3,36,77,65,颗粒物(PM10)
衡水市,市城管局,115.6683,37.7217,2024-11-10T0000,41,77,0.3,28,11,42,78,64,颗粒物(PM10)
衡水市,地表水厂,115.5989,37.5491,2024-11-10T0000,37,45,0.3,35,4,25,76,53,细颗粒物(PM2.5)
衡阳市,原169医院,112.5003,26.9167,2024-11-10T0000,55,82,0.6,23,10,62,107,75,细颗粒物(PM2.5)
衡阳市,衡阳化工总厂,112.6194,26.9258,2024-11-10T0000,112,135,1.0,17,28,87,133,147,细颗粒物(PM2.5)
衡阳市,珠晖区环保局,112.6211,26.8956,2024-11-10T0000,86,101,0.9,17,11,91,132,114,细颗粒物(PM2.5)
衡阳市,市委党校,112.6197,26.8733,2024-11-10T0000,95,104,1.0,22,17,99,140,125,细颗粒物(PM2.5)
衡阳市,市监测站,112.6006,26.8919,2024-11-10T0000,86,106,1.0,18,23,98,138,114,细颗粒物(PM2.5)
衡阳市,真空机电公司,112.5664,26.9056,2024-11-10T0000,59,74,0.9,27,12,91,138,80,细颗粒物(PM2.5)
衡阳市,师范学院,112.6703,26.882,2024-11-10T0000,88,121,0.9,16,13,100,141,117,细颗粒物(PM2.5)
红河哈尼族彝族自治州,污水处理厂,103.3772,23.3993,2024-11-10T0000,36,41,0.7,18,15,42,90,52,细颗粒物(PM2.5)
红河哈尼族彝族自治州,监测站,103.3861,23.35,2024-11-10T0000,36,38,0.6,14,7,42,106,52,细颗粒物(PM2.5)
红河哈尼族彝族自治州,州图书馆,103.3758,23.368,2024-11-10T0000,25,,0.6,14,9,42,96,36,
呼和浩特市,呼市一监,111.6507,40.7517,2024-11-10T0000,3,22,0.3,20,8,76,50,24,
呼和浩特市,小召,111.6572,40.8033,2024-11-10T0000,3,19,0.3,20,8,63,57,20,
呼和浩特市,如意水处理厂,111.7516,40.8369,2024-11-10T0000,3,10,0.3,18,7,62,28,20,
呼和浩特市,二十九中,111.7276,40.8062,2024-11-10T0000,3,30,0.4,11,6,66,56,30,
呼和浩特市,工大金川校区,111.5512,40.7866,2024-11-10T0000,3,7,0.3,18,4,81,45,26,
呼和浩特市,化肥厂生活区,111.717,40.7612,2024-11-10T0000,3,15,0.3,15,8,64,51,20,
呼和浩特市,红旗小学,111.5968,40.8178,2024-11-10T0000,3,17,0.3,14,4,76,37,24,
呼和浩特市,海东办,111.6518,40.8389,2024-11-10T0000,3,9,0.5,17,8,71,49,23,
呼伦贝尔市,区环保局,119.7594,49.2261,2024-11-10T0000,17,27,0.3,9,6,42,60,27,
呼伦贝尔市,国华电力东,119.7512,49.1577,2024-11-10T0000,12,19,0.2,6,5,42,69,19,
湖州市,城西水厂,120.0751,30.8669,2024-11-10T0000,14,40,0.3,19,6,66,75,40,
湖州市,仁皇山新区,120.0875,30.8955,2024-11-10T0000,15,33,0.5,25,5,60,77,33,
湖州市,吴兴区站,120.1844,30.8596,2024-11-10T0000,23,42,0.6,31,7,46,69,42,
湖州市,南浔区站,120.4148,30.8538,2024-11-10T0000,23,44,0.4,36,4,41,67,44,
葫芦岛市,龙港区,120.9092,40.7136,2024-11-10T0000,73,,0.9,12,12,101,127,98,细颗粒物(PM2.5)
葫芦岛市,化工街,120.8392,40.7514,2024-11-10T0000,58,92,1.0,23,16,89,118,79,细颗粒物(PM2.5)
葫芦岛市,新区,120.8341,40.7073,2024-11-10T0000,78,,0.9,21,13,96,130,104,细颗粒物(PM2.5)
葫芦岛市,东城区,120.8695,40.7677,2024-11-10T0000,81,,0.9,24,12,94,118,108,细颗粒物(PM2.5)
怀化市,林科所,109.5981,27.5721,2024-11-10T0000,61,61,0.9,16,12,78,81,83,细颗粒物(PM2.5)
怀化市,河西地税局,109.9453,27.5444,2024-11-10T0000,47,67,0.6,18,17,63,78,65,细颗粒物(PM2.5)
怀化市,市四医院,109.9781,27.5342,2024-11-10T0000,66,93,0.7,20,10,52,76,89,细颗粒物(PM2.5)
怀化市,监测楼,109.9972,27.5578,2024-11-10T0000,50,81,0.7,22,7,45,80,69,细颗粒物(PM2.5)
怀化市,市委党校,110.0394,27.583,2024-11-10T0000,56,90,0.7,22,5,27,79,77,细颗粒物(PM2.5)
淮安市,钵池山,119.036,33.5981,2024-11-10T0000,36,39,0.7,47,5,30,72,52,细颗粒物(PM2.5)
淮安市,北京南路,119.007,33.575,2024-11-10T0000,33,48,0.5,26,6,46,69,48,
淮安市,市监测站,118.989,33.6067,2024-11-10T0000,27,34,0.8,29,7,55,70,39,
淮安市,楚州区监测站,119.135,33.5039,2024-11-10T0000,28,42,0.5,31,5,41,71,42,
淮安市,淮阴区监测站,119.0186,33.6297,2024-11-10T0000,32,39,0.6,30,4,56,61,46,
淮安市,新华书店,118.8755,33.2894,2024-11-10T0000,27,33,0.5,34,4,37,75,39,
淮北市,监测站,116.8004,33.975,2024-11-10T0000,38,44,0.6,14,1,48,73,54,细颗粒物(PM2.5)
淮北市,烈山区政府,116.8091,33.9007,2024-11-10T0000,56,78,0.5,21,2,48,82,77,细颗粒物(PM2.5)
淮北市,杜集区检察院,116.8873,33.9836,2024-11-10T0000,59,72,0.6,19,2,48,81,80,细颗粒物(PM2.5)
淮北市,市博物馆,116.7923,33.9535,2024-11-10T0000,39,45,0.6,22,4,46,84,55,细颗粒物(PM2.5)
淮南市,潘集区政府,116.8305,32.7727,2024-11-10T0000,58,82,0.5,48,8,6,40,79,细颗粒物(PM2.5)
淮南市,师范学院,117.0067,32.6524,2024-11-10T0000,71,71,0.1,44,9,4,48,95,细颗粒物(PM2.5)
淮南市,谢家集区政府,116.8569,32.5951,2024-11-10T0000,60,77,0.5,43,11,2,40,82,细颗粒物(PM2.5)
淮南市,八公山区政府,116.8281,32.633,2024-11-10T0000,56,81,0.4,35,9,14,40,77,细颗粒物(PM2.5)
淮南市,焦岗湖风景区管理处,116.6325,32.6201,2024-11-10T0000,33,64,0.3,44,5,5,32,57,颗粒物(PM10)
淮南市,经济技术开发区消防队,117.0566,32.6531,2024-11-10T0000,40,61,0.4,45,5,9,46,57,细颗粒物(PM2.5)
淮南市,山南新区,117.0108,32.5893,2024-11-10T0000,41,64,0.5,28,3,34,55,58,细颗粒物(PM2.5)
黄冈市,职工中心,114.9028,30.4742,2024-11-10T0000,46,58,0.6,24,9,33,96,64,细颗粒物(PM2.5)
黄冈市,红卫路,114.8858,30.4519,2024-11-10T0000,39,47,0.6,24,7,46,98,55,细颗粒物(PM2.5)
黄冈市,市林业局,114.9136,30.4445,2024-11-10T0000,38,65,0.6,22,8,58,112,58,颗粒物(PM10)
黄南藏族自治州,同仁县隆务镇,102.0199,35.5102,2024-11-10T0000,31,53,0.6,3,6,78,91,52,颗粒物(PM10)
黄山市,延安路89号,118.2903,29.6963,2024-11-10T0000,12,22,0.3,16,7,24,84,22,
黄山市,黄山东路89号,118.327,29.7178,2024-11-10T0000,9,40,0.4,16,6,45,82,40,
黄山市,黄山区政府5号楼,118.1371,30.2756,2024-11-10T0000,18,25,0.7,10,7,20,62,26,
黄石市,沈家营,115.0601,30.2313,2024-11-10T0000,48,74,0.6,42,6,28,112,67,细颗粒物(PM2.5)
黄石市,陈家湾,115.0817,30.2006,2024-11-10T0000,54,81,0.5,42,9,29,95,74,细颗粒物(PM2.5)
黄石市,铁山,114.8988,30.2019,2024-11-10T0000,52,88,0.5,44,6,35,117,72,细颗粒物(PM2.5)
黄石市,团城山,115.0307,30.2092,2024-11-10T0000,46,79,0.8,49,8,23,110,65,颗粒物(PM10)
黄石市,笔架山北路,115.0235,30.1578,2024-11-10T0000,30,52,0.8,25,7,71,113,51,颗粒物(PM10)
惠州市,河南岸金山湖子站,114.4183,23.0528,2024-11-10T0000,28,49,0.8,18,9,62,104,49,
惠州市,下埔横江三路子站,114.4053,23.0822,2024-11-10T0000,30,49,0.6,15,8,70,103,49,
惠州市,江北云山西路子站,114.4103,23.1142,2024-11-10T0000,29,47,0.6,16,9,71,108,47,
惠州市,惠阳区承修路船湖子站,114.4645,22.7833,2024-11-10T0000,32,66,0.6,20,11,56,97,58,颗粒物(PM10)
惠州市,大亚湾管委会子站,114.5317,22.7422,2024-11-10T0000,27,54,0.6,35,4,45,105,52,颗粒物(PM10)
惠州市,惠阳秋长,114.4338,22.8134,2024-11-10T0000,27,36,0.6,22,9,68,106,39,
惠州市,大亚湾霞涌,114.6517,22.775,2024-11-10T0000,32,,0.3,15,7,56,88,46,
鸡西市,环保局,130.9762,45.3001,2024-11-10T0000,65,88,0.9,37,12,1,19,88,细颗粒物(PM2.5)
鸡西市,第一中学,130.9429,45.3039,2024-11-10T0000,68,99,0.7,51,9,2,25,92,细颗粒物(PM2.5)
鸡西市,欧美日汽修厂,131.0207,45.3073,2024-11-10T0000,94,124,1.1,39,20,4,31,124,细颗粒物(PM2.5)
鸡西市,市政设施管理处,130.9967,45.3106,2024-11-10T0000,88,128,1.1,41,11,2,22,117,细颗粒物(PM2.5)
吉安市,红声器材厂,114.9754,27.0803,2024-11-10T0000,38,65,0.6,32,16,87,135,58,颗粒物(PM10)
吉安市,市森林工业局,114.9658,27.0999,2024-11-10T0000,39,59,0.6,28,17,92,131,55,"颗粒物(PM10),细颗粒物(PM2.5)"
吉安市,市环境监测站,114.99,27.1312,2024-11-10T0000,34,59,0.6,35,17,91,134,55,颗粒物(PM10)
吉安市,青原区法院,115.0093,27.0968,2024-11-10T0000,45,72,0.5,26,16,98,135,63,细颗粒物(PM2.5)
吉林市,哈达湾,126.54,43.8622,2024-11-10T0000,26,40,0.6,19,5,102,106,40,
吉林市,东局子,126.5844,43.8358,2024-11-10T0000,29,36,0.6,16,6,105,105,42,
吉林市,电力学院,126.5052,43.8245,2024-11-10T0000,36,41,0.6,18,6,86,97,52,细颗粒物(PM2.5)
吉林市,江北,126.6133,43.8972,2024-11-10T0000,25,38,0.6,11,10,106,104,38,
吉林市,江南公园,126.555,43.8306,2024-11-10T0000,30,39,0.5,13,8,101,101,43,
吉林市,丰满,126.7061,43.7133,2024-11-10T0000,24,28,0.7,10,8,108,103,35,
吉林市,九站,126.4739,43.953,2024-11-10T0000,27,41,0.6,13,6,101,97,41,
济南市,科干所,116.9862,36.6114,2024-11-10T0000,27,48,0.7,22,7,76,86,48,
济南市,农科所,116.9376,36.665,2024-11-10T0000,29,81,0.8,87,6,6,72,66,颗粒物(PM10)
济南市,开发区,117.1265,36.6734,2024-11-10T0000,29,59,0.7,64,4,22,53,55,颗粒物(PM10)
济南市,省种子仓库,117.0624,36.6868,2024-11-10T0000,44,95,1.1,82,5,5,52,73,颗粒物(PM10)
济南市,机床二厂,116.9489,36.6447,2024-11-10T0000,34,95,0.8,85,5,8,82,73,颗粒物(PM10)
济南市,市监测站,117.0495,36.663,2024-11-10T0000,37,68,0.7,84,4,8,59,59,颗粒物(PM10)
济南市,长清党校,116.7675,36.5484,2024-11-10T0000,49,76,0.8,53,9,56,101,68,细颗粒物(PM2.5)
济南市,技术学院,117.6795,36.229,2024-11-10T0000,51,85,1.0,34,7,56,92,70,细颗粒物(PM2.5)
济南市,东山小学,117.532,36.6868,2024-11-10T0000,42,73,1.0,35,9,58,84,62,颗粒物(PM10)
济南市,泰兴公司,117.7161,36.2049,2024-11-10T0000,56,88,0.5,52,11,41,92,77,细颗粒物(PM2.5)
济南市,莱芜战役纪念馆,117.6867,36.2171,2024-11-10T0000,53,90,0.7,40,7,53,82,73,细颗粒物(PM2.5)
济南市,济阳区政府,117.1673,36.9782,2024-11-10T0000,61,120,0.6,70,7,19,55,85,颗粒物(PM10)
济南市,锦屏中学,117.1171,36.63,2024-11-10T0000,24,39,0.5,30,4,54,69,39,
济南市,济南四建,116.9814,36.6819,2024-11-10T0000,34,78,0.8,84,3,4,68,64,颗粒物(PM10)
济宁市,火炬城,116.6251,35.4302,2024-11-10T0000,44,77,0.8,32,10,41,89,64,颗粒物(PM10)
济宁市,电化厂,116.5491,35.4042,2024-11-10T0000,34,77,0.8,50,7,25,89,64,颗粒物(PM10)
济宁市,北湖一中,116.5814,35.3707,2024-11-10T0000,48,56,0.6,38,5,38,89,67,细颗粒物(PM2.5)
济宁市,服务中心,116.8249,35.5593,2024-11-10T0000,48,66,0.8,41,10,38,84,67,细颗粒物(PM2.5)
济宁市,市第七中学,116.5907,35.4054,2024-11-10T0000,44,66,0.8,33,4,47,91,62,细颗粒物(PM2.5)
佳木斯市,佳纺,130.2751,46.8028,2024-11-10T0000,97,130,1.1,53,11,9,16,128,细颗粒物(PM2.5)
佳木斯市,发电厂,130.3995,46.8307,2024-11-10T0000,72,,0.7,48,8,5,21,97,细颗粒物(PM2.5)
佳木斯市,环保局,130.3258,46.7975,2024-11-10T0000,101,132,1.9,62,16,6,8,133,细颗粒物(PM2.5)
佳木斯市,十一中,130.3648,46.8032,2024-11-10T0000,90,98,0.9,53,10,17,14,119,细颗粒物(PM2.5)
佳木斯市,四丰,130.3794,46.7588,2024-11-10T0000,,,0.4,,1,57,33,,
嘉兴市,清河小学,120.7436,30.778,2024-11-10T0000,15,44,0.7,34,8,44,75,44,
嘉兴市,嘉兴学院,120.726,30.7478,2024-11-10T0000,30,45,0.4,32,5,44,75,45,
嘉兴市,南湖区残联,120.7846,30.7525,2024-11-10T0000,24,42,0.6,37,6,39,83,42,
嘉兴市,秀洲住建,120.6916,30.7739,2024-11-10T0000,19,42,0.5,30,8,37,76,42,
嘉峪关市,气象局,98.2908,39.7711,2024-11-10T0000,34,100,0.4,67,10,13,91,75,颗粒物(PM10)
嘉峪关市,酒钢宾馆,98.2672,39.7978,2024-11-10T0000,29,75,0.6,39,24,46,90,63,颗粒物(PM10)
嘉峪关市,雄关区,98.2643,39.7724,2024-11-10T0000,31,90,0.5,70,10,6,89,70,颗粒物(PM10)
江门市,北街,113.1064,22.6058,2024-11-10T0000,33,61,0.6,35,7,61,122,56,颗粒物(PM10)
江门市,西区,113.0731,22.5835,2024-11-10T0000,49,71,0.5,36,9,54,125,68,细颗粒物(PM2.5)
江门市,圭峰西,113.0219,22.5311,2024-11-10T0000,44,78,0.6,59,6,43,128,64,颗粒物(PM10)
江门市,东湖,113.0828,22.5947,2024-11-10T0000,30,67,0.6,39,8,52,122,59,颗粒物(PM10)
江门市,江海富民,113.1075,22.5647,2024-11-10T0000,27,48,0.5,38,11,58,124,48,
江门市,新会银湖,113.05,22.4667,2024-11-10T0000,31,41,0.4,41,9,53,120,45,
焦作市,市环保局,113.227,35.2125,2024-11-10T0000,66,110,0.4,54,3,9,60,89,细颗粒物(PM2.5)
焦作市,影视城,113.1992,35.2590,2024-11-10T0000,48,72,0.8,16,7,52,90,67,细颗粒物(PM2.5)
焦作市,太极体育中心,113.2725,35.2067,2024-11-10T0000,57,86,0.4,45,2,18,55,78,细颗粒物(PM2.5)
焦作市,马村街道办,113.3137,35.2641,2024-11-10T0000,62,88,0.5,43,4,11,62,84,细颗粒物(PM2.5)
焦作市,焦作技师学院,113.2465,35.2373,2024-11-10T0000,56,94,0.5,41,4,21,64,77,细颗粒物(PM2.5)
焦作市,中站许衡医院,113.1656,35.2539,2024-11-10T0000,50,88,0.9,39,6,26,79,69,"颗粒物(PM10),细颗粒物(PM2.5)"
焦作市,原李万街道办,113.2449,35.1803,2024-11-10T0000,54,87,0.5,54,1,9,58,74,细颗粒物(PM2.5)
揭阳市,新兴,116.3701,23.5345,2024-11-10T0000,27,48,0.6,26,10,58,112,48,
揭阳市,西马,116.3264,23.5443,2024-11-10T0000,23,51,0.7,20,12,64,122,51,颗粒物(PM10)
揭阳市,东兴,116.3611,23.5626,2024-11-10T0000,28,39,0.8,19,11,65,119,40,
揭阳市,渔湖,116.4151,23.5294,2024-11-10T0000,22,34,0.6,19,9,64,116,34,
揭阳市,曲溪,116.403,23.5699,2024-11-10T0000,27,43,0.7,20,13,65,119,43,
金昌市,天庆家园,102.1692,38.5167,2024-11-10T0000,46,70,0.6,29,14,52,89,64,细颗粒物(PM2.5)
金昌市,市委党校,102.1864,38.5253,2024-11-10T0000,36,87,0.7,31,16,68,93,69,颗粒物(PM10)
金昌市,金川区人防中心,102.1647,38.5371,2024-11-10T0000,44,102,1.1,36,14,48,92,76,颗粒物(PM10)
金华市,十五中,119.647,29.077,2024-11-10T0000,23,40,0.4,33,4,41,80,40,
金华市,监测站,119.686,29.1029,2024-11-10T0000,19,40,0.5,30,4,39,79,40,
金华市,气象局,119.656,29.1131,2024-11-10T0000,17,43,0.5,35,4,36,78,43,
锦州市,南山,121.1115,41.0879,2024-11-10T0000,78,,0.9,31,13,81,111,104,细颗粒物(PM2.5)
锦州市,开发区,121.0533,40.8434,2024-11-10T0000,89,,1.4,40,30,83,105,118,细颗粒物(PM2.5)
锦州市,百股街道,121.1836,41.1119,2024-11-10T0000,48,50,1.0,27,15,86,113,67,细颗粒物(PM2.5)
锦州市,天安街道,121.1178,41.1222,2024-11-10T0000,88,,1.1,23,13,83,104,117,细颗粒物(PM2.5)
锦州市,北湖公园,121.1303,41.1386,2024-11-10T0000,85,,1.1,26,12,81,104,113,细颗粒物(PM2.5)
晋城市,自来水公司,112.85,35.5051,2024-11-10T0000,41,58,0.7,27,7,80,110,58,细颗粒物(PM2.5)
晋城市,白云商贸,112.8318,35.4936,2024-11-10T0000,46,90,0.8,26,6,82,113,70,颗粒物(PM10)
晋城市,市环保局,112.8508,35.4887,2024-11-10T0000,44,72,0.9,22,7,74,109,62,细颗粒物(PM2.5)
晋城市,技术学院,112.8676,35.4897,2024-11-10T0000,31,81,1.0,28,6,69,107,66,颗粒物(PM10)
晋城市,白马寺,112.8453,35.546,2024-11-10T0000,31,76,0.8,20,10,72,108,63,颗粒物(PM10)
晋城市,泽州一中,112.8271,35.4828,2024-11-10T0000,48,49,0.9,25,7,73,104,67,细颗粒物(PM2.5)
晋中市,锦纶小区,112.7532,37.6945,2024-11-10T0000,166,251,1.3,68,31,49,112,216,细颗粒物(PM2.5)
晋中市,南都小区,112.7249,37.7067,2024-11-10T0000,172,253,1.7,62,30,50,113,222,细颗粒物(PM2.5)
晋中市,榆次区政府,112.6991,37.6982,2024-11-10T0000,147,246,1.3,67,21,44,112,196,细颗粒物(PM2.5)
晋中市,榆次三中,112.7195,37.6828,2024-11-10T0000,175,254,1.6,55,28,59,113,225,细颗粒物(PM2.5)
荆门市,竹园小学,112.2014,31.0481,2024-11-10T0000,102,132,0.9,35,11,31,81,134,细颗粒物(PM2.5)
荆门市,掇刀,112.1969,30.9891,2024-11-10T0000,104,125,0.7,41,9,43,92,137,细颗粒物(PM2.5)
荆门市,石化一小,112.2213,31.0386,2024-11-10T0000,104,146,0.6,33,12,39,86,137,细颗粒物(PM2.5)
荆门市,西山林语,112.1849,31.0362,2024-11-10T0000,94,112,0.6,34,8,49,82,124,细颗粒物(PM2.5)
荆门市,龙泉中学南校,112.1632,31.0138,2024-11-10T0000,63,98,0.8,34,11,48,93,85,细颗粒物(PM2.5)
荆州市,市图书馆,112.2494,30.3197,2024-11-10T0000,30,37,0.7,37,6,52,81,43,
荆州市,市委党校,112.2008,30.3544,2024-11-10T0000,43,65,0.9,44,6,28,87,60,细颗粒物(PM2.5)
荆州市,管委会,112.2747,30.3122,2024-11-10T0000,46,,0.7,35,12,53,70,64,细颗粒物(PM2.5)
荆州市,学苑路,112.1655,30.3364,2024-11-10T0000,54,60,0.8,39,9,41,88,74,细颗粒物(PM2.5)
景德镇市,王港中学,117.3102,29.3867,2024-11-10T0000,,,,,,,,,
景德镇市,老干部活动中心,117.2117,29.2933,2024-11-10T0000,13,34,0.1,19,6,48,83,34,
景德镇市,兽医站,117.1894,29.2789,2024-11-10T0000,17,36,0.4,16,6,51,82,36,
景德镇市,台达陶瓷,117.1547,29.2617,2024-11-10T0000,13,23,0.3,12,11,44,74,23,
景德镇市,陶研所,117.2461,29.2956,2024-11-10T0000,19,28,0.2,20,6,33,78,28,
九江市,十里,115.9872,29.6815,2024-11-10T0000,39,56,0.8,26,6,50,113,55,细颗粒物(PM2.5)
九江市,茅山头,115.9584,29.7046,2024-11-10T0000,28,47,0.8,23,7,51,109,47,
九江市,西园,115.9877,29.7295,2024-11-10T0000,28,60,0.7,26,7,50,117,55,颗粒物(PM10)
九江市,五七二七厂,116.0172,29.6547,2024-11-10T0000,51,,0.9,22,10,56,110,70,细颗粒物(PM2.5)
九江市,综合工业园,115.9114,29.6038,2024-11-10T0000,45,53,0.8,29,9,53,114,63,细颗粒物(PM2.5)
九江市,石化总厂,116.0721,29.7535,2024-11-10T0000,29,59,0.9,32,8,43,107,55,颗粒物(PM10)
九江市,庐山气象台,115.9773,29.5698,2024-11-10T0000,11,,0.8,4,9,97,113,31,
九江市,外国语学校,116.0254,29.6994,2024-11-10T0000,31,54,0.6,32,13,46,106,52,颗粒物(PM10)
酒泉市,仓门街子站,98.5061,39.7443,2024-11-10T0000,38,117,0.7,46,21,22,84,84,颗粒物(PM10)
酒泉市,油田生活基地,98.4989,39.7256,2024-11-10T0000,44,132,0.5,29,5,31,82,91,颗粒物(PM10)
喀什地区,巡警大队,76.0072,39.4467,2024-11-10T0000,106,308,2.9,98,10,2,76,179,颗粒物(PM10)
喀什地区,吾办,75.9755,39.4694,2024-11-10T0000,106,249,1.9,78,3,1,70,150,颗粒物(PM10)
喀什地区,老干局,75.9483,39.4689,2024-11-10T0000,86,403,2.8,88,4,7,82,276,颗粒物(PM10)
开封市,肿瘤医院,114.3389,34.7781,2024-11-10T0000,73,73,0.5,53,2,4,53,98,细颗粒物(PM2.5)
开封市,世纪星幼儿园,114.2885,34.7965,2024-11-10T0000,49,66,0.5,38,1,26,61,68,细颗粒物(PM2.5)
开封市,龙亭公园,114.3438,34.8106,2024-11-10T0000,56,76,,36,1,,59,,
开封市,汴京公园,114.3644,34.7964,2024-11-10T0000,58,72,0.5,45,2,16,57,79,细颗粒物(PM2.5)
开封市,技师学院,114.2485,34.8306,2024-11-10T0000,51,68,0.6,25,3,36,61,70,细颗粒物(PM2.5)
开封市,祥符区生态环境局,114.4644,34.7556,2024-11-10T0000,47,72,0.6,43,2,8,47,65,细颗粒物(PM2.5)
克拉玛依市,长征新村,84.895,45.6094,2024-11-10T0000,7,8,0.2,5,6,53,60,17,
克拉玛依市,南林小区,84.8988,45.5893,2024-11-10T0000,3,6,0.3,10,3,47,57,15,
克拉玛依市,独山子区,84.905,44.3396,2024-11-10T0000,3,7,0.2,11,8,51,52,16,
克拉玛依市,乌尔禾区商贸楼,85.6979,46.098,2024-11-10T0000,3,6,0.3,11,3,44,68,14,
克拉玛依市,白碱滩区新站,85.1045,45.6899,2024-11-10T0000,3,17,0.1,28,8,27,62,17,
克孜勒苏柯尔克孜自治州,市人民政府,76.1454,39.7142,2024-11-10T0000,56,182,0.8,28,11,48,93,116,颗粒物(PM10)
克孜勒苏柯尔克孜自治州,克州文化中心,76.1658,39.7157,2024-11-10T0000,44,154,0.5,35,18,54,91,102,颗粒物(PM10)
昆明市,呈贡新区,102.8204,24.8886,2024-11-10T0000,27,53,0.9,40,8,3,84,52,颗粒物(PM10)
昆明市,西山森林公园,102.6251,24.9608,2024-11-10T0000,,,,,,,,,
昆明市,龙泉镇,102.7252,25.0902,2024-11-10T0000,10,26,0.9,31,7,2,67,26,
昆明市,东风东路,102.7266,25.0375,2024-11-10T0000,29,47,1.0,38,7,0,68,47,
昆明市,金鼎山,102.6742,25.0669,2024-11-10T0000,22,25,0.6,29,2,16,72,32,
昆明市,碧鸡广场,102.6644,25.0401,2024-11-10T0000,28,46,0.7,45,5,3,70,46,
昆明市,官渡区博物馆,102.7494,25.0119,2024-11-10T0000,32,62,1.1,37,11,2,77,56,颗粒物(PM10)
昆明市,青年创业园,102.8017,24.8336,2024-11-10T0000,12,27,0.6,25,4,7,89,27,
昆明市,昆明学院,102.7997,24.9786,2024-11-10T0000,30,58,0.7,39,7,2,83,54,颗粒物(PM10)
昆明市,晋宁区生态环境分局,102.5967,24.6736,2024-11-10T0000,27,45,0.3,29,1,10,85,45,
昆明市,云天化总部,102.6678,24.9856,2024-11-10T0000,14,21,0.4,47,7,4,81,24,
拉萨市,八廓街,91.1319,29.6514,2024-11-10T0000,33,47,1.2,72,9,12,92,48,
拉萨市,市环保局,91.1221,29.6747,2024-11-10T0000,59,102,1.7,55,11,14,93,80,细颗粒物(PM2.5)
拉萨市,区监测站,91.0874,29.6475,2024-11-10T0000,30,52,1.3,81,8,8,86,51,颗粒物(PM10)
拉萨市,西藏大学,91.1774,29.6541,2024-11-10T0000,11,42,0.2,41,7,41,92,42,
拉萨市,区辐射站,90.9798,29.6588,2024-11-10T0000,12,24,0.4,27,9,61,85,24,
拉萨市,拉萨火车站,91.0834,29.6292,2024-11-10T0000,16,20,0.6,29,7,53,84,23,
来宾市,来宾技工学校,109.2203,23.7256,2024-11-10T0000,39,70,0.8,23,6,80,161,60,颗粒物(PM10)
来宾市,兴宾区政府,109.1781,23.7297,2024-11-10T0000,38,57,0.6,10,5,98,162,54,"颗粒物(PM10),细颗粒物(PM2.5)"
来宾市,中南小学,109.2416,23.7461,2024-11-10T0000,26,51,0.6,14,8,94,156,51,颗粒物(PM10)
兰州市,兰炼宾馆,103.631,36.1031,2024-11-10T0000,45,92,0.8,77,13,10,77,71,颗粒物(PM10)
兰州市,榆中兰大校区,104.1373,35.9454,2024-11-10T0000,,,,,,,,,
兰州市,生物制品所,103.8412,36.0726,2024-11-10T0000,38,86,0.6,74,11,3,76,68,颗粒物(PM10)
兰州市,铁路设计院,103.831,36.0464,2024-11-10T0000,49,82,0.9,82,10,4,81,68,细颗粒物(PM2.5)
兰州市,教育港,103.7158,36.1058,2024-11-10T0000,40,94,0.8,62,11,7,76,72,颗粒物(PM10)
兰州市,百合公园,103.7439,36.0842,2024-11-10T0000,39,69,1.0,56,9,10,73,60,颗粒物(PM10)
兰州市,和平,103.9611,35.998,2024-11-10T0000,30,74,0.2,46,12,41,87,62,颗粒物(PM10)
兰州新区,新区管委会,103.6633,36.533,2024-11-10T0000,43,105,0.9,54,10,16,78,78,颗粒物(PM10)
兰州新区,舟曲中学,103.6975,36.4789,2024-11-10T0000,40,120,0.8,82,16,5,87,85,颗粒物(PM10)
廊坊市,药材公司,116.6708,39.5111,2024-11-10T0000,73,101,0.8,67,5,14,71,98,细颗粒物(PM2.5)
廊坊市,开发区,116.7214,39.5589,2024-11-10T0000,73,114,0.7,54,2,5,58,98,细颗粒物(PM2.5)
廊坊市,北华航天学院,116.7244,39.5269,2024-11-10T0000,80,124,0.7,67,6,5,67,107,细颗粒物(PM2.5)
廊坊市,河北工业大学,116.7022,39.5453,2024-11-10T0000,75,123,0.8,73,7,7,70,100,细颗粒物(PM2.5)
乐山市,花湖湾,103.7723,29.5462,2024-11-10T0000,27,45,0.8,8,4,30,44,45,
乐山市,牛耳桥,103.7627,29.5844,2024-11-10T0000,38,42,0.6,12,4,29,41,54,细颗粒物(PM2.5)
乐山市,市第三水厂,103.7508,29.6006,2024-11-10T0000,34,44,0.8,12,3,33,49,49,
乐山市,市监测站,103.7571,29.5664,2024-11-10T0000,40,45,0.6,10,4,29,44,57,细颗粒物(PM2.5)
乐山市,理工大学,103.7311,29.5628,2024-11-10T0000,44,,0.6,10,4,34,49,62,细颗粒物(PM2.5)
丽江市,西南郊,100.2143,26.8576,2024-11-10T0000,17,25,1.1,20,5,21,67,25,
丽江市,丽江古城,100.2497,26.8802,2024-11-10T0000,19,27,0.6,10,10,42,63,28,
丽江市,市中心,100.2203,26.8906,2024-11-10T0000,17,,0.6,11,9,43,60,25,
丽水市,监测站大楼,119.914,28.4514,2024-11-10T0000,26,43,0.5,35,8,29,89,43,
丽水市,莲都小学,119.93,28.4586,2024-11-10T0000,38,61,0.6,40,6,24,90,56,颗粒物(PM10)
丽水市,余庄前,119.879,28.4231,2024-11-10T0000,54,76,0.4,20,5,13,84,74,细颗粒物(PM2.5)
连云港市,市环境监测站,119.176,34.5885,2024-11-10T0000,17,36,0.4,12,7,84,108,36,
连云港市,德源药业,119.3581,34.6972,2024-11-10T0000,17,63,0.2,50,6,36,106,57,颗粒物(PM10)
连云港市,新城一中,119.178,34.844,2024-11-10T0000,14,44,0.5,56,6,31,97,44,
连云港市,胡沟管理处,119.3608,34.7519,2024-11-10T0000,3,14,0.2,9,9,94,94,30,
连云港市,矿山设计院,119.1478,34.5911,2024-11-10T0000,14,34,0.5,14,6,82,106,34,
连云港市,工贸学校,119.2413,34.6539,2024-11-10T0000,6,16,0.4,7,6,104,114,33,
连云港市,连云街道,119.4172,34.7341,2024-11-10T0000,8,19,0.4,6,6,108,113,34,
凉山彝族自治州,青龙寺,102.3431,27.8099,2024-11-10T0000,3,16,0.6,6,4,26,53,16,
凉山彝族自治州,邛海宾馆,102.2721,27.8415,2024-11-10T0000,16,24,0.8,27,7,12,59,24,
凉山彝族自治州,西昌市政府,102.2625,27.898,2024-11-10T0000,12,22,0.7,11,7,28,62,22,
凉山彝族自治州,凉山州政府,102.2685,27.8851,2024-11-10T0000,13,20,0.9,16,9,24,62,20,
凉山彝族自治州,长安,102.237,27.8914,2024-11-10T0000,18,37,1.0,39,18,9,54,37,
辽阳市,宏伟区,123.2,41.1953,2024-11-10T0000,24,34,0.5,11,8,106,110,35,
辽阳市,新华园,123.1683,41.2495,2024-11-10T0000,28,29,0.5,18,8,97,98,40,
辽阳市,滨河路,123.2354,41.2639,2024-11-10T0000,30,30,0.5,15,10,94,100,43,
辽阳市,铁西工业园,123.149,41.2991,2024-11-10T0000,25,47,0.8,10,12,100,98,47,
辽源市,环保局,125.1358,42.8845,2024-11-10T0000,13,30,0.5,12,7,116,108,37,
辽源市,银鹰制药,125.0764,42.9078,2024-11-10T0000,18,33,0.6,9,3,119,104,38,
聊城市,区政府,115.9848,36.4372,2024-11-10T0000,34,75,0.8,23,10,49,78,63,颗粒物(PM10)
聊城市,聊大东校,116.0072,36.4343,2024-11-10T0000,41,83,0.6,25,9,54,81,67,颗粒物(PM10)
聊城市,监控中心,115.9819,36.4978,2024-11-10T0000,44,70,0.6,33,9,52,81,62,细颗粒物(PM2.5)
聊城市,九州社区,116.0445,36.4361,2024-11-10T0000,34,79,0.6,34,8,41,79,65,颗粒物(PM10)
聊城市,星美广场,116.0567,36.4608,2024-11-10T0000,40,86,0.6,26,9,58,83,68,颗粒物(PM10)
林芝市,林芝监测站,94.3681,29.6376,2024-11-10T0000,6,14,0.2,2,6,59,69,19,
林芝市,林芝人民医院,94.3616,29.6616,2024-11-10T0000,9,20,0.3,6,6,94,75,30,
临沧市,市环保局,100.0781,23.8982,2024-11-10T0000,19,22,0.6,12,7,18,68,28,
临沧市,市气象局,100.0894,23.8822,2024-11-10T0000,23,25,0.6,12,9,16,72,33,
临汾市,临钢医院,111.5531,36.0783,2024-11-10T0000,53,113,2.3,41,13,53,88,82,颗粒物(PM10)
临汾市,技工学校,111.5028,36.0714,2024-11-10T0000,64,103,1.2,51,15,36,96,87,细颗粒物(PM2.5)
临汾市,市委,111.5018,36.0855,2024-11-10T0000,60,105,1.2,44,17,40,105,82,细颗粒物(PM2.5)
临汾市,唐尧大酒店,111.505,36.1014,2024-11-10T0000,58,93,1.2,42,15,45,102,79,细颗粒物(PM2.5)
临汾市,城南,111.5036,36.0414,2024-11-10T0000,66,99,1.3,51,13,33,108,89,细颗粒物(PM2.5)
临夏回族自治州,环保局,103.2069,35.5993,2024-11-10T0000,21,109,1.5,43,5,10,35,80,颗粒物(PM10)
临夏回族自治州,建设大厦,103.2417,35.6057,2024-11-10T0000,27,53,1.0,38,5,19,22,52,颗粒物(PM10)
临沂市,沂河小区,118.3429,35.0532,2024-11-10T0000,27,61,0.3,26,9,60,79,56,颗粒物(PM10)
临沂市,鲁南制药厂,118.295,35.0583,2024-11-10T0000,29,56,0.7,30,6,55,62,53,颗粒物(PM10)
临沂市,新光毛纺厂,118.2794,34.9976,2024-11-10T0000,40,63,0.7,45,6,44,84,57,"颗粒物(PM10),细颗粒物(PM2.5)"
临沂市,河东保险公司,118.3956,35.0888,2024-11-10T0000,29,56,0.1,42,4,34,88,53,颗粒物(PM10)
临沂市,十里堡居委,118.3564,35.0215,2024-11-10T0000,27,53,0.4,33,6,54,83,52,颗粒物(PM10)
临沂市,南坊新区,118.3604,35.1084,2024-11-10T0000,34,61,0.7,41,6,55,85,56,颗粒物(PM10)
临沂市,皇山花园小区,118.3920,35.0300,2024-11-10T0000,34,56,0.6,39,6,53,77,53,颗粒物(PM10)
柳州市,柳东小学,109.4856,24.3895,2024-11-10T0000,39,47,0.5,12,12,85,132,55,细颗粒物(PM2.5)
柳州市,环保监测站,109.4157,24.3277,2024-11-10T0000,45,75,0.9,28,25,74,128,63,"颗粒物(PM10),细颗粒物(PM2.5)"
柳州市,河西水厂,109.389,24.341,2024-11-10T0000,36,71,0.9,15,31,82,124,61,颗粒物(PM10)
柳州市,市四中,109.4311,24.2921,2024-11-10T0000,38,59,0.8,24,20,78,140,55,颗粒物(PM10)
柳州市,市九中,109.4006,24.3631,2024-11-10T0000,44,62,0.8,13,19,90,128,62,细颗粒物(PM2.5)
柳州市,古亭山,109.4958,24.3134,2024-11-10T0000,35,48,0.6,14,12,92,138,50,
柳州市,市二中,109.5422,24.3996,2024-11-10T0000,40,60,0.7,22,10,67,132,57,细颗粒物(PM2.5)
六安市,监测大楼,116.5079,31.737,2024-11-10T0000,45,,0.7,36,5,12,42,63,细颗粒物(PM2.5)
六安市,皖西学院,116.4738,31.7643,2024-11-10T0000,66,,0.7,35,4,9,41,89,细颗粒物(PM2.5)
六安市,朝阳厂,116.4996,31.7905,2024-11-10T0000,39,,0.6,34,1,10,39,55,细颗粒物(PM2.5)
六安市,开发区,116.5567,31.7886,2024-11-10T0000,23,39,0.5,26,4,13,42,39,
六盘水市,窑上,104.8,26.5892,2024-11-10T0000,19,20,0.6,3,5,13,68,28,
六盘水市,黄土坡,104.83,26.5917,2024-11-10T0000,31,47,0.9,30,8,31,80,47,
六盘水市,水钢,104.89,26.5939,2024-11-10T0000,46,51,0.4,10,4,80,86,64,细颗粒物(PM2.5)
六盘水市,民中,104.8475,26.5894,2024-11-10T0000,29,43,0.7,21,8,64,79,43,
六盘水市,双水,104.9544,26.5506,2024-11-10T0000,30,31,0.3,10,7,77,86,43,
龙岩市,龙岩师专,117.0189,25.1181,2024-11-10T0000,,,,,,,,,
龙岩市,龙岩市监测站,117.0217,25.1033,2024-11-10T0000,28,36,0.6,20,15,47,90,40,
龙岩市,闽西职业技术学院,117.0258,25.0661,2024-11-10T0000,26,66,0.7,56,14,2,91,58,颗粒物(PM10)
龙岩市,龙岩学院,117.0196,25.0306,2024-11-10T0000,28,39,0.7,27,14,25,94,40,
陇南市,汉王镇固水子,105.0822,33.3261,2024-11-10T0000,,,,,,,,,
陇南市,滨江中学,104.9339,33.3826,2024-11-10T0000,15,20,0.4,10,4,40,41,22,
陇南市,市总工会,104.955,33.371,2024-11-10T0000,6,21,0.5,13,4,38,43,21,
娄底市,电视发射台,111.9589,27.8901,2024-11-10T0000,31,45,1.0,12,8,82,132,45,
娄底市,市监测站,111.9975,27.725,2024-11-10T0000,58,65,0.6,21,14,89,136,79,细颗粒物(PM2.5)
娄底市,市委党校,112.0194,27.7314,2024-11-10T0000,56,75,0.7,12,4,95,126,77,细颗粒物(PM2.5)
娄底市,涟钢,111.9561,27.7569,2024-11-10T0000,62,80,0.6,18,6,65,121,84,细颗粒物(PM2.5)
娄底市,市政府,111.9892,27.7044,2024-11-10T0000,62,72,0.6,13,10,92,128,84,细颗粒物(PM2.5)
泸州市,九狮山,105.4324,28.9634,2024-11-10T0000,33,57,0.4,22,5,17,42,54,颗粒物(PM10)
泸州市,小市上码头,105.4427,28.9063,2024-11-10T0000,38,62,0.5,25,6,30,49,56,颗粒物(PM10)
泸州市,兰田宪桥,105.4241,28.8573,2024-11-10T0000,48,53,0.6,22,5,31,47,67,细颗粒物(PM2.5)
泸州市,市环监站,105.4379,28.8833,2024-11-10T0000,49,62,0.6,23,6,24,41,68,细颗粒物(PM2.5)
泸州市,纳溪区环保局,105.3617,28.7703,2024-11-10T0000,44,48,0.6,23,4,28,38,62,细颗粒物(PM2.5)
吕梁市,环保局,111.1406,37.5211,2024-11-10T0000,72,150,0.8,60,2,2,44,100,颗粒物(PM10)
吕梁市,自来水公司,111.1297,37.5136,2024-11-10T0000,82,141,0.9,56,8,7,38,109,细颗粒物(PM2.5)
吕梁市,马茂庄小学,111.1283,37.51,2024-11-10T0000,81,202,0.8,77,13,2,38,126,颗粒物(PM10)
洛阳市,市委党校,112.3931,34.6516,2024-11-10T0000,75,123,0.8,69,3,2,44,100,细颗粒物(PM2.5)
洛阳市,豫西宾馆,112.4657,34.6871,2024-11-10T0000,62,113,0.6,51,3,10,44,84,细颗粒物(PM2.5)
洛阳市,河南林校,112.494,34.6886,2024-11-10T0000,73,126,0.5,60,4,4,41,98,细颗粒物(PM2.5)
洛阳市,开发区管委会,112.3844,34.623,2024-11-10T0000,87,117,0.6,43,7,6,48,115,细颗粒物(PM2.5)
洛阳市,市委新办公区,112.4267,34.6258,2024-11-10T0000,76,130,0.6,54,3,3,43,102,细颗粒物(PM2.5)
洛阳市,伊滨,112.6005,34.6326,2024-11-10T0000,65,102,0.6,59,4,2,46,88,细颗粒物(PM2.5)
洛阳市,中移产业园,112.4951,34.6332,2024-11-10T0000,76,104,0.8,59,3,8,45,102,细颗粒物(PM2.5)
洛阳市,吉利监测站,112.5736,34.8993,2024-11-10T0000,57,120,0.5,47,3,2,55,85,颗粒物(PM10)
洛阳市,河科大西苑校区,112.3677,34.662,2024-11-10T0000,82,134,0.7,64,4,2,46,109,细颗粒物(PM2.5)
洛阳市,英才小学,112.4388,34.6781,2024-11-10T0000,61,114,0.5,53,3,10,47,83,细颗粒物(PM2.5)
漯河市,三五一五工厂,114.051,33.5699,2024-11-10T0000,62,85,0.7,35,5,17,44,84,细颗粒物(PM2.5)
漯河市,漯河大学,114.0055,33.5698,2024-11-10T0000,73,91,0.7,34,5,18,49,98,细颗粒物(PM2.5)
漯河市,市水利局,114.0138,33.5828,2024-11-10T0000,70,90,0.7,26,6,18,45,94,细颗粒物(PM2.5)
漯河市,市广电局,114.0261,33.5698,2024-11-10T0000,77,83,0.7,29,5,24,50,103,细颗粒物(PM2.5)
漯河市,市图书馆,113.9749,33.5664,2024-11-10T0000,67,85,0.6,43,3,10,47,90,细颗粒物(PM2.5)
漯河市,召陵区卫健委,114.0967,33.5906,2024-11-10T0000,66,94,0.7,51,8,3,40,89,细颗粒物(PM2.5)
马鞍山市,湖东路四小,118.5092,31.6837,2024-11-10T0000,13,32,0.6,21,5,48,60,32,
马鞍山市,开发区,118.5024,31.6449,2024-11-10T0000,17,33,0.6,33,7,38,55,33,
马鞍山市,慈湖,118.5228,31.7231,2024-11-10T0000,20,33,0.8,25,9,45,63,33,
马鞍山市,濮塘,118.6245,31.7241,2024-11-10T0000,16,33,0.9,23,8,44,62,33,
马鞍山市,雨山,118.4918,31.6809,2024-11-10T0000,14,31,0.8,21,5,46,60,31,
茂名市,电白南海,111.0286,21.4688,2024-11-10T0000,22,44,0.6,16,10,85,142,44,
茂名市,茂石化七小,110.9294,21.6533,2024-11-10T0000,51,80,0.9,27,23,53,132,70,细颗粒物(PM2.5)
茂名市,健康路,110.9107,21.6687,2024-11-10T0000,48,88,0.7,31,36,47,133,69,颗粒物(PM10)
茂名市,高岭,110.8592,21.6828,2024-11-10T0000,73,127,0.9,38,31,27,113,98,细颗粒物(PM2.5)
茂名市,电白水东,111.01,21.5165,2024-11-10T0000,24,34,0.5,13,12,82,128,35,
眉山市,黑龙滩水库,104.0308,30.0478,2024-11-10T0000,45,,0.5,4,2,50,46,63,细颗粒物(PM2.5)
眉山市,气象局,103.8416,30.0874,2024-11-10T0000,34,34,0.5,9,6,33,35,49,
眉山市,市委党校,103.8578,30.0744,2024-11-10T0000,19,36,0.5,14,6,36,34,36,
眉山市,区人社局,103.8291,30.0564,2024-11-10T0000,24,30,0.4,16,3,39,35,35,
梅州市,梅江月梅,116.1231,24.3284,2024-11-10T0000,27,38,0.6,53,9,9,89,39,
梅州市,梅县新城,116.0797,24.2719,2024-11-10T0000,28,37,0.6,42,8,24,88,40,
梅州市,环境监控中心,116.1248,24.2654,2024-11-10T0000,38,61,0.6,46,7,5,86,56,颗粒物(PM10)
梅州市,梅龙,116.1233,24.2991,2024-11-10T0000,28,41,0.7,30,17,24,84,41,
绵阳市,富乐山,104.7778,31.4741,2024-11-10T0000,22,26,0.5,14,2,14,65,32,
绵阳市,市人大,104.7563,31.4535,2024-11-10T0000,19,34,0.3,25,6,27,64,34,
绵阳市,高新区自来水公司,104.6697,31.4668,2024-11-10T0000,19,,0.6,39,3,10,61,28,
绵阳市,三水厂,104.7287,31.5075,2024-11-10T0000,26,32,0.5,36,6,2,65,38,
绵阳市,西科大附属小学,104.69,31.5322,2024-11-10T0000,22,26,0.6,30,5,8,59,32,
绵阳市,安州区旅游局,104.5648,31.5343,2024-11-10T0000,19,21,0.7,14,4,32,64,28,
牡丹江市,环保大楼,129.61,44.561,2024-11-10T0000,53,100,1.2,51,9,4,30,75,颗粒物(PM10)
牡丹江市,文化广场,129.6115,44.5782,2024-11-10T0000,96,203,2.5,55,15,4,25,127,"颗粒物(PM10),细颗粒物(PM2.5)"
牡丹江市,第一医院,129.5904,44.5963,2024-11-10T0000,62,85,1.2,43,6,10,34,84,细颗粒物(PM2.5)
牡丹江市,机车工厂,129.6364,44.6075,2024-11-10T0000,95,150,1.1,37,12,7,24,125,细颗粒物(PM2.5)
牡丹江市,第一中学,129.6386,44.5462,2024-11-10T0000,101,148,1.8,46,9,4,29,133,细颗粒物(PM2.5)
内江市,市监测站,105.0703,29.61,2024-11-10T0000,46,,0.6,12,10,29,48,64,细颗粒物(PM2.5)
内江市,东兴区政府,105.0717,29.5947,2024-11-10T0000,38,43,0.5,13,6,35,50,54,细颗粒物(PM2.5)
内江市,内江二中,105.0653,29.5817,2024-11-10T0000,45,72,0.5,18,7,36,48,63,细颗粒物(PM2.5)
内江市,内江日报社,105.0406,29.5822,2024-11-10T0000,44,49,0.5,22,5,30,43,62,细颗粒物(PM2.5)
那曲市,那曲监测站,92.0657,31.4846,2024-11-10T0000,33,70,0.9,24,7,42,93,60,颗粒物(PM10)
那曲市,那曲会议中心,92.0506,31.4797,2024-11-10T0000,,,,,,,85,,
南昌市,省外办,115.8931,28.6843,2024-11-10T0000,44,62,0.7,29,7,67,114,62,细颗粒物(PM2.5)
南昌市,省林业公司,115.8886,28.7003,2024-11-10T0000,34,63,0.6,35,8,64,115,57,颗粒物(PM10)
南昌市,林科所,115.8126,28.7442,2024-11-10T0000,29,44,0.4,20,14,95,121,44,
南昌市,建工学校,115.8518,28.687,2024-11-10T0000,40,65,0.5,27,11,82,118,58,颗粒物(PM10)
南昌市,象湖,115.8921,28.6424,2024-11-10T0000,33,49,0.5,64,11,77,129,49,
南昌市,武术学校,115.7423,28.7996,2024-11-10T0000,25,28,0.5,15,2,33,80,36,
南昌市,省站,115.9314,28.6842,2024-11-10T0000,42,89,0.7,36,10,62,109,70,颗粒物(PM10)
南昌市,机电学校,115.9084,28.6062,2024-11-10T0000,36,88,0.5,37,10,73,119,69,颗粒物(PM10)
南昌市,外国语学校,115.9721,28.7031,2024-11-10T0000,31,70,0.9,32,9,74,118,60,颗粒物(PM10)
南充市,西山风景区,106.056,30.8064,2024-11-10T0000,21,,0.5,11,1,35,60,30,
南充市,南充市委,106.0789,30.8023,2024-11-10T0000,19,28,0.3,23,3,25,67,28,
南充市,南充炼油厂,106.1031,30.8217,2024-11-10T0000,28,42,0.3,14,2,33,68,42,
南充市,高坪区监测站,106.1064,30.7856,2024-11-10T0000,25,30,0.2,20,2,33,60,36,
南充市,嘉陵区环保局,106.0642,30.7636,2024-11-10T0000,19,33,0.4,29,3,20,63,33,
南充市,市环境监测站,106.1087,30.8388,2024-11-10T0000,23,34,0.3,10,3,36,67,34,
南京市,迈皋桥,118.8086,32.1065,2024-11-10T0000,19,24,0.8,24,4,52,40,28,
南京市,草场门,118.7538,32.0551,2024-11-10T0000,14,31,0.5,28,5,50,46,31,
南京市,山西路,118.7794,32.0745,2024-11-10T0000,17,31,0.6,17,5,89,75,31,
南京市,中华门,118.7752,32.0023,2024-11-10T0000,12,36,0.4,25,3,54,50,36,
南京市,瑞金路,118.8109,32.0309,2024-11-10T0000,19,39,0.7,24,6,44,43,39,
南京市,玄武湖,118.7997,32.0754,2024-11-10T0000,8,31,0.7,37,6,45,34,31,
南京市,浦口,118.6414,32.0931,2024-11-10T0000,12,19,0.3,23,6,41,26,19,
南京市,奥体中心,118.7356,31.9996,2024-11-10T0000,14,37,0.3,23,8,59,58,37,
南京市,仙林大学城,118.9125,32.1028,2024-11-10T0000,14,29,0.6,20,6,55,48,29,
南京市,江宁彩虹桥,118.8436,31.9198,2024-11-10T0000,17,27,0.6,26,3,44,58,27,
南京市,溧水永阳,119.0138,31.6494,2024-11-10T0000,16,31,0.7,26,4,54,54,31,
南京市,高淳老职中,118.879,31.3302,2024-11-10T0000,14,40,0.3,18,6,59,68,40,
南京市,六合雄州,118.8554,32.3578,2024-11-10T0000,17,40,0.5,17,4,35,52,40,
南宁市,二十一中,108.3103,22.7881,2024-11-10T0000,74,119,1.5,111,8,4,160,99,细颗粒物(PM2.5)
南宁市,北湖,108.3141,22.8528,2024-11-10T0000,74,175,1.5,96,29,6,146,113,颗粒物(PM10)
南宁市,市监测站,108.3206,22.8225,2024-11-10T0000,73,105,1.3,105,14,6,139,98,细颗粒物(PM2.5)
南宁市,大自然花园,108.3829,22.8037,2024-11-10T0000,46,58,0.7,38,14,77,154,64,细颗粒物(PM2.5)
南宁市,仙葫,108.4394,22.7904,2024-11-10T0000,74,88,0.9,73,16,23,133,99,细颗粒物(PM2.5)
南宁市,区农职院,108.2397,22.8467,2024-11-10T0000,34,53,0.8,35,7,44,147,52,颗粒物(PM10)
南宁市,英华嘉园,108.3275,22.735,2024-11-10T0000,62,89,1.0,85,7,10,155,84,细颗粒物(PM2.5)
南宁市,沙井镇街道办,108.2257,22.7757,2024-11-10T0000,47,88,0.8,72,8,6,148,69,颗粒物(PM10)
南宁市,红星社区,108.4834,22.7618,2024-11-10T0000,48,91,0.8,68,11,26,142,71,颗粒物(PM10)
南平市,茫荡山,118.0966,26.6761,2024-11-10T0000,,,,,,,,,
南平市,南平市监测站,118.1681,26.6369,2024-11-10T0000,29,41,0.7,34,4,8,74,42,
南平市,南平铝业有限公司,118.1825,26.6489,2024-11-10T0000,27,34,0.5,38,7,2,71,39,
南平市,南平七中,118.1756,26.6272,2024-11-10T0000,28,31,0.7,30,3,13,74,40,
南通市,狼山街道,120.9098,31.9663,2024-11-10T0000,16,34,0.5,23,7,60,88,34,
南通市,虹桥,120.86,32.0005,2024-11-10T0000,21,38,0.4,33,7,52,84,38,
南通市,城中,120.87,32.02,2024-11-10T0000,21,44,0.5,34,7,49,83,44,
南通市,星湖花园,120.94,31.93,2024-11-10T0000,12,20,0.5,22,5,64,81,20,
南通市,紫琅学院,120.81,32.0417,2024-11-10T0000,22,40,0.5,51,3,27,74,40,
南通市,通州监测站,121.067,32.062,2024-11-10T0000,9,31,0.5,11,2,88,94,31,
南通市,环境教育馆,120.9348,31.9883,2024-11-10T0000,17,39,0.4,34,4,52,88,39,
南阳市,瓦房庄,112.5224,33.0122,2024-11-10T0000,51,51,0.6,27,3,32,75,70,细颗粒物(PM2.5)
南阳市,汉画馆,112.5003,32.9735,2024-11-10T0000,48,67,0.6,36,7,19,70,67,细颗粒物(PM2.5)
南阳市,气象站,112.5573,33.027,2024-11-10T0000,51,,0.6,33,4,28,73,70,细颗粒物(PM2.5)
南阳市,理工学院,112.5481,32.9689,2024-11-10T0000,47,54,0.6,27,3,26,67,65,细颗粒物(PM2.5)
南阳市,卧龙区政府,112.5234,32.9922,2024-11-10T0000,47,56,0.6,30,3,28,70,65,细颗粒物(PM2.5)
宁波市,区环保大楼,121.8358,29.911,2024-11-10T0000,8,13,0.4,14,9,68,62,22,
宁波市,万里学院,121.56,29.82,2024-11-10T0000,9,22,0.6,13,6,68,67,22,
宁波市,龙赛医院,121.713,29.9572,2024-11-10T0000,3,17,0.5,10,8,76,66,24,
宁波市,钱湖水厂,121.633,29.7733,2024-11-10T0000,8,15,0.6,19,9,52,57,17,
宁波市,太古小学,121.5856,29.8635,2024-11-10T0000,10,19,0.6,11,8,65,66,21,
宁波市,市环境监测中心,121.524,29.8674,2024-11-10T0000,9,18,0.5,17,10,58,70,19,
宁波市,万里国际学校,121.6147,29.9017,2024-11-10T0000,8,17,0.5,21,7,63,70,20,
宁波市,白沙活动中心,121.5594,29.8975,2024-11-10T0000,8,16,0.6,11,9,68,70,22,
宁德市,金涵水库,119.5001,26.6946,2024-11-10T0000,,,,,,,,,
宁德市,宁德市监测站,119.5388,26.6612,2024-11-10T0000,20,36,0.4,14,2,83,76,36,
宁德市,宁德一中,119.5231,26.6562,2024-11-10T0000,20,26,0.3,10,2,71,76,29,
怒江傈僳族自治州,州监测站,98.8601,25.8567,2024-11-10T0000,59,,0.5,22,5,10,45,80,细颗粒物(PM2.5)
怒江傈僳族自治州,泸水一中,98.8546,25.8417,2024-11-10T0000,11,17,0.6,17,8,6,35,17,
攀枝花市,弄弄坪,101.6891,26.571,2024-11-10T0000,26,50,1.1,44,12,4,43,50,
攀枝花市,河门口,101.5769,26.5928,2024-11-10T0000,14,22,0.9,16,6,20,56,22,
攀枝花市,炳草岗,101.7169,26.585,2024-11-10T0000,20,60,1.1,36,12,6,40,55,颗粒物(PM10)
攀枝花市,仁和,101.7369,26.5008,2024-11-10T0000,27,40,0.8,20,4,20,56,40,
攀枝花市,四十中小,101.7227,26.567,2024-11-10T0000,15,30,1.4,40,10,5,47,30,
盘锦市,开发区,122.0303,41.1489,2024-11-10T0000,42,,0.5,16,6,90,119,59,细颗粒物(PM2.5)
盘锦市,兴隆台,122.0485,41.0883,2024-11-10T0000,41,,0.5,15,14,93,121,58,细颗粒物(PM2.5)
盘锦市,新生街道,121.8297,41.1028,2024-11-10T0000,20,21,0.5,16,9,113,128,36,
平顶山市,新华旅馆,113.3257,33.742,2024-11-10T0000,83,105,0.5,30,7,38,45,110,细颗粒物(PM2.5)
平顶山市,规划设计院,113.2919,33.737,2024-11-10T0000,84,102,0.7,36,6,25,48,112,细颗粒物(PM2.5)
平顶山市,平顶山工学院,113.182,33.774,2024-11-10T0000,88,129,0.8,50,6,5,42,117,细颗粒物(PM2.5)
平顶山市,规划局,113.3025,33.73,2024-11-10T0000,86,90,0.9,32,5,32,47,114,细颗粒物(PM2.5)
平顶山市,石龙区,112.8867,33.9116,2024-11-10T0000,104,130,0.9,25,8,21,33,137,细颗粒物(PM2.5)
平凉市,聚贤嘉苑,106.6692,35.5461,2024-11-10T0000,25,38,0.6,70,27,15,49,38,
平凉市,博物馆,106.7021,35.5307,2024-11-10T0000,,,,,,,,,
萍乡市,武功山,114.0997,27.5002,2024-11-10T0000,3,26,0.2,10,8,58,116,26,
萍乡市,中医院,113.8385,27.6434,2024-11-10T0000,28,50,0.6,16,8,89,118,50,
萍乡市,市政府车库,113.8493,27.6253,2024-11-10T0000,35,37,0.4,16,7,86,117,50,
萍乡市,市环保局,113.8676,27.6435,2024-11-10T0000,36,54,0.5,14,11,89,115,52,"颗粒物(PM10),细颗粒物(PM2.5)"
萍乡市,安源区政府,113.866,27.6198,2024-11-10T0000,34,68,0.5,21,23,74,119,59,颗粒物(PM10)
莆田市,荔城区仓后路,119.0141,25.4325,2024-11-10T0000,3,10,0.3,6,1,84,82,27,
莆田市,莆田市监测站,119.0015,25.4553,2024-11-10T0000,3,8,0.3,2,2,89,85,28,
莆田市,涵江区六中,119.1119,25.4561,2024-11-10T0000,3,29,0.3,5,1,89,91,29,
莆田市,秀屿区政府,119.1013,25.3215,2024-11-10T0000,3,15,0.2,5,1,84,88,27,
莆田市,东圳水库,118.981,25.4792,2024-11-10T0000,,,,,,,,,
濮阳市,环保局,115.0312,35.7636,2024-11-10T0000,61,68,0.5,21,2,34,74,83,细颗粒物(PM2.5)
濮阳市,油田运输公司,115.0574,35.7609,2024-11-10T0000,61,94,0.6,23,4,32,71,83,细颗粒物(PM2.5)
濮阳市,油田物探公司,115.0866,35.7754,2024-11-10T0000,66,103,0.5,29,1,25,68,89,细颗粒物(PM2.5)
濮阳市,濮水河管理处,115,35.7668,2024-11-10T0000,67,107,0.5,19,2,30,62,90,细颗粒物(PM2.5)
普洱市,市环保局,100.98,22.7633,2024-11-10T0000,18,22,0.5,10,5,14,63,26,
普洱市,普洱第二中学,100.9817,22.8322,2024-11-10T0000,12,23,0.4,12,7,16,60,23,
七台河市,新一中,131.0518,45.8751,2024-11-10T0000,41,51,1.2,25,13,30,34,58,细颗粒物(PM2.5)
七台河市,中波台,131.0577,45.7879,2024-11-10T0000,43,51,0.8,21,10,53,24,60,细颗粒物(PM2.5)
七台河市,人民广场,131.0176,45.7761,2024-11-10T0000,44,68,0.9,33,8,34,21,62,细颗粒物(PM2.5)
七台河市,新建矿广场,130.8781,45.8222,2024-11-10T0000,57,364,0.9,40,28,38,13,220,颗粒物(PM10)
齐齐哈尔市,安居小区,123.9305,47.3636,2024-11-10T0000,96,122,0.9,17,9,41,46,127,细颗粒物(PM2.5)
齐齐哈尔市,中心广场,123.9488,47.3386,2024-11-10T0000,102,110,0.8,19,5,40,40,134,细颗粒物(PM2.5)
齐齐哈尔市,农牧车辆厂,123.9483,47.3227,2024-11-10T0000,78,119,0.6,19,6,42,48,104,细颗粒物(PM2.5)
齐齐哈尔市,市环境监测站,123.945,47.2988,2024-11-10T0000,86,125,0.7,18,4,45,51,114,细颗粒物(PM2.5)
齐齐哈尔市,富区青少年活动中心,123.6333,47.2075,2024-11-10T0000,73,136,1.4,21,10,31,43,98,细颗粒物(PM2.5)
黔东南苗族侗族自治州,市环境监测站,107.9783,26.5747,2024-11-10T0000,35,44,0.4,18,7,69,97,50,
黔东南苗族侗族自治州,凯里学院,107.8908,26.5311,2024-11-10T0000,30,36,0.4,12,8,86,110,43,
黔南布依族苗族自治州,小围寨,107.5228,26.2403,2024-11-10T0000,31,,0.3,16,7,71,111,45,
黔南布依族苗族自治州,沙坝,107.5175,26.2978,2024-11-10T0000,,,,13,5,,110,,
黔西南布依族苗族自治州,场坝街,104.9022,25.0925,2024-11-10T0000,47,62,0.7,25,5,29,85,65,细颗粒物(PM2.5)
黔西南布依族苗族自治州,坪东大道,104.8811,25.0992,2024-11-10T0000,38,46,0.6,34,2,20,79,54,细颗粒物(PM2.5)
钦州市,市环保站,108.6236,21.9667,2024-11-10T0000,48,75,0.9,22,12,108,140,67,细颗粒物(PM2.5)
钦州市,沙埠小学,108.6549,21.9481,2024-11-10T0000,59,122,2.3,62,17,67,143,86,颗粒物(PM10)
钦州市,港区一小,108.5989,21.7431,2024-11-10T0000,38,65,0.7,33,13,110,148,58,颗粒物(PM10)
钦州市,北职校,108.5959,21.9633,2024-11-10T0000,57,83,0.8,29,10,92,139,78,细颗粒物(PM2.5)
秦皇岛市,北戴河环保局,119.5134,39.8207,2024-11-10T0000,75,99,0.6,43,4,55,106,100,细颗粒物(PM2.5)
秦皇岛市,第一关,119.7493,40.0116,2024-11-10T0000,97,109,0.7,75,6,7,98,128,细颗粒物(PM2.5)
秦皇岛市,监测站,119.5897,39.9499,2024-11-10T0000,53,99,0.7,27,9,78,99,75,颗粒物(PM10)
秦皇岛市,建设大厦,119.5251,39.9041,2024-11-10T0000,54,85,0.6,22,6,80,101,74,细颗粒物(PM2.5)
秦皇岛市,文明里,119.610547,39.943889,2024-11-10T0000,67,98,0.5,21,6,85,98,90,细颗粒物(PM2.5)
青岛市,仰口,120.6659,36.2403,2024-11-10T0000,18,33,0.8,7,7,110,118,35,
青岛市,市南区东部子站,120.4134,36.0658,2024-11-10T0000,9,36,0.5,9,9,127,132,40,
青岛市,四方区子站,120.3664,36.1032,2024-11-10T0000,24,39,0.7,16,9,116,127,39,
青岛市,市南区西部子站,120.2994,36.054,2024-11-10T0000,12,34,0.5,11,9,124,134,39,
青岛市,崂山区子站,120.4581,36.0858,2024-11-10T0000,9,31,0.5,14,9,136,139,43,
青岛市,黄岛区子站,120.1983,35.9608,2024-11-10T0000,20,36,0.6,11,7,128,132,40,
青岛市,城阳区子站,120.3999,36.3083,2024-11-10T0000,24,48,0.7,31,8,84,119,48,
青岛市,黄岛区4号,120.0405,35.8735,2024-11-10T0000,14,34,0.5,12,8,130,131,41,
青岛市,即墨2号,120.5014,36.4034,2024-11-10T0000,18,37,0.5,14,7,114,122,37,
青岛市,市北区南部,120.3503,36.0736,2024-11-10T0000,12,34,0.7,17,10,116,127,37,
青岛市,李沧区北部,120.3948,36.1805,2024-11-10T0000,31,44,0.9,48,9,74,116,45,
清远市,环保大楼,113.0426,23.691,2024-11-10T0000,26,38,0.9,17,12,100,137,38,
清远市,凤城街办,113.0208,23.7106,2024-11-10T0000,31,51,0.9,26,10,78,131,51,颗粒物(PM10)
清远市,技师学院,113.0477,23.6344,2024-11-10T0000,22,45,0.7,15,17,92,122,45,
清远市,清新太和,112.9903,23.7403,2024-11-10T0000,25,44,0.7,24,5,82,133,44,
清远市,清城东城,113.076,23.7198,2024-11-10T0000,24,40,0.8,9,12,103,131,40,
庆阳市,庆阳五中,107.6325,35.7357,2024-11-10T0000,36,74,0.5,20,8,71,95,62,颗粒物(PM10)
庆阳市,市环保局,107.6364,35.7067,2024-11-10T0000,33,81,0.5,20,14,73,96,66,颗粒物(PM10)
曲靖市,环境监测站,103.7897,25.5035,2024-11-10T0000,22,37,0.7,30,5,24,80,37,
曲靖市,烟厂办公区,103.8,25.5364,2024-11-10T0000,33,62,0.8,55,5,8,83,56,颗粒物(PM10)
曲靖市,南苑二区,103.7947,25.462,2024-11-10T0000,15,21,0.6,11,4,45,85,22,
曲靖市,曲靖师范学院,103.7444,25.5261,2024-11-10T0000,50,69,1.0,41,40,17,86,69,细颗粒物(PM2.5)
衢州市,环保大楼,118.8692,28.9398,2024-11-10T0000,28,36,0.5,43,4,34,87,40,
衢州市,实验学校,118.8709,28.9666,2024-11-10T0000,21,45,0.3,33,9,48,86,45,
衢州市,衢州学院,118.8621,28.9808,2024-11-10T0000,22,40,0.4,31,6,55,88,40,
泉州市,涂山街,118.5819,24.9117,2024-11-10T0000,10,16,0.3,12,1,67,86,21,
泉州市,津头埔,118.5972,24.8978,2024-11-10T0000,11,19,0.3,16,2,62,80,20,
泉州市,万安,118.6663,24.9424,2024-11-10T0000,9,19,0.4,9,1,76,84,24,
泉州市,清源山,118.6117,24.9604,2024-11-10T0000,,,,,,,,,
泉州市,城华南路,118.6333,24.9264,2024-11-10T0000,9,15,0.2,12,1,68,84,22,
日喀则市,日喀则监测站,88.8876,29.2718,2024-11-10T0000,91,128,1.2,58,3,13,95,120,细颗粒物(PM2.5)
日喀则市,林业技术推广中心,88.8781,29.2426,2024-11-10T0000,24,54,0.8,23,8,38,100,52,颗粒物(PM10)
日照市,监测站,119.471,35.4209,2024-11-10T0000,,,1.0,71,8,8,97,,
日照市,市政府广场,119.523,35.4216,2024-11-10T0000,23,46,0.4,28,6,112,109,46,
日照市,港务局,119.5587,35.4044,2024-11-10T0000,23,46,0.6,18,5,122,110,46,
日照市,职业技术学院,119.5328,35.4625,2024-11-10T0000,17,39,0.4,14,4,123,114,39,
日照市,岚山环保分局,119.3266,35.1044,2024-11-10T0000,6,29,0.2,11,4,99,107,31,
三门峡市,市政府,111.1922,34.7752,2024-11-10T0000,79,,0.6,26,8,44,69,105,细颗粒物(PM2.5)
三门峡市,开发区,111.1587,34.7942,2024-11-10T0000,90,121,0.5,29,12,42,68,119,细颗粒物(PM2.5)
三门峡市,风景区,111.143,34.7955,2024-11-10T0000,63,83,0.8,34,17,40,71,85,细颗粒物(PM2.5)
三门峡市,三门峡市第一小学,111.1911,34.7829,2024-11-10T0000,84,,0.6,25,8,42,68,112,细颗粒物(PM2.5)
三门峡市,富达温泉假日酒店,111.1,34.7167,2024-11-10T0000,75,106,0.5,42,1,21,66,100,细颗粒物(PM2.5)
三明市,三钢,117.6211,26.2625,2024-11-10T0000,34,36,0.4,30,7,26,83,49,
三明市,三明二中,117.635,26.2714,2024-11-10T0000,28,35,0.5,31,6,22,79,40,
三明市,三元区政府,117.6028,26.2378,2024-11-10T0000,28,44,0.7,33,4,12,82,44,
三明市,洋溪,117.7275,26.3108,2024-11-10T0000,,,,,,,,,
三亚市,河东子站,109.5078,18.2489,2024-11-10T0000,29,65,0.7,24,2,79,166,58,颗粒物(PM10)
三亚市,河西子站,109.4964,18.2681,2024-11-10T0000,42,56,0.6,29,4,64,161,59,细颗粒物(PM2.5)
三亚市,君悦子站,109.7348,18.3443,2024-11-10T0000,24,51,0.5,18,4,91,143,51,颗粒物(PM10)
山南市,山南监测站,91.7608,29.2313,2024-11-10T0000,3,14,0.4,14,4,66,86,21,
山南市,山南人民医院,91.7706,29.2436,2024-11-10T0000,3,25,0.4,3,4,84,84,27,
汕头市,金平子站,116.6794,23.3667,2024-11-10T0000,18,,0.7,12,8,71,114,26,
汕头市,龙湖子站,116.7244,23.3633,2024-11-10T0000,13,20,0.6,10,8,68,106,22,
汕头市,濠江子站,116.7258,23.2775,2024-11-10T0000,12,13,0.4,7,7,76,115,24,
汕头市,澄海子站,116.7519,23.4714,2024-11-10T0000,23,26,0.3,11,8,71,117,33,
汕头市,潮阳子站,116.6092,23.2539,2024-11-10T0000,10,21,0.6,3,6,74,111,24,
汕头市,潮南峡山,116.454,23.2684,2024-11-10T0000,6,18,0.5,12,8,75,113,24,
汕头市,潮南子站,116.4069,23.2533,2024-11-10T0000,21,40,0.6,13,7,69,100,40,
汕尾市,市环保局,115.3653,22.775,2024-11-10T0000,9,11,0.6,7,11,76,107,24,
汕尾市,市政府,115.3706,22.7898,2024-11-10T0000,11,19,0.6,8,8,79,105,25,
汕尾市,新城中学,115.3622,22.7925,2024-11-10T0000,9,14,0.6,7,6,77,103,25,
商洛市,监测站,109.9154,33.8715,2024-11-10T0000,55,85,0.7,63,5,8,116,75,细颗粒物(PM2.5)
商洛市,商州区中学,109.9643,33.8471,2024-11-10T0000,54,71,0.9,56,9,12,102,74,细颗粒物(PM2.5)
商丘市,环境监测站,115.6702,34.4285,2024-11-10T0000,62,74,0.6,35,4,19,62,84,细颗粒物(PM2.5)
商丘市,粮食局,115.6458,34.4045,2024-11-10T0000,67,,0.5,36,3,20,64,90,细颗粒物(PM2.5)
商丘市,睢阳区环保局,115.6293,34.3948,2024-11-10T0000,61,81,0.5,41,8,8,58,83,细颗粒物(PM2.5)
商丘市,梁园区档案局,115.6071,34.4465,2024-11-10T0000,67,,0.4,38,3,25,74,90,细颗粒物(PM2.5)
上海市,普陀,121.4,31.238,2024-11-10T0000,12,38,0.5,20,5,72,78,38,
上海市,十五厂,121.478,31.2036,2024-11-10T0000,11,38,0.5,29,9,67,84,38,
上海市,虹口,121.467,31.3008,2024-11-10T0000,14,37,0.6,26,8,67,79,37,
上海市,徐汇上师大,121.412,31.1654,2024-11-10T0000,,,,,,,86,,
上海市,杨浦四漂,121.536,31.2659,2024-11-10T0000,15,39,0.6,32,8,61,84,39,
上海市,静安监测站,121.425,31.2261,2024-11-10T0000,17,38,0.5,27,8,69,82,38,
上海市,浦东川沙,121.703,31.1907,2024-11-10T0000,29,38,0.5,14,6,83,87,42,
上海市,浦东新区监测站,121.533,31.2284,2024-11-10T0000,14,32,0.5,26,8,68,84,32,
上海市,浦东张江,121.577,31.2071,2024-11-10T0000,15,34,0.6,23,5,76,89,34,
上海市,宝山庙行,121.4316,31.3322,2024-11-10T0000,16,38,0.5,21,10,70,78,38,
上海市,崇明上实东滩,121.8791,31.4662,2024-11-10T0000,9,27,0.6,5,9,75,90,27,
上海市,嘉定南翔,121.3162,31.2838,2024-11-10T0000,21,45,0.8,32,12,56,78,45,
上海市,金山新城,121.3359,30.7456,2024-11-10T0000,14,40,0.7,27,4,51,83,40,
上海市,闵行浦江,121.4996,31.0739,2024-11-10T0000,10,42,0.5,25,6,65,85,42,
上海市,青浦徐泾,121.2886,31.1663,2024-11-10T0000,17,40,0.5,25,7,69,85,40,
上海市,松江图书馆,121.2186,31.0378,2024-11-10T0000,16,45,0.6,29,6,56,83,45,
上海市,长宁仙霞,121.3902,31.2059,2024-11-10T0000,14,38,0.7,22,8,76,83,38,
上海市,浦东惠南,121.7965,31.0507,2024-11-10T0000,8,27,0.6,20,9,73,88,27,
上海市,奉贤南桥新城,121.4891,30.925,2024-11-10T0000,12,38,0.5,20,1,64,84,38,
上饶市,百草园,118.005,28.4572,2024-11-10T0000,31,,0.6,15,8,63,109,45,
上饶市,市监测站,117.9756,28.4436,2024-11-10T0000,17,41,0.6,18,8,58,105,41,
上饶市,凤凰光学,117.9519,28.4628,2024-11-10T0000,18,38,0.8,23,12,55,104,38,
上饶市,广丰区教体局,118.1953,28.4401,2024-11-10T0000,36,63,0.8,22,10,52,106,57,颗粒物(PM10)
上饶市,双创科技城,117.897,28.4315,2024-11-10T0000,20,41,0.6,20,13,56,106,41,
韶关市,市八中,113.5824,24.7733,2024-11-10T0000,49,84,0.6,13,16,73,115,68,细颗粒物(PM2.5)
韶关市,园林处,113.5917,24.7972,2024-11-10T0000,49,68,0.6,20,16,67,117,68,细颗粒物(PM2.5)
韶关市,韶关学院,113.6735,24.7791,2024-11-10T0000,51,67,0.6,30,12,39,120,70,细颗粒物(PM2.5)
韶关市,曲江监测站,113.5971,24.6863,2024-11-10T0000,45,71,0.6,52,10,22,119,63,细颗粒物(PM2.5)
韶关市,碧湖山庄,113.5556,24.8082,2024-11-10T0000,54,79,0.5,14,17,61,111,74,细颗粒物(PM2.5)
邵阳市,市水土所,111.5239,27.3033,2024-11-10T0000,,,,,,,,,
邵阳市,市一中,111.4733,27.2317,2024-11-10T0000,68,91,1.0,16,14,86,144,92,细颗粒物(PM2.5)
邵阳市,市化工厂,111.5283,27.2442,2024-11-10T0000,72,98,1.3,32,15,60,141,97,细颗粒物(PM2.5)
邵阳市,市罐头厂,111.4503,27.2537,2024-11-10T0000,84,,0.8,17,16,88,141,112,细颗粒物(PM2.5)
邵阳市,市环保局,111.4328,27.2272,2024-11-10T0000,63,84,0.9,15,15,90,140,85,细颗粒物(PM2.5)
绍兴市,城东开发委,120.6053,29.9928,2024-11-10T0000,9,25,0.3,23,8,55,74,25,
绍兴市,树下王站,120.5483,30.0003,2024-11-10T0000,13,28,0.3,16,5,69,83,28,
绍兴市,绍兴中专,120.5683,29.9361,2024-11-10T0000,10,27,0.4,22,7,56,82,27,
绍兴市,柯桥区政府,120.4906,30.0861,2024-11-10T0000,11,28,0.6,25,7,54,74,28,
绍兴市,重华小学,120.8752,30.0249,2024-11-10T0000,10,24,0.5,19,5,60,76,24,
绍兴市,上虞中学,120.8369,30.0137,2024-11-10T0000,10,22,0.6,13,5,59,78,22,
绍兴市,柯桥妇保,120.4722,30.0415,2024-11-10T0000,7,26,0.7,16,4,63,78,26,
绍兴市,袍江中学,120.6153,30.0764,2024-11-10T0000,10,27,0.6,23,6,60,79,27,
深圳市,通心岭子站,114.1063,22.5545,2024-11-10T0000,31,60,0.7,26,6,62,112,55,颗粒物(PM10)
深圳市,洪湖,114.117,22.5625,2024-11-10T0000,32,65,0.5,32,7,53,105,58,颗粒物(PM10)
深圳市,华侨城,113.987,22.5417,2024-11-10T0000,26,52,0.6,25,6,60,107,51,颗粒物(PM10)
深圳市,南海子站,113.9181,22.5171,2024-11-10T0000,33,65,0.6,29,8,62,109,58,颗粒物(PM10)
深圳市,盐田,114.2458,22.5689,2024-11-10T0000,18,48,0.6,34,8,54,101,48,
深圳市,龙岗,114.2283,22.7244,2024-11-10T0000,28,50,0.6,24,10,67,112,50,
深圳市,南澳,114.494,22.5422,2024-11-10T0000,11,25,0.5,7,8,92,120,29,
深圳市,葵涌,114.41,22.6342,2024-11-10T0000,42,77,1.0,27,7,53,105,64,颗粒物(PM10)
深圳市,梅沙,114.297,22.5978,2024-11-10T0000,28,51,0.7,20,8,62,122,51,颗粒物(PM10)
深圳市,观澜,114.0678,22.738,2024-11-10T0000,32,69,0.7,33,8,53,107,60,颗粒物(PM10)
深圳市,莲花,114.0731,22.559,2024-11-10T0000,32,55,0.5,38,8,44,101,53,颗粒物(PM10)
深圳市,民治,114.0261,22.6198,2024-11-10T0000,32,62,0.6,37,7,55,111,56,颗粒物(PM10)
深圳市,横岗,114.1871,22.6451,2024-11-10T0000,32,61,0.6,26,8,61,110,56,颗粒物(PM10)
深圳市,坪山,114.3551,22.7151,2024-11-10T0000,30,57,0.6,36,9,50,107,54,颗粒物(PM10)
深圳市,西乡,113.8953,22.5861,2024-11-10T0000,31,63,0.6,42,8,56,126,57,颗粒物(PM10)
沈阳市,森林路,123.6836,41.9339,2024-11-10T0000,,,,,,,,,
沈阳市,浑南东路,123.505,41.7406,2024-11-10T0000,34,59,0.6,16,31,108,111,55,颗粒物(PM10)
沈阳市,新秀街,123.4231,41.6989,2024-11-10T0000,31,46,0.6,21,11,100,100,46,
沈阳市,东陵路,123.5903,41.8411,2024-11-10T0000,78,,0.7,19,9,99,108,104,细颗粒物(PM2.5)
沈阳市,陵东街,123.4264,41.8467,2024-11-10T0000,27,45,0.7,21,11,106,104,45,
沈阳市,文化路,123.4114,41.7653,2024-11-10T0000,27,50,0.5,16,10,106,107,50,
沈阳市,小河沿,123.4678,41.7867,2024-11-10T0000,30,50,0.6,17,13,112,109,50,
沈阳市,太原街,123.4017,41.7972,2024-11-10T0000,28,48,0.5,17,13,107,104,48,
沈阳市,京沈街,123.3783,41.9228,2024-11-10T0000,25,37,0.6,16,16,102,102,37,
沈阳市,沈辽西路,123.2444,41.7347,2024-11-10T0000,24,43,0.7,16,9,90,108,43,
沈阳市,裕农路,123.5953,41.9086,2024-11-10T0000,32,44,0.6,22,11,99,104,46,
十堰市,武当山,111.0419,32.395,2024-11-10T0000,18,26,0.8,14,9,47,90,26,
十堰市,滨河新村,110.78,32.6494,2024-11-10T0000,45,72,0.8,43,7,6,58,63,细颗粒物(PM2.5)
十堰市,刘家沟,110.7258,32.6389,2024-11-10T0000,43,105,0.7,20,6,16,61,78,颗粒物(PM10)
十堰市,铁二处,110.8839,32.5714,2024-11-10T0000,47,53,0.7,45,8,4,53,65,细颗粒物(PM2.5)
十堰市,郧阳区金沙路,110.8054,32.8401,2024-11-10T0000,47,49,0.6,22,4,24,78,65,细颗粒物(PM2.5)
石河子市,艾青诗歌馆,86.0497,44.2967,2024-11-10T0000,12,21,0.4,15,7,37,49,21,
石河子市,南区管委会,86.047,44.2331,2024-11-10T0000,15,20,0.4,23,7,34,52,22,
石河子市,世纪广场,86.0791,44.3017,2024-11-10T0000,9,17,0.3,10,8,56,56,18,
石家庄市,职工医院,114.4422,38.0444,2024-11-10T0000,180,266,1.0,85,6,6,84,230,细颗粒物(PM2.5)
石家庄市,高新区,114.6063,38.0266,2024-11-10T0000,146,236,0.9,57,2,27,81,195,细颗粒物(PM2.5)
石家庄市,西北水源,114.4898,38.1328,2024-11-10T0000,200,224,0.9,87,2,1,71,250,细颗粒物(PM2.5)
石家庄市,西南高教,114.4586,38.0058,2024-11-10T0000,205,237,1.0,63,3,19,85,255,细颗粒物(PM2.5)
石家庄市,世纪公园,114.5331,38.0178,2024-11-10T0000,163,219,1.0,41,4,27,72,213,细颗粒物(PM2.5)
石家庄市,人民会堂,114.509,38.0457,2024-11-10T0000,188,254,1.1,84,3,4,83,238,细颗粒物(PM2.5)
石家庄市,封龙山,114.3524,37.8911,2024-11-10T0000,117,157,0.8,23,5,71,91,153,细颗粒物(PM2.5)
石家庄市,22中南校区,114.5481,38.0378,2024-11-10T0000,170,211,1.2,64,3,16,78,220,细颗粒物(PM2.5)
石家庄市,鹿泉一中,114.289,38.0906,2024-11-10T0000,202,247,0.8,29,3,50,84,252,细颗粒物(PM2.5)
石家庄市,藁城区实验学校,114.8506765,38.0322033,2024-11-10T0000,115,146,0.7,58,8,12,66,150,细颗粒物(PM2.5)
石家庄市,井陉矿区区委大楼,114.0504658,38.0591645,2024-11-10T0000,202,266,0.8,50,5,15,74,252,细颗粒物(PM2.5)
石家庄市,栾城区星河路,114.6549,37.9020,2024-11-10T0000,174,204,0.7,54,4,20,70,224,细颗粒物(PM2.5)
石嘴山市,沙湖旅游区,106.3394,38.817,2024-11-10T0000,,,,,,,,,
石嘴山市,大武口朝阳西街,106.3668,39.0145,2024-11-10T0000,17,35,0.4,15,1,55,72,35,
石嘴山市,惠农南大街,106.7704,39.2282,2024-11-10T0000,16,93,3.3,52,30,19,81,72,颗粒物(PM10)
石嘴山市,红果子镇惠新街,106.7099,39.1325,2024-11-10T0000,15,93,1.8,44,17,29,82,72,颗粒物(PM10)
石嘴山市,妇女儿童医院,106.3495,38.9836,2024-11-10T0000,14,45,0.5,47,7,25,83,45,
石嘴山市,石大公路,106.7492,39.2069,2024-11-10T0000,25,81,2.2,46,14,27,77,66,颗粒物(PM10)
双鸭山市,双合村,131.1511,46.6937,2024-11-10T0000,58,62,1.3,22,20,56,36,79,细颗粒物(PM2.5)
双鸭山市,南小市,131.1652,46.6191,2024-11-10T0000,41,56,0.8,17,9,50,38,58,细颗粒物(PM2.5)
双鸭山市,环保局,131.1524,46.6554,2024-11-10T0000,52,57,1.0,19,10,60,46,72,细颗粒物(PM2.5)
双鸭山市,苗圃,131.12,46.5656,2024-11-10T0000,31,,0.5,12,3,28,36,45,
朔州市,平朔,112.4397,39.3522,2024-11-10T0000,60,76,0.9,42,14,46,91,82,细颗粒物(PM2.5)
朔州市,朔唯,112.4575,39.3617,2024-11-10T0000,56,98,0.8,43,14,43,86,77,细颗粒物(PM2.5)
朔州市,区政府,112.4258,39.3197,2024-11-10T0000,55,93,1.0,30,12,49,89,75,细颗粒物(PM2.5)
朔州市,市环保局,112.4072,39.3278,2024-11-10T0000,56,92,0.9,31,13,43,85,77,细颗粒物(PM2.5)
朔州市,市二中,112.4272,39.3681,2024-11-10T0000,57,92,0.8,42,12,35,88,78,细颗粒物(PM2.5)
朔州市,一水厂,112.2931,39.53,2024-11-10T0000,75,92,0.7,19,6,64,71,100,细颗粒物(PM2.5)
四平市,一商场,124.4002,43.1713,2024-11-10T0000,33,59,0.5,23,7,100,103,55,颗粒物(PM10)
四平市,境园,124.388,43.193,2024-11-10T0000,34,58,0.5,19,9,104,111,54,颗粒物(PM10)
四平市,植物园,124.4036,43.1411,2024-11-10T0000,43,75,0.5,25,7,106,108,63,颗粒物(PM10)
四平市,世纪城,124.3419,43.1666,2024-11-10T0000,42,54,0.7,20,8,98,110,59,细颗粒物(PM2.5)
松原市,江南,124.8006,45.1214,2024-11-10T0000,39,50,0.3,13,3,98,89,55,细颗粒物(PM2.5)
松原市,江北,124.7965,45.1722,2024-11-10T0000,47,,0.5,14,3,93,85,65,细颗粒物(PM2.5)
苏州市,上方山,120.561,31.2472,2024-11-10T0000,15,32,0.5,31,8,50,76,32,
苏州市,彩香,120.591,31.3019,2024-11-10T0000,19,41,0.6,22,7,52,74,41,
苏州市,轧钢厂,120.596,31.3264,2024-11-10T0000,18,42,0.6,28,8,54,68,42,
苏州市,吴中区,120.613,31.2703,2024-11-10T0000,17,41,0.5,22,6,57,73,41,
苏州市,苏州新区,120.543,31.2994,2024-11-10T0000,15,33,0.5,32,6,52,71,33,
苏州市,苏州工业园区,120.669,31.3097,2024-11-10T0000,18,41,0.5,30,6,61,76,41,
苏州市,相城区,120.641,31.3708,2024-11-10T0000,16,38,0.4,41,6,51,75,38,
苏州市,方洲路,120.743,31.3188,2024-11-10T0000,19,37,0.5,27,8,49,74,37,
苏州市,木渎中学,120.5031,31.2774,2024-11-10T0000,16,35,0.6,28,7,58,73,35,
苏州市,越秀幼儿园,120.624,31.1733,2024-11-10T0000,18,38,0.6,72,10,10,74,38,
苏州市,高铁新城,120.6505,31.416,2024-11-10T0000,17,40,0.5,27,7,49,72,40,
宿迁市,宿迁学院,118.293,33.9528,2024-11-10T0000,36,48,0.5,35,3,18,69,52,细颗粒物(PM2.5)
宿迁市,宿迁中学,118.2442,33.9592,2024-11-10T0000,,,,,,,54,,
宿迁市,市供电局,118.283,33.965,2024-11-10T0000,42,46,0.7,28,4,31,69,59,细颗粒物(PM2.5)
宿迁市,宿豫区政府,118.3225,33.9447,2024-11-10T0000,35,46,0.5,33,2,26,74,50,
宿州市,远航博物馆,116.9509,33.666,2024-11-10T0000,66,104,0.4,46,2,13,69,89,细颗粒物(PM2.5)
宿州市,社会福利中心,116.9708,33.591,2024-11-10T0000,63,94,0.4,30,5,32,66,85,细颗粒物(PM2.5)
宿州市,宿州学院,116.9884,33.6305,2024-11-10T0000,75,104,0.6,39,4,19,69,100,细颗粒物(PM2.5)
宿州市,皖北煤电集团,116.9648,33.6252,2024-11-10T0000,55,72,0.5,34,4,26,75,75,细颗粒物(PM2.5)
绥化市,人和东街,126.9785,46.6365,2024-11-10T0000,134,172,0.8,20,8,70,58,178,细颗粒物(PM2.5)
绥化市,党政办公中心,126.964,46.6528,2024-11-10T0000,153,199,0.7,20,8,71,62,203,细颗粒物(PM2.5)
随州市,市委党校,113.3583,31.7275,2024-11-10T0000,33,46,0.5,23,4,32,58,48,
随州市,市林业局,113.3833,31.6908,2024-11-10T0000,35,40,0.7,27,6,34,62,50,
随州市,市立交桥水厂,113.3983,31.7308,2024-11-10T0000,37,42,0.8,23,9,32,52,53,细颗粒物(PM2.5)
遂宁市,石溪浩,105.5453,30.5678,2024-11-10T0000,25,27,0.5,22,6,17,57,36,
遂宁市,市监测站,105.5582,30.5232,2024-11-10T0000,14,26,0.3,21,6,31,61,26,
遂宁市,行政中心,105.5861,30.5366,2024-11-10T0000,17,32,0.3,21,10,23,58,32,
遂宁市,美宁食品公司,105.5918,30.4728,2024-11-10T0000,14,23,0.2,14,6,40,57,23,
塔城地区,东门外小游园,82.9994,46.7432,2024-11-10T0000,6,11,0.2,4,3,48,46,15,
台州市,黄岩环保大楼,121.273,28.6459,2024-11-10T0000,11,21,0.4,10,2,55,73,21,
台州市,台州环保大楼,121.419,28.6542,2024-11-10T0000,14,29,0.4,20,5,50,87,29,
台州市,路桥田洋王,121.377,28.5773,2024-11-10T0000,15,22,0.3,16,4,57,86,22,
台州市,台州科技职业学院,121.2568,28.6681,2024-11-10T0000,12,22,0.4,12,4,61,82,22,
太原市,尖草坪,112.522,37.8873,2024-11-10T0000,136,193,1.7,80,36,29,109,180,细颗粒物(PM2.5)
太原市,上兰,112.434,38.0108,2024-11-10T0000,91,114,1.0,18,5,66,86,120,细颗粒物(PM2.5)
太原市,晋源,112.469,37.7124,2024-11-10T0000,196,243,1.4,87,17,11,102,246,细颗粒物(PM2.5)
太原市,小店,112.5583,37.7394,2024-11-10T0000,167,230,1.5,61,20,43,109,217,细颗粒物(PM2.5)
太原市,桃园,112.5369,37.8692,2024-11-10T0000,139,201,1.7,48,51,56,110,185,细颗粒物(PM2.5)
太原市,坞城,112.57,37.8195,2024-11-10T0000,133,204,1.6,89,27,15,110,176,细颗粒物(PM2.5)
太原市,南寨,112.549,37.9854,2024-11-10T0000,107,172,1.1,116,7,4,81,140,细颗粒物(PM2.5)
太原市,金胜,112.4719,37.7831,2024-11-10T0000,171,267,1.5,84,32,18,104,221,细颗粒物(PM2.5)
太原市,育英中学,112.5608,37.8807,2024-11-10T0000,147,216,1.5,69,35,44,112,196,细颗粒物(PM2.5)
泰安市,监测站,117.1437,36.1937,2024-11-10T0000,32,53,0.7,23,10,83,90,52,颗粒物(PM10)
泰安市,人口学校,117.0885,36.2017,2024-11-10T0000,30,56,0.8,18,12,93,97,53,颗粒物(PM10)
泰安市,电力学校,117.1089,36.1758,2024-11-10T0000,39,53,0.6,22,9,74,84,55,细颗粒物(PM2.5)
泰安市,国网新校,117.1812,36.2275,2024-11-10T0000,34,59,0.7,21,7,73,97,55,颗粒物(PM10)
泰安市,交通技校,117.0313,36.2018,2024-11-10T0000,30,54,0.5,15,6,89,96,52,颗粒物(PM10)
泰安市,山东第一医科大学,117.0829,36.13,2024-11-10T0000,48,70,0.4,27,5,70,87,67,细颗粒物(PM2.5)
泰州市,公园路,119.905,32.4878,2024-11-10T0000,19,44,0.5,31,5,45,72,44,
泰州市,莲花,119.9189,32.4625,2024-11-10T0000,22,39,0.7,26,5,52,74,39,
泰州市,留学生创业园,119.888,32.4639,2024-11-10T0000,23,42,0.6,23,7,60,78,42,
泰州市,王营,119.8767,32.3289,2024-11-10T0000,27,51,0.6,36,5,36,68,51,颗粒物(PM10)
泰州市,姜堰区政府广场,120.1259,32.5099,2024-11-10T0000,22,44,0.5,35,9,40,79,44,
泰州市,周山河街区,119.9192,32.4322,2024-11-10T0000,22,35,0.4,22,8,58,71,35,
唐山市,雷达站,118.131,39.6363,2024-11-10T0000,107,146,0.7,79,8,27,79,140,细颗粒物(PM2.5)
唐山市,物资局,118.1725,39.6334,2024-11-10T0000,96,144,0.7,86,10,8,67,127,细颗粒物(PM2.5)
唐山市,十二中,118.1705,39.6506,2024-11-10T0000,85,116,0.7,58,9,25,72,113,细颗粒物(PM2.5)
唐山市,小山,118.1869,39.622,2024-11-10T0000,106,153,0.7,76,12,0,68,139,细颗粒物(PM2.5)
唐山市,冀东油田职工医院,118.4359,39.2762,2024-11-10T0000,66,92,0.5,62,8,46,93,89,细颗粒物(PM2.5)
唐山市,正泰大街热力站,118.09279,39.58089,2024-11-10T0000,90,119,0.7,89,6,2,68,119,细颗粒物(PM2.5)
唐山市,丰润区政府,118.1562,39.8322,2024-11-10T0000,90,141,0.9,82,7,15,63,119,细颗粒物(PM2.5)
唐山市,金山小学,118.43673,39.73809,2024-11-10T0000,88,142,1.0,83,14,6,72,117,细颗粒物(PM2.5)
唐山市,政府服务中心,118.24498,39.66941,2024-11-10T0000,109,118,0.8,78,14,8,70,143,细颗粒物(PM2.5)
唐山市,消防缸窑路中队,118.2059,39.6585,2024-11-10T0000,94,137,0.8,90,14,7,83,124,细颗粒物(PM2.5)
唐山市,路南电大,118.1436,39.6202,2024-11-10T0000,78,129,0.7,83,9,3,65,104,细颗粒物(PM2.5)
天津市,勤俭道,117.1444,39.1661,2024-11-10T0000,38,63,0.6,47,9,31,78,57,颗粒物(PM10)
天津市,大直沽八号路,117.237,39.1082,2024-11-10T0000,46,74,0.3,40,6,37,82,64,细颗粒物(PM2.5)
天津市,前进道,117.202,39.0927,2024-11-10T0000,47,75,0.5,54,6,34,85,65,细颗粒物(PM2.5)
天津市,淮河道,117.1837,39.2133,2024-11-10T0000,40,70,0.5,46,6,35,87,60,颗粒物(PM10)
天津市,跃进路,117.307,39.0877,2024-11-10T0000,69,112,0.6,75,5,6,80,93,细颗粒物(PM2.5)
天津市,第四大街,117.707,39.0343,2024-11-10T0000,49,77,0.6,35,5,48,70,68,细颗粒物(PM2.5)
天津市,永明路,117.457,38.8394,2024-11-10T0000,68,94,0.6,57,7,20,82,92,细颗粒物(PM2.5)
天津市,汉北路,117.764,39.1587,2024-11-10T0000,58,87,0.1,40,10,44,73,79,细颗粒物(PM2.5)
天津市,团泊洼,117.157,38.9194,2024-11-10T0000,,,,,,,,,
天津市,河西一经路,117.7918,39.2474,2024-11-10T0000,70,101,1.1,65,10,33,82,94,细颗粒物(PM2.5)
天津市,津沽路,117.3747,38.9846,2024-11-10T0000,59,92,0.6,72,11,15,84,80,细颗粒物(PM2.5)
天津市,宾水西道,117.1589,39.0845,2024-11-10T0000,42,66,0.5,49,3,24,79,59,细颗粒物(PM2.5)
天津市,大理道,117.1941,39.1067,2024-11-10T0000,37,63,0.5,45,4,41,87,57,颗粒物(PM10)
天津市,中山北路,117.2101,39.1699,2024-11-10T0000,37,61,0.4,40,5,43,80,56,颗粒物(PM10)
天津市,西四道,117.3876,39.1488,2024-11-10T0000,54,94,0.7,63,7,21,73,74,细颗粒物(PM2.5)
天津市,雍阳西道,117.0365,39.3828,2024-11-10T0000,50,90,0.3,61,6,18,88,70,颗粒物(PM10)
天津市,辛老路,117.0296,39.0605,2024-11-10T0000,48,88,0.5,66,4,19,82,69,颗粒物(PM10)
天津市,地纬路,116.9638,38.9375,2024-11-10T0000,52,88,0.7,68,6,8,74,72,细颗粒物(PM2.5)
天津市,北环路,117.4067,40.0583,2024-11-10T0000,85,117,0.6,30,6,40,68,113,细颗粒物(PM2.5)
天津市,建设路,117.3045,39.7169,2024-11-10T0000,55,88,0.6,75,5,11,58,75,细颗粒物(PM2.5)
天津市,滨水东路,117.8199,39.3521,2024-11-10T0000,71,118,2.3,82,16,20,67,95,细颗粒物(PM2.5)
天水市,麦积山,106.0055,34.343,2024-11-10T0000,,,,,,,,,
天水市,公园小学,105.7205,34.5786,2024-11-10T0000,45,54,0.7,36,8,13,68,63,细颗粒物(PM2.5)
天水市,麦积国土局,105.8945,34.5538,2024-11-10T0000,46,66,1.0,40,4,18,79,64,细颗粒物(PM2.5)
铁岭市,汇工街西,123.8139,42.3022,2024-11-10T0000,24,38,0.5,13,6,110,108,38,
铁岭市,水上乐园,123.8649,42.2923,2024-11-10T0000,,,,,,,99,,
铁岭市,银州路东段,123.8486,42.2867,2024-11-10T0000,28,52,0.4,14,10,107,105,51,颗粒物(PM10)
铁岭市,金沙江路北,123.7153,42.2217,2024-11-10T0000,30,34,0.6,19,11,100,103,43,
通化市,光明,125.9358,41.7173,2024-11-10T0000,24,34,0.6,16,9,96,98,35,
通化市,铁路,125.9446,41.7325,2024-11-10T0000,21,33,0.5,14,8,99,91,33,
通辽市,艺术职业学校,122.2532,43.6801,2024-11-10T0000,61,92,0.9,42,13,59,98,83,细颗粒物(PM2.5)
通辽市,老干部活动中心,122.2584,43.6333,2024-11-10T0000,71,100,0.2,22,8,80,102,95,细颗粒物(PM2.5)
通辽市,东方明珠社区,122.2922,43.6189,2024-11-10T0000,101,,0.7,23,5,78,102,133,细颗粒物(PM2.5)
铜川市,党校,109.0656,35.0994,2024-11-10T0000,,,,,,,,,
铜川市,王益区政府,109.0697,35.0697,2024-11-10T0000,96,138,0.8,56,7,21,90,127,细颗粒物(PM2.5)
铜川市,新区管委会,108.9344,34.9058,2024-11-10T0000,114,162,0.9,79,10,20,106,149,细颗粒物(PM2.5)
铜川市,旺旺集团,108.9543,34.8732,2024-11-10T0000,132,158,1.0,65,9,19,102,175,细颗粒物(PM2.5)
铜陵市,市第四中学,117.8177,30.9412,2024-11-10T0000,32,75,0.7,65,4,4,73,63,颗粒物(PM10)
铜陵市,市公路局,117.8059,30.9273,2024-11-10T0000,34,68,0.7,60,6,2,66,59,颗粒物(PM10)
铜陵市,市新民污水厂,117.7807,30.9413,2024-11-10T0000,30,58,0.9,47,11,4,65,54,颗粒物(PM10)
铜陵市,市第九中学,117.7439,30.8792,2024-11-10T0000,36,92,0.9,51,7,5,53,71,颗粒物(PM10)
铜陵市,车站新区,117.846,30.9413,2024-11-10T0000,42,73,0.7,62,5,2,73,62,颗粒物(PM10)
铜陵市,市职教基地,117.8483,30.97,2024-11-10T0000,29,62,0.8,55,7,4,71,56,颗粒物(PM10)
铜仁市,铜仁卫校,109.1839,27.7344,2024-11-10T0000,44,70,0.4,31,2,35,85,62,细颗粒物(PM2.5)
铜仁市,铜仁七中,109.1753,27.6944,2024-11-10T0000,36,44,0.4,15,2,44,94,52,细颗粒物(PM2.5)
吐鲁番市,市环保局,89.1904,42.9418,2024-11-10T0000,46,101,1.5,49,6,11,57,76,颗粒物(PM10)
吐鲁番市,地区环保局,89.1673,42.9559,2024-11-10T0000,47,115,1.6,50,6,3,51,83,颗粒物(PM10)
威海市,华夏技校,122.1214,37.4236,2024-11-10T0000,28,39,0.3,16,5,111,119,40,
威海市,山大分校,122.0508,37.5236,2024-11-10T0000,34,49,0.6,24,7,94,122,49,
威海市,市监测站,122.1067,37.5072,2024-11-10T0000,32,54,0.6,16,5,103,109,52,颗粒物(PM10)
威海市,文登开发区,122.0693,37.2174,2024-11-10T0000,56,81,0.6,43,7,45,116,77,细颗粒物(PM2.5)
威海市,临港区管委会,122.1379,37.3414,2024-11-10T0000,35,61,0.5,26,6,91,121,56,颗粒物(PM10)
潍坊市,环保局,119.1437,36.7023,2024-11-10T0000,24,46,0.4,26,8,67,88,46,
潍坊市,坊子邮政,119.1641,36.6523,2024-11-10T0000,24,48,0.3,26,8,62,88,48,
潍坊市,潍坊七中,119.0587,36.721,2024-11-10T0000,24,51,0.4,29,6,54,74,51,颗粒物(PM10)
潍坊市,高新实验学校,119.1977,36.6872,2024-11-10T0000,19,53,0.1,19,11,66,82,52,颗粒物(PM10)
潍坊市,潍坊学院,119.1755,36.7149,2024-11-10T0000,18,51,0.4,18,7,76,92,51,颗粒物(PM10)
潍坊市,寒亭区实验一小,119.2041,36.7699,2024-11-10T0000,19,41,0.1,32,8,65,90,41,
渭南市,农科所,109.5293,34.5101,2024-11-10T0000,,,,,,,,,
渭南市,日报社,109.4974,34.4877,2024-11-10T0000,101,149,0.9,39,10,55,88,133,细颗粒物(PM2.5)
渭南市,体育馆,109.4636,34.493,2024-11-10T0000,103,149,0.9,33,11,69,91,135,细颗粒物(PM2.5)
渭南市,高新一小,109.4259,34.5023,2024-11-10T0000,124,156,0.9,28,9,63,88,163,细颗粒物(PM2.5)
温州市,瓯海,120.634,28.0089,2024-11-10T0000,18,40,0.5,51,5,19,87,40,
温州市,南浦,120.6748,27.9939,2024-11-10T0000,12,22,0.4,11,6,72,97,23,
温州市,龙湾,120.76,27.9747,2024-11-10T0000,27,63,0.5,55,5,12,86,57,颗粒物(PM10)
温州市,市站,120.6709,28.0167,2024-11-10T0000,14,21,0.3,13,4,69,88,22,
温州市,茶山,120.6985,27.9251,2024-11-10T0000,16,28,0.3,23,5,50,101,28,
文山壮族苗族自治州,州水务局,104.2533,23.3594,2024-11-10T0000,36,53,0.4,9,4,66,85,52,"颗粒物(PM10),细颗粒物(PM2.5)"
文山壮族苗族自治州,市便民服务中心,104.2319,23.3892,2024-11-10T0000,36,46,0.5,11,3,63,85,52,细颗粒物(PM2.5)
乌海市,市林业局,106.8174,39.6973,2024-11-10T0000,29,75,0.6,34,8,38,93,63,颗粒物(PM10)
乌海市,中海勃湾学校,106.7907,39.6667,2024-11-10T0000,23,80,0.5,20,8,55,96,65,颗粒物(PM10)
乌海市,海北新区,106.813,39.7274,2024-11-10T0000,22,118,0.5,60,10,6,92,84,颗粒物(PM10)
乌海市,聚英学校,106.8288,39.6778,2024-11-10T0000,27,75,0.5,39,12,26,96,63,颗粒物(PM10)
乌兰察布市,集宁新区,113.1306,40.9923,2024-11-10T0000,19,29,0.2,10,6,89,91,29,
乌兰察布市,光明街小学,113.1076,41.0385,2024-11-10T0000,26,31,0.3,14,7,77,83,38,
乌兰察布市,北京八中,113.1376,40.9509,2024-11-10T0000,16,28,0.2,15,11,77,72,28,
乌兰察布市,市委党校,113.1775,40.9779,2024-11-10T0000,18,22,0.4,12,7,79,82,26,
乌鲁木齐市,监测站,87.5801,43.8303,2024-11-10T0000,21,31,0.4,20,3,35,30,31,
乌鲁木齐市,收费所,87.6046,43.768,2024-11-10T0000,21,26,0.6,26,3,24,27,30,
乌鲁木齐市,新疆农科院农场,87.4754,43.9469,2024-11-10T0000,17,,0.7,9,6,43,42,25,
乌鲁木齐市,铁路局,87.5525,43.8711,2024-11-10T0000,21,28,0.3,14,1,40,37,30,
乌鲁木齐市,三十一中学,87.6432,43.831,2024-11-10T0000,24,28,0.4,25,3,29,28,35,
乌鲁木齐市,米东区环保局,87.7216,44.1747,2024-11-10T0000,3,8,0.4,10,4,45,59,15,
乌鲁木齐市,培训基地,87.4651,43.4569,2024-11-10T0000,9,,0.9,18,3,40,70,13,
乌鲁木齐市,达坂城区环保局,88.3118,43.3658,2024-11-10T0000,9,,0.3,14,5,37,53,13,
乌鲁木齐市,红光山片区,87.6162,43.8801,2024-11-10T0000,44,,0.6,16,3,33,32,62,细颗粒物(PM2.5)
乌鲁木齐市,新师大温泉校区,87.7024,43.8004,2024-11-10T0000,20,22,0.3,17,7,38,36,29,
乌鲁木齐市,大绿谷,87.4921,43.8411,2024-11-10T0000,19,24,0.4,13,3,41,31,28,
无锡市,雪浪,120.269,31.4867,2024-11-10T0000,9,29,0.5,32,7,55,73,29,
无锡市,黄巷,120.275,31.6219,2024-11-10T0000,17,42,0.7,35,4,43,52,42,
无锡市,曹张,120.294,31.56,2024-11-10T0000,17,30,0.6,40,6,44,62,30,
无锡市,漆塘,120.242,31.5031,2024-11-10T0000,14,29,1.0,34,4,54,70,29,
无锡市,东亭,120.3489,31.5863,2024-11-10T0000,12,34,0.8,22,5,53,62,34,
无锡市,旺庄,120.354,31.5475,2024-11-10T0000,17,34,0.6,25,4,52,68,34,
无锡市,荣巷,120.245,31.5631,2024-11-10T0000,14,34,0.6,29,4,52,58,34,
无锡市,堰桥,120.299,31.6817,2024-11-10T0000,19,41,0.9,44,8,29,67,41,
无锡市,华庄,120.3142,31.4753,2024-11-10T0000,19,40,0.9,27,5,51,69,40,
吴忠市,教育园区,106.1532,37.9648,2024-11-10T0000,22,64,0.5,59,28,16,92,57,颗粒物(PM10)
吴忠市,新区二泵站,106.1856,37.9956,2024-11-10T0000,25,36,0.4,47,9,24,90,36,
吴忠市,文卫南街,106.2112,37.9768,2024-11-10T0000,27,68,0.9,37,8,26,89,59,颗粒物(PM10)
芜湖市,监测站,118.3606,31.3519,2024-11-10T0000,17,42,0.5,41,11,31,58,42,
芜湖市,科创中心,118.3714,31.4134,2024-11-10T0000,16,36,0.6,31,9,40,62,36,
芜湖市,四水厂,118.3673,31.3131,2024-11-10T0000,15,40,0.6,36,10,40,66,40,
芜湖市,市气象局,118.4209,31.3707,2024-11-10T0000,17,35,0.5,30,5,39,66,35,
芜湖市,清苑社区,118.4781,31.3225,2024-11-10T0000,16,38,0.5,39,9,29,60,38,
芜湖市,扬子职业技术学院,118.2746,31.2326,2024-11-10T0000,16,40,0.5,28,8,38,67,40,
梧州市,市逸夫小学,111.3014,23.4832,2024-11-10T0000,49,89,0.9,50,14,43,119,70,颗粒物(PM10)
梧州市,市十一中,111.3239,23.4794,2024-11-10T0000,42,95,1.0,46,15,39,117,73,颗粒物(PM10)
梧州市,龙圩,111.247,23.4189,2024-11-10T0000,67,104,1.0,66,15,13,117,90,细颗粒物(PM2.5)
梧州市,龙新,111.2711,23.4835,2024-11-10T0000,46,97,0.7,56,18,48,120,74,颗粒物(PM10)
五家渠市,农水大厦,87.5475,44.1756,2024-11-10T0000,7,8,0.2,2,5,46,51,15,
五家渠市,经开区管委会,87.546,44.1912,2024-11-10T0000,3,6,0.2,4,3,43,49,14,
武汉市,东湖梨园,114.3677,30.5584,2024-11-10T0000,34,40,1.3,39,11,36,95,49,
武汉市,汉阳月湖,114.2529,30.558,2024-11-10T0000,31,45,0.7,34,9,40,88,45,
武汉市,汉口花桥,114.282,30.6189,2024-11-10T0000,29,43,0.5,29,8,40,82,43,
武汉市,武昌紫阳,114.3025,30.5332,2024-11-10T0000,37,46,1.0,37,12,32,88,53,细颗粒物(PM2.5)
武汉市,青山钢花,114.3646,30.6217,2024-11-10T0000,34,47,0.4,36,7,39,80,49,
武汉市,沌口新区,114.1566,30.4825,2024-11-10T0000,30,44,0.7,42,8,40,89,44,
武汉市,汉口江滩,114.3014,30.5944,2024-11-10T0000,32,42,0.6,30,6,39,83,46,
武汉市,吴家山,114.135,30.6319,2024-11-10T0000,15,26,0.6,56,8,22,86,28,
武汉市,沉湖七壕,113.8454,30.2917,2024-11-10T0000,25,,0.4,17,4,53,81,36,
武汉市,民族大道182号,114.3877,30.4908,2024-11-10T0000,40,42,1.0,52,14,22,92,57,细颗粒物(PM2.5)
