area,positionname,longitude,latitude,timepoint,pm2_5,pm10,co,no2,so2,o3,o3_8h,aqi,primarypollutant
阿坝藏族羌族自治州,州农科所,102.1879,31.914,2024-12-30T1000,10,52,1.4,25,9,118,57,51,颗粒物(PM10)
阿坝藏族羌族自治州,马师校,102.2502,31.8896,2024-12-30T1000,27,59,1.0,47,6,13,30,55,颗粒物(PM10)
阿坝藏族羌族自治州,马尔康中学西区,102.2165,31.9024,2024-12-30T1000,26,41,0.8,31,7,31,40,41,
阿克苏地区,电视台,80.292,41.1694,2024-12-30T1000,94,149,3.3,57,5,14,18,124,细颗粒物(PM2.5)
阿克苏地区,艺术中心,80.2613,41.1551,2024-12-30T1000,76,122,1.5,59,4,10,25,102,细颗粒物(PM2.5)
阿拉善盟,西城区西花园,105.6467,38.8363,2024-12-30T1000,40,113,1.1,32,10,56,84,82,颗粒物(PM10)
阿拉善盟,蒙二幼,105.6985,38.8411,2024-12-30T1000,20,87,0.7,20,4,71,82,69,颗粒物(PM10)
阿拉善盟,环保局新楼,105.724,38.8516,2024-12-30T1000,28,79,0.6,9,7,87,93,65,颗粒物(PM10)
阿勒泰地区,市站,88.1264,47.8517,2024-12-30T1000,12,14,0.6,48,8,23,52,24,
阿里地区,阿里监测站,80.1161,32.5,2024-12-30T1000,8,,0.4,6,7,70,62,22,
阿里地区,阿里藏医院,80.0903,32.5028,2024-12-30T1000,11,18,0.7,8,15,70,66,22,
安康市,香溪洞,109.0318,32.6537,2024-12-30T1000,44,65,0.6,14,11,39,44,62,细颗粒物(PM2.5)
安康市,汉滨区检察院,109.0072,32.6975,2024-12-30T1000,46,59,0.7,27,6,20,22,64,细颗粒物(PM2.5)
安康市,市邮政管理局,109.0325,32.6913,2024-12-30T1000,54,78,1.0,33,10,15,17,74,细颗粒物(PM2.5)
安庆市,环科院,117.0809,30.5177,2024-12-30T1000,80,105,0.9,73,10,10,9,107,细颗粒物(PM2.5)
安庆市,马山宾馆,117.0331,30.5119,2024-12-30T1000,81,124,0.8,60,12,3,2,108,细颗粒物(PM2.5)
安庆市,安庆大学,116.9896,30.6145,2024-12-30T1000,82,123,1.2,59,20,54,17,109,细颗粒物(PM2.5)
安庆市,市人大,117.0598,30.5351,2024-12-30T1000,84,112,0.9,70,14,10,9,112,细颗粒物(PM2.5)
安顺市,伍家关,105.9606,26.2611,2024-12-30T1000,,,1.1,14,7,45,,,
安顺市,凤凰山,105.9408,26.2431,2024-12-30T1000,7,13,0.8,22,13,37,46,13,
安顺市,金钟山,105.9439,26.2564,2024-12-30T1000,7,,0.9,15,15,37,49,12,
安顺市,娄家坡,105.8983,26.2481,2024-12-30T1000,11,13,0.8,18,18,32,44,16,
安阳市,棉研所,114.4839,36.0621,2024-12-30T1000,52,119,1.1,47,16,17,12,85,颗粒物(PM10)
安阳市,红庙街,114.3551,36.1017,2024-12-30T1000,68,141,2.0,58,9,14,10,96,颗粒物(PM10)
安阳市,银杏小区,114.361,36.0681,2024-12-30T1000,58,111,1.6,45,6,14,6,81,颗粒物(PM10)
安阳市,信访局,114.3922,36.0878,2024-12-30T1000,58,110,2.0,63,8,11,9,80,颗粒物(PM10)
安阳市,左辅环卫站,114.4705,36.0637,2024-12-30T1000,63,123,1.1,46,14,22,20,87,颗粒物(PM10)
安阳市,安钢职工学校,114.2917,36.0949,2024-12-30T1000,,,1.6,,10,,7,,
鞍山市,深沟寺,123.044,41.1196,2024-12-30T1000,94,126,2.9,60,45,20,30,124,细颗粒物(PM2.5)
鞍山市,太阳城,123.011,41.0931,2024-12-30T1000,87,130,2.4,60,33,20,28,115,细颗粒物(PM2.5)
鞍山市,太平,123.0485,41.1442,2024-12-30T1000,87,152,4.1,69,,15,25,115,细颗粒物(PM2.5)
鞍山市,铁西三道街,122.9642,41.0971,2024-12-30T1000,112,173,3.3,64,30,16,30,147,细颗粒物(PM2.5)
鞍山市,铁西工业园区,122.9341,41.0833,2024-12-30T1000,108,152,2.9,62,34,24,32,142,细颗粒物(PM2.5)
鞍山市,明达新区,123.022,41.0821,2024-12-30T1000,94,150,2.5,44,31,23,34,124,细颗粒物(PM2.5)
鞍山市,千山,123.1289,41.0228,2024-12-30T1000,,,,,,,51,,
巴彦淖尔市,附二中,107.4212,40.761,2024-12-30T1000,39,129,0.8,40,7,32,68,90,颗粒物(PM10)
巴彦淖尔市,市环保大楼,107.37,40.7372,2024-12-30T1000,44,172,0.5,20,5,42,57,111,颗粒物(PM10)
巴音郭楞蒙古自治州,孔雀公园,86.1472,41.7538,2024-12-30T1000,67,119,0.7,31,9,43,39,90,细颗粒物(PM2.5)
巴音郭楞蒙古自治州,棉纺厂,86.1972,41.7166,2024-12-30T1000,56,148,0.7,39,2,41,35,99,颗粒物(PM10)
巴音郭楞蒙古自治州,经济开发区,86.2357,41.7173,2024-12-30T1000,49,122,0.7,19,3,60,52,86,颗粒物(PM10)
巴中市,苏山坪,106.7677,31.8794,2024-12-30T1000,112,136,0.8,26,3,23,12,147,细颗粒物(PM2.5)
巴中市,丽阳花园,106.7656,31.8545,2024-12-30T1000,100,126,1.3,35,5,4,4,132,细颗粒物(PM2.5)
巴中市,圣泉水务公司,106.7418,31.8654,2024-12-30T1000,91,113,0.8,27,3,6,4,120,细颗粒物(PM2.5)
巴中市,市中心医院,106.7616,31.8344,2024-12-30T1000,120,144,,,4,5,3,158,细颗粒物(PM2.5)
白城市,洮北区环保局,122.7911,45.6077,2024-12-30T1000,106,,0.9,27,6,34,32,139,细颗粒物(PM2.5)
白城市,市环保局,122.8738,45.5725,2024-12-30T1000,84,102,0.8,26,10,27,25,112,细颗粒物(PM2.5)
白山市,喜丰,126.4219,41.9171,2024-12-30T1000,34,77,0.9,18,19,54,37,64,颗粒物(PM10)
白山市,环保局,126.4077,41.9419,2024-12-30T1000,46,72,1.0,14,14,53,15,64,细颗粒物(PM2.5)
白银市,第三小学,104.1724,36.5446,2024-12-30T1000,26,62,1.2,48,26,21,34,56,颗粒物(PM10)
白银市,动力公司,104.1465,36.5482,2024-12-30T1000,23,42,0.9,39,13,28,39,42,
百色市,市监测站,106.6103,23.9011,2024-12-30T1000,84,110,1.2,49,12,15,40,112,细颗粒物(PM2.5)
百色市,市中心血站,106.6538,23.8859,2024-12-30T1000,101,136,1.3,54,21,25,30,133,细颗粒物(PM2.5)
百色市,祈福高中,106.6085,23.8798,2024-12-30T1000,80,136,1.3,57,9,8,22,107,细颗粒物(PM2.5)
蚌埠市,工人疗养院,117.396,32.939,2024-12-30T1000,66,108,0.9,50,9,51,42,89,细颗粒物(PM2.5)
蚌埠市,百货大楼,117.3605,32.9427,2024-12-30T1000,64,107,0.8,42,11,51,38,87,细颗粒物(PM2.5)
蚌埠市,蚌埠学院,117.4185,32.8911,2024-12-30T1000,74,112,0.8,45,13,40,37,99,细颗粒物(PM2.5)
蚌埠市,淮上区政府,117.3533,32.9673,2024-12-30T1000,67,122,0.7,50,13,42,44,90,细颗粒物(PM2.5)
蚌埠市,高新区,117.3145,32.8977,2024-12-30T1000,,,0.8,,,34,17,,
蚌埠市,蚌埠田家炳中学,117.3092,32.9314,2024-12-30T1000,79,126,0.8,54,14,29,22,105,细颗粒物(PM2.5)
包头市,市环境监测站,109.8756,40.6532,2024-12-30T1000,10,65,,21,8,60,58,,
包头市,包头八中,109.9991,40.5842,2024-12-30T1000,17,83,0.5,20,5,62,47,67,颗粒物(PM10)
包头市,青山宾馆,109.8538,40.6821,2024-12-30T1000,,,,,,,30,,
包头市,惠龙物流,109.8642,40.6288,2024-12-30T1000,13,50,0.6,25,6,56,53,50,
包头市,东河鸿龙湾,110.0377,40.5546,2024-12-30T1000,28,113,0.8,24,11,52,25,82,颗粒物(PM10)
包头市,滨河大厦,109.9154,40.5685,2024-12-30T1000,42,141,1.0,44,13,32,35,96,颗粒物(PM10)
包头市,包头市委党校,109.9447,40.6261,2024-12-30T1000,3,71,0.4,25,5,60,61,61,颗粒物(PM10)
包头市,昆区政府,109.8331,40.6576,2024-12-30T1000,17,57,0.6,18,8,63,61,54,颗粒物(PM10)
宝鸡市,庙沟村,107.185,34.3063,2024-12-30T1000,28,32,0.5,25,5,45,54,40,
宝鸡市,竹园沟,107.0708,34.3017,2024-12-30T1000,30,34,0.6,20,6,38,28,43,
宝鸡市,三陆医院,107.1906,34.3672,2024-12-30T1000,37,58,0.8,34,6,24,18,54,颗粒物(PM10)
宝鸡市,监测站,107.1431,34.3547,2024-12-30T1000,39,58,1.0,40,7,19,22,55,细颗粒物(PM2.5)
宝鸡市,技工学校,107.1186,34.3739,2024-12-30T1000,48,75,0.8,33,15,22,28,67,细颗粒物(PM2.5)
宝鸡市,陈仓区环保局家属楼,107.3906,34.3528,2024-12-30T1000,61,90,1.1,38,240,24,19,83,细颗粒物(PM2.5)
宝鸡市,文理学院,107.2058,34.3497,2024-12-30T1000,34,63,0.8,41,7,20,26,57,颗粒物(PM10)
宝鸡市,三迪小学,107.2386,34.3622,2024-12-30T1000,37,75,1.1,46,7,13,16,63,颗粒物(PM10)
保定市,游泳馆,115.493,38.8632,2024-12-30T1000,82,157,1.3,69,8,11,7,109,细颗粒物(PM2.5)
保定市,华电二区,115.5213,38.8959,2024-12-30T1000,91,146,1.0,71,5,4,2,120,细颗粒物(PM2.5)
保定市,接待中心,115.4713,38.9108,2024-12-30T1000,83,157,1.2,57,5,15,8,110,细颗粒物(PM2.5)
保定市,地表水厂,115.4612,38.8416,2024-12-30T1000,92,182,1.0,67,6,12,8,122,细颗粒物(PM2.5)
保定市,满城区生态环境分局,115.31981,38.95208,2024-12-30T1000,41,175,0,17,1,66,17,113,颗粒物(PM10)
保定市,清苑区第二中学,115.47694,38.76408,2024-12-30T1000,86,181,1.3,62,8,10,6,116,颗粒物(PM10)
保定市,徐水物探局,115.62909,39.02311,2024-12-30T1000,95,156,1.4,60,13,5,3,125,细颗粒物(PM2.5)
保定市,双鹰农机,115.4202,38.8656,2024-12-30T1000,31,141,0.3,44,2,28,12,96,颗粒物(PM10)
保定市,植保所站,115.5150,38.8590,2024-12-30T1000,105,228,1.7,85,9,5,4,139,颗粒物(PM10)
保山市,市环境监测站,99.1678,25.1081,2024-12-30T1000,28,32,0.8,28,6,16,43,40,
保山市,市环保局,99.1711,25.1328,2024-12-30T1000,24,28,0.9,25,6,18,51,35,
北海市,牛尾岭水库,109.2262,21.588,2024-12-30T1000,60,,0.8,,9,96,103,,
北海市,海滩公园,109.1436,21.4086,2024-12-30T1000,56,73,0.9,24,10,97,115,77,细颗粒物(PM2.5)
北海市,新市环保局,109.0981,21.4661,2024-12-30T1000,61,65,1.1,,,89,110,,
北海市,北海工业园,109.1778,21.5233,2024-12-30T1000,68,94,1.1,28,29,90,104,92,细颗粒物(PM2.5)
北海市,龙潭自来水厂,109.1911,21.4415,2024-12-30T1000,48,72,1.0,25,12,,80,,
北京市,万寿西宫,116.3621,39.8784,2024-12-30T1000,29,142,0.2,12,4,66,55,96,颗粒物(PM10)
北京市,定陵,116.2202,40.2915,2024-12-30T1000,25,99,0.1,4,3,53,38,75,颗粒物(PM10)
北京市,东四,116.4174,39.9289,2024-12-30T1000,32,152,0.1,13,3,62,52,101,颗粒物(PM10)
北京市,天坛,116.4072,39.8863,2024-12-30T1000,28,144,0.2,7,1,73,62,97,颗粒物(PM10)
北京市,农展馆,116.462,39.9365,2024-12-30T1000,34,135,0.5,11,2,69,51,93,颗粒物(PM10)
北京市,官园,116.3392,39.9295,2024-12-30T1000,29,100,0.3,7,4,66,59,75,颗粒物(PM10)
北京市,海淀万柳,116.2878,39.9611,2024-12-30T1000,28,127,0.3,8,4,62,58,89,颗粒物(PM10)
北京市,顺义新城,116.6636,40.135,2024-12-30T1000,32,142,0.4,27,2,44,22,96,颗粒物(PM10)
北京市,怀柔镇,116.6275,40.3275,2024-12-30T1000,24,123,0.5,7,1,63,38,87,颗粒物(PM10)
北京市,昌平镇,116.2296,40.217,2024-12-30T1000,25,128,0.4,10,2,64,56,89,颗粒物(PM10)
北京市,奥体中心,116.3966,39.9821,2024-12-30T1000,30,147,0.4,8,4,66,52,99,颗粒物(PM10)
北京市,古城,116.184,39.9136,2024-12-30T1000,32,158,0.4,5,7,69,61,104,颗粒物(PM10)
北京市,延庆夏都,115.9718,40.4529,2024-12-30T1000,16,79,0.2,3,3,69,60,65,颗粒物(PM10)
北京市,平谷新城,117.0709,40.1465,2024-12-30T1000,29,83,0.5,25,3,46,8,67,颗粒物(PM10)
北京市,密云新城,116.8336,40.4095,2024-12-30T1000,21,77,0.2,15,3,58,33,64,颗粒物(PM10)
北京市,门头沟三家店,116.088,39.9726,2024-12-30T1000,32,168,0.3,6,5,57,52,109,颗粒物(PM10)
北京市,丰台云岗,116.1541,39.8204,2024-12-30T1000,39,169,0.3,7,3,58,54,110,颗粒物(PM10)
北京市,通州东关,116.6804,39.9081,2024-12-30T1000,31,183,0.3,10,3,61,43,117,颗粒物(PM10)
北京市,房山燕山,115.9577,39.7603,2024-12-30T1000,34,132,0.2,8,2,69,47,91,颗粒物(PM10)
北京市,大兴旧宫,116.4672,39.7733,2024-12-30T1000,22,121,0.2,7,2,63,35,86,颗粒物(PM10)
北京市,延庆石河营,115.986,40.4563,2024-12-30T1000,22,94,0.3,10,1,58,52,72,颗粒物(PM10)
北京市,怀柔新城,116.6151,40.3053,2024-12-30T1000,32,150,0.2,6,1,57,44,100,颗粒物(PM10)
北京市,丰台小屯,116.2545,39.8768,2024-12-30T1000,30,148,0.3,6,4,59,52,99,颗粒物(PM10)
北京市,密云镇,116.84,40.3844,2024-12-30T1000,37,104,0.7,49,3,12,3,77,颗粒物(PM10)
本溪市,大峪,123.8275,41.3064,2024-12-30T1000,63,105,3.0,51,13,,40,,
本溪市,溪湖,123.7567,41.3325,2024-12-30T1000,91,143,4.6,53,24,16,14,120,细颗粒物(PM2.5)
本溪市,彩屯,123.7169,41.3094,2024-12-30T1000,99,150,,49,15,,30,130,细颗粒物(PM2.5)
本溪市,东明,123.7669,41.2864,2024-12-30T1000,68,101,1.7,54,12,19,36,92,细颗粒物(PM2.5)
本溪市,新立屯,123.7992,41.2664,2024-12-30T1000,25,77,1.7,54,12,25,43,64,颗粒物(PM10)
本溪市,威宁,123.8142,41.3472,2024-12-30T1000,,132,1.7,49,6,19,27,,
毕节市,八中,105.2864,27.3125,2024-12-30T1000,14,19,0.7,14,6,55,52,20,
毕节市,师专,105.31,27.2944,2024-12-30T1000,11,14,0.7,18,5,48,50,16,
毕节市,长征村,105.3631,27.3533,2024-12-30T1000,8,9,0.7,8,7,62,55,20,
滨州市,第二水厂,118.0018,37.3617,2024-12-30T1000,95,166,1.2,47,19,36,19,125,细颗粒物(PM2.5)
滨州市,北中新校,117.9776,37.393,2024-12-30T1000,92,153,1.0,56,17,29,21,122,细颗粒物(PM2.5)
滨州市,中海酒店,117.9378,37.3956,2024-12-30T1000,97,153,0.9,50,19,29,26,128,细颗粒物(PM2.5)
滨州市,开发区一中,117.9378,37.3553,2024-12-30T1000,102,183,1.0,62,37,26,19,134,细颗粒物(PM2.5)
滨州市,金海六路,118.0917,37.694,2024-12-30T1000,105,173,1.3,58,13,14,9,138,细颗粒物(PM2.5)
滨州市,滨州市西街道办事处,117.9956,37.3753,2024-12-30T1000,97,153,1.2,46,15,32,16,128,细颗粒物(PM2.5)
亳州市,污水处理厂,115.8072,33.8399,2024-12-30T1000,73,128,0.8,32,6,49,57,98,细颗粒物(PM2.5)
亳州市,三国揽胜宫,115.7789,33.8518,2024-12-30T1000,82,131,0.7,37,6,49,59,109,细颗粒物(PM2.5)
亳州市,亳州学院,115.7633,33.8034,2024-12-30T1000,75,130,0.7,30,6,50,56,100,细颗粒物(PM2.5)
博尔塔拉蒙古自治州,市党校,82.0485,44.8556,2024-12-30T1000,76,100,1.5,30,11,30,38,102,细颗粒物(PM2.5)
博尔塔拉蒙古自治州,市环保局,82.0806,44.8969,2024-12-30T1000,54,93,1.3,28,8,42,51,74,细颗粒物(PM2.5)
沧州市,沧县城建局,116.8842,38.2991,2024-12-30T1000,113,165,2.2,74,16,9,6,148,细颗粒物(PM2.5)
沧州市,电视转播站,116.8584,38.3254,2024-12-30T1000,92,162,1.4,75,17,7,8,122,细颗粒物(PM2.5)
沧州市,市环保局,116.8709,38.3228,2024-12-30T1000,93,135,1.3,64,13,10,6,123,细颗粒物(PM2.5)
沧州市,河北水利电力学院,116.8136,38.3004,2024-12-30T1000,89,193,1.4,63,18,8,4,122,颗粒物(PM10)
昌都市,昌都监测站,97.1806,31.1273,2024-12-30T1000,27,36,1.1,53,7,12,32,39,
昌都市,昌都会议中心,97.1714,31.1406,2024-12-30T1000,17,,0.9,31,7,37,66,25,
昌吉回族自治州,天山天池,88.1236,43.8886,2024-12-30T1000,3,6,0.2,2,9,74,78,24,
昌吉回族自治州,新区政务中心,87.2717,44.0297,2024-12-30T1000,222,327,2.5,79,12,2,3,272,细颗粒物(PM2.5)
昌吉回族自治州,亚心广场,87.3095,44.0142,2024-12-30T1000,280,354,2.5,79,10,7,7,330,细颗粒物(PM2.5)
长春市,食品厂,125.3325,43.9166,2024-12-30T1000,56,99,0.7,30,15,32,27,77,细颗粒物(PM2.5)
长春市,客车厂,125.2863,43.9027,2024-12-30T1000,63,90,0.8,31,16,31,27,85,细颗粒物(PM2.5)
长春市,邮电学院,125.2841,43.8463,2024-12-30T1000,72,103,0.8,34,25,31,31,97,细颗粒物(PM2.5)
长春市,劳动公园,125.3716,43.8772,2024-12-30T1000,56,92,0.7,32,20,36,35,77,细颗粒物(PM2.5)
长春市,园林处,125.3297,43.8805,2024-12-30T1000,56,86,1.1,30,14,31,32,77,细颗粒物(PM2.5)
长春市,净月潭,125.4605,43.79,2024-12-30T1000,78,122,1.0,32,,,45,104,细颗粒物(PM2.5)
长春市,甩湾子,125.7194,43.515,2024-12-30T1000,,,,,,,,,
长春市,经开区环卫处,125.3863,43.8447,2024-12-30T1000,44,99,0.8,32,24,31,32,75,颗粒物(PM10)
长春市,高新区管委会,125.245,43.7783,2024-12-30T1000,81,98,1.0,29,13,33,33,108,细颗粒物(PM2.5)
长春市,岱山公园,125.1761,43.8325,2024-12-30T1000,86,98,1.0,25,10,34,30,114,细颗粒物(PM2.5)
长沙市,经开区环保局,113.0833,28.2325,2024-12-30T1000,75,130,1.1,80,8,13,35,100,细颗粒物(PM2.5)
长沙市,高开区环保局,112.8872,28.2189,2024-12-30T1000,101,162,1.8,97,9,6,6,133,细颗粒物(PM2.5)
长沙市,马坡岭,113.0792,28.2053,2024-12-30T1000,71,101,0.7,30,8,62,23,95,细颗粒物(PM2.5)
长沙市,湖南师范大学,112.9394,28.19,2024-12-30T1000,88,141,1.4,88,9,10,17,117,细颗粒物(PM2.5)
长沙市,雨花区环保局,113.0178,28.1322,2024-12-30T1000,77,116,1.1,87,11,14,40,103,细颗粒物(PM2.5)
长沙市,伍家岭,112.9792,28.2597,2024-12-30T1000,103,177,1.2,78,5,5,6,135,细颗粒物(PM2.5)
长沙市,火车新站,113.0014,28.1944,2024-12-30T1000,75,123,1.2,91,8,14,25,100,细颗粒物(PM2.5)
长沙市,天心区环保局,112.9844,28.1178,2024-12-30T1000,75,125,1.3,62,12,34,28,100,细颗粒物(PM2.5)
长沙市,湖南中医药大学,112.8908,28.1308,2024-12-30T1000,100,190,1.6,84,9,4,3,132,细颗粒物(PM2.5)
长沙市,沙坪,112.9581,28.3611,2024-12-30T1000,71,172,1.0,39,10,40,40,111,颗粒物(PM10)
长治市,清华站,113.1147,36.1547,2024-12-30T1000,41,87,1.5,38,23,33,18,69,颗粒物(PM10)
长治市,监测站,113.1031,36.1989,2024-12-30T1000,46,83,1.3,35,15,38,27,67,颗粒物(PM10)
长治市,审计局,113.0886,36.2125,2024-12-30T1000,46,103,1.2,39,16,36,26,77,颗粒物(PM10)
长治市,长治八中,113.0844,36.1856,2024-12-30T1000,77,133,1.1,42,16,30,22,103,细颗粒物(PM2.5)
长治市,德盛苑,113.1569,36.1911,2024-12-30T1000,44,73,1.6,29,15,45,49,62,"颗粒物(PM10),细颗粒物(PM2.5)"
长治市,向阳小学,113.06,36.0464,2024-12-30T1000,60,115,1.5,36,23,27,36,83,颗粒物(PM10)
长治市,屯留一中,112.8792,36.3144,2024-12-30T1000,48,77,1.4,35,17,38,41,67,细颗粒物(PM2.5)
长治市,潞城四中,113.235,36.3489,2024-12-30T1000,60,99,1.9,36,22,36,35,82,细颗粒物(PM2.5)
常德市,市二中,111.6975,28.9703,2024-12-30T1000,117,132,1.0,29,8,28,28,153,细颗粒物(PM2.5)
常德市,白鹤山,111.7158,29.1456,2024-12-30T1000,,,,,,,,,
常德市,武陵区永安,111.7153,29.0289,2024-12-30T1000,120,163,1.2,36,4,26,33,158,细颗粒物(PM2.5)
常德市,鼎城区玉霞,111.6892,28.9881,2024-12-30T1000,119,162,0.9,27,8,22,9,156,细颗粒物(PM2.5)
常德市,武陵区长庚,111.6625,29.0531,2024-12-30T1000,116,162,1.0,34,2,25,30,152,细颗粒物(PM2.5)
常州市,市监测站,119.9633,31.762,2024-12-30T1000,78,104,1.2,65,16,26,20,104,细颗粒物(PM2.5)
常州市,武进监测站,119.9468,31.7069,2024-12-30T1000,69,98,1.1,57,20,33,,93,细颗粒物(PM2.5)
常州市,安家,119.9255,31.9087,2024-12-30T1000,79,119,1.0,62,17,28,22,105,细颗粒物(PM2.5)
常州市,行政中心,119.9805,31.8174,2024-12-30T1000,70,96,1.1,51,18,27,25,94,细颗粒物(PM2.5)
常州市,经开区,120.0522,31.7748,2024-12-30T1000,89,120,1.3,67,20,27,22,118,细颗粒物(PM2.5)
常州市,钟楼,119.9025,31.7964,2024-12-30T1000,75,111,1.4,63,17,26,28,100,细颗粒物(PM2.5)
常州市,武进经发区,119.8598,31.7066,2024-12-30T1000,75,114,1.1,52,8,36,26,100,细颗粒物(PM2.5)
常州市,金坛城区,119.5826,31.7245,2024-12-30T1000,77,110,0.8,40,12,32,24,103,细颗粒物(PM2.5)
朝阳市,西梁,120.4318,41.5881,2024-12-30T1000,58,192,1.7,37,17,25,13,121,颗粒物(PM10)
朝阳市,河畔小区,120.4521,41.5646,2024-12-30T1000,,154,,31,19,37,22,102,颗粒物(PM10)
朝阳市,八里堡,120.4176,41.5648,2024-12-30T1000,69,138,1.3,42,22,25,15,94,颗粒物(PM10)
朝阳市,农业园区,120.3806,41.5969,2024-12-30T1000,71,155,1.3,35,16,46,34,103,颗粒物(PM10)
潮州市,西园路,116.6367,23.6719,2024-12-30T1000,39,65,0.4,18,5,58,43,58,颗粒物(PM10)
潮州市,市政府,116.6183,23.6608,2024-12-30T1000,39,76,0.8,27,6,56,52,63,颗粒物(PM10)
潮州市,金山,116.6461,23.6761,2024-12-30T1000,34,,0.7,16,6,,40,,
郴州市,马头岭,113.0073,25.9061,2024-12-30T1000,64,112,0.9,36,15,70,44,87,细颗粒物(PM2.5)
郴州市,市职中,113.0116,25.8226,2024-12-30T1000,76,107,1.2,51,17,31,27,102,细颗粒物(PM2.5)
郴州市,兴隆步行街,113.0161,25.8001,2024-12-30T1000,74,104,1.0,59,15,28,35,99,细颗粒物(PM2.5)
郴州市,市审计局,113.0383,25.8071,2024-12-30T1000,80,101,1.2,50,17,30,29,107,细颗粒物(PM2.5)
郴州市,市环保局,113.0348,25.7759,2024-12-30T1000,80,101,1.0,62,10,16,10,107,细颗粒物(PM2.5)
成都市,金泉两河,103.9728,30.7236,2024-12-30T1000,51,78,1.2,43,3,6,17,70,细颗粒物(PM2.5)
成都市,十里店,104.176,30.6872,2024-12-30T1000,55,97,0.9,49,3,11,28,75,细颗粒物(PM2.5)
成都市,三瓦窑,104.079,30.5706,2024-12-30T1000,58,94,1.1,47,2,8,19,79,细颗粒物(PM2.5)
成都市,沙河铺,104.1114,30.63,2024-12-30T1000,55,67,0.6,36,3,14,24,75,细颗粒物(PM2.5)
成都市,君平街,104.0786,30.6531,2024-12-30T1000,43,77,1.2,49,6,9,26,64,颗粒物(PM10)
成都市,灵岩寺,103.613,31.0283,2024-12-30T1000,,,,,,,,,
成都市,大石西路,104.0239,30.65639,2024-12-30T1000,32,62,0.8,40,3,11,22,56,颗粒物(PM10)
成都市,龙泉驿区区政府,104.2725,30.5589,2024-12-30T1000,34,51,0.9,31,3,28,38,51,颗粒物(PM10)
成都市,金博路,104.0106,30.6931,2024-12-30T1000,51,74,1.0,40,1,11,18,70,细颗粒物(PM2.5)
成都市,华阳,104.0578,30.5225,2024-12-30T1000,56,83,0.9,48,1,10,31,77,细颗粒物(PM2.5)
成都市,车城东七路,104.2394,30.5319,2024-12-30T1000,37,49,0.8,25,3,31,40,53,细颗粒物(PM2.5)
成都市,青白江技师分院,104.3853,30.7453,2024-12-30T1000,66,92,0.8,42,1,5,17,89,细颗粒物(PM2.5)
成都市,科学城,104.0789,30.4072,2024-12-30T1000,50,67,0.7,26,4,17,28,69,细颗粒物(PM2.5)
成都市,光华大道三段,103.8506,30.6947,2024-12-30T1000,22,87,1.2,39,2,3,17,69,颗粒物(PM10)
承德市,铁路,117.9531,40.9081,2024-12-30T1000,67,123,1.6,45,9,11,6,90,细颗粒物(PM2.5)
承德市,中国银行,117.9392,40.9763,2024-12-30T1000,65,116,1.5,57,3,9,4,88,细颗粒物(PM2.5)
承德市,开发区,117.9503,40.928,2024-12-30T1000,71,134,1.8,43,10,13,10,95,细颗粒物(PM2.5)
承德市,文化中心,117.8051,40.9655,2024-12-30T1000,50,158,0.9,50,7,11,5,104,颗粒物(PM10)
承德市,离宫,117.9268,41.0026,2024-12-30T1000,62,94,1.3,,7,,4,,
池州市,池州学院,117.47,30.6618,2024-12-30T1000,69,100,0.8,62,7,14,41,93,细颗粒物(PM2.5)
池州市,展览馆,117.4918,30.6617,2024-12-30T1000,73,101,1.0,58,7,10,32,98,细颗粒物(PM2.5)
池州市,第八中学,117.5627,30.695,2024-12-30T1000,82,134,0.8,66,10,5,35,109,细颗粒物(PM2.5)
池州市,第十二中学,117.5038,30.6243,2024-12-30T1000,66,99,1.6,53,5,9,42,89,细颗粒物(PM2.5)
赤峰市,松山一中,118.9233,42.2816,2024-12-30T1000,35,130,0.6,23,10,54,63,90,颗粒物(PM10)
赤峰市,哈达街,118.9576,42.2728,2024-12-30T1000,31,116,0.6,30,6,58,76,83,颗粒物(PM10)
赤峰市,天义路,118.8788,42.2554,2024-12-30T1000,31,122,0.5,22,11,52,59,86,颗粒物(PM10)
赤峰市,银河街,119.2658,42.0353,2024-12-30T1000,43,152,0.5,15,15,,54,101,颗粒物(PM10)
赤峰市,桥北物流园区,118.9359,42.3147,2024-12-30T1000,57,132,0.7,24,7,60,61,91,颗粒物(PM10)
崇左市,市环保局江州分局,107.3476,22.4136,2024-12-30T1000,89,143,1.1,41,14,48,21,118,细颗粒物(PM2.5)
崇左市,城南新区,107.3702,22.3707,2024-12-30T1000,95,108,1.1,34,18,77,44,125,细颗粒物(PM2.5)
滁州市,老年大学,118.3093,32.3153,2024-12-30T1000,66,112,1.1,60,10,15,14,89,细颗粒物(PM2.5)
滁州市,人大宾馆,118.3244,32.2786,2024-12-30T1000,69,95,0.7,46,13,36,21,93,细颗粒物(PM2.5)
滁州市,市政府原办公楼,118.3118,32.3038,2024-12-30T1000,63,101,1.2,54,10,34,20,85,细颗粒物(PM2.5)
滁州市,图书馆,118.3267,32.2634,2024-12-30T1000,52,92,1.2,41,11,41,21,72,细颗粒物(PM2.5)
楚雄彝族自治州,州环境监测站,101.5482,25.0441,2024-12-30T1000,32,46,0.8,33,32,13,5,46,
楚雄彝族自治州,市经济开发区,101.538,25.0492,2024-12-30T1000,17,28,0.7,20,,20,14,,
达州市,达州职业技术学院,107.5277,31.2827,2024-12-30T1000,174,197,1.3,18,7,9,8,224,细颗粒物(PM2.5)
达州市,市环境监测站,107.5086,31.2186,2024-12-30T1000,134,179,1.9,40,8,6,6,178,细颗粒物(PM2.5)
达州市,凤凰小区,107.4988,31.2132,2024-12-30T1000,136,178,1.7,40,10,6,5,180,细颗粒物(PM2.5)
达州市,达县机关宾馆,107.5082,31.1986,2024-12-30T1000,137,185,1.8,42,9,4,4,182,细颗粒物(PM2.5)
达州市,市政中心,107.4644,31.2124,2024-12-30T1000,127,175,1.9,48,9,5,5,168,细颗粒物(PM2.5)
大理白族自治州,大理市环境监测站,100.1542,25.7054,2024-12-30T1000,13,,0.7,8,7,58,64,19,
大理白族自治州,大理古城,100.2171,25.5811,2024-12-30T1000,9,13,0.5,14,6,52,64,17,
大连市,甘井子,121.612,38.9741,2024-12-30T1000,60,102,1.1,56,18,34,38,82,细颗粒物(PM2.5)
大连市,周水子,121.565,38.9511,2024-12-30T1000,61,101,1.2,58,14,27,33,83,细颗粒物(PM2.5)
大连市,星海三站,121.5637,38.8845,2024-12-30T1000,48,97,1.2,40,13,40,38,74,颗粒物(PM10)
大连市,青泥洼桥,121.6302,38.9117,2024-12-30T1000,51,112,1.2,46,15,30,32,81,颗粒物(PM10)
大连市,傅家庄,121.6251,38.8638,2024-12-30T1000,41,101,1.0,33,18,42,39,76,颗粒物(PM10)
大连市,七贤岭,121.5213,38.8661,2024-12-30T1000,43,103,0.8,34,14,48,45,77,颗粒物(PM10)
大连市,旅顺,121.2529,38.8061,2024-12-30T1000,52,103,0.9,45,13,36,42,77,颗粒物(PM10)
大连市,金州,121.7485,39.1311,2024-12-30T1000,79,147,1.5,61,15,14,35,105,细颗粒物(PM2.5)
大连市,开发区,121.7811,39.0496,2024-12-30T1000,76,122,1.6,60,27,19,30,102,细颗粒物(PM2.5)
大连市,双D港,121.9762,39.0631,2024-12-30T1000,58,132,1.3,47,15,38,42,91,颗粒物(PM10)
大庆市,大同区,124.81117,46.03138,2024-12-30T1000,,143,1.3,,7,18,10,,
大庆市,龙凤区,125.129,46.533,2024-12-30T1000,30,69,0.9,45,14,22,31,60,颗粒物(PM10)
大庆市,红岗区,124.902,46.408,2024-12-30T1000,58,99,1.1,45,7,10,15,79,细颗粒物(PM2.5)
大庆市,萨尔图区,125.153,46.586,2024-12-30T1000,52,71,0.6,35,7,30,35,72,细颗粒物(PM2.5)
大庆市,让胡路区,124.9042,46.6215,2024-12-30T1000,64,72,0.8,44,8,22,19,87,细颗粒物(PM2.5)
大庆市,萨区政府监测点,125.141,46.634,2024-12-30T1000,61,79,0.8,27,6,30,34,83,细颗粒物(PM2.5)
大同市,果树场,113.3819,40.1097,2024-12-30T1000,61,279,0.7,34,27,41,34,165,颗粒物(PM10)
大同市,云冈宾馆,113.2994,40.0758,2024-12-30T1000,54,246,0.8,24,18,47,60,148,颗粒物(PM10)
大同市,大同大学,113.3444,40.0917,2024-12-30T1000,50,278,0.9,29,27,36,52,164,颗粒物(PM10)
大同市,安家小村,113.2661,40.1269,2024-12-30T1000,64,366,1.5,35,31,24,50,223,颗粒物(PM10)
大同市,教育学院,113.2711,40.0844,2024-12-30T1000,51,288,0.8,32,17,40,53,169,颗粒物(PM10)
大同市,大同市卫生学校,113.3397,40.0597,2024-12-30T1000,47,248,0.8,34,16,37,54,149,颗粒物(PM10)
大同市,云冈站,113.1367,40.1122,2024-12-30T1000,51,228,0.6,22,17,50,42,139,颗粒物(PM10)
大同市,图书馆,113.1186,40.2556,2024-12-30T1000,70,302,0.8,20,32,42,44,176,颗粒物(PM10)
大同市,区一中,113.5931,40.0461,2024-12-30T1000,41,372,1.1,29,43,38,35,232,颗粒物(PM10)
大同市,第二人民医院,113.2802,40.0995,2024-12-30T1000,77,283,1.3,34,22,39,56,167,颗粒物(PM10)
大兴安岭地区,科技局,124.1069,50.4097,2024-12-30T1000,20,28,0.5,8,6,43,40,29,
大兴安岭地区,红旗社区,124.1164,50.4278,2024-12-30T1000,61,100,1.0,40,16,10,18,83,细颗粒物(PM2.5)
丹东市,江湾东路,124.3303,40.0625,2024-12-30T1000,115,143,3.8,50,65,16,26,150,细颗粒物(PM2.5)
丹东市,临江后街,124.4256,40.1503,2024-12-30T1000,67,94,1.4,41,25,19,10,90,细颗粒物(PM2.5)
丹东市,元宝山,124.3933,40.1461,2024-12-30T1000,78,119,1.8,45,22,10,36,104,细颗粒物(PM2.5)
丹东市,民主桥,124.3633,40.1092,2024-12-30T1000,60,90,1.7,57,27,12,11,82,细颗粒物(PM2.5)
儋州市,第一中学子站,109.5726,19.5167,2024-12-30T1000,17,33,0.6,7,5,85,81,33,
儋州市,东坡学校子站,109.5567,19.5187,2024-12-30T1000,17,42,0.6,6,6,91,82,42,
德宏傣族景颇族自治州,德宏州监测站,98.5842,24.428,2024-12-30T1000,38,67,0.7,25,8,13,12,59,颗粒物(PM10)
德宏傣族景颇族自治州,芒市人民政府综合楼,98.5881,24.4368,2024-12-30T1000,30,48,0.9,24,9,12,16,48,
德阳市,东山公园,104.4239,31.1208,2024-12-30T1000,69,99,0.8,37,3,24,24,93,细颗粒物(PM2.5)
德阳市,西小区,104.3826,31.1317,2024-12-30T1000,88,138,1.8,56,5,5,10,117,细颗粒物(PM2.5)
德阳市,耐火材料厂,104.3553,31.1091,2024-12-30T1000,82,143,1.4,55,10,9,6,109,细颗粒物(PM2.5)
德阳市,市教育局,104.4019,31.1244,2024-12-30T1000,84,116,1.7,56,7,6,5,112,细颗粒物(PM2.5)
德州市,儿童乐园,116.3032,37.4674,2024-12-30T1000,92,178,1.4,62,17,25,29,122,细颗粒物(PM2.5)
德州市,监理站,116.2991,37.4451,2024-12-30T1000,97,195,1.7,70,26,22,28,128,细颗粒物(PM2.5)
德州市,九衢泉纯净水厂,116.2721,37.4379,2024-12-30T1000,132,215,1.2,60,17,18,25,175,细颗粒物(PM2.5)
德州市,开发区人民医院,116.3728,37.4403,2024-12-30T1000,100,180,1.5,64,19,22,38,132,细颗粒物(PM2.5)
德州市,太阳城中学,116.3572,37.4094,2024-12-30T1000,110,195,1.5,66,18,20,32,144,细颗粒物(PM2.5)
德州市,陵城艺术中心,116.5652,37.3319,2024-12-30T1000,100,210,1.3,56,17,20,32,132,细颗粒物(PM2.5)
迪庆藏族自治州,迪庆州站,99.7056,27.8317,2024-12-30T1000,39,56,1.0,23,9,64,64,55,细颗粒物(PM2.5)
迪庆藏族自治州,质量技术监督局,99.7136,27.8094,2024-12-30T1000,38,68,1.4,45,8,40,64,59,颗粒物(PM10)
定西市,东关小学,104.6241,35.5734,2024-12-30T1000,41,105,1.3,28,26,8,12,78,颗粒物(PM10)
定西市,供电公司,104.6194,35.5934,2024-12-30T1000,41,109,2.0,38,33,10,8,80,颗粒物(PM10)
东莞市,莞城梨川,113.7547,23.0494,2024-12-30T1000,60,97,1.0,43,10,65,38,82,细颗粒物(PM2.5)
东莞市,东城石井,113.7944,23.0128,2024-12-30T1000,57,86,0.8,53,10,48,23,78,细颗粒物(PM2.5)
东莞市,南城西平,113.7383,22.9658,2024-12-30T1000,64,98,0.9,53,11,56,15,87,细颗粒物(PM2.5)
东莞市,万江金泰,113.7338,23.0381,2024-12-30T1000,53,76,0.9,38,12,64,34,73,细颗粒物(PM2.5)
东莞市,南城元岭,113.7533,23.0202,2024-12-30T1000,60,91,1.0,38,11,68,44,82,细颗粒物(PM2.5)
东莞市,东城主山,113.7875,23.0457,2024-12-30T1000,56,88,0.9,43,14,60,29,77,细颗粒物(PM2.5)
东营市,市环保局,118.6614,37.4309,2024-12-30T1000,85,149,1.0,56,18,32,11,113,细颗粒物(PM2.5)
东营市,开发区管委会,118.6904,37.4338,2024-12-30T1000,83,145,0.9,62,15,33,12,110,细颗粒物(PM2.5)
东营市,垦利区民丰路,118.5719,37.565,2024-12-30T1000,85,149,0.8,43,24,32,7,113,细颗粒物(PM2.5)
东营市,河口城区,118.5055,37.8612,2024-12-30T1000,85,197,0.7,59,13,36,15,124,颗粒物(PM10)
东营市,胜利站,118.4978,37.4623,2024-12-30T1000,100,139,0.9,57,15,41,18,132,细颗粒物(PM2.5)
东营市,理想之城,118.35,37.26,2024-12-30T1000,88,156,0.9,53,17,38,13,117,细颗粒物(PM2.5)
鄂尔多斯市,综合楼,110.0023,39.8129,2024-12-30T1000,14,95,0.5,14,5,70,84,73,颗粒物(PM10)
鄂尔多斯市,巴音孟克林场办事处,109.9486,39.8261,2024-12-30T1000,19,95,0.5,14,7,65,78,73,颗粒物(PM10)
鄂尔多斯市,康泽苑,109.7736,39.5986,2024-12-30T1000,31,136,0.4,8,6,62,69,93,颗粒物(PM10)
鄂尔多斯市,华泰汽车城,109.8119,39.5989,2024-12-30T1000,31,141,0.5,8,6,66,76,96,颗粒物(PM10)
鄂尔多斯市,奥林花园,109.9734,39.7884,2024-12-30T1000,,,0.5,13,6,,79,,
鄂州市,市政府,114.8938,30.3994,2024-12-30T1000,77,132,1.6,75,14,11,30,103,细颗粒物(PM2.5)
鄂州市,赵家坝,114.8989,30.3714,2024-12-30T1000,81,110,1.3,72,12,10,34,108,细颗粒物(PM2.5)
鄂州市,精准医疗中心,114.8094,30.4089,2024-12-30T1000,83,131,1.0,54,13,23,15,110,细颗粒物(PM2.5)
恩施土家族苗族自治州,湖北民院,109.4978,30.2981,2024-12-30T1000,144,,1.2,25,8,22,22,192,细颗粒物(PM2.5)
恩施土家族苗族自治州,州电力总公司,109.4707,30.2798,2024-12-30T1000,137,147,1.3,30,8,10,8,182,细颗粒物(PM2.5)
恩施土家族苗族自治州,龙凤新区,109.5061,30.3772,2024-12-30T1000,108,123,1.2,19,6,8,6,142,细颗粒物(PM2.5)
防城港市,沙万,108.3411,21.6158,2024-12-30T1000,77,97,1.7,53,20,69,91,103,细颗粒物(PM2.5)
防城港市,防城档案局,108.3514,21.7731,2024-12-30T1000,96,129,1.5,51,9,55,59,127,细颗粒物(PM2.5)
防城港市,大海花园,108.3506,21.6414,2024-12-30T1000,89,104,1.9,60,20,57,96,118,细颗粒物(PM2.5)
佛山市,湾梁,113.1294,23.0067,2024-12-30T1000,57,132,1.3,100,8,26,10,91,颗粒物(PM10)
佛山市,华材职中,113.1083,23.0478,2024-12-30T1000,97,156,1.3,110,11,20,9,128,细颗粒物(PM2.5)
佛山市,南海气象局,113.144,23.0453,2024-12-30T1000,70,114,1.0,96,9,26,6,94,细颗粒物(PM2.5)
佛山市,顺德苏岗,113.2881,22.8094,2024-12-30T1000,70,96,1.0,62,13,53,10,94,细颗粒物(PM2.5)
佛山市,高明孔堂,112.8383,22.8678,2024-12-30T1000,83,140,1.2,72,29,38,14,110,细颗粒物(PM2.5)
佛山市,三水监测站,112.8836,23.1588,2024-12-30T1000,93,127,1.1,65,26,55,16,123,细颗粒物(PM2.5)
佛山市,三水云东海,112.867,23.185,2024-12-30T1000,109,128,1.1,94,32,44,7,143,细颗粒物(PM2.5)
佛山市,容桂街道办,113.2544,22.7642,2024-12-30T1000,75,122,0.9,,11,,5,,
福州市,鼓山,119.3903,26.0543,2024-12-30T1000,,,,,,,83,,
福州市,师大,119.2681,26.0504,2024-12-30T1000,23,52,0.4,22,6,64,58,51,颗粒物(PM10)
福州市,五四北路,119.2984,26.1028,2024-12-30T1000,20,58,0.5,24,2,62,61,54,颗粒物(PM10)
福州市,杨桥西路,119.2648,26.0768,2024-12-30T1000,23,40,0.6,21,4,66,58,40,
福州市,紫阳,119.317,26.0746,2024-12-30T1000,23,56,0.5,39,4,48,58,53,颗粒物(PM10)
福州市,九龙,119.5799,26.0936,2024-12-30T1000,12,49,0.4,26,2,59,63,49,
福州市,吴航,119.5189,25.9664,2024-12-30T1000,22,53,0.4,30,4,58,53,52,颗粒物(PM10)
抚顺市,望花区,123.7977,41.8491,2024-12-30T1000,110,128,2.0,55,21,18,30,144,细颗粒物(PM2.5)
抚顺市,顺城区,123.9161,41.8822,2024-12-30T1000,115,198,2.9,65,14,17,18,150,细颗粒物(PM2.5)
抚顺市,东洲区,124.0436,41.8611,2024-12-30T1000,90,94,1.6,52,11,22,38,119,细颗粒物(PM2.5)
抚顺市,新抚区,123.9247,41.8642,2024-12-30T1000,92,117,1.5,53,10,16,23,122,细颗粒物(PM2.5)
抚顺市,大伙房水库,124.0972,41.8961,2024-12-30T1000,54,64,0.9,28,10,27,41,74,细颗粒物(PM2.5)
抚顺市,沈抚新城,123.7086,41.8391,2024-12-30T1000,125,136,1.7,63,12,21,33,165,细颗粒物(PM2.5)
抚州市,桐源党溪,116.2127,28.0814,2024-12-30T1000,65,78,0.5,35,10,18,17,88,细颗粒物(PM2.5)
抚州市,市站,116.3544,27.9831,2024-12-30T1000,54,84,1.5,42,6,24,36,74,细颗粒物(PM2.5)
抚州市,血防站,116.3565,27.963,2024-12-30T1000,51,83,1.1,42,6,32,32,70,细颗粒物(PM2.5)
抚州市,采茶剧团,116.3564,28.0007,2024-12-30T1000,58,88,1.5,34,2,22,9,79,细颗粒物(PM2.5)
抚州市,医学分院,116.385,27.9647,2024-12-30T1000,50,85,1.1,36,10,30,27,69,细颗粒物(PM2.5)
阜新市,工业园区,121.6094,41.998,2024-12-30T1000,109,240,2.0,45,30,14,8,145,颗粒物(PM10)
阜新市,长青街,121.6697,42.0279,2024-12-30T1000,106,212,3.5,55,12,8,6,139,细颗粒物(PM2.5)
阜新市,农业园区,121.6673,42.0705,2024-12-30T1000,34,137,1.1,19,14,47,28,94,颗粒物(PM10)
阜新市,东苑,121.6717,42.0224,2024-12-30T1000,129,246,3.5,45,,,25,170,细颗粒物(PM2.5)
阜新市,玉龙新城,121.6506,42.0498,2024-12-30T1000,71,168,1.7,45,12,19,13,109,颗粒物(PM10)
阜阳市,市监测站,115.8277,32.8929,2024-12-30T1000,72,106,0.6,30,10,66,63,97,细颗粒物(PM2.5)
阜阳市,开发区,115.8554,32.8605,2024-12-30T1000,62,115,0.7,34,12,62,54,84,细颗粒物(PM2.5)
阜阳市,阜阳职业技术学院,115.784,32.8892,2024-12-30T1000,71,107,0.9,29,11,64,58,95,细颗粒物(PM2.5)
阜阳市,市规划展馆,115.7901,32.8613,2024-12-30T1000,69,107,0.9,27,9,66,59,93,细颗粒物(PM2.5)
阜阳市,枣园社区,115.836,32.9183,2024-12-30T1000,75,98,0.7,29,,,67,,
甘南藏族自治州,州政府,102.9099,34.9841,2024-12-30T1000,17,45,0.8,29,14,37,34,45,
甘南藏族自治州,甘肃民族师范学院,102.8914,34.9617,2024-12-30T1000,21,58,0.5,40,6,36,41,54,颗粒物(PM10)
甘孜藏族自治州,水桥子,101.9603,30.0475,2024-12-30T1000,3,20,0.7,31,2,38,54,20,
甘孜藏族自治州,州环保局,101.9533,29.9972,2024-12-30T1000,3,15,0.7,32,4,41,58,16,
赣江新区,桑海产业园,115.8347,28.932,2024-12-30T1000,62,105,0.7,52,,,5,,
赣州市,通天岩,114.9017,25.9149,2024-12-30T1000,49,55,0.5,13,6,68,48,68,细颗粒物(PM2.5)
赣州市,地委,114.9367,25.8664,2024-12-30T1000,46,73,1.2,42,18,40,22,64,细颗粒物(PM2.5)
赣州市,气象台,114.9461,25.8481,2024-12-30T1000,41,85,0.9,63,16,38,18,68,颗粒物(PM10)
赣州市,市图书馆,114.9322,25.8333,2024-12-30T1000,48,95,1.2,69,4,22,11,73,颗粒物(PM10)
赣州市,华坚鞋城,114.8905,25.8471,2024-12-30T1000,56,89,0.6,45,11,44,34,77,细颗粒物(PM2.5)
赣州市,赣县区卫计委,115.0093,25.8613,2024-12-30T1000,59,90,0.5,39,13,46,28,80,细颗粒物(PM2.5)
固原市,马园,106.2319,36.1417,2024-12-30T1000,27,87,0.9,55,11,7,20,69,颗粒物(PM10)
固原市,监测站,106.2792,36.0022,2024-12-30T1000,7,20,0.5,20,5,70,74,22,
固原市,新区,106.2375,36.0211,2024-12-30T1000,6,19,0.5,18,6,71,72,23,
固原市,原州区十五小,106.2177,35.9959,2024-12-30T1000,9,23,0.1,13,7,77,78,25,
广安市,小平旧居,106.6308,30.5278,2024-12-30T1000,,,,,,,,,
广安市,市委,106.6303,30.4576,2024-12-30T1000,116,124,1.0,27,2,16,17,152,细颗粒物(PM2.5)
广安市,友谊中学,106.6271,30.4663,2024-12-30T1000,108,130,0.8,31,3,15,16,142,细颗粒物(PM2.5)
广安市,广电花园,106.6388,30.4551,2024-12-30T1000,99,117,0.6,27,3,12,12,130,细颗粒物(PM2.5)
广安市,北辰小学,106.6351,30.4865,2024-12-30T1000,107,119,1.0,33,9,14,17,140,细颗粒物(PM2.5)
广元市,黑石坡,105.8945,32.4535,2024-12-30T1000,50,72,1.1,23,16,16,6,69,细颗粒物(PM2.5)
广元市,老城,105.821,32.4444,2024-12-30T1000,37,70,1.1,43,8,9,4,60,颗粒物(PM10)
广元市,监测站,105.8628,32.4287,2024-12-30T1000,39,73,1.5,50,5,10,9,62,颗粒物(PM10)
广元市,经开区,105.8047,32.4166,2024-12-30T1000,55,87,1.2,44,6,7,4,75,细颗粒物(PM2.5)
广州市,广雅中学,113.2347,23.1423,2024-12-30T1000,70,128,1.0,81,12,39,13,94,细颗粒物(PM2.5)
广州市,市五中,113.2612,23.105,2024-12-30T1000,68,98,1.0,49,6,71,23,92,细颗粒物(PM2.5)
广州市,广东商学院,113.3478,23.0916,2024-12-30T1000,74,113,0.9,79,6,42,22,99,细颗粒物(PM2.5)
广州市,市八十六中,113.4332,23.1047,2024-12-30T1000,58,102,0.8,63,7,58,14,79,细颗粒物(PM2.5)
广州市,番禺中学,113.3505,22.9483,2024-12-30T1000,72,121,0.8,64,9,67,23,97,细颗粒物(PM2.5)
广州市,花都师范,113.2146,23.3916,2024-12-30T1000,70,109,0.9,79,16,31,10,94,细颗粒物(PM2.5)
广州市,市监测站,113.2597,23.1331,2024-12-30T1000,54,107,0.9,68,9,52,16,79,颗粒物(PM10)
广州市,九龙镇镇龙,113.5618,23.312,2024-12-30T1000,67,108,0.8,57,8,36,11,90,细颗粒物(PM2.5)
广州市,麓湖,113.2765,23.1544,2024-12-30T1000,56,77,0.8,46,7,69,13,77,细颗粒物(PM2.5)
广州市,帽峰山森林公园,113.443,23.3035,2024-12-30T1000,41,60,0.6,17,14,93,84,58,细颗粒物(PM2.5)
广州市,体育西,113.3221,23.1322,2024-12-30T1000,58,94,0.9,33,7,81,30,79,细颗粒物(PM2.5)
广州市,从化街口,113.5717,23.5491,2024-12-30T1000,66,100,0.9,47,23,40,17,89,细颗粒物(PM2.5)
广州市,白云竹料,113.3472,23.3692,2024-12-30T1000,71,103,0.9,55,19,40,14,95,细颗粒物(PM2.5)
广州市,白云嘉禾,113.2981,23.237,2024-12-30T1000,59,96,1.0,63,13,53,22,80,细颗粒物(PM2.5)
广州市,黄埔科学城,113.4256,23.1716,2024-12-30T1000,54,78,1.1,45,9,72,35,74,细颗粒物(PM2.5)
广州市,番禺大学城,113.3942,23.0483,2024-12-30T1000,56,96,0.9,73,10,56,16,77,细颗粒物(PM2.5)
广州市,南沙黄阁,113.4922,22.8168,2024-12-30T1000,77,120,0.9,67,15,48,24,103,细颗粒物(PM2.5)
广州市,南沙街,113.5342,22.7896,2024-12-30T1000,74,109,0.8,73,11,45,39,99,细颗粒物(PM2.5)
广州市,花都梯面,113.2902,23.5544,2024-12-30T1000,55,72,0.9,22,18,81,15,75,细颗粒物(PM2.5)
广州市,从化良口,113.7858,23.7478,2024-12-30T1000,40,48,0.7,23,6,45,35,57,细颗粒物(PM2.5)
广州市,增城荔城,113.8051,23.2614,2024-12-30T1000,57,74,0.8,34,9,45,56,78,细颗粒物(PM2.5)
贵港市,德智高中,109.568,23.1478,2024-12-30T1000,,,,,,,,,
贵港市,江南子站,109.6047,23.0666,2024-12-30T1000,77,132,1.4,42,19,72,79,103,细颗粒物(PM2.5)
贵港市,贵城子站,109.6014,23.0948,2024-12-30T1000,74,110,1.0,42,17,,75,,
贵港市,荷城子站,109.5669,23.1065,2024-12-30T1000,68,100,0.9,34,18,83,86,92,细颗粒物(PM2.5)
贵港市,新世纪学校,109.5886,23.1172,2024-12-30T1000,62,105,0.9,34,15,82,84,84,细颗粒物(PM2.5)
贵阳市,马鞍山,106.6899,26.5998,2024-12-30T1000,12,24,0.9,26,6,17,40,24,
贵阳市,市环保站,106.6971,26.5694,2024-12-30T1000,18,24,0.8,34,9,16,57,26,
贵阳市,鉴湖路,106.6243,26.6266,2024-12-30T1000,9,14,0.7,21,6,22,30,14,
贵阳市,燕子冲,106.7487,26.6343,2024-12-30T1000,22,22,0.8,21,8,31,52,32,
贵阳市,碧云窝,106.6555,26.4365,2024-12-30T1000,3,19,0.8,23,8,20,56,19,
贵阳市,中院村,106.694,26.5161,2024-12-30T1000,22,34,1.1,37,18,16,53,34,
贵阳市,红边门,106.7109,26.6027,2024-12-30T1000,46,,,30,12,16,55,,
贵阳市,新华路,106.7164,26.5699,2024-12-30T1000,17,27,0.7,26,10,22,54,27,
贵阳市,太慈桥,106.674,26.5424,2024-12-30T1000,12,19,0.9,28,7,15,49,19,
贵阳市,桐木岭,106.805,26.3003,2024-12-30T1000,27,44,0.9,8,9,46,,44,
桂林市,电子科大尧山校区,110.4144,25.3167,2024-12-30T1000,66,85,0.7,17,22,51,60,89,细颗粒物(PM2.5)
桂林市,监测站,110.2819,25.2697,2024-12-30T1000,87,107,1.2,40,25,54,68,115,细颗粒物(PM2.5)
桂林市,龙隐路小学,110.3089,25.2708,2024-12-30T1000,88,112,0.9,44,17,55,71,117,细颗粒物(PM2.5)
桂林市,八中,110.2869,25.2178,2024-12-30T1000,96,123,1.0,39,20,46,58,127,细颗粒物(PM2.5)
桂林市,创业大厦,110.1764,25.2381,2024-12-30T1000,85,129,1.0,68,16,17,38,113,细颗粒物(PM2.5)
桂林市,旅游学院,110.296,25.1253,2024-12-30T1000,107,158,1.1,60,18,13,20,140,细颗粒物(PM2.5)
果洛藏族自治州,玛沁县大武镇,100.2561,34.4714,2024-12-30T1000,12,22,0.5,3,16,68,78,22,
哈尔滨市,岭北,126.5422,45.755,2024-12-30T1000,63,95,0.9,49,18,18,10,85,细颗粒物(PM2.5)
哈尔滨市,松北商大,126.561,45.8167,2024-12-30T1000,71,112,1.5,53,9,16,17,95,细颗粒物(PM2.5)
哈尔滨市,阿城会宁,126.979,45.5419,2024-12-30T1000,123,175,1.9,52,18,10,34,162,细颗粒物(PM2.5)
哈尔滨市,南岗学府路,126.599,45.7222,2024-12-30T1000,71,91,0.9,44,17,21,18,95,细颗粒物(PM2.5)
哈尔滨市,太平宏伟公园,126.689,45.7733,2024-12-30T1000,112,174,2.5,71,16,5,3,147,细颗粒物(PM2.5)
哈尔滨市,道外承德广场,126.635,45.7667,2024-12-30T1000,54,,1.0,54,13,,7,,
哈尔滨市,香坊红旗大街,126.685,45.7319,2024-12-30T1000,62,88,1.2,53,24,14,9,84,细颗粒物(PM2.5)
哈尔滨市,动力和平路,126.6411,45.7258,2024-12-30T1000,64,77,1.1,46,17,11,9,87,细颗粒物(PM2.5)
哈尔滨市,道里建国路,126.593,45.7478,2024-12-30T1000,54,78,0.9,54,24,11,12,74,细颗粒物(PM2.5)
哈尔滨市,平房东轻厂,126.615,45.61,2024-12-30T1000,44,66,0.9,44,16,19,46,62,细颗粒物(PM2.5)
哈尔滨市,呼兰师专,126.595,45.9855,2024-12-30T1000,165,168,1.4,51,17,15,28,215,细颗粒物(PM2.5)
哈尔滨市,省农科院,126.6206,45.6842,2024-12-30T1000,95,136,1.4,49,22,19,12,125,细颗粒物(PM2.5)
哈密市,地区监测站,93.5128,42.8172,2024-12-30T1000,23,137,0.5,36,3,30,50,94,颗粒物(PM10)
哈密市,哈密师范学校,93.4961,42.8328,2024-12-30T1000,28,131,0.8,43,4,24,36,91,颗粒物(PM10)
海北藏族自治州,海晏县西海镇,100.9048,36.9639,2024-12-30T1000,35,40,1.3,25,16,31,46,50,
海东市,平安区公安北苑,102.0738,36.5056,2024-12-30T1000,77,108,1.4,37,18,25,26,103,细颗粒物(PM2.5)
海口市,东寨港,110.576,19.9507,2024-12-30T1000,19,37,0.4,,7,59,59,,
海口市,海南大学,110.3232,20.0574,2024-12-30T1000,23,44,0.4,17,5,96,84,44,
海口市,秀英海南医院,110.283,20.0053,2024-12-30T1000,19,41,0.4,12,3,99,95,41,
海口市,海南师范大学,110.338,19.9969,2024-12-30T1000,20,41,0.4,11,5,100,90,41,
海口市,龙华路环保局宿舍,110.33,20.0356,2024-12-30T1000,18,42,0.4,12,5,101,91,42,
海口市,桂林洋子站,110.5111,19.9736,2024-12-30T1000,17,32,0.3,10,4,96,93,32,
海南藏族自治州,共和县恰卜恰镇,100.6188,36.2866,2024-12-30T1000,29,68,0.9,43,10,13,31,59,颗粒物(PM10)
海西蒙古族藏族自治州,德令哈市,97.3731,37.3753,2024-12-30T1000,,,,,,,,,
邯郸市,东污水处理厂,114.5302,36.6116,2024-12-30T1000,66,112,1.7,66,8,11,7,89,细颗粒物(PM2.5)
邯郸市,矿院,114.4918,36.5713,2024-12-30T1000,68,138,1.8,65,10,6,2,94,颗粒物(PM10)
邯郸市,丛台公园,114.484,36.6133,2024-12-30T1000,110,213,1.7,72,10,6,6,144,细颗粒物(PM2.5)
邯郸市,香泉濮院小区,114.7895,36.5593,2024-12-30T1000,82,158,0.8,44,15,28,22,109,细颗粒物(PM2.5)
邯郸市,永年区实验高中,114.50634,36.77178,2024-12-30T1000,70,202,2.3,55,17,9,7,126,颗粒物(PM10)
邯郸市,峰峰矿区临水派出所,114.20016,36.44293,2024-12-30T1000,44,91,0.9,32,21,45,54,71,颗粒物(PM10)
汉中市,汉川机床厂子校,106.9893,33.1842,2024-12-30T1000,91,,1.4,23,8,24,22,120,细颗粒物(PM2.5)
汉中市,市监测站,107.0154,33.0706,2024-12-30T1000,145,,2.0,40,7,14,13,193,细颗粒物(PM2.5)
汉中市,鑫源开发区,107.0089,33.1138,2024-12-30T1000,132,,1.6,30,6,12,10,175,细颗粒物(PM2.5)
汉中市,南郑大河坎水厂,107.007,33.0323,2024-12-30T1000,131,159,1.8,30,7,18,12,173,细颗粒物(PM2.5)
杭州市,滨江,120.2072,30.2111,2024-12-30T1000,49,85,0.7,54,6,16,8,68,"颗粒物(PM10),细颗粒物(PM2.5)"
杭州市,西溪,120.0633,30.2747,2024-12-30T1000,57,85,,63,8,14,5,,
杭州市,下沙,120.3461,30.3153,2024-12-30T1000,56,106,0.9,63,8,22,11,78,颗粒物(PM10)
杭州市,卧龙桥,120.1269,30.2456,2024-12-30T1000,52,72,0.8,54,7,16,9,72,细颗粒物(PM2.5)
杭州市,浙江农大,120.1903,30.2692,2024-12-30T1000,56,86,0.9,58,8,,4,,
杭州市,和睦小学,120.1197,30.3119,2024-12-30T1000,57,81,1.1,58,7,16,7,78,细颗粒物(PM2.5)
杭州市,临平镇,120.3019,30.4183,2024-12-30T1000,60,114,1.1,75,8,9,5,82,"颗粒物(PM10),细颗粒物(PM2.5)"
杭州市,城厢镇,120.2697,30.1819,2024-12-30T1000,54,86,0.9,56,6,18,8,74,细颗粒物(PM2.5)
杭州市,云栖,120.0883,30.1808,2024-12-30T1000,46,79,0.7,57,6,11,9,65,颗粒物(PM10)
杭州市,镇二中,119.9464,30.0494,2024-12-30T1000,62,78,1.2,49,9,,4,,
杭州市,市府大楼,119.7183,30.2367,2024-12-30T1000,60,87,1.0,66,8,17,18,82,细颗粒物(PM2.5)
杭州市,消防大队,120.1556,30.2864,2024-12-30T1000,59,92,0.9,51,9,17,8,80,细颗粒物(PM2.5)
合肥市,明珠广场,117.1959,31.7848,2024-12-30T1000,61,107,1.0,59,10,20,15,83,细颗粒物(PM2.5)
合肥市,三里街,117.3072,31.8764,2024-12-30T1000,70,144,1.4,82,9,4,7,97,颗粒物(PM10)
合肥市,琥珀山庄,117.2588,31.8707,2024-12-30T1000,63,122,1.6,74,7,19,11,86,颗粒物(PM10)
合肥市,董铺水库,117.1604,31.9052,2024-12-30T1000,48,97,0.7,49,5,19,15,74,颗粒物(PM10)
合肥市,长江中路,117.25,31.8571,2024-12-30T1000,74,110,1.1,72,9,16,15,99,细颗粒物(PM2.5)
合肥市,庐阳区,117.266,31.9436,2024-12-30T1000,48,85,0.8,55,6,,25,,
合肥市,瑶海区,117.336,31.8586,2024-12-30T1000,70,153,1.1,76,8,8,13,102,颗粒物(PM10)
合肥市,包河区,117.3027,31.7964,2024-12-30T1000,63,107,0.7,73,6,17,19,85,细颗粒物(PM2.5)
合肥市,滨湖新区,117.2776,31.7385,2024-12-30T1000,48,97,0.7,65,9,12,14,74,颗粒物(PM10)
合肥市,高新区,117.1318,31.8403,2024-12-30T1000,62,105,0.9,70,2,26,29,84,细颗粒物(PM2.5)
合肥市,高教基地,117.3803,31.9147,2024-12-30T1000,61,121,1.0,79,10,13,20,86,颗粒物(PM10)
和田地区,地区环保局,79.924,37.0877,2024-12-30T1000,72,162,1.0,35,14,23,27,106,颗粒物(PM10)
和田地区,市环保局,79.9131,37.113,2024-12-30T1000,61,133,2.1,54,14,15,22,92,颗粒物(PM10)
河池市,东仁乐园,108.2011,24.715,2024-12-30T1000,100,160,1.2,60,15,18,22,132,细颗粒物(PM2.5)
河池市,市环保站,108.0497,24.6947,2024-12-30T1000,80,102,1.2,48,11,28,35,107,细颗粒物(PM2.5)
河池市,市疾控中心,108.0983,24.6989,2024-12-30T1000,93,140,1.2,58,12,20,27,123,细颗粒物(PM2.5)
河源市,源西,114.6778,23.7569,2024-12-30T1000,,,,,,,82,,
河源市,东埔,114.6944,23.7586,2024-12-30T1000,55,69,0.9,32,8,55,44,75,细颗粒物(PM2.5)
河源市,老城,114.6892,23.7233,2024-12-30T1000,56,74,0.8,35,6,35,24,77,细颗粒物(PM2.5)
菏泽市,气象局,115.4208,35.2464,2024-12-30T1000,102,177,0.8,46,25,37,37,134,细颗粒物(PM2.5)
菏泽市,市政协,115.4747,35.2375,2024-12-30T1000,,,,44,,42,38,,
菏泽市,定陶老年大学,115.5564,35.0891,2024-12-30T1000,97,153,0.9,47,15,30,46,128,细颗粒物(PM2.5)
菏泽市,菏泽医专,115.4702,35.2706,2024-12-30T1000,101,184,1.2,48,29,37,42,133,细颗粒物(PM2.5)
贺州市,环保小区,111.5264,24.4172,2024-12-30T1000,72,104,1.1,46,12,22,18,97,细颗粒物(PM2.5)
贺州市,政协大楼,111.5608,24.4078,2024-12-30T1000,56,97,0.8,39,18,38,15,77,细颗粒物(PM2.5)
贺州市,西湾,111.4744,24.4553,2024-12-30T1000,81,110,1.0,50,10,17,14,108,细颗粒物(PM2.5)
鹤壁市,市监测站,114.17,35.9019,2024-12-30T1000,65,157,0.6,39,7,18,20,104,颗粒物(PM10)
鹤壁市,市交警支队,114.2956,35.7511,2024-12-30T1000,46,110,1.6,56,4,2,0,80,颗粒物(PM10)
鹤壁市,迎宾馆,114.2878,35.7306,2024-12-30T1000,,,,,,,3,,
鹤壁市,大新区,114.2617,35.6822,2024-12-30T1000,40,78,0.8,32,4,,3,,
鹤壁市,南山宾馆,114.1572,35.9603,2024-12-30T1000,47,80,0.8,12,10,51,60,65,"颗粒物(PM10),细颗粒物(PM2.5)"
鹤岗市,哈啤分公司,130.2537,47.3416,2024-12-30T1000,24,35,1.0,7,16,42,37,35,
鹤岗市,斯达机电,130.2684,47.3086,2024-12-30T1000,31,38,0.6,23,24,33,28,45,
鹤岗市,东山纸板厂,130.3114,47.3388,2024-12-30T1000,18,19,0.6,24,17,32,20,26,
鹤岗市,五号水库,130.1097,47.3382,2024-12-30T1000,10,15,0.2,11,5,55,55,18,
黑河市,交通局,127.4833,50.2524,2024-12-30T1000,41,71,1.1,22,7,23,17,61,颗粒物(PM10)
黑河市,环保局,127.5144,50.2341,2024-12-30T1000,44,64,0.9,32,5,19,22,62,细颗粒物(PM2.5)
黑河市,大黑河岛,127.5291,50.2472,2024-12-30T1000,43,66,,11,3,7,13,,
衡水市,电机北厂,115.6838,37.7541,2024-12-30T1000,50,164,0.8,34,17,34,8,107,颗粒物(PM10)
衡水市,市监测站,115.6303,37.7316,2024-12-30T1000,32,151,0.7,40,14,35,9,101,颗粒物(PM10)
衡水市,市城管局,115.6683,37.7217,2024-12-30T1000,33,162,0.7,33,14,42,14,106,颗粒物(PM10)
衡水市,地表水厂,115.5989,37.5491,2024-12-30T1000,69,144,1.1,52,14,18,8,97,颗粒物(PM10)
衡阳市,原169医院,112.5003,26.9167,2024-12-30T1000,82,112,0.6,45,18,23,28,109,细颗粒物(PM2.5)
衡阳市,衡阳化工总厂,112.6194,26.9258,2024-12-30T1000,89,112,1.1,44,14,55,29,118,细颗粒物(PM2.5)
衡阳市,珠晖区环保局,112.6211,26.8956,2024-12-30T1000,86,108,1.3,44,12,50,41,114,细颗粒物(PM2.5)
衡阳市,市委党校,112.6197,26.8733,2024-12-30T1000,96,128,1.4,57,12,21,30,127,细颗粒物(PM2.5)
衡阳市,市监测站,112.6006,26.8919,2024-12-30T1000,98,122,1.1,52,11,41,43,129,细颗粒物(PM2.5)
衡阳市,真空机电公司,112.5664,26.9056,2024-12-30T1000,83,123,1.1,44,8,49,43,110,细颗粒物(PM2.5)
衡阳市,师范学院,112.6703,26.882,2024-12-30T1000,130,178,1.2,47,12,30,20,172,细颗粒物(PM2.5)
红河哈尼族彝族自治州,污水处理厂,103.3772,23.3993,2024-12-30T1000,45,48,0.8,17,16,25,29,63,细颗粒物(PM2.5)
红河哈尼族彝族自治州,监测站,103.3861,23.35,2024-12-30T1000,44,72,1.0,29,8,29,38,62,细颗粒物(PM2.5)
红河哈尼族彝族自治州,州图书馆,103.3758,23.368,2024-12-30T1000,34,52,0.8,22,12,24,27,51,颗粒物(PM10)
呼和浩特市,呼市一监,111.6507,40.7517,2024-12-30T1000,61,290,0.8,22,,24,10,170,颗粒物(PM10)
呼和浩特市,小召,111.6572,40.8033,2024-12-30T1000,70,371,1.3,48,8,16,10,230,颗粒物(PM10)
呼和浩特市,如意水处理厂,111.7516,40.8369,2024-12-30T1000,68,340,0.9,33,10,25,10,195,颗粒物(PM10)
呼和浩特市,二十九中,111.7276,40.8062,2024-12-30T1000,61,326,0.7,28,10,22,12,188,颗粒物(PM10)
呼和浩特市,工大金川校区,111.5512,40.7866,2024-12-30T1000,67,368,0.6,28,6,29,9,226,颗粒物(PM10)
呼和浩特市,化肥厂生活区,111.717,40.7612,2024-12-30T1000,64,308,0.8,35,8,21,11,179,颗粒物(PM10)
呼和浩特市,红旗小学,111.5968,40.8178,2024-12-30T1000,79,359,1.1,42,8,16,5,213,颗粒物(PM10)
呼和浩特市,海东办,111.6518,40.8389,2024-12-30T1000,40,271,1.4,50,8,21,8,161,颗粒物(PM10)
呼伦贝尔市,区环保局,119.7594,49.2261,2024-12-30T1000,22,32,0.5,16,6,45,44,32,
呼伦贝尔市,国华电力东,119.7512,49.1577,2024-12-30T1000,22,36,0.5,14,5,46,34,36,
湖州市,城西水厂,120.0751,30.8669,2024-12-30T1000,66,107,0.6,70,11,18,19,89,细颗粒物(PM2.5)
湖州市,仁皇山新区,120.0875,30.8955,2024-12-30T1000,57,88,0.7,41,13,50,20,78,细颗粒物(PM2.5)
湖州市,吴兴区站,120.1844,30.8596,2024-12-30T1000,61,90,0.8,64,10,21,10,83,细颗粒物(PM2.5)
湖州市,南浔区站,120.4148,30.8538,2024-12-30T1000,78,109,0.9,70,12,23,7,104,细颗粒物(PM2.5)
葫芦岛市,龙港区,120.9092,40.7136,2024-12-30T1000,105,144,1.8,105,33,59,32,138,细颗粒物(PM2.5)
葫芦岛市,化工街,120.8392,40.7514,2024-12-30T1000,114,273,2.4,73,,11,8,162,颗粒物(PM10)
葫芦岛市,新区,120.8341,40.7073,2024-12-30T1000,94,139,2.4,166,35,74,15,124,细颗粒物(PM2.5)
葫芦岛市,东城区,120.8695,40.7677,2024-12-30T1000,168,,2.1,66,66,13,9,218,细颗粒物(PM2.5)
怀化市,林科所,109.5981,27.5721,2024-12-30T1000,87,90,1.6,30,19,54,51,115,细颗粒物(PM2.5)
怀化市,河西地税局,109.9453,27.5444,2024-12-30T1000,91,110,1.2,23,12,44,29,120,细颗粒物(PM2.5)
怀化市,市四医院,109.9781,27.5342,2024-12-30T1000,98,115,1.4,34,8,23,23,129,细颗粒物(PM2.5)
怀化市,监测楼,109.9972,27.5578,2024-12-30T1000,92,122,0.8,43,6,28,22,122,细颗粒物(PM2.5)
怀化市,市委党校,110.0394,27.583,2024-12-30T1000,108,134,1.4,39,12,20,16,142,细颗粒物(PM2.5)
淮安市,钵池山,119.036,33.5981,2024-12-30T1000,59,95,0.6,42,13,43,30,80,细颗粒物(PM2.5)
淮安市,北京南路,119.007,33.575,2024-12-30T1000,55,102,0.8,49,14,30,13,76,颗粒物(PM10)
淮安市,市监测站,118.989,33.6067,2024-12-30T1000,70,100,1.5,58,24,32,18,94,细颗粒物(PM2.5)
淮安市,楚州区监测站,119.135,33.5039,2024-12-30T1000,66,105,0.9,56,12,19,11,89,细颗粒物(PM2.5)
淮安市,淮阴区监测站,119.0186,33.6297,2024-12-30T1000,60,112,,55,,39,21,,
淮安市,新华书店,118.8755,33.2894,2024-12-30T1000,76,105,0.8,50,21,31,23,102,细颗粒物(PM2.5)
淮北市,监测站,116.8004,33.975,2024-12-30T1000,104,152,0.8,39,9,46,34,137,细颗粒物(PM2.5)
淮北市,烈山区政府,116.8091,33.9007,2024-12-30T1000,107,177,0.8,56,8,28,25,140,细颗粒物(PM2.5)
淮北市,杜集区检察院,116.8873,33.9836,2024-12-30T1000,111,153,0.7,37,7,47,38,145,细颗粒物(PM2.5)
淮北市,市博物馆,116.7923,33.9535,2024-12-30T1000,107,155,1.0,40,11,49,30,140,细颗粒物(PM2.5)
淮南市,潘集区政府,116.8305,32.7727,2024-12-30T1000,81,110,0.9,36,13,50,38,108,细颗粒物(PM2.5)
淮南市,师范学院,117.0067,32.6524,2024-12-30T1000,75,117,0.9,45,9,51,42,100,细颗粒物(PM2.5)
淮南市,谢家集区政府,116.8569,32.5951,2024-12-30T1000,71,119,0.8,48,8,28,27,95,细颗粒物(PM2.5)
淮南市,八公山区政府,116.8281,32.633,2024-12-30T1000,53,86,0.8,23,7,76,54,73,细颗粒物(PM2.5)
淮南市,焦岗湖风景区管理处,116.6325,32.6201,2024-12-30T1000,53,83,0.5,41,2,26,16,73,细颗粒物(PM2.5)
淮南市,经济技术开发区消防队,117.0566,32.6531,2024-12-30T1000,58,118,0.8,38,10,60,24,84,颗粒物(PM10)
淮南市,山南新区,117.0108,32.5893,2024-12-30T1000,,138,0.7,38,10,,31,,
黄冈市,职工中心,114.9028,30.4742,2024-12-30T1000,70,117,1.0,74,10,15,47,94,细颗粒物(PM2.5)
黄冈市,红卫路,114.8858,30.4519,2024-12-30T1000,76,113,1.2,52,8,19,44,102,细颗粒物(PM2.5)
黄冈市,市林业局,114.9136,30.4445,2024-12-30T1000,70,99,0.9,56,11,19,45,94,细颗粒物(PM2.5)
黄南藏族自治州,同仁县隆务镇,102.0199,35.5102,2024-12-30T1000,54,74,0.9,15,8,41,54,74,细颗粒物(PM2.5)
黄山市,延安路89号,118.2903,29.6963,2024-12-30T1000,50,57,0.4,28,8,26,15,69,细颗粒物(PM2.5)
黄山市,黄山东路89号,118.327,29.7178,2024-12-30T1000,46,80,0.5,31,6,10,13,65,颗粒物(PM10)
黄山市,黄山区政府5号楼,118.1371,30.2756,2024-12-30T1000,53,76,0.6,16,,,23,,
黄石市,沈家营,115.0601,30.2313,2024-12-30T1000,73,106,1.0,70,17,12,28,98,细颗粒物(PM2.5)
黄石市,陈家湾,115.0817,30.2006,2024-12-30T1000,83,110,1.1,63,13,15,26,110,细颗粒物(PM2.5)
黄石市,铁山,114.8988,30.2019,2024-12-30T1000,65,90,1.0,43,21,28,23,88,细颗粒物(PM2.5)
黄石市,团城山,115.0307,30.2092,2024-12-30T1000,79,99,1.0,58,17,17,26,105,细颗粒物(PM2.5)
黄石市,笔架山北路,115.0235,30.1578,2024-12-30T1000,86,121,1.3,66,15,12,24,114,细颗粒物(PM2.5)
惠州市,河南岸金山湖子站,114.4183,23.0528,2024-12-30T1000,62,85,1.0,32,11,56,31,84,细颗粒物(PM2.5)
惠州市,下埔横江三路子站,114.4053,23.0822,2024-12-30T1000,58,86,0.8,30,11,64,48,79,细颗粒物(PM2.5)
惠州市,江北云山西路子站,114.4103,23.1142,2024-12-30T1000,57,81,0.8,38,12,59,42,78,细颗粒物(PM2.5)
惠州市,惠阳区承修路船湖子站,114.4645,22.7833,2024-12-30T1000,43,85,0.7,26,11,68,43,68,颗粒物(PM10)
惠州市,大亚湾管委会子站,114.5317,22.7422,2024-12-30T1000,46,81,0.6,41,12,68,36,66,颗粒物(PM10)
惠州市,惠阳秋长,114.4338,22.8134,2024-12-30T1000,49,88,0.8,36,13,65,51,69,颗粒物(PM10)
惠州市,大亚湾霞涌,114.6517,22.775,2024-12-30T1000,47,68,0.9,16,8,95,70,65,细颗粒物(PM2.5)
鸡西市,环保局,130.9762,45.3001,2024-12-30T1000,,,,,,,,,
鸡西市,第一中学,130.9429,45.3039,2024-12-30T1000,67,95,0.7,31,9,16,4,90,细颗粒物(PM2.5)
鸡西市,欧美日汽修厂,131.0207,45.3073,2024-12-30T1000,43,58,0.6,25,24,22,8,60,细颗粒物(PM2.5)
鸡西市,市政设施管理处,130.9967,45.3106,2024-12-30T1000,123,152,1.0,31,21,25,11,162,细颗粒物(PM2.5)
吉安市,红声器材厂,114.9754,27.0803,2024-12-30T1000,54,88,0.7,37,24,56,39,74,细颗粒物(PM2.5)
吉安市,市森林工业局,114.9658,27.0999,2024-12-30T1000,58,79,1.6,43,26,41,37,79,细颗粒物(PM2.5)
吉安市,市环境监测站,114.99,27.1312,2024-12-30T1000,66,102,0.7,51,26,29,20,89,细颗粒物(PM2.5)
吉安市,青原区法院,115.0093,27.0968,2024-12-30T1000,60,81,0.8,44,21,46,38,82,细颗粒物(PM2.5)
吉林市,哈达湾,126.54,43.8622,2024-12-30T1000,44,78,0.9,22,13,48,60,64,颗粒物(PM10)
吉林市,东局子,126.5844,43.8358,2024-12-30T1000,39,107,0.9,21,11,,60,,
吉林市,电力学院,126.5052,43.8245,2024-12-30T1000,39,95,0.9,21,13,47,56,73,颗粒物(PM10)
吉林市,江北,126.6133,43.8972,2024-12-30T1000,42,107,0.8,26,14,47,60,79,颗粒物(PM10)
吉林市,江南公园,126.555,43.8306,2024-12-30T1000,44,104,0.8,25,16,41,60,77,颗粒物(PM10)
吉林市,丰满,126.7061,43.7133,2024-12-30T1000,46,81,0.5,12,9,52,59,66,颗粒物(PM10)
吉林市,九站,126.4739,43.953,2024-12-30T1000,52,95,1.0,23,9,44,62,73,颗粒物(PM10)
济南市,科干所,116.9862,36.6114,2024-12-30T1000,71,127,1.4,77,21,23,70,95,细颗粒物(PM2.5)
济南市,农科所,116.9376,36.665,2024-12-30T1000,61,154,1.1,85,15,17,64,102,颗粒物(PM10)
济南市,开发区,117.1265,36.6734,2024-12-30T1000,76,134,1.0,86,11,18,69,102,细颗粒物(PM2.5)
济南市,省种子仓库,117.0624,36.6868,2024-12-30T1000,66,149,1.0,73,16,15,56,100,颗粒物(PM10)
济南市,机床二厂,116.9489,36.6447,2024-12-30T1000,76,183,1.6,88,31,16,66,117,颗粒物(PM10)
济南市,市监测站,117.0495,36.663,2024-12-30T1000,68,154,1.2,81,14,17,66,102,颗粒物(PM10)
济南市,长清党校,116.7675,36.5484,2024-12-30T1000,78,149,1.3,75,13,21,69,104,细颗粒物(PM2.5)
济南市,技术学院,117.6795,36.229,2024-12-30T1000,100,153,2.7,73,26,12,20,132,细颗粒物(PM2.5)
济南市,东山小学,117.532,36.6868,2024-12-30T1000,68,122,1.1,65,12,29,63,92,细颗粒物(PM2.5)
济南市,泰兴公司,117.7161,36.2049,2024-12-30T1000,107,195,2.1,72,24,14,9,140,细颗粒物(PM2.5)
济南市,莱芜战役纪念馆,117.6867,36.2171,2024-12-30T1000,129,237,2.6,90,23,14,16,170,细颗粒物(PM2.5)
济南市,济阳区政府,117.1673,36.9782,2024-12-30T1000,73,156,1.2,63,52,29,24,103,颗粒物(PM10)
济南市,锦屏中学,117.1171,36.63,2024-12-30T1000,63,107,0.9,67,9,28,77,85,细颗粒物(PM2.5)
济南市,济南四建,116.9814,36.6819,2024-12-30T1000,81,166,1.4,92,24,11,60,108,"颗粒物(PM10),细颗粒物(PM2.5)"
济宁市,火炬城,116.6251,35.4302,2024-12-30T1000,66,125,1.0,49,11,29,43,89,细颗粒物(PM2.5)
济宁市,电化厂,116.5491,35.4042,2024-12-30T1000,70,118,1.0,47,15,31,52,94,细颗粒物(PM2.5)
济宁市,北湖一中,116.5814,35.3707,2024-12-30T1000,66,100,0.8,50,9,31,52,89,细颗粒物(PM2.5)
济宁市,服务中心,116.8249,35.5593,2024-12-30T1000,67,116,1.5,70,17,19,40,90,细颗粒物(PM2.5)
济宁市,市第七中学,116.5907,35.4054,2024-12-30T1000,70,99,1.1,42,7,41,41,94,细颗粒物(PM2.5)
佳木斯市,佳纺,130.2751,46.8028,2024-12-30T1000,56,71,,,14,35,18,,
佳木斯市,发电厂,130.3995,46.8307,2024-12-30T1000,48,,1.2,10,7,42,26,67,细颗粒物(PM2.5)
佳木斯市,环保局,130.3258,46.7975,2024-12-30T1000,60,62,1.2,,12,28,11,,
佳木斯市,十一中,130.3648,46.8032,2024-12-30T1000,46,46,0.8,17,6,37,20,64,细颗粒物(PM2.5)
佳木斯市,四丰,130.3794,46.7588,2024-12-30T1000,56,74,0.9,29,1,21,14,77,细颗粒物(PM2.5)
嘉兴市,清河小学,120.7436,30.778,2024-12-30T1000,63,93,1.0,70,11,21,27,85,细颗粒物(PM2.5)
嘉兴市,嘉兴学院,120.726,30.7478,2024-12-30T1000,67,113,0.8,76,10,19,20,90,细颗粒物(PM2.5)
嘉兴市,南湖区残联,120.7846,30.7525,2024-12-30T1000,63,95,0.8,64,11,30,41,85,细颗粒物(PM2.5)
嘉兴市,秀洲住建,120.6916,30.7739,2024-12-30T1000,70,107,0.8,63,9,24,21,94,细颗粒物(PM2.5)
嘉峪关市,气象局,98.2908,39.7711,2024-12-30T1000,14,46,0.7,48,19,25,33,46,
嘉峪关市,酒钢宾馆,98.2672,39.7978,2024-12-30T1000,17,44,0.4,44,20,22,38,44,
嘉峪关市,雄关区,98.2643,39.7724,2024-12-30T1000,21,42,0.4,45,8,28,29,42,
江门市,北街,113.1064,22.6058,2024-12-30T1000,113,168,1.2,126,9,,23,148,细颗粒物(PM2.5)
江门市,西区,113.0731,22.5835,2024-12-30T1000,92,198,1.3,110,17,27,8,124,颗粒物(PM10)
江门市,圭峰西,113.0219,22.5311,2024-12-30T1000,96,142,1.0,91,8,53,57,127,细颗粒物(PM2.5)
江门市,东湖,113.0828,22.5947,2024-12-30T1000,89,155,1.0,103,13,,12,118,细颗粒物(PM2.5)
江门市,江海富民,113.1075,22.5647,2024-12-30T1000,101,182,1.4,,16,31,35,133,细颗粒物(PM2.5)
江门市,新会银湖,113.05,22.4667,2024-12-30T1000,119,156,1.4,112,10,25,8,156,细颗粒物(PM2.5)
焦作市,市环保局,113.227,35.2125,2024-12-30T1000,37,107,0.9,19,10,58,61,79,颗粒物(PM10)
焦作市,影视城,113.1992,35.2590,2024-12-30T1000,30,75,0.9,22,15,59,73,63,颗粒物(PM10)
焦作市,太极体育中心,113.2725,35.2067,2024-12-30T1000,29,102,1.0,22,14,59,57,76,颗粒物(PM10)
焦作市,马村街道办,113.3137,35.2641,2024-12-30T1000,37,108,0.8,18,10,60,67,79,颗粒物(PM10)
焦作市,焦作技师学院,113.2465,35.2373,2024-12-30T1000,44,115,1.1,30,12,53,58,83,颗粒物(PM10)
焦作市,中站许衡医院,113.1656,35.2539,2024-12-30T1000,44,94,1.0,32,14,42,67,72,颗粒物(PM10)
焦作市,原李万街道办,113.2449,35.1803,2024-12-30T1000,44,92,0.9,16,12,59,60,71,颗粒物(PM10)
揭阳市,新兴,116.3701,23.5345,2024-12-30T1000,64,111,1.0,39,14,57,36,87,细颗粒物(PM2.5)
揭阳市,西马,116.3264,23.5443,2024-12-30T1000,60,105,0.9,39,19,57,35,82,细颗粒物(PM2.5)
揭阳市,东兴,116.3611,23.5626,2024-12-30T1000,59,125,0.8,29,20,67,24,88,颗粒物(PM10)
揭阳市,渔湖,116.4151,23.5294,2024-12-30T1000,66,114,1.0,37,13,66,32,89,细颗粒物(PM2.5)
揭阳市,曲溪,116.403,23.5699,2024-12-30T1000,60,104,1.0,47,9,64,32,82,细颗粒物(PM2.5)
金昌市,天庆家园,102.1692,38.5167,2024-12-30T1000,75,116,1.0,38,119,43,32,100,细颗粒物(PM2.5)
金昌市,市委党校,102.1864,38.5253,2024-12-30T1000,58,108,1.7,57,72,54,48,79,"颗粒物(PM10),细颗粒物(PM2.5)"
金昌市,金川区人防中心,102.1647,38.5371,2024-12-30T1000,50,98,1.3,24,93,55,47,74,颗粒物(PM10)
金华市,十五中,119.647,29.077,2024-12-30T1000,61,96,1.0,67,6,23,15,83,细颗粒物(PM2.5)
金华市,监测站,119.686,29.1029,2024-12-30T1000,72,120,1.0,66,6,15,4,97,细颗粒物(PM2.5)
金华市,气象局,119.656,29.1131,2024-12-30T1000,74,128,0.9,69,7,12,2,99,细颗粒物(PM2.5)
锦州市,南山,121.1115,41.0879,2024-12-30T1000,145,,2.6,54,20,24,16,193,细颗粒物(PM2.5)
锦州市,开发区,121.0533,40.8434,2024-12-30T1000,103,196,1.9,75,86,20,9,135,细颗粒物(PM2.5)
锦州市,百股街道,121.1836,41.1119,2024-12-30T1000,122,125,2.9,,,22,16,160,细颗粒物(PM2.5)
锦州市,天安街道,121.1178,41.1222,2024-12-30T1000,110,125,1.9,48,29,20,12,144,细颗粒物(PM2.5)
锦州市,北湖公园,121.1303,41.1386,2024-12-30T1000,78,129,2.2,62,20,14,8,104,细颗粒物(PM2.5)
晋城市,自来水公司,112.85,35.5051,2024-12-30T1000,41,80,1.3,33,12,47,62,65,颗粒物(PM10)
晋城市,白云商贸,112.8318,35.4936,2024-12-30T1000,19,100,0.8,23,10,61,62,75,颗粒物(PM10)
晋城市,市环保局,112.8508,35.4887,2024-12-30T1000,31,107,1.0,26,10,57,62,79,颗粒物(PM10)
晋城市,技术学院,112.8676,35.4897,2024-12-30T1000,36,91,1.5,42,14,38,62,71,颗粒物(PM10)
晋城市,白马寺,112.8453,35.546,2024-12-30T1000,32,75,0.9,15,15,52,54,63,颗粒物(PM10)
晋城市,泽州一中,112.8271,35.4828,2024-12-30T1000,29,87,0.7,19,10,65,66,69,颗粒物(PM10)
晋中市,锦纶小区,112.7532,37.6945,2024-12-30T1000,53,163,1.1,46,29,29,24,107,颗粒物(PM10)
晋中市,南都小区,112.7249,37.7067,2024-12-30T1000,50,152,1.1,45,26,34,26,101,颗粒物(PM10)
晋中市,榆次区政府,112.6991,37.6982,2024-12-30T1000,46,171,1.4,53,25,18,21,111,颗粒物(PM10)
晋中市,榆次三中,112.7195,37.6828,2024-12-30T1000,61,168,1.5,47,35,26,15,109,颗粒物(PM10)
荆门市,竹园小学,112.2014,31.0481,2024-12-30T1000,112,151,1.1,74,13,16,70,147,细颗粒物(PM2.5)
荆门市,掇刀,112.1969,30.9891,2024-12-30T1000,94,154,0.6,48,10,52,63,124,细颗粒物(PM2.5)
荆门市,石化一小,112.2213,31.0386,2024-12-30T1000,109,158,1.0,51,10,42,74,143,细颗粒物(PM2.5)
荆门市,西山林语,112.1849,31.0362,2024-12-30T1000,103,135,0.6,58,10,25,74,135,细颗粒物(PM2.5)
荆门市,龙泉中学南校,112.1632,31.0138,2024-12-30T1000,96,138,0.8,48,11,34,64,127,细颗粒物(PM2.5)
荆州市,市图书馆,112.2494,30.3197,2024-12-30T1000,133,162,1.2,73,10,13,38,176,细颗粒物(PM2.5)
荆州市,市委党校,112.2008,30.3544,2024-12-30T1000,120,167,1.1,63,11,26,24,158,细颗粒物(PM2.5)
荆州市,管委会,112.2747,30.3122,2024-12-30T1000,132,165,1.6,80,8,7,39,175,细颗粒物(PM2.5)
荆州市,学苑路,112.1655,30.3364,2024-12-30T1000,143,155,1.2,72,12,24,46,190,细颗粒物(PM2.5)
景德镇市,王港中学,117.3102,29.3867,2024-12-30T1000,,,,,,,,,
景德镇市,老干部活动中心,117.2117,29.2933,2024-12-30T1000,30,58,0.5,34,6,25,18,54,颗粒物(PM10)
景德镇市,兽医站,117.1894,29.2789,2024-12-30T1000,22,55,0.1,19,3,30,26,53,颗粒物(PM10)
景德镇市,台达陶瓷,117.1547,29.2617,2024-12-30T1000,27,42,0.3,22,5,44,27,42,
景德镇市,陶研所,117.2461,29.2956,2024-12-30T1000,35,69,0.6,38,3,10,10,60,颗粒物(PM10)
九江市,十里,115.9872,29.6815,2024-12-30T1000,55,86,1.0,62,12,24,29,75,细颗粒物(PM2.5)
九江市,茅山头,115.9584,29.7046,2024-12-30T1000,58,86,1.2,77,6,18,31,79,细颗粒物(PM2.5)
九江市,西园,115.9877,29.7295,2024-12-30T1000,,,0.5,,10,,36,,
九江市,五七二七厂,116.0172,29.6547,2024-12-30T1000,46,80,0.9,33,9,49,60,65,颗粒物(PM10)
九江市,综合工业园,115.9114,29.6038,2024-12-30T1000,74,105,1.0,77,11,28,72,99,细颗粒物(PM2.5)
九江市,石化总厂,116.0721,29.7535,2024-12-30T1000,73,101,0.9,60,15,24,48,98,细颗粒物(PM2.5)
九江市,庐山气象台,115.9773,29.5698,2024-12-30T1000,46,50,1.4,13,6,108,97,64,细颗粒物(PM2.5)
九江市,外国语学校,116.0254,29.6994,2024-12-30T1000,56,98,1.0,55,15,17,45,77,细颗粒物(PM2.5)
酒泉市,仓门街子站,98.5061,39.7443,2024-12-30T1000,23,70,0.8,41,12,20,39,60,颗粒物(PM10)
酒泉市,油田生活基地,98.4989,39.7256,2024-12-30T1000,35,122,0.9,43,11,12,30,86,颗粒物(PM10)
喀什地区,巡警大队,76.0072,39.4467,2024-12-30T1000,106,182,4.9,63,6,8,9,139,细颗粒物(PM2.5)
喀什地区,吾办,75.9755,39.4694,2024-12-30T1000,126,167,4.9,74,2,10,9,166,细颗粒物(PM2.5)
喀什地区,老干局,75.9483,39.4689,2024-12-30T1000,113,168,4.6,53,2,9,10,148,细颗粒物(PM2.5)
开封市,肿瘤医院,114.3389,34.7781,2024-12-30T1000,36,84,0.7,30,3,41,36,67,颗粒物(PM10)
开封市,世纪星幼儿园,114.2885,34.7965,2024-12-30T1000,46,85,0.5,30,6,42,42,68,颗粒物(PM10)
开封市,龙亭公园,114.3438,34.8106,2024-12-30T1000,36,90,0.7,34,6,43,44,70,颗粒物(PM10)
开封市,汴京公园,114.3644,34.7964,2024-12-30T1000,44,102,0.6,35,7,42,40,76,颗粒物(PM10)
开封市,技师学院,114.2485,34.8306,2024-12-30T1000,37,85,0.8,44,8,31,37,68,颗粒物(PM10)
开封市,祥符区生态环境局,114.4644,34.7556,2024-12-30T1000,41,86,0.7,29,6,42,26,68,颗粒物(PM10)
克拉玛依市,长征新村,84.895,45.6094,2024-12-30T1000,83,118,1.1,55,7,11,20,110,细颗粒物(PM2.5)
克拉玛依市,南林小区,84.8988,45.5893,2024-12-30T1000,86,112,1.4,54,4,10,19,114,细颗粒物(PM2.5)
克拉玛依市,独山子区,84.905,44.3396,2024-12-30T1000,41,108,1.2,52,4,33,45,79,颗粒物(PM10)
克拉玛依市,乌尔禾区商贸楼,85.6979,46.098,2024-12-30T1000,87,116,1.6,66,5,11,16,115,细颗粒物(PM2.5)
克拉玛依市,白碱滩区新站,85.1045,45.6899,2024-12-30T1000,75,116,1.9,52,8,5,14,100,细颗粒物(PM2.5)
克孜勒苏柯尔克孜自治州,市人民政府,76.1454,39.7142,2024-12-30T1000,68,82,1.4,21,4,39,42,92,细颗粒物(PM2.5)
克孜勒苏柯尔克孜自治州,克州文化中心,76.1658,39.7157,2024-12-30T1000,70,76,1.4,24,8,44,45,94,细颗粒物(PM2.5)
昆明市,呈贡新区,102.8204,24.8886,2024-12-30T1000,21,32,0.6,22,6,41,46,32,
昆明市,西山森林公园,102.6251,24.9608,2024-12-30T1000,,,,,,,,,
昆明市,龙泉镇,102.7252,25.0902,2024-12-30T1000,20,56,1.0,41,12,17,5,53,颗粒物(PM10)
昆明市,东风东路,102.7266,25.0375,2024-12-30T1000,22,32,0.8,23,16,34,32,32,
昆明市,金鼎山,102.6742,25.0669,2024-12-30T1000,16,52,0.9,31,29,31,18,51,颗粒物(PM10)
昆明市,碧鸡广场,102.6644,25.0401,2024-12-30T1000,22,36,0.6,25,22,36,18,36,
昆明市,官渡区博物馆,102.7494,25.0119,2024-12-30T1000,21,45,0.7,27,8,33,32,45,
昆明市,青年创业园,102.8017,24.8336,2024-12-30T1000,16,26,0.6,14,7,46,39,26,
昆明市,昆明学院,102.7997,24.9786,2024-12-30T1000,20,31,0.7,17,9,40,33,31,
昆明市,晋宁区生态环境分局,102.5967,24.6736,2024-12-30T1000,24,24,0.8,16,4,41,44,35,
昆明市,云天化总部,102.6678,24.9856,2024-12-30T1000,17,27,0.5,27,8,36,42,27,
拉萨市,八廓街,91.1319,29.6514,2024-12-30T1000,23,25,0.4,16,6,82,67,33,
拉萨市,市环保局,91.1221,29.6747,2024-12-30T1000,16,31,0.4,17,4,86,61,31,
拉萨市,区监测站,91.0874,29.6475,2024-12-30T1000,9,20,0.2,15,6,86,73,27,
拉萨市,西藏大学,91.1774,29.6541,2024-12-30T1000,7,21,0.4,8,5,90,75,29,
拉萨市,区辐射站,90.9798,29.6588,2024-12-30T1000,13,21,0.7,28,8,69,71,22,
拉萨市,拉萨火车站,91.0834,29.6292,2024-12-30T1000,7,12,0.3,4,4,98,80,31,
来宾市,来宾技工学校,109.2203,23.7256,2024-12-30T1000,176,225,1.4,64,106,36,24,226,细颗粒物(PM2.5)
来宾市,兴宾区政府,109.1781,23.7297,2024-12-30T1000,148,185,1.4,37,10,46,50,198,细颗粒物(PM2.5)
来宾市,中南小学,109.2416,23.7461,2024-12-30T1000,193,271,1.8,60,18,30,29,243,细颗粒物(PM2.5)
兰州市,兰炼宾馆,103.631,36.1031,2024-12-30T1000,55,99,1.2,54,34,16,10,75,"颗粒物(PM10),细颗粒物(PM2.5)"
兰州市,榆中兰大校区,104.1373,35.9454,2024-12-30T1000,,,,,,,,,
兰州市,生物制品所,103.8412,36.0726,2024-12-30T1000,47,86,1.4,59,18,7,4,68,颗粒物(PM10)
兰州市,铁路设计院,103.831,36.0464,2024-12-30T1000,52,123,2.0,67,27,6,4,87,颗粒物(PM10)
兰州市,教育港,103.7158,36.1058,2024-12-30T1000,51,113,1.4,64,25,6,2,82,颗粒物(PM10)
兰州市,百合公园,103.7439,36.0842,2024-12-30T1000,49,89,1.6,60,23,10,7,70,颗粒物(PM10)
兰州市,和平,103.9611,35.998,2024-12-30T1000,81,138,3.1,69,65,15,15,108,细颗粒物(PM2.5)
兰州新区,新区管委会,103.6633,36.533,2024-12-30T1000,42,69,0.8,31,19,20,20,60,颗粒物(PM10)
兰州新区,舟曲中学,103.6975,36.4789,2024-12-30T1000,34,61,0.9,42,20,20,11,56,颗粒物(PM10)
廊坊市,药材公司,116.6708,39.5111,2024-12-30T1000,56,155,0.8,64,6,21,9,103,颗粒物(PM10)
廊坊市,开发区,116.7214,39.5589,2024-12-30T1000,43,163,0.6,46,7,38,14,107,颗粒物(PM10)
廊坊市,北华航天学院,116.7244,39.5269,2024-12-30T1000,52,132,0.8,58,10,29,19,91,颗粒物(PM10)
廊坊市,河北工业大学,116.7022,39.5453,2024-12-30T1000,50,148,0.7,60,8,36,20,99,颗粒物(PM10)
乐山市,花湖湾,103.7723,29.5462,2024-12-30T1000,58,,0.6,13,4,10,17,79,细颗粒物(PM2.5)
乐山市,牛耳桥,103.7627,29.5844,2024-12-30T1000,57,71,0.7,22,4,11,20,78,细颗粒物(PM2.5)
乐山市,市第三水厂,103.7508,29.6006,2024-12-30T1000,58,66,1.1,23,,,24,,
乐山市,市监测站,103.7571,29.5664,2024-12-30T1000,50,62,0.9,18,4,14,21,69,细颗粒物(PM2.5)
乐山市,理工大学,103.7311,29.5628,2024-12-30T1000,58,65,0.8,21,6,15,18,79,细颗粒物(PM2.5)
丽江市,西南郊,100.2143,26.8576,2024-12-30T1000,15,63,1.4,36,5,41,75,57,颗粒物(PM10)
丽江市,丽江古城,100.2497,26.8802,2024-12-30T1000,43,84,0.7,33,10,44,64,67,颗粒物(PM10)
丽江市,市中心,100.2203,26.8906,2024-12-30T1000,13,18,0.7,28,11,51,66,19,
丽水市,监测站大楼,119.914,28.4514,2024-12-30T1000,44,55,0.5,32,6,34,19,62,细颗粒物(PM2.5)
丽水市,莲都小学,119.93,28.4586,2024-12-30T1000,37,66,0.7,40,7,35,19,58,颗粒物(PM10)
丽水市,余庄前,119.879,28.4231,2024-12-30T1000,51,63,0.6,48,5,28,12,70,细颗粒物(PM2.5)
连云港市,市环境监测站,119.176,34.5885,2024-12-30T1000,68,114,1.1,56,14,31,18,92,细颗粒物(PM2.5)
连云港市,德源药业,119.3581,34.6972,2024-12-30T1000,63,97,0.6,50,10,,24,,
连云港市,新城一中,119.178,34.844,2024-12-30T1000,97,119,1.0,61,16,31,19,128,细颗粒物(PM2.5)
连云港市,胡沟管理处,119.3608,34.7519,2024-12-30T1000,56,90,0.9,39,9,45,51,77,细颗粒物(PM2.5)
连云港市,矿山设计院,119.1478,34.5911,2024-12-30T1000,75,114,0.9,52,12,32,26,100,细颗粒物(PM2.5)
连云港市,工贸学校,119.2413,34.6539,2024-12-30T1000,79,115,0.7,41,16,51,43,105,细颗粒物(PM2.5)
连云港市,连云街道,119.4172,34.7341,2024-12-30T1000,55,85,0.8,62,21,33,73,75,细颗粒物(PM2.5)
凉山彝族自治州,青龙寺,102.3431,27.8099,2024-12-30T1000,11,38,1.0,14,7,40,39,38,
凉山彝族自治州,邛海宾馆,102.2721,27.8415,2024-12-30T1000,11,19,0.8,14,11,,42,,
凉山彝族自治州,西昌市政府,102.2625,27.898,2024-12-30T1000,24,43,1.0,23,11,38,51,43,
凉山彝族自治州,凉山州政府,102.2685,27.8851,2024-12-30T1000,32,58,1.0,32,12,30,49,54,颗粒物(PM10)
凉山彝族自治州,长安,102.237,27.8914,2024-12-30T1000,50,,0.9,22,13,41,57,,
辽阳市,宏伟区,123.2,41.1953,2024-12-30T1000,138,,2.9,48,37,,28,183,细颗粒物(PM2.5)
辽阳市,新华园,123.1683,41.2495,2024-12-30T1000,105,162,4.1,75,46,10,25,138,细颗粒物(PM2.5)
辽阳市,滨河路,123.2354,41.2639,2024-12-30T1000,94,,2.9,63,36,18,41,124,细颗粒物(PM2.5)
辽阳市,铁西工业园,123.149,41.2991,2024-12-30T1000,150,208,2.9,61,45,14,24,200,细颗粒物(PM2.5)
辽源市,环保局,125.1358,42.8845,2024-12-30T1000,35,60,1.1,29,15,34,44,55,颗粒物(PM10)
辽源市,银鹰制药,125.0764,42.9078,2024-12-30T1000,44,75,1.0,29,15,37,40,63,颗粒物(PM10)
聊城市,区政府,115.9848,36.4372,2024-12-30T1000,85,151,1.3,55,17,,36,113,细颗粒物(PM2.5)
聊城市,聊大东校,116.0072,36.4343,2024-12-30T1000,84,158,1.0,49,11,32,38,112,细颗粒物(PM2.5)
聊城市,监控中心,115.9819,36.4978,2024-12-30T1000,97,179,1.2,64,17,26,34,128,细颗粒物(PM2.5)
聊城市,九州社区,116.0445,36.4361,2024-12-30T1000,74,136,1.0,43,14,35,40,99,细颗粒物(PM2.5)
聊城市,星美广场,116.0567,36.4608,2024-12-30T1000,79,157,1.1,40,16,35,47,105,细颗粒物(PM2.5)
林芝市,林芝监测站,94.3681,29.6376,2024-12-30T1000,10,,0.4,14,7,72,95,23,
林芝市,林芝人民医院,94.3616,29.6616,2024-12-30T1000,16,29,0.5,13,6,64,88,29,
临沧市,市环保局,100.0781,23.8982,2024-12-30T1000,7,26,0.6,18,,,17,,
临沧市,市气象局,100.0894,23.8822,2024-12-30T1000,29,51,0.7,29,8,7,18,51,颗粒物(PM10)
临汾市,临钢医院,111.5531,36.0783,2024-12-30T1000,100,167,2.5,57,22,10,3,132,细颗粒物(PM2.5)
临汾市,技工学校,111.5028,36.0714,2024-12-30T1000,108,168,2.3,51,20,10,3,142,细颗粒物(PM2.5)
临汾市,市委,111.5018,36.0855,2024-12-30T1000,100,175,2.1,55,17,13,6,132,细颗粒物(PM2.5)
临汾市,唐尧大酒店,111.505,36.1014,2024-12-30T1000,101,151,2.0,50,19,13,6,133,细颗粒物(PM2.5)
临汾市,城南,111.5036,36.0414,2024-12-30T1000,106,176,2.1,58,16,5,2,139,细颗粒物(PM2.5)
临夏回族自治州,环保局,103.2069,35.5993,2024-12-30T1000,78,128,2.3,38,12,9,6,104,细颗粒物(PM2.5)
临夏回族自治州,建设大厦,103.2417,35.6057,2024-12-30T1000,64,116,1.5,33,12,22,20,87,细颗粒物(PM2.5)
临沂市,沂河小区,118.3429,35.0532,2024-12-30T1000,106,139,0.9,,30,,13,139,细颗粒物(PM2.5)
临沂市,鲁南制药厂,118.295,35.0583,2024-12-30T1000,102,153,1.2,71,32,22,13,134,细颗粒物(PM2.5)
临沂市,新光毛纺厂,118.2794,34.9976,2024-12-30T1000,108,146,1.0,66,28,24,11,142,细颗粒物(PM2.5)
临沂市,河东保险公司,118.3956,35.0888,2024-12-30T1000,154,219,1.7,125,19,26,8,204,细颗粒物(PM2.5)
临沂市,十里堡居委,118.3564,35.0215,2024-12-30T1000,102,141,1.1,54,29,25,10,134,细颗粒物(PM2.5)
临沂市,南坊新区,118.3604,35.1084,2024-12-30T1000,110,158,1.7,97,16,15,15,144,细颗粒物(PM2.5)
临沂市,皇山花园小区,118.3920,35.0300,2024-12-30T1000,82,132,1.0,63,19,27,9,109,细颗粒物(PM2.5)
柳州市,柳东小学,109.4856,24.3895,2024-12-30T1000,78,121,0.8,35,24,64,79,104,细颗粒物(PM2.5)
柳州市,环保监测站,109.4157,24.3277,2024-12-30T1000,95,162,1.3,47,24,56,70,125,细颗粒物(PM2.5)
柳州市,河西水厂,109.389,24.341,2024-12-30T1000,132,204,1.4,58,63,31,45,175,细颗粒物(PM2.5)
柳州市,市四中,109.4311,24.2921,2024-12-30T1000,78,94,1.2,36,21,75,81,104,细颗粒物(PM2.5)
柳州市,市九中,109.4006,24.3631,2024-12-30T1000,114,153,1.2,48,22,51,64,149,细颗粒物(PM2.5)
柳州市,古亭山,109.4958,24.3134,2024-12-30T1000,66,92,1.1,32,19,77,60,89,细颗粒物(PM2.5)
柳州市,市二中,109.5422,24.3996,2024-12-30T1000,84,95,1.0,45,14,45,22,112,细颗粒物(PM2.5)
六安市,监测大楼,116.5079,31.737,2024-12-30T1000,36,38,0.6,36,8,55,45,52,细颗粒物(PM2.5)
六安市,皖西学院,116.4738,31.7643,2024-12-30T1000,42,73,0.9,53,6,28,31,62,颗粒物(PM10)
六安市,朝阳厂,116.4996,31.7905,2024-12-30T1000,36,52,0.9,39,4,45,52,52,细颗粒物(PM2.5)
六安市,开发区,116.5567,31.7886,2024-12-30T1000,52,102,0.7,57,4,32,36,76,颗粒物(PM10)
六盘水市,窑上,104.8,26.5892,2024-12-30T1000,16,20,0.8,11,6,53,,23,
六盘水市,黄土坡,104.83,26.5917,2024-12-30T1000,12,15,1.0,18,9,46,34,18,
六盘水市,水钢,104.89,26.5939,2024-12-30T1000,13,20,1.1,20,12,44,35,20,
六盘水市,民中,104.8475,26.5894,2024-12-30T1000,9,11,0.8,17,9,50,38,16,
六盘水市,双水,104.9544,26.5506,2024-12-30T1000,15,,0.8,12,8,58,45,22,
龙岩市,龙岩师专,117.0189,25.1181,2024-12-30T1000,,,,,,,,,
龙岩市,龙岩市监测站,117.0217,25.1033,2024-12-30T1000,58,88,1.0,30,12,44,23,79,细颗粒物(PM2.5)
龙岩市,闽西职业技术学院,117.0258,25.0661,2024-12-30T1000,50,89,1.1,28,11,39,9,70,颗粒物(PM10)
龙岩市,龙岩学院,117.0196,25.0306,2024-12-30T1000,47,66,0.7,34,9,26,36,65,细颗粒物(PM2.5)
陇南市,汉王镇固水子,105.0822,33.3261,2024-12-30T1000,,,,,,,,,
陇南市,滨江中学,104.9339,33.3826,2024-12-30T1000,42,89,1.2,47,83,18,22,70,颗粒物(PM10)
陇南市,市总工会,104.955,33.371,2024-12-30T1000,45,85,0.8,46,29,20,44,68,颗粒物(PM10)
娄底市,电视发射台,111.9589,27.8901,2024-12-30T1000,76,,0.8,22,12,77,75,102,细颗粒物(PM2.5)
娄底市,市监测站,111.9975,27.725,2024-12-30T1000,125,176,1.6,59,20,25,36,165,细颗粒物(PM2.5)
娄底市,市委党校,112.0194,27.7314,2024-12-30T1000,113,159,1.9,64,11,12,32,148,细颗粒物(PM2.5)
娄底市,涟钢,111.9561,27.7569,2024-12-30T1000,120,159,1.1,30,15,41,38,158,细颗粒物(PM2.5)
娄底市,市政府,111.9892,27.7044,2024-12-30T1000,107,145,1.0,45,8,26,34,140,细颗粒物(PM2.5)
泸州市,九狮山,105.4324,28.9634,2024-12-30T1000,,,,,,,,,
泸州市,小市上码头,105.4427,28.9063,2024-12-30T1000,65,80,0.7,32,3,33,40,88,细颗粒物(PM2.5)
泸州市,兰田宪桥,105.4241,28.8573,2024-12-30T1000,67,83,0.8,26,2,30,37,90,细颗粒物(PM2.5)
泸州市,市环监站,105.4379,28.8833,2024-12-30T1000,59,78,0.6,28,5,34,38,80,细颗粒物(PM2.5)
泸州市,纳溪区环保局,105.3617,28.7703,2024-12-30T1000,80,103,0.6,,5,27,36,107,细颗粒物(PM2.5)
吕梁市,环保局,111.1406,37.5211,2024-12-30T1000,31,120,0.8,36,3,7,3,85,颗粒物(PM10)
吕梁市,自来水公司,111.1297,37.5136,2024-12-30T1000,59,194,1.1,,9,8,5,122,颗粒物(PM10)
吕梁市,马茂庄小学,111.1283,37.51,2024-12-30T1000,36,139,1.0,41,4,6,3,95,颗粒物(PM10)
洛阳市,市委党校,112.3931,34.6516,2024-12-30T1000,33,81,0.5,33,6,42,46,66,颗粒物(PM10)
洛阳市,豫西宾馆,112.4657,34.6871,2024-12-30T1000,42,100,0.8,29,8,44,41,75,颗粒物(PM10)
洛阳市,河南林校,112.494,34.6886,2024-12-30T1000,53,90,0.5,27,3,40,38,73,细颗粒物(PM2.5)
洛阳市,开发区管委会,112.3844,34.623,2024-12-30T1000,40,75,0.5,20,7,49,49,63,颗粒物(PM10)
洛阳市,市委新办公区,112.4267,34.6258,2024-12-30T1000,42,78,0.5,22,6,52,53,64,颗粒物(PM10)
洛阳市,伊滨,112.6005,34.6326,2024-12-30T1000,38,87,0.4,31,5,36,45,69,颗粒物(PM10)
洛阳市,中移产业园,112.4951,34.6332,2024-12-30T1000,33,71,0.5,26,6,50,55,61,颗粒物(PM10)
洛阳市,吉利监测站,112.5736,34.8993,2024-12-30T1000,73,94,0.8,45,11,20,17,98,细颗粒物(PM2.5)
洛阳市,河科大西苑校区,112.3677,34.662,2024-12-30T1000,41,92,0.6,25,8,48,50,71,颗粒物(PM10)
洛阳市,英才小学,112.4388,34.6781,2024-12-30T1000,42,86,0.4,33,7,35,38,68,颗粒物(PM10)
漯河市,三五一五工厂,114.051,33.5699,2024-12-30T1000,55,115,0.6,27,12,51,61,83,颗粒物(PM10)
漯河市,漯河大学,114.0055,33.5698,2024-12-30T1000,70,119,0.6,30,10,52,50,94,细颗粒物(PM2.5)
漯河市,市水利局,114.0138,33.5828,2024-12-30T1000,80,117,0.9,30,11,47,60,107,细颗粒物(PM2.5)
漯河市,市广电局,114.0261,33.5698,2024-12-30T1000,70,110,0.5,26,11,52,61,94,细颗粒物(PM2.5)
漯河市,市图书馆,113.9749,33.5664,2024-12-30T1000,102,127,0.7,30,9,52,55,134,细颗粒物(PM2.5)
漯河市,召陵区卫健委,114.0967,33.5906,2024-12-30T1000,74,103,0.6,34,11,50,69,99,细颗粒物(PM2.5)
马鞍山市,湖东路四小,118.5092,31.6837,2024-12-30T1000,58,115,1.0,68,9,18,14,83,颗粒物(PM10)
马鞍山市,开发区,118.5024,31.6449,2024-12-30T1000,92,144,1.1,59,10,15,10,122,细颗粒物(PM2.5)
马鞍山市,慈湖,118.5228,31.7231,2024-12-30T1000,78,110,1.4,73,13,13,15,104,细颗粒物(PM2.5)
马鞍山市,濮塘,118.6245,31.7241,2024-12-30T1000,,,,,,,27,,
马鞍山市,雨山,118.4918,31.6809,2024-12-30T1000,77,103,1.4,61,11,,9,103,细颗粒物(PM2.5)
茂名市,电白南海,111.0286,21.4688,2024-12-30T1000,73,102,1.3,26,12,90,93,98,细颗粒物(PM2.5)
茂名市,茂石化七小,110.9294,21.6533,2024-12-30T1000,73,124,1.1,32,13,,109,,
茂名市,健康路,110.9107,21.6687,2024-12-30T1000,80,132,1.2,37,74,103,119,107,细颗粒物(PM2.5)
茂名市,高岭,110.8592,21.6828,2024-12-30T1000,61,97,1.1,34,28,87,80,83,细颗粒物(PM2.5)
茂名市,电白水东,111.01,21.5165,2024-12-30T1000,63,97,0.9,23,13,95,97,85,细颗粒物(PM2.5)
眉山市,黑龙滩水库,104.0308,30.0478,2024-12-30T1000,58,79,0.8,13,2,34,30,79,细颗粒物(PM2.5)
眉山市,气象局,103.8416,30.0874,2024-12-30T1000,,,1.1,40,5,16,29,,
眉山市,市委党校,103.8578,30.0744,2024-12-30T1000,61,92,0.8,38,6,16,23,83,细颗粒物(PM2.5)
眉山市,区人社局,103.8291,30.0564,2024-12-30T1000,68,,0.9,41,10,19,26,92,细颗粒物(PM2.5)
梅州市,梅江月梅,116.1231,24.3284,2024-12-30T1000,53,72,0.8,34,10,29,12,73,细颗粒物(PM2.5)
梅州市,梅县新城,116.0797,24.2719,2024-12-30T1000,49,87,1.0,42,7,26,30,69,颗粒物(PM10)
梅州市,环境监控中心,116.1248,24.2654,2024-12-30T1000,40,54,0.8,20,6,57,24,57,细颗粒物(PM2.5)
梅州市,梅龙,116.1233,24.2991,2024-12-30T1000,39,53,0.8,20,6,35,21,55,细颗粒物(PM2.5)
绵阳市,富乐山,104.7778,31.4741,2024-12-30T1000,57,82,0.9,41,3,11,6,78,细颗粒物(PM2.5)
绵阳市,市人大,104.7563,31.4535,2024-12-30T1000,67,105,1.3,41,3,4,2,90,细颗粒物(PM2.5)
绵阳市,高新区自来水公司,104.6697,31.4668,2024-12-30T1000,,,,,6,4,2,,
绵阳市,三水厂,104.7287,31.5075,2024-12-30T1000,72,115,1.5,32,9,4,3,97,细颗粒物(PM2.5)
绵阳市,西科大附属小学,104.69,31.5322,2024-12-30T1000,70,103,1.3,16,7,8,9,94,细颗粒物(PM2.5)
绵阳市,安州区旅游局,104.5648,31.5343,2024-12-30T1000,75,111,1.3,26,6,8,5,100,细颗粒物(PM2.5)
牡丹江市,环保大楼,129.61,44.561,2024-12-30T1000,46,82,1.2,,19,,12,,
牡丹江市,文化广场,129.6115,44.5782,2024-12-30T1000,61,140,1.7,48,24,14,14,95,颗粒物(PM10)
牡丹江市,第一医院,129.5904,44.5963,2024-12-30T1000,85,107,,43,26,,14,113,细颗粒物(PM2.5)
牡丹江市,机车工厂,129.6364,44.6075,2024-12-30T1000,55,78,0.9,35,27,21,16,75,细颗粒物(PM2.5)
牡丹江市,第一中学,129.6386,44.5462,2024-12-30T1000,50,65,0.9,32,16,18,11,69,细颗粒物(PM2.5)
内江市,市监测站,105.0703,29.61,2024-12-30T1000,76,82,0.9,31,4,23,32,102,细颗粒物(PM2.5)
内江市,东兴区政府,105.0717,29.5947,2024-12-30T1000,73,94,0.8,29,3,23,33,98,细颗粒物(PM2.5)
内江市,内江二中,105.0653,29.5817,2024-12-30T1000,76,91,0.8,27,8,21,29,102,细颗粒物(PM2.5)
内江市,内江日报社,105.0406,29.5822,2024-12-30T1000,71,71,0.8,32,8,14,26,95,细颗粒物(PM2.5)
那曲市,那曲监测站,92.0657,31.4846,2024-12-30T1000,40,56,1.1,35,16,32,50,57,细颗粒物(PM2.5)
那曲市,那曲会议中心,92.0506,31.4797,2024-12-30T1000,27,38,0.8,21,5,48,54,39,
南昌市,省外办,115.8931,28.6843,2024-12-30T1000,102,148,1.2,103,10,12,8,134,细颗粒物(PM2.5)
南昌市,省林业公司,115.8886,28.7003,2024-12-30T1000,83,149,1.2,90,11,6,2,110,细颗粒物(PM2.5)
南昌市,林科所,115.8126,28.7442,2024-12-30T1000,102,141,,90,8,12,5,134,细颗粒物(PM2.5)
南昌市,建工学校,115.8518,28.687,2024-12-30T1000,79,136,1.1,91,11,14,5,105,细颗粒物(PM2.5)
南昌市,象湖,115.8921,28.6424,2024-12-30T1000,93,133,0.8,69,12,29,7,123,细颗粒物(PM2.5)
南昌市,武术学校,115.7423,28.7996,2024-12-30T1000,17,24,0.8,23,2,22,15,25,
南昌市,省站,115.9314,28.6842,2024-12-30T1000,99,183,1.1,76,14,11,6,130,细颗粒物(PM2.5)
南昌市,机电学校,115.9084,28.6062,2024-12-30T1000,92,186,0.8,88,14,14,7,122,细颗粒物(PM2.5)
南昌市,外国语学校,115.9721,28.7031,2024-12-30T1000,87,136,0.8,58,12,45,24,115,细颗粒物(PM2.5)
南充市,西山风景区,106.056,30.8064,2024-12-30T1000,86,96,0.9,24,1,3,15,114,细颗粒物(PM2.5)
南充市,南充市委,106.0789,30.8023,2024-12-30T1000,100,122,0.8,,5,7,11,132,细颗粒物(PM2.5)
南充市,南充炼油厂,106.1031,30.8217,2024-12-30T1000,101,120,0.8,29,5,7,10,133,细颗粒物(PM2.5)
南充市,高坪区监测站,106.1064,30.7856,2024-12-30T1000,94,123,0.7,31,4,5,8,124,细颗粒物(PM2.5)
南充市,嘉陵区环保局,106.0642,30.7636,2024-12-30T1000,97,121,0.8,28,6,6,9,128,细颗粒物(PM2.5)
南充市,市环境监测站,106.1087,30.8388,2024-12-30T1000,83,120,0.9,34,7,,11,110,细颗粒物(PM2.5)
南京市,迈皋桥,118.8086,32.1065,2024-12-30T1000,48,78,1.1,78,15,23,22,67,细颗粒物(PM2.5)
南京市,草场门,118.7538,32.0551,2024-12-30T1000,51,88,0.4,53,12,24,14,70,细颗粒物(PM2.5)
南京市,山西路,118.7794,32.0745,2024-12-30T1000,51,95,0.8,71,4,20,30,73,颗粒物(PM10)
南京市,中华门,118.7752,32.0023,2024-12-30T1000,53,102,1.5,30,19,14,9,76,颗粒物(PM10)
南京市,瑞金路,118.8109,32.0309,2024-12-30T1000,53,107,1.5,60,15,17,6,79,颗粒物(PM10)
南京市,玄武湖,118.7997,32.0754,2024-12-30T1000,49,91,0.7,66,12,13,18,71,颗粒物(PM10)
南京市,浦口,118.6414,32.0931,2024-12-30T1000,47,90,0.7,46,10,24,21,70,颗粒物(PM10)
南京市,奥体中心,118.7356,31.9996,2024-12-30T1000,53,94,0.8,77,14,21,14,73,细颗粒物(PM2.5)
南京市,仙林大学城,118.9125,32.1028,2024-12-30T1000,51,97,0.8,63,11,22,20,74,颗粒物(PM10)
南京市,江宁彩虹桥,118.8436,31.9198,2024-12-30T1000,58,108,1.2,61,17,19,8,79,"颗粒物(PM10),细颗粒物(PM2.5)"
南京市,溧水永阳,119.0138,31.6494,2024-12-30T1000,65,85,0.9,44,5,23,15,88,细颗粒物(PM2.5)
南京市,高淳老职中,118.879,31.3302,2024-12-30T1000,67,,0.6,41,11,35,23,90,细颗粒物(PM2.5)
南京市,六合雄州,118.8554,32.3578,2024-12-30T1000,50,101,0.7,55,10,21,8,76,颗粒物(PM10)
南宁市,二十一中,108.3103,22.7881,2024-12-30T1000,80,101,1.1,38,10,80,110,107,细颗粒物(PM2.5)
南宁市,北湖,108.3141,22.8528,2024-12-30T1000,103,130,1.3,91,15,21,64,135,细颗粒物(PM2.5)
南宁市,市监测站,108.3206,22.8225,2024-12-30T1000,70,120,1.2,52,14,76,99,94,细颗粒物(PM2.5)
南宁市,大自然花园,108.3829,22.8037,2024-12-30T1000,79,104,0.9,40,11,85,98,105,细颗粒物(PM2.5)
南宁市,仙葫,108.4394,22.7904,2024-12-30T1000,93,104,1.0,38,7,72,45,123,细颗粒物(PM2.5)
南宁市,区农职院,108.2397,22.8467,2024-12-30T1000,77,117,1.1,72,18,28,42,103,细颗粒物(PM2.5)
南宁市,英华嘉园,108.3275,22.735,2024-12-30T1000,97,109,0.9,45,11,63,78,128,细颗粒物(PM2.5)
南宁市,沙井镇街道办,108.2257,22.7757,2024-12-30T1000,76,115,1.1,79,8,42,44,102,细颗粒物(PM2.5)
南宁市,红星社区,108.4834,22.7618,2024-12-30T1000,94,135,1.1,46,13,54,40,124,细颗粒物(PM2.5)
南平市,茫荡山,118.0966,26.6761,2024-12-30T1000,,,,,,,,,
南平市,南平市监测站,118.1681,26.6369,2024-12-30T1000,32,47,0.7,27,7,29,20,47,
南平市,南平铝业有限公司,118.1825,26.6489,2024-12-30T1000,38,62,1.0,30,11,23,18,56,颗粒物(PM10)
南平市,南平七中,118.1756,26.6272,2024-12-30T1000,31,56,0.6,16,3,31,19,53,颗粒物(PM10)
南通市,狼山街道,120.9098,31.9663,2024-12-30T1000,75,102,1.9,47,14,39,19,100,细颗粒物(PM2.5)
南通市,虹桥,120.86,32.0005,2024-12-30T1000,75,103,0.8,49,10,38,26,100,细颗粒物(PM2.5)
南通市,城中,120.87,32.02,2024-12-30T1000,73,117,1.0,58,14,40,26,98,细颗粒物(PM2.5)
南通市,星湖花园,120.94,31.93,2024-12-30T1000,66,100,1.3,53,13,39,24,89,细颗粒物(PM2.5)
南通市,紫琅学院,120.81,32.0417,2024-12-30T1000,70,102,1.4,59,11,30,23,94,细颗粒物(PM2.5)
南通市,通州监测站,121.067,32.062,2024-12-30T1000,63,100,1.3,60,9,35,32,85,细颗粒物(PM2.5)
南通市,环境教育馆,120.9348,31.9883,2024-12-30T1000,66,117,1.6,49,14,44,18,89,细颗粒物(PM2.5)
南阳市,瓦房庄,112.5224,33.0122,2024-12-30T1000,133,183,1.4,55,10,13,9,176,细颗粒物(PM2.5)
南阳市,汉画馆,112.5003,32.9735,2024-12-30T1000,112,151,1.1,48,10,20,7,147,细颗粒物(PM2.5)
南阳市,气象站,112.5573,33.027,2024-12-30T1000,153,232,1.2,59,7,12,13,203,细颗粒物(PM2.5)
南阳市,理工学院,112.5481,32.9689,2024-12-30T1000,125,172,1.2,56,11,17,8,165,细颗粒物(PM2.5)
南阳市,卧龙区政府,112.5234,32.9922,2024-12-30T1000,104,154,1.4,47,11,21,12,137,细颗粒物(PM2.5)
宁波市,区环保大楼,121.8358,29.911,2024-12-30T1000,22,38,0.8,68,12,28,31,38,
宁波市,万里学院,121.56,29.82,2024-12-30T1000,25,44,0.7,50,6,39,30,44,
宁波市,龙赛医院,121.713,29.9572,2024-12-30T1000,32,70,0.7,61,10,25,24,60,颗粒物(PM10)
宁波市,钱湖水厂,121.633,29.7733,2024-12-30T1000,38,60,0.6,47,6,22,46,55,颗粒物(PM10)
宁波市,太古小学,121.5856,29.8635,2024-12-30T1000,31,56,1.1,65,8,24,35,53,颗粒物(PM10)
宁波市,市环境监测中心,121.524,29.8674,2024-12-30T1000,49,90,1.2,65,11,12,28,70,颗粒物(PM10)
宁波市,万里国际学校,121.6147,29.9017,2024-12-30T1000,32,57,1.0,68,8,13,45,54,颗粒物(PM10)
宁波市,白沙活动中心,121.5594,29.8975,2024-12-30T1000,40,60,1.0,54,9,28,33,57,细颗粒物(PM2.5)
宁德市,金涵水库,119.5001,26.6946,2024-12-30T1000,,,,,,,,,
宁德市,宁德市监测站,119.5388,26.6612,2024-12-30T1000,29,60,0.6,38,5,41,44,55,颗粒物(PM10)
宁德市,宁德一中,119.5231,26.6562,2024-12-30T1000,28,45,0.6,28,4,54,53,45,
怒江傈僳族自治州,州监测站,98.8601,25.8567,2024-12-30T1000,,,,,,,60,,
怒江傈僳族自治州,泸水一中,98.8546,25.8417,2024-12-30T1000,15,21,0.6,25,7,11,12,22,
攀枝花市,弄弄坪,101.6891,26.571,2024-12-30T1000,59,109,5.5,60,82,15,6,80,"颗粒物(PM10),细颗粒物(PM2.5)"
攀枝花市,河门口,101.5769,26.5928,2024-12-30T1000,56,74,1.7,33,16,27,22,77,细颗粒物(PM2.5)
攀枝花市,炳草岗,101.7169,26.585,2024-12-30T1000,55,112,3.7,59,22,9,6,81,颗粒物(PM10)
攀枝花市,仁和,101.7369,26.5008,2024-12-30T1000,,,,40,14,,17,,
攀枝花市,四十中小,101.7227,26.567,2024-12-30T1000,57,99,4.3,60,26,9,9,78,细颗粒物(PM2.5)
盘锦市,开发区,122.0303,41.1489,2024-12-30T1000,62,96,1.8,53,25,20,14,84,细颗粒物(PM2.5)
盘锦市,兴隆台,122.0485,41.0883,2024-12-30T1000,52,122,1.3,49,25,26,11,86,颗粒物(PM10)
盘锦市,新生街道,121.8297,41.1028,2024-12-30T1000,57,95,1.4,64,19,18,10,78,细颗粒物(PM2.5)
平顶山市,新华旅馆,113.3257,33.742,2024-12-30T1000,34,107,0.2,12,8,69,50,79,颗粒物(PM10)
平顶山市,规划设计院,113.2919,33.737,2024-12-30T1000,27,88,0.3,14,7,61,30,69,颗粒物(PM10)
平顶山市,平顶山工学院,113.182,33.774,2024-12-30T1000,34,80,0.6,19,8,55,54,65,颗粒物(PM10)
平顶山市,规划局,113.3025,33.73,2024-12-30T1000,33,90,0.3,14,8,57,34,70,颗粒物(PM10)
平顶山市,石龙区,112.8867,33.9116,2024-12-30T1000,32,81,0.6,15,7,59,58,66,颗粒物(PM10)
平凉市,聚贤嘉苑,106.6692,35.5461,2024-12-30T1000,26,49,0.9,61,19,25,34,49,
平凉市,博物馆,106.7021,35.5307,2024-12-30T1000,,,,,,,,,
萍乡市,武功山,114.0997,27.5002,2024-12-30T1000,44,59,1.0,17,14,46,43,62,细颗粒物(PM2.5)
萍乡市,中医院,113.8385,27.6434,2024-12-30T1000,79,127,1.6,43,26,33,51,105,细颗粒物(PM2.5)
萍乡市,市政府车库,113.8493,27.6253,2024-12-30T1000,102,124,1.6,47,25,28,44,134,细颗粒物(PM2.5)
萍乡市,市环保局,113.8676,27.6435,2024-12-30T1000,95,139,1.5,45,29,31,48,125,细颗粒物(PM2.5)
萍乡市,安源区政府,113.866,27.6198,2024-12-30T1000,86,132,1.2,36,26,36,37,114,细颗粒物(PM2.5)
莆田市,荔城区仓后路,119.0141,25.4325,2024-12-30T1000,8,53,0.6,18,3,53,47,52,颗粒物(PM10)
莆田市,莆田市监测站,119.0015,25.4553,2024-12-30T1000,13,31,0.5,18,4,66,69,31,
莆田市,涵江区六中,119.1119,25.4561,2024-12-30T1000,15,39,0.3,8,3,67,46,39,
莆田市,秀屿区政府,119.1013,25.3215,2024-12-30T1000,24,53,0.5,22,3,64,58,52,颗粒物(PM10)
莆田市,东圳水库,118.981,25.4792,2024-12-30T1000,,,,,,,72,,
濮阳市,环保局,115.0312,35.7636,2024-12-30T1000,35,98,1.0,41,9,34,19,74,颗粒物(PM10)
濮阳市,油田运输公司,115.0574,35.7609,2024-12-30T1000,41,110,0.9,38,8,33,13,80,颗粒物(PM10)
濮阳市,油田物探公司,115.0866,35.7754,2024-12-30T1000,57,124,1.1,48,10,,16,,
濮阳市,濮水河管理处,115,35.7668,2024-12-30T1000,51,122,0.9,42,10,18,14,86,颗粒物(PM10)
普洱市,市环保局,100.98,22.7633,2024-12-30T1000,8,44,0.8,15,5,13,12,44,
普洱市,普洱第二中学,100.9817,22.8322,2024-12-30T1000,10,54,0.8,16,10,13,10,52,颗粒物(PM10)
七台河市,新一中,131.0518,45.8751,2024-12-30T1000,21,21,1.6,12,14,49,47,30,
七台河市,中波台,131.0577,45.7879,2024-12-30T1000,16,21,0.7,15,11,40,40,23,
七台河市,人民广场,131.0176,45.7761,2024-12-30T1000,36,42,0.7,24,8,36,36,52,细颗粒物(PM2.5)
七台河市,新建矿广场,130.8781,45.8222,2024-12-30T1000,,,,47,25,,6,,
齐齐哈尔市,安居小区,123.9305,47.3636,2024-12-30T1000,103,114,0.8,31,14,29,23,135,细颗粒物(PM2.5)
齐齐哈尔市,中心广场,123.9488,47.3386,2024-12-30T1000,94,131,1.0,37,5,24,20,124,细颗粒物(PM2.5)
齐齐哈尔市,农牧车辆厂,123.9483,47.3227,2024-12-30T1000,94,117,1.0,40,7,22,20,124,细颗粒物(PM2.5)
齐齐哈尔市,市环境监测站,123.945,47.2988,2024-12-30T1000,,,1.4,,,21,17,,
齐齐哈尔市,富区青少年活动中心,123.6333,47.2075,2024-12-30T1000,85,108,1.1,26,11,34,29,113,细颗粒物(PM2.5)
黔东南苗族侗族自治州,市环境监测站,107.9783,26.5747,2024-12-30T1000,,,,,,,,,
黔东南苗族侗族自治州,凯里学院,107.8908,26.5311,2024-12-30T1000,64,97,0.9,28,6,54,77,87,细颗粒物(PM2.5)
黔南布依族苗族自治州,小围寨,107.5228,26.2403,2024-12-30T1000,48,66,0.7,18,7,56,67,67,细颗粒物(PM2.5)
黔南布依族苗族自治州,沙坝,107.5175,26.2978,2024-12-30T1000,48,66,0.7,23,8,49,73,67,细颗粒物(PM2.5)
黔西南布依族苗族自治州,场坝街,104.9022,25.0925,2024-12-30T1000,36,53,0.5,21,4,41,58,52,"颗粒物(PM10),细颗粒物(PM2.5)"
黔西南布依族苗族自治州,坪东大道,104.8811,25.0992,2024-12-30T1000,35,40,0.6,17,4,46,58,50,
钦州市,市环保站,108.6236,21.9667,2024-12-30T1000,75,156,1.1,72,,,49,103,颗粒物(PM10)
钦州市,沙埠小学,108.6549,21.9481,2024-12-30T1000,101,114,1.1,52,16,58,50,133,细颗粒物(PM2.5)
钦州市,港区一小,108.5989,21.7431,2024-12-30T1000,56,120,1.0,64,8,57,68,85,颗粒物(PM10)
钦州市,北职校,108.5959,21.9633,2024-12-30T1000,86,133,1.1,51,16,68,40,114,细颗粒物(PM2.5)
秦皇岛市,北戴河环保局,119.5134,39.8207,2024-12-30T1000,49,120,0.6,37,4,40,11,85,颗粒物(PM10)
秦皇岛市,第一关,119.7493,40.0116,2024-12-30T1000,21,109,0.3,15,3,72,22,80,颗粒物(PM10)
秦皇岛市,监测站,119.5897,39.9499,2024-12-30T1000,61,121,1.7,78,12,10,3,86,颗粒物(PM10)
秦皇岛市,建设大厦,119.5251,39.9041,2024-12-30T1000,46,126,1.1,68,7,20,6,88,颗粒物(PM10)
秦皇岛市,文明里,119.610547,39.943889,2024-12-30T1000,52,146,1.1,75,11,17,6,98,颗粒物(PM10)
青岛市,仰口,120.6659,36.2403,2024-12-30T1000,,,,,,,,,
青岛市,市南区东部子站,120.4134,36.0658,2024-12-30T1000,44,88,1.2,60,17,41,51,69,颗粒物(PM10)
青岛市,四方区子站,120.3664,36.1032,2024-12-30T1000,51,88,1.2,80,24,28,47,70,细颗粒物(PM2.5)
青岛市,市南区西部子站,120.2994,36.054,2024-12-30T1000,0,,,,,19,46,,
青岛市,崂山区子站,120.4581,36.0858,2024-12-30T1000,39,73,0.9,36,15,60,46,62,颗粒物(PM10)
青岛市,黄岛区子站,120.1983,35.9608,2024-12-30T1000,56,97,1.1,87,21,12,55,77,细颗粒物(PM2.5)
青岛市,城阳区子站,120.3999,36.3083,2024-12-30T1000,44,107,1.6,77,14,25,42,79,颗粒物(PM10)
青岛市,黄岛区4号,120.0405,35.8735,2024-12-30T1000,,139,,,,,45,,
青岛市,即墨2号,120.5014,36.4034,2024-12-30T1000,75,127,1.4,73,22,31,54,100,细颗粒物(PM2.5)
青岛市,市北区南部,120.3503,36.0736,2024-12-30T1000,44,81,1.1,70,14,36,55,66,颗粒物(PM10)
青岛市,李沧区北部,120.3948,36.1805,2024-12-30T1000,56,107,1.2,68,17,34,53,79,颗粒物(PM10)
清远市,环保大楼,113.0426,23.691,2024-12-30T1000,57,96,1.0,42,11,43,52,78,细颗粒物(PM2.5)
清远市,凤城街办,113.0208,23.7106,2024-12-30T1000,62,92,1.0,56,15,35,49,84,细颗粒物(PM2.5)
清远市,技师学院,113.0477,23.6344,2024-12-30T1000,54,95,0.7,55,27,42,21,74,细颗粒物(PM2.5)
清远市,清新太和,112.9903,23.7403,2024-12-30T1000,56,98,1.3,82,10,19,67,77,细颗粒物(PM2.5)
清远市,清城东城,113.076,23.7198,2024-12-30T1000,54,86,0.7,39,20,48,50,74,细颗粒物(PM2.5)
庆阳市,庆阳五中,107.6325,35.7357,2024-12-30T1000,18,52,0.6,14,8,72,69,51,颗粒物(PM10)
庆阳市,市环保局,107.6364,35.7067,2024-12-30T1000,18,57,0.5,19,5,68,72,54,颗粒物(PM10)
曲靖市,环境监测站,103.7897,25.5035,2024-12-30T1000,23,34,0.7,22,8,35,34,34,
曲靖市,烟厂办公区,103.8,25.5364,2024-12-30T1000,18,37,0.3,19,4,37,45,37,
曲靖市,南苑二区,103.7947,25.462,2024-12-30T1000,18,35,0.7,14,6,42,44,35,
曲靖市,曲靖师范学院,103.7444,25.5261,2024-12-30T1000,21,33,0.6,20,8,37,46,33,
衢州市,环保大楼,118.8692,28.9398,2024-12-30T1000,58,91,1.1,58,9,19,8,79,细颗粒物(PM2.5)
衢州市,实验学校,118.8709,28.9666,2024-12-30T1000,49,72,0.9,,8,18,9,,
衢州市,衢州学院,118.8621,28.9808,2024-12-30T1000,54,83,0.8,66,10,6,6,74,细颗粒物(PM2.5)
泉州市,涂山街,118.5819,24.9117,2024-12-30T1000,28,79,0.5,24,1,55,48,65,颗粒物(PM10)
泉州市,津头埔,118.5972,24.8978,2024-12-30T1000,30,59,0.6,28,3,53,47,55,颗粒物(PM10)
泉州市,万安,118.6663,24.9424,2024-12-30T1000,,,,,,,83,,
泉州市,清源山,118.6117,24.9604,2024-12-30T1000,,,,,,,,,
泉州市,城华南路,118.6333,24.9264,2024-12-30T1000,26,51,0.5,31,3,50,51,51,颗粒物(PM10)
日喀则市,日喀则监测站,88.8876,29.2718,2024-12-30T1000,20,50,0.8,41,3,22,65,50,
日喀则市,林业技术推广中心,88.8781,29.2426,2024-12-30T1000,10,29,0.7,17,8,37,65,29,
日照市,监测站,119.471,35.4209,2024-12-30T1000,81,146,1.2,77,24,10,10,108,细颗粒物(PM2.5)
日照市,市政府广场,119.523,35.4216,2024-12-30T1000,72,117,1.2,63,19,24,21,97,细颗粒物(PM2.5)
日照市,港务局,119.5587,35.4044,2024-12-30T1000,75,149,1.0,67,24,17,17,100,"颗粒物(PM10),细颗粒物(PM2.5)"
日照市,职业技术学院,119.5328,35.4625,2024-12-30T1000,70,141,1.0,76,22,14,25,96,颗粒物(PM10)
日照市,岚山环保分局,119.3266,35.1044,2024-12-30T1000,78,132,1.9,60,29,39,24,104,细颗粒物(PM2.5)
三门峡市,市政府,111.1922,34.7752,2024-12-30T1000,58,98,0.8,51,16,18,4,79,细颗粒物(PM2.5)
三门峡市,开发区,111.1587,34.7942,2024-12-30T1000,61,101,0.8,36,6,23,5,83,细颗粒物(PM2.5)
三门峡市,风景区,111.143,34.7955,2024-12-30T1000,72,105,1.0,37,12,24,4,97,细颗粒物(PM2.5)
三门峡市,三门峡市第一小学,111.1911,34.7829,2024-12-30T1000,51,99,0.8,45,14,21,5,75,颗粒物(PM10)
三门峡市,富达温泉假日酒店,111.1,34.7167,2024-12-30T1000,70,119,0.9,58,15,15,6,94,细颗粒物(PM2.5)
三明市,三钢,117.6211,26.2625,2024-12-30T1000,54,61,2.4,29,10,28,23,74,细颗粒物(PM2.5)
三明市,三明二中,117.635,26.2714,2024-12-30T1000,46,64,3.3,36,21,21,24,64,细颗粒物(PM2.5)
三明市,三元区政府,117.6028,26.2378,2024-12-30T1000,37,59,1.2,28,14,31,14,55,颗粒物(PM10)
三明市,洋溪,117.7275,26.3108,2024-12-30T1000,,,,,,,,,
三亚市,河东子站,109.5078,18.2489,2024-12-30T1000,16,37,0.5,5,3,98,108,37,
三亚市,河西子站,109.4964,18.2681,2024-12-30T1000,16,32,0.4,9,2,93,101,32,
三亚市,君悦子站,109.7348,18.3443,2024-12-30T1000,25,50,0.6,24,3,55,64,50,
山南市,山南监测站,91.7608,29.2313,2024-12-30T1000,35,43,0.6,22,6,44,80,50,
山南市,山南人民医院,91.7706,29.2436,2024-12-30T1000,31,49,0.6,20,3,47,79,49,
汕头市,金平子站,116.6794,23.3667,2024-12-30T1000,67,101,1.3,58,23,60,58,90,细颗粒物(PM2.5)
汕头市,龙湖子站,116.7244,23.3633,2024-12-30T1000,43,82,1.0,44,9,69,66,66,颗粒物(PM10)
汕头市,濠江子站,116.7258,23.2775,2024-12-30T1000,61,82,1.0,35,11,85,72,83,细颗粒物(PM2.5)
汕头市,澄海子站,116.7519,23.4714,2024-12-30T1000,52,61,0.9,26,10,68,66,72,细颗粒物(PM2.5)
汕头市,潮阳子站,116.6092,23.2539,2024-12-30T1000,48,86,1.0,43,17,63,54,68,颗粒物(PM10)
汕头市,潮南峡山,116.454,23.2684,2024-12-30T1000,72,105,0.8,31,14,80,49,97,细颗粒物(PM2.5)
汕头市,潮南子站,116.4069,23.2533,2024-12-30T1000,96,129,0.9,40,16,61,48,127,细颗粒物(PM2.5)
汕尾市,市环保局,115.3653,22.775,2024-12-30T1000,41,60,0.8,27,9,81,81,58,细颗粒物(PM2.5)
汕尾市,市政府,115.3706,22.7898,2024-12-30T1000,36,55,0.7,22,11,80,77,53,颗粒物(PM10)
汕尾市,新城中学,115.3622,22.7925,2024-12-30T1000,38,62,0.8,18,10,85,75,56,颗粒物(PM10)
商洛市,监测站,109.9154,33.8715,2024-12-30T1000,23,41,0.7,28,2,34,33,41,
商洛市,商州区中学,109.9643,33.8471,2024-12-30T1000,27,107,0.8,45,6,27,15,79,颗粒物(PM10)
商丘市,环境监测站,115.6702,34.4285,2024-12-30T1000,77,114,1.1,39,12,37,50,103,细颗粒物(PM2.5)
商丘市,粮食局,115.6458,34.4045,2024-12-30T1000,62,114,1.0,34,8,37,50,84,细颗粒物(PM2.5)
商丘市,睢阳区环保局,115.6293,34.3948,2024-12-30T1000,75,109,0.9,39,6,37,39,100,细颗粒物(PM2.5)
商丘市,梁园区档案局,115.6071,34.4465,2024-12-30T1000,86,104,0.9,40,7,35,50,114,细颗粒物(PM2.5)
上海市,普陀,121.4,31.238,2024-12-30T1000,45,90,0.7,58,10,43,46,70,颗粒物(PM10)
上海市,十五厂,121.478,31.2036,2024-12-30T1000,50,89,0.8,60,12,39,23,70,颗粒物(PM10)
上海市,虹口,121.467,31.3008,2024-12-30T1000,46,82,1.0,55,10,43,34,66,颗粒物(PM10)
上海市,徐汇上师大,121.412,31.1654,2024-12-30T1000,56,79,0.6,50,9,43,42,77,细颗粒物(PM2.5)
上海市,杨浦四漂,121.536,31.2659,2024-12-30T1000,44,109,0.8,63,11,43,33,80,颗粒物(PM10)
上海市,静安监测站,121.425,31.2261,2024-12-30T1000,48,87,0.9,56,12,43,47,69,颗粒物(PM10)
上海市,浦东川沙,121.703,31.1907,2024-12-30T1000,38,86,0.7,55,8,42,42,68,颗粒物(PM10)
上海市,浦东新区监测站,121.533,31.2284,2024-12-30T1000,44,80,0.9,66,10,42,39,65,颗粒物(PM10)
上海市,浦东张江,121.577,31.2071,2024-12-30T1000,45,84,0.6,60,8,47,39,67,颗粒物(PM10)
上海市,宝山庙行,121.4316,31.3322,2024-12-30T1000,51,86,0.8,48,10,48,53,70,细颗粒物(PM2.5)
上海市,崇明上实东滩,121.8791,31.4662,2024-12-30T1000,35,54,0.7,37,9,60,47,52,颗粒物(PM10)
上海市,嘉定南翔,121.3162,31.2838,2024-12-30T1000,46,96,0.7,63,10,27,24,73,颗粒物(PM10)
上海市,金山新城,121.3359,30.7456,2024-12-30T1000,40,60,0.5,34,10,62,62,57,细颗粒物(PM2.5)
上海市,闵行浦江,121.4996,31.0739,2024-12-30T1000,42,72,0.7,49,8,48,35,61,颗粒物(PM10)
上海市,青浦徐泾,121.2886,31.1663,2024-12-30T1000,53,84,0.5,48,12,42,25,73,细颗粒物(PM2.5)
上海市,松江图书馆,121.2186,31.0378,2024-12-30T1000,52,91,1.0,55,10,35,43,72,细颗粒物(PM2.5)
上海市,长宁仙霞,121.3902,31.2059,2024-12-30T1000,48,87,0.8,58,10,40,40,69,颗粒物(PM10)
上海市,浦东惠南,121.7965,31.0507,2024-12-30T1000,34,56,0.7,36,10,56,36,53,颗粒物(PM10)
上海市,奉贤南桥新城,121.4891,30.925,2024-12-30T1000,40,70,0.7,49,8,50,53,60,颗粒物(PM10)
上饶市,百草园,118.005,28.4572,2024-12-30T1000,79,91,1.0,48,29,32,24,105,细颗粒物(PM2.5)
上饶市,市监测站,117.9756,28.4436,2024-12-30T1000,65,110,0.9,51,32,30,25,88,细颗粒物(PM2.5)
上饶市,凤凰光学,117.9519,28.4628,2024-12-30T1000,45,84,1.4,58,30,15,8,67,颗粒物(PM10)
上饶市,广丰区教体局,118.1953,28.4401,2024-12-30T1000,75,106,0.9,53,18,12,18,100,细颗粒物(PM2.5)
上饶市,双创科技城,117.897,28.4315,2024-12-30T1000,58,89,1.1,55,18,17,14,79,细颗粒物(PM2.5)
韶关市,市八中,113.5824,24.7733,2024-12-30T1000,55,85,0.7,39,13,32,28,75,细颗粒物(PM2.5)
韶关市,园林处,113.5917,24.7972,2024-12-30T1000,61,72,0.9,52,15,20,14,83,细颗粒物(PM2.5)
韶关市,韶关学院,113.6735,24.7791,2024-12-30T1000,54,70,0.9,38,22,24,10,74,细颗粒物(PM2.5)
韶关市,曲江监测站,113.5971,24.6863,2024-12-30T1000,75,108,1.3,57,17,14,15,100,细颗粒物(PM2.5)
韶关市,碧湖山庄,113.5556,24.8082,2024-12-30T1000,61,93,1.0,41,15,18,26,83,细颗粒物(PM2.5)
邵阳市,市水土所,111.5239,27.3033,2024-12-30T1000,,,,,,,,,
邵阳市,市一中,111.4733,27.2317,2024-12-30T1000,112,117,1.0,28,15,55,54,147,细颗粒物(PM2.5)
邵阳市,市化工厂,111.5283,27.2442,2024-12-30T1000,128,185,1.2,36,16,27,38,169,细颗粒物(PM2.5)
邵阳市,市罐头厂,111.4503,27.2537,2024-12-30T1000,130,146,1.0,29,12,40,48,172,细颗粒物(PM2.5)
邵阳市,市环保局,111.4328,27.2272,2024-12-30T1000,125,138,1.2,22,12,47,46,165,细颗粒物(PM2.5)
绍兴市,城东开发委,120.6053,29.9928,2024-12-30T1000,49,80,1.0,48,6,,15,,
绍兴市,树下王站,120.5483,30.0003,2024-12-30T1000,53,81,0.7,50,7,30,25,73,细颗粒物(PM2.5)
绍兴市,绍兴中专,120.5683,29.9361,2024-12-30T1000,45,66,0.7,41,8,36,10,63,细颗粒物(PM2.5)
绍兴市,柯桥区政府,120.4906,30.0861,2024-12-30T1000,84,133,1.3,70,11,12,10,112,细颗粒物(PM2.5)
绍兴市,重华小学,120.8752,30.0249,2024-12-30T1000,37,55,0.6,53,12,34,50,53,"颗粒物(PM10),细颗粒物(PM2.5)"
绍兴市,上虞中学,120.8369,30.0137,2024-12-30T1000,38,54,0.8,45,10,39,36,54,细颗粒物(PM2.5)
绍兴市,柯桥妇保,120.4722,30.0415,2024-12-30T1000,67,114,1.0,57,8,14,6,90,细颗粒物(PM2.5)
绍兴市,袍江中学,120.6153,30.0764,2024-12-30T1000,59,86,0.8,53,11,34,19,80,细颗粒物(PM2.5)
深圳市,通心岭子站,114.1063,22.5545,2024-12-30T1000,48,78,0.9,47,8,78,43,67,细颗粒物(PM2.5)
深圳市,洪湖,114.117,22.5625,2024-12-30T1000,56,93,0.9,57,6,66,20,77,细颗粒物(PM2.5)
深圳市,华侨城,113.987,22.5417,2024-12-30T1000,45,70,0.9,60,6,61,62,63,细颗粒物(PM2.5)
深圳市,南海子站,113.9181,22.5171,2024-12-30T1000,48,114,0.9,58,7,77,77,82,颗粒物(PM10)
深圳市,盐田,114.2458,22.5689,2024-12-30T1000,44,74,0.9,50,8,56,65,62,"颗粒物(PM10),细颗粒物(PM2.5)"
深圳市,龙岗,114.2283,22.7244,2024-12-30T1000,49,77,0.9,48,9,75,69,68,细颗粒物(PM2.5)
深圳市,南澳,114.494,22.5422,2024-12-30T1000,40,58,0.7,32,9,88,81,57,细颗粒物(PM2.5)
深圳市,葵涌,114.41,22.6342,2024-12-30T1000,42,63,0.9,32,7,82,54,59,细颗粒物(PM2.5)
深圳市,梅沙,114.297,22.5978,2024-12-30T1000,39,75,0.9,90,11,39,98,63,颗粒物(PM10)
深圳市,观澜,114.0678,22.738,2024-12-30T1000,62,109,1.0,60,6,61,31,84,细颗粒物(PM2.5)
深圳市,莲花,114.0731,22.559,2024-12-30T1000,51,77,0.8,51,9,77,48,70,细颗粒物(PM2.5)
深圳市,民治,114.0261,22.6198,2024-12-30T1000,61,93,0.9,57,7,72,64,83,细颗粒物(PM2.5)
深圳市,横岗,114.1871,22.6451,2024-12-30T1000,56,87,0.6,46,8,81,54,77,细颗粒物(PM2.5)
深圳市,坪山,114.3551,22.7151,2024-12-30T1000,61,107,0.9,54,8,69,27,83,细颗粒物(PM2.5)
深圳市,西乡,113.8953,22.5861,2024-12-30T1000,56,104,0.8,60,8,66,42,77,"颗粒物(PM10),细颗粒物(PM2.5)"
沈阳市,森林路,123.6836,41.9339,2024-12-30T1000,,,,,,,,,
沈阳市,浑南东路,123.505,41.7406,2024-12-30T1000,55,98,1.8,55,21,21,26,75,细颗粒物(PM2.5)
沈阳市,新秀街,123.4231,41.6989,2024-12-30T1000,75,140,1.6,50,22,18,25,100,细颗粒物(PM2.5)
沈阳市,东陵路,123.5903,41.8411,2024-12-30T1000,66,79,1.4,54,20,12,25,89,细颗粒物(PM2.5)
沈阳市,陵东街,123.4264,41.8467,2024-12-30T1000,70,115,1.2,56,26,20,20,94,细颗粒物(PM2.5)
沈阳市,文化路,123.4114,41.7653,2024-12-30T1000,87,147,1.7,58,30,14,27,115,细颗粒物(PM2.5)
沈阳市,小河沿,123.4678,41.7867,2024-12-30T1000,56,114,1.4,58,36,19,29,82,颗粒物(PM10)
沈阳市,太原街,123.4017,41.7972,2024-12-30T1000,76,148,1.7,56,28,22,24,102,细颗粒物(PM2.5)
沈阳市,京沈街,123.3783,41.9228,2024-12-30T1000,79,129,1.2,40,24,28,20,105,细颗粒物(PM2.5)
沈阳市,沈辽西路,123.2444,41.7347,2024-12-30T1000,66,142,1.4,56,18,24,26,96,颗粒物(PM10)
沈阳市,裕农路,123.5953,41.9086,2024-12-30T1000,56,121,1.3,57,26,17,24,86,颗粒物(PM10)
十堰市,武当山,111.0419,32.395,2024-12-30T1000,16,29,0.3,4,8,103,105,33,
十堰市,滨河新村,110.78,32.6494,2024-12-30T1000,42,59,0.7,31,7,36,30,59,细颗粒物(PM2.5)
十堰市,刘家沟,110.7258,32.6389,2024-12-30T1000,42,63,0.8,16,10,47,44,59,细颗粒物(PM2.5)
十堰市,铁二处,110.8839,32.5714,2024-12-30T1000,68,70,1.4,56,12,15,7,92,细颗粒物(PM2.5)
十堰市,郧阳区金沙路,110.8054,32.8401,2024-12-30T1000,32,,0.6,14,4,53,50,46,
石河子市,艾青诗歌馆,86.0497,44.2967,2024-12-30T1000,209,269,1.8,62,10,24,21,259,细颗粒物(PM2.5)
石河子市,南区管委会,86.047,44.2331,2024-12-30T1000,190,230,1.9,47,4,28,25,240,细颗粒物(PM2.5)
石河子市,世纪广场,86.0791,44.3017,2024-12-30T1000,211,277,1.9,61,8,14,12,261,细颗粒物(PM2.5)
石家庄市,职工医院,114.4422,38.0444,2024-12-30T1000,36,90,0.1,31,7,40,41,70,颗粒物(PM10)
石家庄市,高新区,114.6063,38.0266,2024-12-30T1000,30,128,0.8,48,5,25,30,89,颗粒物(PM10)
石家庄市,西北水源,114.4898,38.1328,2024-12-30T1000,24,133,0.5,31,4,30,7,92,颗粒物(PM10)
石家庄市,西南高教,114.4586,38.0058,2024-12-30T1000,27,124,0.1,14,6,58,52,87,颗粒物(PM10)
石家庄市,世纪公园,114.5331,38.0178,2024-12-30T1000,37,100,0.5,24,5,43,38,75,颗粒物(PM10)
石家庄市,人民会堂,114.509,38.0457,2024-12-30T1000,24,143,0.6,44,2,28,34,97,颗粒物(PM10)
石家庄市,封龙山,114.3524,37.8911,2024-12-30T1000,30,71,0.3,5,10,81,70,61,颗粒物(PM10)
石家庄市,22中南校区,114.5481,38.0378,2024-12-30T1000,38,129,0.7,44,7,29,36,90,颗粒物(PM10)
石家庄市,鹿泉一中,114.289,38.0906,2024-12-30T1000,23,107,0.4,13,5,68,58,79,颗粒物(PM10)
石家庄市,藁城区实验学校,114.8506765,38.0322033,2024-12-30T1000,25,147,0,42,2,30,16,99,颗粒物(PM10)
石家庄市,井陉矿区区委大楼,114.0504658,38.0591645,2024-12-30T1000,24,149,0.2,,4,,55,,
石家庄市,栾城区星河路,114.6549,37.9020,2024-12-30T1000,32,146,0.4,30,8,42,43,98,颗粒物(PM10)
石嘴山市,沙湖旅游区,106.3394,38.817,2024-12-30T1000,,,,,,,,,
石嘴山市,大武口朝阳西街,106.3668,39.0145,2024-12-30T1000,42,165,1.6,39,44,22,50,108,颗粒物(PM10)
石嘴山市,惠农南大街,106.7704,39.2282,2024-12-30T1000,36,183,2.2,39,34,41,78,117,颗粒物(PM10)
石嘴山市,红果子镇惠新街,106.7099,39.1325,2024-12-30T1000,52,134,1.1,36,20,29,78,92,颗粒物(PM10)
石嘴山市,妇女儿童医院,106.3495,38.9836,2024-12-30T1000,44,119,1.1,34,60,40,32,85,颗粒物(PM10)
石嘴山市,石大公路,106.7492,39.2069,2024-12-30T1000,50,198,2.2,48,21,40,86,124,颗粒物(PM10)
双鸭山市,双合村,131.1511,46.6937,2024-12-30T1000,48,,1.8,50,20,15,28,,
双鸭山市,南小市,131.1652,46.6191,2024-12-30T1000,46,66,1.0,49,13,10,26,64,细颗粒物(PM2.5)
双鸭山市,环保局,131.1524,46.6554,2024-12-30T1000,,,0.9,,,13,12,,
双鸭山市,苗圃,131.12,46.5656,2024-12-30T1000,11,12,0.4,19,6,49,53,16,
朔州市,平朔,112.4397,39.3522,2024-12-30T1000,54,251,1.2,44,17,24,57,151,颗粒物(PM10)
朔州市,朔唯,112.4575,39.3617,2024-12-30T1000,48,227,0.9,48,22,26,36,139,颗粒物(PM10)
朔州市,区政府,112.4258,39.3197,2024-12-30T1000,94,216,1.2,51,44,27,62,133,颗粒物(PM10)
朔州市,市环保局,112.4072,39.3278,2024-12-30T1000,83,234,1.5,43,40,25,57,142,颗粒物(PM10)
朔州市,市二中,112.4272,39.3681,2024-12-30T1000,63,243,0.9,46,21,17,49,147,颗粒物(PM10)
朔州市,一水厂,112.2931,39.53,2024-12-30T1000,41,169,0.7,24,12,51,55,110,颗粒物(PM10)
四平市,一商场,124.4002,43.1713,2024-12-30T1000,71,157,1.1,40,12,29,29,104,颗粒物(PM10)
四平市,境园,124.388,43.193,2024-12-30T1000,53,120,0.8,,,29,28,,
四平市,植物园,124.4036,43.1411,2024-12-30T1000,100,136,1.2,47,11,21,19,132,细颗粒物(PM2.5)
四平市,世纪城,124.3419,43.1666,2024-12-30T1000,78,127,0.9,34,11,31,29,104,细颗粒物(PM2.5)
松原市,江南,124.8006,45.1214,2024-12-30T1000,140,172,1.2,42,11,25,22,186,细颗粒物(PM2.5)
松原市,江北,124.7965,45.1722,2024-12-30T1000,126,,1.2,30,5,28,17,166,细颗粒物(PM2.5)
苏州市,上方山,120.561,31.2472,2024-12-30T1000,63,109,1.1,63,10,29,28,85,细颗粒物(PM2.5)
苏州市,彩香,120.591,31.3019,2024-12-30T1000,82,118,1.2,58,11,25,20,109,细颗粒物(PM2.5)
苏州市,轧钢厂,120.596,31.3264,2024-12-30T1000,77,123,1.0,68,9,26,19,103,细颗粒物(PM2.5)
苏州市,吴中区,120.613,31.2703,2024-12-30T1000,76,119,1.1,67,11,28,12,102,细颗粒物(PM2.5)
苏州市,苏州新区,120.543,31.2994,2024-12-30T1000,75,109,1.1,65,10,29,24,100,细颗粒物(PM2.5)
苏州市,苏州工业园区,120.669,31.3097,2024-12-30T1000,82,120,1.0,70,9,28,24,109,细颗粒物(PM2.5)
苏州市,相城区,120.641,31.3708,2024-12-30T1000,75,108,1.2,79,9,22,16,100,细颗粒物(PM2.5)
苏州市,方洲路,120.743,31.3188,2024-12-30T1000,71,107,0.9,72,10,24,26,95,细颗粒物(PM2.5)
苏州市,木渎中学,120.5031,31.2774,2024-12-30T1000,76,108,1.0,57,10,32,29,102,细颗粒物(PM2.5)
苏州市,越秀幼儿园,120.624,31.1733,2024-12-30T1000,74,108,1.0,55,8,30,24,99,细颗粒物(PM2.5)
苏州市,高铁新城,120.6505,31.416,2024-12-30T1000,73,123,0.9,66,10,25,16,98,细颗粒物(PM2.5)
宿迁市,宿迁学院,118.293,33.9528,2024-12-30T1000,72,113,1.1,41,7,34,25,97,细颗粒物(PM2.5)
宿迁市,宿迁中学,118.2442,33.9592,2024-12-30T1000,81,114,0.5,39,6,38,28,108,细颗粒物(PM2.5)
宿迁市,市供电局,118.283,33.965,2024-12-30T1000,79,136,0.9,48,6,37,32,105,细颗粒物(PM2.5)
宿迁市,宿豫区政府,118.3225,33.9447,2024-12-30T1000,76,99,0.9,51,6,27,31,102,细颗粒物(PM2.5)
宿州市,远航博物馆,116.9509,33.666,2024-12-30T1000,85,133,0.8,29,7,66,60,113,细颗粒物(PM2.5)
宿州市,社会福利中心,116.9708,33.591,2024-12-30T1000,84,141,0.7,46,9,37,23,112,细颗粒物(PM2.5)
宿州市,宿州学院,116.9884,33.6305,2024-12-30T1000,94,123,0.9,31,9,58,41,124,细颗粒物(PM2.5)
宿州市,皖北煤电集团,116.9648,33.6252,2024-12-30T1000,85,125,0.7,38,8,52,45,113,细颗粒物(PM2.5)
绥化市,人和东街,126.9785,46.6365,2024-12-30T1000,55,74,1.0,43,9,28,48,75,细颗粒物(PM2.5)
绥化市,党政办公中心,126.964,46.6528,2024-12-30T1000,86,168,1.0,55,15,14,35,114,细颗粒物(PM2.5)
随州市,市委党校,113.3583,31.7275,2024-12-30T1000,100,120,1.5,52,8,23,13,132,细颗粒物(PM2.5)
随州市,市林业局,113.3833,31.6908,2024-12-30T1000,104,128,1.4,52,14,17,16,137,细颗粒物(PM2.5)
随州市,市立交桥水厂,113.3983,31.7308,2024-12-30T1000,96,135,1.7,67,11,,3,127,细颗粒物(PM2.5)
遂宁市,石溪浩,105.5453,30.5678,2024-12-30T1000,66,97,0.7,39,5,14,15,89,细颗粒物(PM2.5)
遂宁市,市监测站,105.5582,30.5232,2024-12-30T1000,74,99,0.4,33,7,15,18,99,细颗粒物(PM2.5)
遂宁市,行政中心,105.5861,30.5366,2024-12-30T1000,66,95,0.5,36,8,20,18,89,细颗粒物(PM2.5)
遂宁市,美宁食品公司,105.5918,30.4728,2024-12-30T1000,66,106,0.5,36,7,19,19,89,细颗粒物(PM2.5)
塔城地区,东门外小游园,82.9994,46.7432,2024-12-30T1000,7,20,0.0,16,2,21,26,20,
台州市,黄岩环保大楼,121.273,28.6459,2024-12-30T1000,36,79,0.7,56,6,27,51,65,颗粒物(PM10)
台州市,台州环保大楼,121.419,28.6542,2024-12-30T1000,52,80,0.6,48,6,41,39,72,细颗粒物(PM2.5)
台州市,路桥田洋王,121.377,28.5773,2024-12-30T1000,36,54,0.6,44,5,37,36,52,"颗粒物(PM10),细颗粒物(PM2.5)"
台州市,台州科技职业学院,121.2568,28.6681,2024-12-30T1000,34,74,0.3,48,7,,26,,
太原市,尖草坪,112.522,37.8873,2024-12-30T1000,37,141,0.5,27,7,60,64,96,颗粒物(PM10)
太原市,上兰,112.434,38.0108,2024-12-30T1000,36,120,0.6,,7,76,73,,
太原市,晋源,112.469,37.7124,2024-12-30T1000,66,141,0.9,59,18,16,6,96,颗粒物(PM10)
太原市,小店,112.5583,37.7394,2024-12-30T1000,43,120,0.8,44,14,42,30,85,颗粒物(PM10)
太原市,桃园,112.5369,37.8692,2024-12-30T1000,36,155,0.5,17,5,72,69,103,颗粒物(PM10)
太原市,坞城,112.57,37.8195,2024-12-30T1000,40,116,0.7,18,8,70,48,83,颗粒物(PM10)
太原市,南寨,112.549,37.9854,2024-12-30T1000,40,132,0.6,58,8,11,10,91,颗粒物(PM10)
太原市,金胜,112.4719,37.7831,2024-12-30T1000,47,155,0.6,40,16,43,45,103,颗粒物(PM10)
太原市,育英中学,112.5608,37.8807,2024-12-30T1000,38,121,0.7,30,10,57,66,86,颗粒物(PM10)
泰安市,监测站,117.1437,36.1937,2024-12-30T1000,99,173,2.0,71,18,12,38,130,细颗粒物(PM2.5)
泰安市,人口学校,117.0885,36.2017,2024-12-30T1000,61,110,1.0,54,9,30,50,83,细颗粒物(PM2.5)
泰安市,电力学校,117.1089,36.1758,2024-12-30T1000,95,,1.9,78,16,9,26,125,细颗粒物(PM2.5)
泰安市,国网新校,117.1812,36.2275,2024-12-30T1000,88,142,1.3,51,11,30,67,117,细颗粒物(PM2.5)
泰安市,交通技校,117.0313,36.2018,2024-12-30T1000,64,98,0.7,57,5,23,41,87,细颗粒物(PM2.5)
泰安市,山东第一医科大学,117.0829,36.13,2024-12-30T1000,88,139,1.1,68,10,17,43,117,细颗粒物(PM2.5)
泰州市,公园路,119.905,32.4878,2024-12-30T1000,70,105,0.8,71,15,27,16,94,细颗粒物(PM2.5)
泰州市,莲花,119.9189,32.4625,2024-12-30T1000,75,112,1.6,70,12,26,14,100,细颗粒物(PM2.5)
泰州市,留学生创业园,119.888,32.4639,2024-12-30T1000,91,118,1.0,78,15,24,12,120,细颗粒物(PM2.5)
泰州市,王营,119.8767,32.3289,2024-12-30T1000,80,120,0.9,77,12,21,8,107,细颗粒物(PM2.5)
泰州市,姜堰区政府广场,120.1259,32.5099,2024-12-30T1000,81,121,1.2,76,10,30,19,108,细颗粒物(PM2.5)
泰州市,周山河街区,119.9192,32.4322,2024-12-30T1000,86,129,1.2,69,11,25,10,114,细颗粒物(PM2.5)
唐山市,雷达站,118.131,39.6363,2024-12-30T1000,86,192,1.0,75,10,15,6,121,颗粒物(PM10)
唐山市,物资局,118.1725,39.6334,2024-12-30T1000,55,181,1.1,65,13,22,10,116,颗粒物(PM10)
唐山市,十二中,118.1705,39.6506,2024-12-30T1000,55,165,0.9,84,8,20,10,108,颗粒物(PM10)
唐山市,小山,118.1869,39.622,2024-12-30T1000,62,160,0.8,68,11,27,9,105,颗粒物(PM10)
唐山市,冀东油田职工医院,118.4359,39.2762,2024-12-30T1000,57,165,0.5,45,8,23,9,108,颗粒物(PM10)
唐山市,正泰大街热力站,118.09279,39.58089,2024-12-30T1000,69,179,0.8,55,8,19,11,115,颗粒物(PM10)
唐山市,丰润区政府,118.1562,39.8322,2024-12-30T1000,109,174,2.2,58,11,13,9,143,细颗粒物(PM2.5)
唐山市,金山小学,118.43673,39.73809,2024-12-30T1000,131,252,2.0,82,20,16,14,173,细颗粒物(PM2.5)
唐山市,政府服务中心,118.24498,39.66941,2024-12-30T1000,95,191,1.5,82,13,15,9,125,细颗粒物(PM2.5)
唐山市,消防缸窑路中队,118.2059,39.6585,2024-12-30T1000,70,204,1.2,68,15,18,9,127,颗粒物(PM10)
唐山市,路南电大,118.1436,39.6202,2024-12-30T1000,67,187,0.9,77,11,19,10,119,颗粒物(PM10)
天津市,勤俭道,117.1444,39.1661,2024-12-30T1000,184,322,1.6,95,13,,8,234,细颗粒物(PM2.5)
天津市,大直沽八号路,117.237,39.1082,2024-12-30T1000,52,185,0.7,47,4,30,14,118,颗粒物(PM10)
天津市,前进道,117.202,39.0927,2024-12-30T1000,97,207,1.1,78,9,18,10,129,颗粒物(PM10)
天津市,淮河道,117.1837,39.2133,2024-12-30T1000,101,218,1.2,83,9,13,7,134,颗粒物(PM10)
天津市,跃进路,117.307,39.0877,2024-12-30T1000,51,188,0.7,41,6,41,24,119,颗粒物(PM10)
天津市,第四大街,117.707,39.0343,2024-12-30T1000,37,184,0.6,34,6,42,20,117,颗粒物(PM10)
天津市,永明路,117.457,38.8394,2024-12-30T1000,163,278,1.6,89,20,7,4,213,细颗粒物(PM2.5)
天津市,汉北路,117.764,39.1587,2024-12-30T1000,16,172,0.3,23,5,47,12,111,颗粒物(PM10)
天津市,团泊洼,117.157,38.9194,2024-12-30T1000,,,,,,,,,
天津市,河西一经路,117.7918,39.2474,2024-12-30T1000,39,174,0.5,26,6,43,12,112,颗粒物(PM10)
天津市,津沽路,117.3747,38.9846,2024-12-30T1000,165,334,2.0,94,11,9,12,215,细颗粒物(PM2.5)
天津市,宾水西道,117.1589,39.0845,2024-12-30T1000,164,222,1.6,98,12,8,4,214,细颗粒物(PM2.5)
天津市,大理道,117.1941,39.1067,2024-12-30T1000,96,179,1.0,74,10,20,12,127,细颗粒物(PM2.5)
天津市,中山北路,117.2101,39.1699,2024-12-30T1000,93,206,1.0,80,7,17,11,128,颗粒物(PM10)
天津市,西四道,117.3876,39.1488,2024-12-30T1000,58,199,0.9,60,8,24,15,125,颗粒物(PM10)
天津市,雍阳西道,117.0365,39.3828,2024-12-30T1000,56,140,0.8,57,6,25,11,95,颗粒物(PM10)
天津市,辛老路,117.0296,39.0605,2024-12-30T1000,260,405,2.4,117,16,9,8,310,细颗粒物(PM2.5)
天津市,地纬路,116.9638,38.9375,2024-12-30T1000,172,254,1.9,89,15,7,5,222,细颗粒物(PM2.5)
天津市,北环路,117.4067,40.0583,2024-12-30T1000,19,81,0.3,12,3,68,45,66,颗粒物(PM10)
天津市,建设路,117.3045,39.7169,2024-12-30T1000,34,157,0.5,21,6,52,18,104,颗粒物(PM10)
天津市,滨水东路,117.8199,39.3521,2024-12-30T1000,33,143,0.6,24,4,,9,,
天水市,麦积山,106.0055,34.343,2024-12-30T1000,,,,,,,,,
天水市,公园小学,105.7205,34.5786,2024-12-30T1000,34,58,2.9,33,22,19,6,54,颗粒物(PM10)
天水市,麦积国土局,105.8945,34.5538,2024-12-30T1000,77,137,1.7,52,17,13,12,103,细颗粒物(PM2.5)
铁岭市,汇工街西,123.8139,42.3022,2024-12-30T1000,65,100,1.2,38,21,21,19,88,细颗粒物(PM2.5)
铁岭市,水上乐园,123.8649,42.2923,2024-12-30T1000,80,107,1.3,41,18,21,26,107,细颗粒物(PM2.5)
铁岭市,银州路东段,123.8486,42.2867,2024-12-30T1000,68,127,1.0,42,14,19,23,92,细颗粒物(PM2.5)
铁岭市,金沙江路北,123.7153,42.2217,2024-12-30T1000,73,118,1.3,43,11,20,19,98,细颗粒物(PM2.5)
通化市,光明,125.9358,41.7173,2024-12-30T1000,,,0.6,17,,,61,,
通化市,铁路,125.9446,41.7325,2024-12-30T1000,21,43,0.4,23,9,52,49,43,
通辽市,艺术职业学校,122.2532,43.6801,2024-12-30T1000,32,69,0.7,22,12,33,18,60,颗粒物(PM10)
通辽市,老干部活动中心,122.2584,43.6333,2024-12-30T1000,34,80,0.7,24,14,29,21,65,颗粒物(PM10)
通辽市,东方明珠社区,122.2922,43.6189,2024-12-30T1000,39,86,0.8,27,16,32,23,68,颗粒物(PM10)
铜川市,党校,109.0656,35.0994,2024-12-30T1000,,,,,,,,,
铜川市,王益区政府,109.0697,35.0697,2024-12-30T1000,34,59,1.2,54,10,15,7,55,颗粒物(PM10)
铜川市,新区管委会,108.9344,34.9058,2024-12-30T1000,21,50,0.6,31,9,46,55,50,
铜川市,旺旺集团,108.9543,34.8732,2024-12-30T1000,26,53,0.6,25,18,52,33,52,颗粒物(PM10)
铜陵市,市第四中学,117.8177,30.9412,2024-12-30T1000,78,140,1.8,94,14,22,8,104,细颗粒物(PM2.5)
铜陵市,市公路局,117.8059,30.9273,2024-12-30T1000,78,124,1.6,56,13,46,10,104,细颗粒物(PM2.5)
铜陵市,市新民污水厂,117.7807,30.9413,2024-12-30T1000,66,109,1.1,58,30,48,13,89,细颗粒物(PM2.5)
铜陵市,市第九中学,117.7439,30.8792,2024-12-30T1000,103,201,0.9,89,10,8,8,135,细颗粒物(PM2.5)
铜陵市,车站新区,117.846,30.9413,2024-12-30T1000,83,118,1.5,82,18,15,12,110,细颗粒物(PM2.5)
铜陵市,市职教基地,117.8483,30.97,2024-12-30T1000,78,136,2.0,74,5,25,10,104,细颗粒物(PM2.5)
铜仁市,铜仁卫校,109.1839,27.7344,2024-12-30T1000,85,119,1.0,36,1,34,33,113,细颗粒物(PM2.5)
铜仁市,铜仁七中,109.1753,27.6944,2024-12-30T1000,105,107,1.0,40,2,18,38,138,细颗粒物(PM2.5)
吐鲁番市,市环保局,89.1904,42.9418,2024-12-30T1000,108,159,2.5,56,5,9,10,142,细颗粒物(PM2.5)
吐鲁番市,地区环保局,89.1673,42.9559,2024-12-30T1000,96,175,1.7,52,3,2,4,127,细颗粒物(PM2.5)
威海市,华夏技校,122.1214,37.4236,2024-12-30T1000,49,88,0.6,28,15,66,61,69,颗粒物(PM10)
威海市,山大分校,122.0508,37.5236,2024-12-30T1000,,,,,,,,,
威海市,市监测站,122.1067,37.5072,2024-12-30T1000,44,90,0.8,34,8,54,53,70,颗粒物(PM10)
威海市,文登开发区,122.0693,37.2174,2024-12-30T1000,68,116,0.8,47,15,39,49,92,细颗粒物(PM2.5)
威海市,临港区管委会,122.1379,37.3414,2024-12-30T1000,61,107,0.8,46,12,44,47,83,细颗粒物(PM2.5)
潍坊市,环保局,119.1437,36.7023,2024-12-30T1000,58,105,1.2,62,19,35,46,79,细颗粒物(PM2.5)
潍坊市,坊子邮政,119.1641,36.6523,2024-12-30T1000,70,119,1.3,73,16,21,52,94,细颗粒物(PM2.5)
潍坊市,潍坊七中,119.0587,36.721,2024-12-30T1000,77,129,1.2,67,23,22,42,103,细颗粒物(PM2.5)
潍坊市,高新实验学校,119.1977,36.6872,2024-12-30T1000,62,122,1.1,60,20,34,51,86,颗粒物(PM10)
潍坊市,潍坊学院,119.1755,36.7149,2024-12-30T1000,59,110,1.2,51,18,50,65,80,"颗粒物(PM10),细颗粒物(PM2.5)"
潍坊市,寒亭区实验一小,119.2041,36.7699,2024-12-30T1000,70,114,1.2,73,19,21,47,94,细颗粒物(PM2.5)
渭南市,农科所,109.5293,34.5101,2024-12-30T1000,,,,,,,,,
渭南市,日报社,109.4974,34.4877,2024-12-30T1000,56,112,1.7,81,8,10,39,81,颗粒物(PM10)
渭南市,体育馆,109.4636,34.493,2024-12-30T1000,44,90,0.9,62,9,10,21,70,颗粒物(PM10)
渭南市,高新一小,109.4259,34.5023,2024-12-30T1000,,110,1.3,56,9,11,6,,
温州市,瓯海,120.634,28.0089,2024-12-30T1000,45,76,0.8,57,11,36,18,63,"颗粒物(PM10),细颗粒物(PM2.5)"
温州市,南浦,120.6748,27.9939,2024-12-30T1000,41,72,0.6,50,11,43,29,61,颗粒物(PM10)
温州市,龙湾,120.76,27.9747,2024-12-30T1000,35,65,0.6,50,9,38,31,58,颗粒物(PM10)
温州市,市站,120.6709,28.0167,2024-12-30T1000,44,90,0.6,54,12,36,38,70,颗粒物(PM10)
温州市,茶山,120.6985,27.9251,2024-12-30T1000,33,52,0.5,40,6,53,44,51,颗粒物(PM10)
文山壮族苗族自治州,州水务局,104.2533,23.3594,2024-12-30T1000,34,53,0.6,16,3,32,36,52,颗粒物(PM10)
文山壮族苗族自治州,市便民服务中心,104.2319,23.3892,2024-12-30T1000,36,40,0.6,15,4,38,40,52,细颗粒物(PM2.5)
乌海市,市林业局,106.8174,39.6973,2024-12-30T1000,33,113,0.6,27,14,54,74,82,颗粒物(PM10)
