area,positionname,longitude,latitude,timepoint,pm2_5,pm10,co,no2,so2,o3,o3_8h,aqi,primarypollutant
阿坝藏族羌族自治州,州农科所,102.1879,31.914,2025-05-18T0100,12,25,0.8,11,10,33,,25,
阿坝藏族羌族自治州,马师校,102.2502,31.8896,2025-05-18T0100,24,36,0.5,18,5,8,,36,
阿坝藏族羌族自治州,马尔康中学西区,102.2165,31.9024,2025-05-18T0100,17,21,0.8,14,4,18,,25,
阿克苏地区,电视台,80.292,41.1694,2025-05-18T0100,73,226,0.5,44,7,51,,138,颗粒物(PM10)
阿克苏地区,艺术中心,80.2613,41.1551,2025-05-18T0100,75,225,0.3,36,4,44,,138,颗粒物(PM10)
阿拉善盟,西城区西花园,105.6467,38.8363,2025-05-18T0100,72,136,0.8,17,6,99,,97,细颗粒物(PM2.5)
阿拉善盟,蒙二幼,105.6985,38.8411,2025-05-18T0100,51,165,0.5,13,11,88,,108,颗粒物(PM10)
阿拉善盟,环保局新楼,105.724,38.8516,2025-05-18T0100,73,168,0.5,8,11,110,,109,颗粒物(PM10)
阿勒泰地区,市站,88.1264,47.8517,2025-05-18T0100,3,36,0.2,1,1,85,,36,
阿里地区,阿里监测站,80.1161,32.5,2025-05-18T0100,7,,0.4,2,7,124,,39,
阿里地区,阿里藏医院,80.0903,32.5028,2025-05-18T0100,6,15,0.4,3,7,127,,40,
安康市,香溪洞,109.0318,32.6537,2025-05-18T0100,16,21,0,4,7,111,,35,
安康市,汉滨区检察院,109.0072,32.6975,2025-05-18T0100,22,50,0.4,10,12,84,,50,
安康市,市邮政管理局,109.0325,32.6913,2025-05-18T0100,20,51,0.4,10,7,73,,51,颗粒物(PM10)
安庆市,环科院,117.0809,30.5177,2025-05-18T0100,70,382,0.4,3,5,105,,246,颗粒物(PM10)
安庆市,马山宾馆,117.0331,30.5119,2025-05-18T0100,68,339,0.4,10,6,101,,195,颗粒物(PM10)
安庆市,安庆大学,116.9896,30.6145,2025-05-18T0100,66,348,0.2,11,4,105,,199,颗粒物(PM10)
安庆市,市人大,117.0598,30.5351,2025-05-18T0100,71,382,0.3,10,9,109,,246,颗粒物(PM10)
安顺市,伍家关,105.9606,26.2611,2025-05-18T0100,32,38,0.5,10,28,73,,46,
安顺市,凤凰山,105.9408,26.2431,2025-05-18T0100,72,,0.7,11,64,67,,97,细颗粒物(PM2.5)
安顺市,金钟山,105.9439,26.2564,2025-05-18T0100,34,40,0.5,7,9,66,,49,
安顺市,娄家坡,105.8983,26.2481,2025-05-18T0100,32,33,0.6,8,9,76,,46,
安阳市,棉研所,114.4839,36.0621,2025-05-18T0100,,,,,,,,,
安阳市,红庙街,114.3551,36.1017,2025-05-18T0100,20,51,0.5,2,1,102,,51,颗粒物(PM10)
安阳市,银杏小区,114.361,36.0681,2025-05-18T0100,31,49,0.2,12,3,96,,49,
安阳市,信访局,114.3922,36.0878,2025-05-18T0100,20,52,0.4,11,3,105,,51,颗粒物(PM10)
安阳市,左辅环卫站,114.4705,36.0637,2025-05-18T0100,34,54,0.3,33,3,75,,52,颗粒物(PM10)
安阳市,安钢职工学校,114.2917,36.0949,2025-05-18T0100,26,52,0.3,10,2,88,,51,颗粒物(PM10)
鞍山市,深沟寺,123.044,41.1196,2025-05-18T0100,36,45,1.8,31,19,53,,52,细颗粒物(PM2.5)
鞍山市,太阳城,123.011,41.0931,2025-05-18T0100,43,61,1.6,31,16,43,,60,细颗粒物(PM2.5)
鞍山市,太平,123.0485,41.1442,2025-05-18T0100,41,71,1.5,29,18,52,,61,颗粒物(PM10)
鞍山市,铁西三道街,122.9642,41.0971,2025-05-18T0100,36,50,1.4,25,14,52,,52,细颗粒物(PM2.5)
鞍山市,明达新区,123.022,41.0821,2025-05-18T0100,39,50,1.9,27,18,49,,55,细颗粒物(PM2.5)
鞍山市,千山,123.1289,41.0228,2025-05-18T0100,,,,,,,,,
鞍山市,兴盛南路290号,122.9446,41.0826,2025-05-18T0100,32,52,1.4,19,10,53,,51,颗粒物(PM10)
巴彦淖尔市,附二中,107.4212,40.761,2025-05-18T0100,24,73,0.6,21,7,58,,62,颗粒物(PM10)
巴彦淖尔市,市环保大楼,107.37,40.7372,2025-05-18T0100,31,68,0.3,21,5,58,,59,颗粒物(PM10)
巴音郭楞蒙古自治州,孔雀公园,86.1472,41.7538,2025-05-18T0100,79,232,1.0,102,8,1,,141,颗粒物(PM10)
巴音郭楞蒙古自治州,棉纺厂,86.1972,41.7166,2025-05-18T0100,73,236,0.8,84,4,2,,143,颗粒物(PM10)
巴音郭楞蒙古自治州,经济开发区,86.2357,41.7173,2025-05-18T0100,64,287,0.1,51,8,17,,169,颗粒物(PM10)
巴中市,苏山坪,106.7677,31.8794,2025-05-18T0100,101,130,0.7,12,5,88,,133,细颗粒物(PM2.5)
巴中市,市五中,106.7768,31.8526,2025-05-18T0100,110,122,0.9,11,7,81,,144,细颗粒物(PM2.5)
巴中市,圣泉水务公司,106.7418,31.8654,2025-05-18T0100,107,132,0.9,14,8,83,,140,细颗粒物(PM2.5)
巴中市,市中心医院,106.7616,31.8344,2025-05-18T0100,101,140,0.9,12,6,78,,133,细颗粒物(PM2.5)
白城市,洮北区环保局,122.7911,45.6077,2025-05-18T0100,29,29,0.4,7,6,62,,42,
白城市,市环保局,122.8738,45.5725,2025-05-18T0100,48,,0.5,3,1,59,,67,细颗粒物(PM2.5)
白山市,喜丰,126.4219,41.9171,2025-05-18T0100,8,17,0.6,18,2,26,,17,
白山市,环保局,126.4077,41.9419,2025-05-18T0100,16,31,0.6,22,9,29,,31,
白银市,第三小学,104.1724,36.5446,2025-05-18T0100,28,54,0.6,7,15,94,,52,颗粒物(PM10)
白银市,动力公司,104.1465,36.5482,2025-05-18T0100,30,52,0.2,8,12,100,,51,颗粒物(PM10)
百色市,市监测站,106.6103,23.9011,2025-05-18T0100,16,24,1.0,32,7,3,,24,
百色市,市中心血站,106.6538,23.8859,2025-05-18T0100,23,38,0.8,36,9,3,,38,
百色市,祈福高中,106.6085,23.8798,2025-05-18T0100,18,28,0.5,16,4,7,,28,
蚌埠市,工人疗养院,117.396,32.939,2025-05-18T0100,22,137,0.3,22,5,78,,94,颗粒物(PM10)
蚌埠市,百货大楼,117.3605,32.9427,2025-05-18T0100,,155,0.3,23,6,73,,103,颗粒物(PM10)
蚌埠市,蚌埠学院,117.4185,32.8911,2025-05-18T0100,29,151,0.4,17,4,99,,101,颗粒物(PM10)
蚌埠市,淮上区政府,117.3533,32.9673,2025-05-18T0100,21,119,0.4,26,5,72,,85,颗粒物(PM10)
蚌埠市,高新区,117.3145,32.8977,2025-05-18T0100,29,149,0.4,34,8,77,,100,颗粒物(PM10)
蚌埠市,蚌埠田家炳中学,117.3092,32.9314,2025-05-18T0100,35,160,0.3,17,6,82,,105,颗粒物(PM10)
包头市,市环境监测站,109.8756,40.6532,2025-05-18T0100,6,34,0.4,14,9,91,,34,
包头市,包头八中,109.9991,40.5842,2025-05-18T0100,21,47,0.6,15,10,83,,47,
包头市,青山宾馆,109.8538,40.6821,2025-05-18T0100,20,35,0.4,10,8,82,,35,
包头市,惠龙物流,109.8642,40.6288,2025-05-18T0100,12,54,0.6,18,14,89,,52,颗粒物(PM10)
包头市,东河鸿龙湾,110.0377,40.5546,2025-05-18T0100,11,38,0.4,9,4,86,,38,
包头市,滨河大厦,109.9154,40.5685,2025-05-18T0100,7,47,0.3,18,7,75,,47,
包头市,包头市委党校,109.9447,40.6261,2025-05-18T0100,11,32,1.0,12,11,84,,32,
包头市,昆区政府,109.8331,40.6576,2025-05-18T0100,22,40,0.8,15,8,90,,40,
宝鸡市,庙沟村,107.185,34.3063,2025-05-18T0100,146,341,0.4,16,8,100,,196,颗粒物(PM10)
宝鸡市,竹园沟,107.0708,34.3017,2025-05-18T0100,140,324,0.3,20,4,79,,187,颗粒物(PM10)
宝鸡市,三陆医院,107.1906,34.3672,2025-05-18T0100,130,338,0.5,39,8,59,,194,颗粒物(PM10)
宝鸡市,监测站,107.1431,34.3547,2025-05-18T0100,127,403,0.3,21,6,70,,276,颗粒物(PM10)
宝鸡市,技工学校,107.1186,34.3739,2025-05-18T0100,138,371,0.5,13,6,81,,230,颗粒物(PM10)
宝鸡市,陈仓区环保局家属楼,107.3906,34.3528,2025-05-18T0100,166,378,0.4,24,6,69,,240,颗粒物(PM10)
宝鸡市,文理学院,107.2058,34.3497,2025-05-18T0100,162,371,0.4,21,9,76,,230,颗粒物(PM10)
宝鸡市,三迪小学,107.2386,34.3622,2025-05-18T0100,171,351,0.4,19,7,77,,221,细颗粒物(PM2.5)
保定市,游泳馆,115.493,38.8632,2025-05-18T0100,29,56,0.3,23,3,74,,53,颗粒物(PM10)
保定市,华电二区,115.5213,38.8959,2025-05-18T0100,26,39,0.1,9,1,84,,39,
保定市,接待中心,115.4713,38.9108,2025-05-18T0100,24,46,0.3,20,4,67,,46,
保定市,地表水厂,115.4612,38.8416,2025-05-18T0100,34,67,0.2,32,2,51,,59,颗粒物(PM10)
保定市,满城区生态环境分局,115.31981,38.95208,2025-05-18T0100,22,48,0.5,15,3,77,,48,
保定市,清苑区第二中学,115.47694,38.76408,2025-05-18T0100,25,46,0.2,18,2,68,,46,
保定市,徐水物探局,115.62909,39.02311,2025-05-18T0100,17,56,0,41,3,45,,53,颗粒物(PM10)
保定市,双鹰农机,115.4202,38.8656,2025-05-18T0100,38,47,0.3,29,5,55,,54,细颗粒物(PM2.5)
保定市,植保所站,115.5150,38.8590,2025-05-18T0100,30,50,0.4,10,3,77,,50,
保山市,市环境监测站,99.1678,25.1081,2025-05-18T0100,8,21,0.5,6,7,72,,23,
保山市,市环保局,99.1711,25.1328,2025-05-18T0100,18,24,0.3,4,6,80,,26,
北海市,牛尾岭水库,109.2262,21.588,2025-05-18T0100,,,,,,,,,
北海市,海滩公园,109.1436,21.4086,2025-05-18T0100,3,13,0.6,3,5,75,,24,
北海市,新市环保局,109.0981,21.4661,2025-05-18T0100,7,21,0.4,8,2,58,,21,
北海市,北海工业园,109.1778,21.5233,2025-05-18T0100,10,19,0.5,23,7,20,,19,
北海市,龙潭自来水厂,109.1911,21.4415,2025-05-18T0100,3,6,0.3,12,3,46,,15,
北京市,万寿西宫,116.3621,39.8784,2025-05-18T0100,8,26,0.5,29,3,52,,26,
北京市,定陵,116.2202,40.2915,2025-05-18T0100,,,,,,,,,
北京市,东四,116.4174,39.9289,2025-05-18T0100,7,24,0.3,17,2,65,,24,
北京市,天坛,116.4072,39.8863,2025-05-18T0100,8,19,0.3,21,1,40,,19,
北京市,农展馆,116.462,39.9365,2025-05-18T0100,8,21,0.2,28,3,43,,21,
北京市,官园,116.3392,39.9295,2025-05-18T0100,8,26,0.2,17,6,63,,26,
北京市,海淀万柳,116.2878,39.9611,2025-05-18T0100,11,32,0.4,58,5,7,,32,
北京市,顺义新城,116.6636,40.135,2025-05-18T0100,3,14,0.2,13,4,63,,20,
北京市,怀柔镇,116.6275,40.3275,2025-05-18T0100,3,12,0.5,9,2,61,,20,
北京市,昌平镇,116.2296,40.217,2025-05-18T0100,6,10,0.3,10,3,64,,20,
北京市,奥体中心,116.3966,39.9821,2025-05-18T0100,20,22,0.0,35,3,43,,29,
北京市,延庆夏都,115.9718,40.4529,2025-05-18T0100,9,14,0.4,17,3,62,,20,
北京市,密云新城,116.8336,40.4095,2025-05-18T0100,3,6,0.2,4,3,75,,24,
北京市,门头沟三家店,116.088,39.9726,2025-05-18T0100,16,28,0.0,26,7,35,,28,
北京市,丰台云岗,116.1541,39.8204,2025-05-18T0100,10,47,0.2,34,2,39,,47,
北京市,通州东关,116.6804,39.9081,2025-05-18T0100,7,27,0.3,14,1,67,,27,
北京市,房山燕山,115.9577,39.7603,2025-05-18T0100,13,31,0.3,25,1,39,,31,
北京市,大兴旧宫,116.4672,39.7733,2025-05-18T0100,9,29,0.5,17,3,42,,29,
北京市,延庆石河营,115.986,40.4563,2025-05-18T0100,6,29,0.3,15,1,61,,29,
北京市,怀柔新城,116.6151,40.3053,2025-05-18T0100,3,10,0.3,8,3,62,,20,
北京市,丰台小屯,116.2545,39.8768,2025-05-18T0100,7,26,0.3,45,2,26,,26,
北京市,密云镇,116.84,40.3844,2025-05-18T0100,3,10,0.3,10,5,66,,21,
北京市,八角北路9号,116.1942,39.9158,2025-05-18T0100,16,30,0,44,1,29,,30,
北京市,洳河巡河路,117.0790,40.1518,2025-05-18T0100,6,10,0.2,8,2,60,,19,
本溪市,大峪,123.8275,41.3064,2025-05-18T0100,19,33,0.9,21,5,8,,33,
本溪市,溪湖,123.7567,41.3325,2025-05-18T0100,67,87,3.6,34,5,6,,90,细颗粒物(PM2.5)
本溪市,彩屯,123.7169,41.3094,2025-05-18T0100,25,41,1.3,26,8,4,,41,
本溪市,东明,123.7669,41.2864,2025-05-18T0100,20,54,1.1,39,7,0,,52,颗粒物(PM10)
本溪市,新立屯,123.7992,41.2664,2025-05-18T0100,26,,0.6,24,5,34,,38,
本溪市,威宁,123.8142,41.3472,2025-05-18T0100,26,35,0.7,25,4,5,,38,
毕节市,八中,105.2864,27.3125,2025-05-18T0100,34,43,0.6,13,5,31,,49,
毕节市,师专,105.31,27.2944,2025-05-18T0100,47,77,0.6,23,3,31,,65,细颗粒物(PM2.5)
毕节市,工业大道,105.3688,27.3598,2025-05-18T0100,38,54,0.8,24,6,30,,54,细颗粒物(PM2.5)
滨州市,第二水厂,118.0018,37.3617,2025-05-18T0100,34,70,0.2,70,9,23,,60,颗粒物(PM10)
滨州市,北中新校,117.9776,37.393,2025-05-18T0100,53,61,0.3,47,13,44,,73,细颗粒物(PM2.5)
滨州市,中海酒店,117.9378,37.3956,2025-05-18T0100,48,56,0.7,33,10,68,,67,细颗粒物(PM2.5)
滨州市,开发区一中,117.9378,37.3553,2025-05-18T0100,34,61,0.6,37,8,48,,56,颗粒物(PM10)
滨州市,金海六路,118.0917,37.694,2025-05-18T0100,24,49,0.4,34,7,68,,49,
滨州市,滨州市西街道办事处,117.9956,37.3753,2025-05-18T0100,44,63,,45,,41,,,
亳州市,污水处理厂,115.8072,33.8399,2025-05-18T0100,12,62,0.2,23,5,70,,56,颗粒物(PM10)
亳州市,三国揽胜宫,115.7789,33.8518,2025-05-18T0100,14,58,0.1,18,8,90,,54,颗粒物(PM10)
亳州市,亳州学院,115.7633,33.8034,2025-05-18T0100,13,64,0.2,9,5,105,,57,颗粒物(PM10)
博尔塔拉蒙古自治州,市党校,82.0485,44.8556,2025-05-18T0100,22,50,0.4,11,12,74,,50,
博尔塔拉蒙古自治州,市环保局,82.0806,44.8969,2025-05-18T0100,22,92,0.6,25,10,48,,71,颗粒物(PM10)
沧州市,沧县城建局,116.8842,38.2991,2025-05-18T0100,32,51,0.4,25,3,59,,51,颗粒物(PM10)
沧州市,电视转播站,116.8584,38.3254,2025-05-18T0100,27,46,0.3,32,3,69,,46,
沧州市,市环保局,116.8709,38.3228,2025-05-18T0100,35,51,0.3,23,1,90,,51,颗粒物(PM10)
沧州市,河北水利电力学院,116.8136,38.3004,2025-05-18T0100,28,44,0.5,47,6,52,,44,
昌都市,昌都监测站,97.1806,31.1273,2025-05-18T0100,3,,0.2,2,4,72,,23,
昌都市,昌都会议中心,97.1714,31.1406,2025-05-18T0100,3,,0.1,2,4,80,,25,
昌吉回族自治州,天山天池,88.1236,43.8886,2025-05-18T0100,3,12,0.4,5,8,61,,20,
昌吉回族自治州,新区政务中心,87.2717,44.0297,2025-05-18T0100,23,,0.8,72,7,17,,36,
昌吉回族自治州,亚心广场,87.3095,44.0142,2025-05-18T0100,24,70,0.7,84,8,13,,60,颗粒物(PM10)
长春市,食品厂,125.3325,43.9166,2025-05-18T0100,18,28,0.3,18,4,61,,28,
长春市,客车厂,125.2863,43.9027,2025-05-18T0100,21,21,0.3,14,5,61,,30,
长春市,邮电学院,125.2841,43.8463,2025-05-18T0100,24,27,0.5,24,6,51,,35,
长春市,劳动公园,125.3716,43.8772,2025-05-18T0100,24,,0.5,17,6,51,,35,
长春市,园林处,125.3297,43.8805,2025-05-18T0100,25,28,0.5,19,6,55,,36,
长春市,净月潭,125.4605,43.79,2025-05-18T0100,16,20,0.3,7,6,44,,23,
长春市,甩湾子,125.7194,43.515,2025-05-18T0100,,,,,,,,,
长春市,经开区环卫处,125.3863,43.8447,2025-05-18T0100,18,34,0.3,17,5,53,,34,
长春市,高新区管委会,125.245,43.7783,2025-05-18T0100,26,,0.4,14,5,51,,38,
长春市,岱山公园,125.1761,43.8325,2025-05-18T0100,23,26,0.4,14,4,55,,33,
长沙市,经开区环保局,113.0833,28.2325,2025-05-18T0100,35,45,0.8,39,6,34,,50,
长沙市,高开区环保局,112.8872,28.2189,2025-05-18T0100,33,52,0.9,24,4,51,,51,颗粒物(PM10)
长沙市,马坡岭,113.0792,28.2053,2025-05-18T0100,35,47,0.9,45,3,12,,50,
长沙市,湖南师范大学,112.9394,28.19,2025-05-18T0100,31,45,0.7,23,2,40,,45,
长沙市,雨花区环保局,113.0178,28.1322,2025-05-18T0100,23,48,1.3,34,4,30,,48,
长沙市,伍家岭,112.9792,28.2597,2025-05-18T0100,28,58,0.9,24,2,44,,54,颗粒物(PM10)
长沙市,火车新站,113.0014,28.1944,2025-05-18T0100,27,45,0.8,29,8,45,,45,
长沙市,天心区环保局,112.9844,28.1178,2025-05-18T0100,24,49,0.8,33,3,35,,49,
长沙市,湖南中医药大学,112.8908,28.1308,2025-05-18T0100,41,56,0.9,24,3,40,,58,细颗粒物(PM2.5)
长沙市,沙坪,112.9581,28.3611,2025-05-18T0100,,44,0.7,5,3,43,,,
长治市,清华站,113.1147,36.1547,2025-05-18T0100,17,91,0.5,9,7,100,,71,颗粒物(PM10)
长治市,审计局,113.0886,36.2125,2025-05-18T0100,17,86,0.3,14,9,103,,68,颗粒物(PM10)
长治市,长治八中,113.0844,36.1856,2025-05-18T0100,36,112,0.5,14,11,97,,81,颗粒物(PM10)
长治市,德盛苑,113.1569,36.1911,2025-05-18T0100,22,89,0.5,12,7,92,,70,颗粒物(PM10)
长治市,向阳小学,113.06,36.0464,2025-05-18T0100,18,85,0.3,10,10,103,,68,颗粒物(PM10)
长治市,屯留一中,112.8792,36.3144,2025-05-18T0100,23,47,1.0,24,14,71,,47,
长治市,英华南巷50号,113.1131,36.19948,2025-05-18T0100,27,108,0.6,11,7,98,,79,颗粒物(PM10)
长治市,学府街1号,113.2367,36.3344,2025-05-18T0100,21,40,0.5,27,5,74,,40,
常德市,市二中,111.6975,28.9703,2025-05-18T0100,48,,0.7,18,6,13,,67,细颗粒物(PM2.5)
常德市,白鹤山,111.7158,29.1456,2025-05-18T0100,,,,,,,,,
常德市,武陵区永安,111.7153,29.0289,2025-05-18T0100,42,66,0.6,18,13,16,,59,细颗粒物(PM2.5)
常德市,鼎城区玉霞,111.6892,28.9881,2025-05-18T0100,43,56,0.7,18,20,11,,60,细颗粒物(PM2.5)
常德市,武陵区长庚,111.6625,29.0531,2025-05-18T0100,42,61,0.9,21,8,9,,59,细颗粒物(PM2.5)
常州市,市监测站,119.9633,31.762,2025-05-18T0100,12,31,0.6,10,6,101,,32,
常州市,武进监测站,119.9468,31.7069,2025-05-18T0100,11,61,0.4,19,9,96,,56,颗粒物(PM10)
常州市,安家,119.9255,31.9087,2025-05-18T0100,16,58,0.1,12,13,85,,54,颗粒物(PM10)
常州市,行政中心,119.9805,31.8174,2025-05-18T0100,15,35,0.4,9,6,101,,35,
常州市,经开区,120.0522,31.7748,2025-05-18T0100,10,76,0.4,14,6,105,,63,颗粒物(PM10)
常州市,钟楼,119.9025,31.7964,2025-05-18T0100,10,49,0.5,11,8,88,,49,
常州市,武进经发区,119.8598,31.7066,2025-05-18T0100,12,74,0.6,10,10,91,,62,颗粒物(PM10)
常州市,金坛城区,119.5826,31.7245,2025-05-18T0100,11,57,0.4,9,9,103,,54,颗粒物(PM10)
朝阳市,西梁,120.4318,41.5881,2025-05-18T0100,3,18,0.2,12,6,66,,21,
朝阳市,河畔小区,120.4521,41.5646,2025-05-18T0100,13,32,0.3,14,10,58,,32,
朝阳市,八里堡,120.4176,41.5648,2025-05-18T0100,24,42,0.4,27,6,36,,42,
朝阳市,农业园区,120.3806,41.5969,2025-05-18T0100,10,34,0.3,23,7,52,,34,
潮州市,西园路,116.6367,23.6719,2025-05-18T0100,16,26,0.3,15,6,26,,26,
潮州市,市政府,116.6183,23.6608,2025-05-18T0100,10,27,0.6,14,9,31,,27,
潮州市,金山,116.6461,23.6761,2025-05-18T0100,17,38,0.7,15,9,19,,38,
郴州市,马头岭,113.0073,25.9061,2025-05-18T0100,7,11,0.4,17,10,5,,11,
郴州市,市职中,113.0116,25.8226,2025-05-18T0100,10,14,0.7,11,5,17,,15,
郴州市,市审计局,113.0383,25.8071,2025-05-18T0100,11,17,0.6,14,3,16,,17,
郴州市,市环保局,113.0348,25.7759,2025-05-18T0100,7,23,0.5,14,5,17,,23,
郴州市,好美居路49号,113.0138,25.8011,2025-05-18T0100,3,18,0.6,13,7,23,,18,
成都市,金泉两河,103.9728,30.7236,2025-05-18T0100,97,116,0.7,65,4,9,,128,细颗粒物(PM2.5)
成都市,十里店,104.176,30.6872,2025-05-18T0100,58,103,0.9,30,5,52,,79,细颗粒物(PM2.5)
成都市,三瓦窑,104.079,30.5706,2025-05-18T0100,66,98,1.1,66,7,22,,89,细颗粒物(PM2.5)
成都市,沙河铺,104.1114,30.63,2025-05-18T0100,66,100,1.1,35,7,28,,89,细颗粒物(PM2.5)
成都市,君平街,104.0786,30.6531,2025-05-18T0100,76,104,0.9,47,9,27,,102,细颗粒物(PM2.5)
成都市,灵岩寺,103.613,31.0283,2025-05-18T0100,,,,,,,,,
成都市,大石西路,104.0239,30.65639,2025-05-18T0100,74,104,0.9,65,6,24,,99,细颗粒物(PM2.5)
成都市,龙泉驿区区政府,104.2725,30.5589,2025-05-18T0100,36,56,0.6,23,4,55,,53,颗粒物(PM10)
成都市,金博路,104.0106,30.6931,2025-05-18T0100,70,123,0.9,80,10,6,,94,细颗粒物(PM2.5)
成都市,华阳,104.0578,30.5225,2025-05-18T0100,75,92,0.7,41,7,28,,100,细颗粒物(PM2.5)
成都市,青白江技师分院,104.3853,30.7453,2025-05-18T0100,83,101,0.8,54,6,32,,110,细颗粒物(PM2.5)
成都市,科学城,104.0789,30.4072,2025-05-18T0100,82,110,0.9,36,4,42,,109,细颗粒物(PM2.5)
成都市,光华大道三段,103.8506,30.6947,2025-05-18T0100,115,141,1.0,34,6,36,,150,细颗粒物(PM2.5)
成都市,鲸龙路1057号,104.2433,30.5353,2025-05-18T0100,70,110,0.8,49,6,43,,94,细颗粒物(PM2.5)
承德市,铁路,117.9531,40.9081,2025-05-18T0100,3,25,0.1,9,2,45,,25,
承德市,中国银行,117.9392,40.9763,2025-05-18T0100,3,7,0.2,10,3,42,,14,
承德市,开发区,117.9503,40.928,2025-05-18T0100,14,21,0.2,10,1,46,,21,
承德市,文化中心,117.8051,40.9655,2025-05-18T0100,3,18,0.2,20,3,35,,18,
承德市,离宫,117.9268,41.0026,2025-05-18T0100,20,21,0.1,7,1,41,,29,
池州市,池州学院,117.47,30.6618,2025-05-18T0100,85,261,0.4,12,6,102,,156,颗粒物(PM10)
池州市,展览馆,117.4918,30.6617,2025-05-18T0100,82,242,0.4,11,6,103,,146,颗粒物(PM10)
池州市,第八中学,117.5627,30.695,2025-05-18T0100,74,193,0.3,13,7,103,,122,颗粒物(PM10)
池州市,第十二中学,117.5038,30.6243,2025-05-18T0100,71,239,0.6,10,6,106,,145,颗粒物(PM10)
赤峰市,松山一中,118.9233,42.2816,2025-05-18T0100,3,28,0.3,9,8,76,,28,
赤峰市,哈达街,118.9576,42.2728,2025-05-18T0100,,,,,,,78,,
赤峰市,天义路,118.8788,42.2554,2025-05-18T0100,3,6,0.3,8,7,65,,21,
赤峰市,银河街,119.2658,42.0353,2025-05-18T0100,11,25,0.4,4,11,76,,25,
赤峰市,桥北物流园区,118.9359,42.3147,2025-05-18T0100,3,26,0.5,14,7,53,,26,
崇左市,市环保局江州分局,107.3476,22.4136,2025-05-18T0100,12,38,0.4,10,5,20,,38,
崇左市,石景林东路7号,107.3750,22.3736,2025-05-18T0100,10,22,0.5,16,2,19,,22,
滁州市,老年大学,118.3093,32.3153,2025-05-18T0100,13,118,0.2,9,2,118,,84,颗粒物(PM10)
滁州市,人大宾馆,118.3244,32.2786,2025-05-18T0100,10,97,0.2,11,8,100,,74,颗粒物(PM10)
滁州市,市政府原办公楼,118.3118,32.3038,2025-05-18T0100,30,94,0.2,6,4,115,,72,颗粒物(PM10)
滁州市,图书馆,118.3267,32.2634,2025-05-18T0100,18,128,0.3,8,8,104,,89,颗粒物(PM10)
楚雄彝族自治州,州环境监测站,101.5482,25.0441,2025-05-18T0100,24,27,0.4,23,11,56,,35,
楚雄彝族自治州,市经济开发区,101.538,25.0492,2025-05-18T0100,,,,,,,102,,
达州市,达州职业技术学院,107.5277,31.2827,2025-05-18T0100,36,72,0.6,21,6,39,,61,颗粒物(PM10)
达州市,市环境监测站,107.5086,31.2186,2025-05-18T0100,39,74,0.4,15,4,75,,62,颗粒物(PM10)
达州市,凤凰小区,107.4988,31.2132,2025-05-18T0100,41,75,0.4,14,6,68,,63,颗粒物(PM10)
达州市,达县机关宾馆,107.5082,31.1986,2025-05-18T0100,,,,,,,35,,
达州市,市政中心,107.4644,31.2124,2025-05-18T0100,46,84,0.5,13,1,66,,67,颗粒物(PM10)
大理白族自治州,大理市环境监测站,100.1542,25.7054,2025-05-18T0100,22,,0.3,7,7,106,,34,
大理白族自治州,大理古城,100.2171,25.5811,2025-05-18T0100,18,,0.6,13,7,74,,26,
大连市,甘井子,121.612,38.9741,2025-05-18T0100,22,30,0.3,23,2,78,,32,
大连市,周水子,121.565,38.9511,2025-05-18T0100,19,36,0.3,14,6,71,,36,
大连市,星海三站,121.5637,38.8845,2025-05-18T0100,16,30,0.4,10,2,78,,30,
大连市,青泥洼桥,121.6302,38.9117,2025-05-18T0100,14,22,0.3,7,6,92,,29,
大连市,傅家庄,121.6251,38.8638,2025-05-18T0100,12,24,0.2,13,7,93,,30,
大连市,七贤岭,121.5213,38.8661,2025-05-18T0100,16,34,0.4,,5,81,,,
大连市,旅顺,121.2529,38.8061,2025-05-18T0100,13,17,0.2,12,5,90,,29,
大连市,金州,121.7485,39.1311,2025-05-18T0100,23,28,0.3,19,6,75,,33,
大连市,开发区,121.7811,39.0496,2025-05-18T0100,27,40,0.3,43,6,48,,40,
大连市,双D港,121.9762,39.0631,2025-05-18T0100,23,41,0.3,32,8,59,,41,
大庆市,大同区,124.81117,46.03138,2025-05-18T0100,13,15,0.4,7,4,54,,19,
大庆市,龙凤区,125.129,46.533,2025-05-18T0100,12,18,0.3,8,6,63,,20,
大庆市,红岗区,124.902,46.408,2025-05-18T0100,10,16,0.2,19,7,46,,16,
大庆市,萨尔图区,125.153,46.586,2025-05-18T0100,,,,,,,66,,
大庆市,让胡路区,124.9042,46.6215,2025-05-18T0100,18,23,0.2,3,6,60,,26,
大庆市,萨区政府监测点,125.141,46.634,2025-05-18T0100,3,20,0.4,4,5,63,,20,
大同市,果树场,113.3819,40.1097,2025-05-18T0100,,,,,,,,,
大同市,云冈宾馆,113.2994,40.0758,2025-05-18T0100,12,41,0.5,20,10,89,,41,
大同市,大同大学,113.3444,40.0917,2025-05-18T0100,18,41,0.4,23,12,85,,41,
大同市,安家小村,113.2661,40.1269,2025-05-18T0100,10,26,0.6,9,18,98,,31,
大同市,教育学院,113.2711,40.0844,2025-05-18T0100,7,63,0.3,22,13,77,,57,颗粒物(PM10)
大同市,大同市卫生学校,113.3397,40.0597,2025-05-18T0100,21,43,0.5,24,9,75,,43,
大同市,云冈站,113.1367,40.1122,2025-05-18T0100,26,56,0.4,22,8,52,,53,颗粒物(PM10)
大同市,图书馆,113.1186,40.2556,2025-05-18T0100,42,50,0.7,8,6,64,,59,细颗粒物(PM2.5)
大同市,区一中,113.5931,40.0461,2025-05-18T0100,19,33,0.5,26,12,44,,33,
大同市,魏都大道141号,113.2798,40.0997,2025-05-18T0100,14,46,0.5,17,16,86,,46,
大兴安岭地区,科技局,124.1069,50.4097,2025-05-18T0100,9,11,0.1,2,6,53,,17,
大兴安岭地区,红旗社区,124.1164,50.4278,2025-05-18T0100,3,,0.2,3,2,48,,15,
丹东市,江湾东路,124.3303,40.0625,2025-05-18T0100,21,22,0.6,11,6,45,,30,
丹东市,临江后街,124.4256,40.1503,2025-05-18T0100,19,32,0.8,20,6,29,,32,
丹东市,元宝山,124.3933,40.1461,2025-05-18T0100,18,31,0.6,11,7,43,,31,
丹东市,民主桥,124.3633,40.1092,2025-05-18T0100,13,32,0.6,15,6,32,,32,
儋州市,第一中学子站,109.5726,19.5167,2025-05-18T0100,7,13,0.7,5,7,22,,13,
儋州市,东坡学校子站,109.5567,19.5187,2025-05-18T0100,3,22,0.5,4,4,22,,22,
德宏傣族景颇族自治州,德宏州监测站,98.5842,24.428,2025-05-18T0100,27,37,0.8,13,6,34,,39,
德宏傣族景颇族自治州,芒市人民政府综合楼,98.5881,24.4368,2025-05-18T0100,22,43,0.8,11,5,43,,43,
德阳市,东山公园,104.4239,31.1208,2025-05-18T0100,75,120,1.2,26,6,50,,100,细颗粒物(PM2.5)
德阳市,西小区,104.3826,31.1317,2025-05-18T0100,72,106,1.1,31,6,60,,97,细颗粒物(PM2.5)
德阳市,耐火材料厂,104.3553,31.1091,2025-05-18T0100,75,113,0.8,40,8,38,,100,细颗粒物(PM2.5)
德阳市,市教育局,104.4019,31.1244,2025-05-18T0100,70,112,1.1,31,7,53,,94,细颗粒物(PM2.5)
德州市,儿童乐园,116.3032,37.4674,2025-05-18T0100,22,51,0.4,12,6,87,,51,颗粒物(PM10)
德州市,监理站,116.2991,37.4451,2025-05-18T0100,22,46,0.4,24,7,77,,46,
德州市,九衢泉纯净水厂,116.2721,37.4379,2025-05-18T0100,24,48,0.4,42,6,49,,48,
德州市,开发区人民医院,116.3728,37.4403,2025-05-18T0100,22,63,0.5,23,6,78,,57,颗粒物(PM10)
德州市,太阳城中学,116.3572,37.4094,2025-05-18T0100,31,80,0.6,42,4,66,,65,颗粒物(PM10)
德州市,陵城艺术中心,116.5652,37.3319,2025-05-18T0100,31,53,0.3,26,10,82,,52,颗粒物(PM10)
迪庆藏族自治州,迪庆州站,99.7056,27.8317,2025-05-18T0100,14,20,0.2,14,5,107,,34,
迪庆藏族自治州,质量技术监督局,99.7136,27.8094,2025-05-18T0100,7,13,0.4,6,4,113,,36,
定西市,将台街,104.6092,35.5962,2025-05-18T0100,29,63,0.1,32,4,58,,57,颗粒物(PM10)
定西市,正龙路62号,104.6159,35.5701,2025-05-18T0100,29,69,0.2,12,5,67,,60,颗粒物(PM10)
东莞市,莞城梨川,113.7547,23.0494,2025-05-18T0100,46,48,0.7,45,10,12,,64,细颗粒物(PM2.5)
东莞市,东城石井,113.7944,23.0128,2025-05-18T0100,30,51,0.6,37,4,1,,51,颗粒物(PM10)
东莞市,南城西平,113.7383,22.9658,2025-05-18T0100,12,14,0.6,31,2,13,,18,
东莞市,万江金泰,113.7338,23.0381,2025-05-18T0100,31,46,0.9,43,6,0,,46,
东莞市,南城元岭,113.7533,23.0202,2025-05-18T0100,38,59,0.8,48,6,9,,55,颗粒物(PM10)
东莞市,东城主山,113.7875,23.0457,2025-05-18T0100,20,43,0.6,44,6,7,,43,
东营市,市环保局,118.6614,37.4309,2025-05-18T0100,12,39,0.7,32,10,59,,39,
东营市,开发区管委会,118.6904,37.4338,2025-05-18T0100,12,107,0.5,38,9,58,,79,颗粒物(PM10)
东营市,垦利区民丰路,118.5719,37.565,2025-05-18T0100,12,36,0.9,31,8,58,,36,
东营市,河口城区,118.5055,37.8612,2025-05-18T0100,10,36,1.0,26,8,64,,36,
东营市,胜利站,118.4978,37.4623,2025-05-18T0100,19,44,0.9,23,12,74,,44,
东营市,理想之城,118.35,37.26,2025-05-18T0100,22,44,0.6,35,4,53,,44,
鄂尔多斯市,综合楼,110.0023,39.8129,2025-05-18T0100,27,46,0.2,14,7,86,,46,
鄂尔多斯市,巴音孟克林场办事处,109.9486,39.8261,2025-05-18T0100,22,56,0.3,14,5,84,,53,颗粒物(PM10)
鄂尔多斯市,康泽苑,109.7736,39.5986,2025-05-18T0100,17,46,0.2,7,8,90,,46,
鄂尔多斯市,华泰汽车城,109.8119,39.5989,2025-05-18T0100,14,34,0.2,7,3,80,,34,
鄂尔多斯市,奥林花园,109.9734,39.7884,2025-05-18T0100,12,46,0.5,15,1,81,,46,
鄂州市,市政府,114.8938,30.3994,2025-05-18T0100,68,146,0.4,15,8,115,,98,颗粒物(PM10)
鄂州市,赵家坝,114.8989,30.3714,2025-05-18T0100,56,95,0.6,15,6,103,,77,细颗粒物(PM2.5)
鄂州市,精准医疗中心,114.8094,30.4089,2025-05-18T0100,70,90,0.5,6,4,109,,94,细颗粒物(PM2.5)
恩施土家族苗族自治州,湖北民院,109.4978,30.2981,2025-05-18T0100,31,65,0.7,23,6,3,,58,颗粒物(PM10)
恩施土家族苗族自治州,州电力总公司,109.4707,30.2798,2025-05-18T0100,26,46,0.4,29,7,3,,46,
恩施土家族苗族自治州,龙凤新区,109.5061,30.3772,2025-05-18T0100,35,51,0.5,15,6,29,,51,颗粒物(PM10)
防城港市,沙万,108.3411,21.6158,2025-05-18T0100,10,16,0.5,12,1,42,,16,
防城港市,防城档案局,108.3514,21.7731,2025-05-18T0100,8,11,0.5,12,3,32,,12,
防城港市,大海花园,108.3506,21.6414,2025-05-18T0100,3,38,0.5,8,2,48,,38,
佛山市,湾梁,113.1294,23.0067,2025-05-18T0100,11,,0.5,28,7,26,,16,
佛山市,华材职中,113.1083,23.0478,2025-05-18T0100,12,12,0.4,37,4,18,,19,
佛山市,南海气象局,113.144,23.0453,2025-05-18T0100,15,24,0.6,38,1,15,,24,
佛山市,顺德苏岗,113.2881,22.8094,2025-05-18T0100,7,32,0.6,36,5,3,,32,
佛山市,高明孔堂,112.8383,22.8678,2025-05-18T0100,15,36,0.8,48,7,0,,36,
佛山市,三水监测站,112.8836,23.1588,2025-05-18T0100,22,36,0.7,62,3,0,,36,
佛山市,三水云东海,112.867,23.185,2025-05-18T0100,30,52,0.7,50,1,0,,51,颗粒物(PM10)
佛山市,容桂街道办,113.2544,22.7642,2025-05-18T0100,17,24,0.8,38,5,4,,25,
福州市,鼓山,119.3903,26.0543,2025-05-18T0100,,,,,,,59,,
福州市,师大,119.2681,26.0504,2025-05-18T0100,3,18,0.3,11,3,32,,18,
福州市,五四北路,119.2984,26.1028,2025-05-18T0100,22,24,0.4,20,3,17,,32,
福州市,杨桥西路,119.2648,26.0768,2025-05-18T0100,20,21,0.3,18,3,24,,29,
福州市,紫阳,119.317,26.0746,2025-05-18T0100,30,,0.2,31,4,13,,43,
福州市,九龙,119.5799,26.0936,2025-05-18T0100,3,11,0.2,11,4,36,,12,
福州市,吴航,119.5189,25.9664,2025-05-18T0100,22,42,0.4,21,4,18,,42,
抚顺市,望花区,123.7977,41.8491,2025-05-18T0100,37,42,1.6,40,18,20,,53,细颗粒物(PM2.5)
抚顺市,顺城区,123.9161,41.8822,2025-05-18T0100,30,45,0.7,32,6,4,,45,
抚顺市,东洲区,124.0436,41.8611,2025-05-18T0100,31,46,0.5,11,9,34,,46,
抚顺市,新抚区,123.9247,41.8642,2025-05-18T0100,27,42,0.6,10,6,10,,42,
抚顺市,大伙房水库,124.0972,41.8961,2025-05-18T0100,22,23,0.7,10,7,46,,32,
抚顺市,沈抚新城,123.7086,41.8391,2025-05-18T0100,32,34,1.0,37,8,22,,46,
抚州市,桐源党溪,116.2127,28.0814,2025-05-18T0100,9,24,0.4,2,2,35,,24,
抚州市,市站,116.3544,27.9831,2025-05-18T0100,8,20,0.5,11,1,27,,20,
抚州市,血防站,116.3565,27.963,2025-05-18T0100,12,26,0.4,8,2,22,,26,
抚州市,采茶剧团,116.3564,28.0007,2025-05-18T0100,3,21,0.3,6,3,23,,21,
抚州市,医学分院,116.385,27.9647,2025-05-18T0100,7,20,0.5,6,16,33,,20,
阜新市,工业园区,121.6094,41.998,2025-05-18T0100,29,57,0.3,9,8,72,,54,颗粒物(PM10)
阜新市,长青街,121.6697,42.0279,2025-05-18T0100,26,49,0.3,11,8,67,,49,
阜新市,农业园区,121.6673,42.0705,2025-05-18T0100,,,,,,,,,
阜新市,东苑,121.6717,42.0224,2025-05-18T0100,29,67,0.4,10,7,72,,59,颗粒物(PM10)
阜新市,玉龙新城,121.6506,42.0498,2025-05-18T0100,24,77,0.2,14,6,59,,64,颗粒物(PM10)
阜阳市,市监测站,115.8277,32.8929,2025-05-18T0100,8,64,0.2,20,8,95,,57,颗粒物(PM10)
阜阳市,开发区,115.8554,32.8605,2025-05-18T0100,16,104,0.2,18,8,92,,77,颗粒物(PM10)
阜阳市,阜阳职业技术学院,115.784,32.8892,2025-05-18T0100,14,55,0.3,17,6,99,,53,颗粒物(PM10)
阜阳市,市规划展馆,115.7901,32.8613,2025-05-18T0100,13,57,0.2,12,8,101,,54,颗粒物(PM10)
阜阳市,枣园社区,115.836,32.9183,2025-05-18T0100,13,67,0.1,14,5,87,,59,颗粒物(PM10)
甘南藏族自治州,州政府,102.9099,34.9841,2025-05-18T0100,27,41,0.3,41,4,18,,41,
甘南藏族自治州,甘肃民族师范学院,102.8914,34.9617,2025-05-18T0100,19,73,0.4,52,8,5,,62,颗粒物(PM10)
甘孜藏族自治州,水桥子,101.9603,30.0475,2025-05-18T0100,8,13,0.3,20,4,41,,13,
甘孜藏族自治州,州环保局,101.9533,29.9972,2025-05-18T0100,3,10,0.2,16,1,69,,22,
赣江新区,桑海产业园,115.8347,28.932,2025-05-18T0100,25,44,0.5,28,5,49,,44,
赣州市,通天岩,114.9017,25.9149,2025-05-18T0100,6,14,0.6,6,1,32,,14,
赣州市,地委,114.9367,25.8664,2025-05-18T0100,9,20,0.4,8,18,29,,20,
赣州市,气象台,114.9461,25.8481,2025-05-18T0100,3,22,0.3,8,7,41,,22,
赣州市,市图书馆,114.9322,25.8333,2025-05-18T0100,8,12,0.5,8,5,30,,12,
赣州市,华坚鞋城,114.8905,25.8471,2025-05-18T0100,7,24,0.2,11,6,37,,24,
赣州市,赣县区卫计委,115.0093,25.8613,2025-05-18T0100,14,16,0.6,10,2,21,,20,
固原市,马园,106.2319,36.1417,2025-05-18T0100,171,,0.2,3,5,105,,221,细颗粒物(PM2.5)
固原市,监测站,106.2792,36.0022,2025-05-18T0100,52,,0.2,7,5,100,,72,细颗粒物(PM2.5)
固原市,新区,106.2375,36.0211,2025-05-18T0100,38,,0.2,16,6,80,,54,细颗粒物(PM2.5)
固原市,原州区十五小,106.2177,35.9959,2025-05-18T0100,23,55,0.3,4,7,108,,53,颗粒物(PM10)
广安市,小平旧居,106.6308,30.5278,2025-05-18T0100,,,,,,,,,
广安市,市委,106.6303,30.4576,2025-05-18T0100,49,67,0.5,13,5,69,,68,细颗粒物(PM2.5)
广安市,友谊中学,106.6271,30.4663,2025-05-18T0100,49,78,0.8,17,4,68,,68,细颗粒物(PM2.5)
广安市,广电花园,106.6388,30.4551,2025-05-18T0100,47,68,0.6,15,5,57,,65,细颗粒物(PM2.5)
广安市,北辰小学,106.6351,30.4865,2025-05-18T0100,45,80,0.7,17,6,59,,65,颗粒物(PM10)
广元市,黑石坡,105.8945,32.4535,2025-05-18T0100,68,,0.8,22,8,99,,,
广元市,老城,105.821,32.4444,2025-05-18T0100,70,115,1.1,42,1,51,,94,细颗粒物(PM2.5)
广元市,监测站,105.8628,32.4287,2025-05-18T0100,92,111,0.7,16,4,100,,122,细颗粒物(PM2.5)
广元市,经开区,105.8047,32.4166,2025-05-18T0100,112,150,1.1,24,8,105,,147,细颗粒物(PM2.5)
广州市,广雅中学,113.2347,23.1423,2025-05-18T0100,24,40,0.6,38,3,3,,40,
广州市,市五中,113.2612,23.105,2025-05-18T0100,23,41,0.3,51,5,,,,
广州市,广东商学院,113.3478,23.0916,2025-05-18T0100,22,42,0.9,55,5,15,,42,
广州市,市八十六中,113.4332,23.1047,2025-05-18T0100,25,42,0.8,56,4,1,,42,
广州市,番禺中学,113.3505,22.9483,2025-05-18T0100,12,16,0.4,46,5,4,,23,
广州市,花都师范,113.2146,23.3916,2025-05-18T0100,17,27,0.8,43,4,6,,27,
广州市,市监测站,113.2597,23.1331,2025-05-18T0100,18,31,0.6,51,6,6,,31,
广州市,九龙镇镇龙,113.5618,23.312,2025-05-18T0100,10,20,0.4,19,5,20,,20,
广州市,麓湖,113.2765,23.1544,2025-05-18T0100,24,33,0.7,42,5,2,,35,
广州市,帽峰山森林公园,113.443,23.3035,2025-05-18T0100,9,16,0.5,26,6,22,,16,
广州市,体育西,113.3221,23.1322,2025-05-18T0100,22,33,0.6,59,6,2,,33,
广州市,从化街口,113.5717,23.5491,2025-05-18T0100,18,27,0.6,24,6,4,,27,
广州市,白云竹料,113.3472,23.3692,2025-05-18T0100,22,34,0.5,30,2,15,,34,
广州市,白云嘉禾,113.2981,23.237,2025-05-18T0100,28,42,1.2,48,6,0,,42,
广州市,黄埔科学城,113.4256,23.1716,2025-05-18T0100,23,37,0.6,33,4,4,,37,
广州市,番禺大学城,113.3942,23.0483,2025-05-18T0100,24,40,0.6,60,5,2,,40,
广州市,南沙黄阁,113.4922,22.8168,2025-05-18T0100,8,22,0.5,11,4,32,,22,
广州市,南沙街,113.5342,22.7896,2025-05-18T0100,11,,0.5,12,1,29,,16,
广州市,花都梯面,113.2902,23.5544,2025-05-18T0100,14,21,0.6,22,4,7,,21,
广州市,从化良口,113.7858,23.7478,2025-05-18T0100,3,18,0.5,10,6,16,,18,
广州市,增城荔城,113.8051,23.2614,2025-05-18T0100,16,24,0.8,12,8,22,,24,
贵港市,德智高中,109.568,23.1478,2025-05-18T0100,,,,,,,,,
贵港市,江南子站,109.6047,23.0666,2025-05-18T0100,21,46,1.0,34,8,0,,46,
贵港市,荷城子站,109.5669,23.1065,2025-05-18T0100,14,24,0.4,29,8,16,,24,
贵港市,新世纪学校,109.5886,23.1172,2025-05-18T0100,18,39,0.9,26,3,5,,39,
贵港市,中山路155-3号,109.5933,23.0951,2025-05-18T0100,34,54,0.8,36,10,8,,52,颗粒物(PM10)
贵阳市,马鞍山,106.6899,26.5998,2025-05-18T0100,14,31,0.7,13,3,2,,31,
贵阳市,鉴湖路,106.6243,26.6266,2025-05-18T0100,19,44,0.5,24,5,31,,44,
贵阳市,燕子冲,106.7487,26.6343,2025-05-18T0100,24,39,0.4,17,3,24,,39,
贵阳市,碧云窝,106.6555,26.4365,2025-05-18T0100,22,44,0.4,24,3,14,,44,
贵阳市,红边门,106.7109,26.6027,2025-05-18T0100,27,39,0.4,14,3,32,,39,
贵阳市,新华路,106.7164,26.5699,2025-05-18T0100,22,36,0.6,13,5,48,,36,
贵阳市,太慈桥,106.674,26.5424,2025-05-18T0100,17,34,0.4,23,5,4,,34,
贵阳市,桐木岭,106.805,26.3003,2025-05-18T0100,19,31,0.9,4,1,44,,31,
贵阳市,花果园大街66号,106.6882,26.5695,2025-05-18T0100,35,,0.5,17,3,51,,50,
贵阳市,漓江路57号,106.6873,26.5169,2025-05-18T0100,19,36,0.4,18,2,28,,36,
桂林市,电子科大尧山校区,110.4144,25.3167,2025-05-18T0100,,,,,,,,,
桂林市,龙隐路小学,110.3089,25.2708,2025-05-18T0100,3,8,0.5,3,7,59,,19,
桂林市,八中,110.2869,25.2178,2025-05-18T0100,3,20,0.6,8,1,54,,20,
桂林市,旅游学院,110.296,25.1253,2025-05-18T0100,2,,0.2,6,1,47,,,
桂林市,环湖路276号,110.1835,25.2444,2025-05-18T0100,9,,0.4,7,4,43,,14,
桂林市,信义路13号,110.2803,25.2773,2025-05-18T0100,3,,0.4,7,1,54,,17,
果洛藏族自治州,玛沁县大武镇,100.2561,34.4714,2025-05-18T0100,16,31,0.4,9,20,50,,31,
哈尔滨市,岭北,126.5422,45.755,2025-05-18T0100,7,12,0.8,9,30,77,,25,
哈尔滨市,松北商大,126.561,45.8167,2025-05-18T0100,3,6,0.4,4,5,72,,23,
哈尔滨市,阿城会宁,126.979,45.5419,2025-05-18T0100,11,18,0.4,10,7,59,,19,
哈尔滨市,南岗学府路,126.599,45.7222,2025-05-18T0100,6,16,0.4,8,5,72,,23,
哈尔滨市,太平宏伟公园,126.689,45.7733,2025-05-18T0100,8,11,0.4,9,4,73,,23,
哈尔滨市,道外承德广场,126.635,45.7667,2025-05-18T0100,12,14,0.5,14,5,60,,19,
哈尔滨市,香坊红旗大街,126.685,45.7319,2025-05-18T0100,7,12,0.5,14,4,64,,20,
哈尔滨市,动力和平路,126.6411,45.7258,2025-05-18T0100,3,40,0.5,10,3,63,,40,
哈尔滨市,道里建国路,126.593,45.7478,2025-05-18T0100,9,15,0.5,9,5,65,,21,
哈尔滨市,平房东轻厂,126.615,45.61,2025-05-18T0100,8,,0.3,12,8,67,,21,
哈尔滨市,呼兰师专,126.595,45.9855,2025-05-18T0100,3,9,0.5,10,4,64,,20,
哈尔滨市,省农科院,126.6206,45.6842,2025-05-18T0100,7,12,0.6,11,11,58,,19,
哈密市,地区监测站,93.5128,42.8172,2025-05-18T0100,8,46,0.0,66,1,32,,46,
哈密市,哈密师范学校,93.4961,42.8328,2025-05-18T0100,21,38,0.4,14,4,50,,38,
海北藏族自治州,海晏县西海镇,100.9048,36.9639,2025-05-18T0100,28,45,0.5,10,9,63,,45,
海东市,平安区公安北苑,102.0738,36.5056,2025-05-18T0100,36,40,0.5,9,7,67,,52,细颗粒物(PM2.5)
海口市,东寨港,110.576,19.9507,2025-05-18T0100,13,26,0.1,3,3,27,,26,
海口市,海南大学,110.3232,20.0574,2025-05-18T0100,8,18,0.4,5,3,28,,18,
海口市,秀英海南医院,110.283,20.0053,2025-05-18T0100,7,18,0.3,8,4,26,,18,
海口市,海南师范大学,110.338,19.9969,2025-05-18T0100,11,24,0.4,6,4,26,,24,
海口市,龙华路环保局宿舍,110.33,20.0356,2025-05-18T0100,10,18,0.2,7,4,29,,18,
海口市,桂林洋子站,110.5111,19.9736,2025-05-18T0100,7,19,0.1,7,3,27,,19,
海南藏族自治州,共和县恰卜恰镇,100.6188,36.2866,2025-05-18T0100,34,51,0.3,6,15,104,,51,颗粒物(PM10)
海西蒙古族藏族自治州,德令哈市,97.3731,37.3753,2025-05-18T0100,16,31,0.4,1,12,119,,38,
邯郸市,东污水处理厂,114.5302,36.6116,2025-05-18T0100,19,46,0.3,18,4,73,,46,
邯郸市,矿院,114.4918,36.5713,2025-05-18T0100,19,45,0.2,18,4,66,,45,
邯郸市,丛台公园,114.484,36.6133,2025-05-18T0100,20,39,0.2,16,4,82,,39,
邯郸市,香泉濮院小区,114.7895,36.5593,2025-05-18T0100,17,64,0.1,16,4,68,,57,颗粒物(PM10)
邯郸市,永年区实验高中,114.50634,36.77178,2025-05-18T0100,28,59,0.4,22,4,64,,55,颗粒物(PM10)
邯郸市,峰峰矿区临水派出所,114.20016,36.44293,2025-05-18T0100,13,42,0.6,14,5,85,,42,
汉中市,汉川机床厂子校,106.9893,33.1842,2025-05-18T0100,51,70,0.5,15,7,74,,70,细颗粒物(PM2.5)
汉中市,市监测站,107.0154,33.0706,2025-05-18T0100,33,54,0.7,7,6,98,,52,颗粒物(PM10)
汉中市,鑫源开发区,107.0089,33.1138,2025-05-18T0100,29,35,0.5,11,6,88,,42,
汉中市,南郑大河坎水厂,107.007,33.0323,2025-05-18T0100,38,50,0.5,15,6,82,,54,细颗粒物(PM2.5)
杭州市,滨江,120.2072,30.2111,2025-05-18T0100,17,24,0.5,33,6,37,,25,
杭州市,西溪,120.0633,30.2747,2025-05-18T0100,17,30,0.5,29,4,12,,30,
杭州市,下沙,120.3417,30.3150,2025-05-18T0100,16,44,0.6,39,6,37,,44,
杭州市,卧龙桥,120.1269,30.2456,2025-05-18T0100,10,22,0.4,18,6,7,,22,
杭州市,浙江农大,120.1903,30.2692,2025-05-18T0100,24,36,0.6,39,9,24,,36,
杭州市,和睦小学,120.1197,30.3119,2025-05-18T0100,22,43,0.6,43,8,28,,43,
杭州市,临平镇,120.3019,30.4183,2025-05-18T0100,31,83,0.8,48,6,47,,67,颗粒物(PM10)
杭州市,城厢镇,120.2753,30.1839,2025-05-18T0100,19,37,0.4,34,7,33,,37,
杭州市,云栖,120.0883,30.1808,2025-05-18T0100,10,24,0.6,23,6,0,,24,
杭州市,镇二中,119.9464,30.0494,2025-05-18T0100,18,28,0.7,33,3,15,,28,
杭州市,市府大楼,119.7183,30.2367,2025-05-18T0100,22,36,0.7,26,7,19,,36,
杭州市,消防大队,120.1556,30.2864,2025-05-18T0100,20,30,0.9,33,3,32,,30,
合肥市,明珠广场,117.1959,31.7848,2025-05-18T0100,36,163,0.2,15,5,99,,107,颗粒物(PM10)
合肥市,三里街,117.3072,31.8764,2025-05-18T0100,29,129,0.4,12,6,86,,90,颗粒物(PM10)
合肥市,琥珀山庄,117.2588,31.8707,2025-05-18T0100,32,144,0.4,17,5,89,,97,颗粒物(PM10)
合肥市,董铺水库,117.1604,31.9052,2025-05-18T0100,19,128,0.2,10,3,91,,89,颗粒物(PM10)
合肥市,长江中路,117.25,31.8571,2025-05-18T0100,37,149,0.4,14,7,90,,100,颗粒物(PM10)
合肥市,庐阳区,117.266,31.9436,2025-05-18T0100,34,151,0.3,13,8,85,,101,颗粒物(PM10)
合肥市,瑶海区,117.3453,31.8616,2025-05-18T0100,54,173,0.3,18,7,80,,112,颗粒物(PM10)
合肥市,包河区,117.3027,31.7964,2025-05-18T0100,41,161,0.3,32,8,75,,106,颗粒物(PM10)
合肥市,滨湖新区,117.2776,31.7385,2025-05-18T0100,44,151,0.3,14,10,85,,101,颗粒物(PM10)
合肥市,高新区,117.1318,31.8403,2025-05-18T0100,31,139,0.4,19,6,87,,95,颗粒物(PM10)
合肥市,高教基地,117.3803,31.9147,2025-05-18T0100,31,132,0.3,12,6,88,,91,颗粒物(PM10)
和田地区,地区环保局,79.924,37.0877,2025-05-18T0100,112,378,0.7,31,1,49,,240,颗粒物(PM10)
和田地区,市环保局,79.9131,37.113,2025-05-18T0100,,338,0.4,38,3,,,,
河池市,东仁乐园,108.2011,24.715,2025-05-18T0100,,,,,,,,,
河池市,市环保站,108.0497,24.6947,2025-05-18T0100,3,12,0.5,5,6,60,,19,
河池市,市疾控中心,108.0983,24.6989,2025-05-18T0100,3,6,0.5,13,2,58,,19,
河源市,源西,114.6778,23.7569,2025-05-18T0100,21,28,0.7,33,4,14,,30,
河源市,东埔,114.6944,23.7586,2025-05-18T0100,25,33,0.7,27,4,21,,36,
河源市,老城,114.6892,23.7233,2025-05-18T0100,34,36,0.5,33,4,12,,49,
菏泽市,气象局,115.4208,35.2464,2025-05-18T0100,25,65,0.3,28,7,78,,58,颗粒物(PM10)
菏泽市,定陶老年大学,115.5564,35.0891,2025-05-18T0100,24,63,0.4,18,4,76,,57,颗粒物(PM10)
菏泽市,永昌路1号,115.4797,35.24401,2025-05-18T0100,27,58,0.3,22,6,94,,54,颗粒物(PM10)
菏泽市,长城路999号,115.4715,35.2800,2025-05-18T0100,20,67,0.1,38,6,61,,59,颗粒物(PM10)
贺州市,环保小区,111.5264,24.4172,2025-05-18T0100,11,13,0.9,9,7,28,,16,
贺州市,政协大楼,111.5608,24.4078,2025-05-18T0100,8,10,0.7,11,7,25,,12,
贺州市,西湾,111.4744,24.4553,2025-05-18T0100,8,17,0.5,6,7,35,,17,
鹤壁市,市监测站,114.17,35.9019,2025-05-18T0100,20,232,0.5,13,3,89,,141,颗粒物(PM10)
鹤壁市,市交警支队,114.2956,35.7511,2025-05-18T0100,27,61,0.1,27,1,66,,56,颗粒物(PM10)
鹤壁市,迎宾馆,114.2878,35.7306,2025-05-18T0100,20,59,0.4,30,6,64,,55,颗粒物(PM10)
鹤壁市,大新区,114.2617,35.6822,2025-05-18T0100,27,48,0.3,31,8,56,,48,
鹤壁市,南山宾馆,114.1572,35.9603,2025-05-18T0100,42,95,0.3,31,5,58,,73,颗粒物(PM10)
鹤岗市,哈啤分公司,130.2537,47.3416,2025-05-18T0100,18,,0.2,2,13,57,,26,
鹤岗市,斯达机电,130.2684,47.3086,2025-05-18T0100,24,,0.3,3,12,61,,35,
鹤岗市,东山纸板厂,130.3114,47.3388,2025-05-18T0100,6,18,0.6,5,13,54,,18,
鹤岗市,五号水库,130.1097,47.3382,2025-05-18T0100,,,,,,,,,
黑河市,交通局,127.4833,50.2524,2025-05-18T0100,12,12,0.3,3,8,49,,18,
黑河市,环保局,127.5144,50.2341,2025-05-18T0100,,,,,,,66,,
黑河市,大黑河岛,127.5291,50.2472,2025-05-18T0100,10,,0.2,2,3,71,,23,
衡水市,电机北厂,115.6838,37.7541,2025-05-18T0100,28,41,0.2,12,4,100,,41,
衡水市,市监测站,115.6303,37.7316,2025-05-18T0100,30,81,0.2,16,8,78,,66,颗粒物(PM10)
衡水市,市城管局,115.6683,37.7217,2025-05-18T0100,22,41,0.3,12,3,94,,41,
衡水市,地表水厂,115.5989,37.5491,2025-05-18T0100,26,64,0.2,46,6,41,,57,颗粒物(PM10)
衡阳市,原169医院,112.5003,26.9167,2025-05-18T0100,11,12,0.5,9,3,97,,31,
衡阳市,衡阳化工总厂,112.6194,26.9258,2025-05-18T0100,8,,0.4,1,5,93,,30,
衡阳市,珠晖区环保局,112.6211,26.8956,2025-05-18T0100,,5,0.6,19,6,84,,,
衡阳市,市委党校,112.6197,26.8733,2025-05-18T0100,7,,0.4,2,4,102,,32,
衡阳市,市监测站,112.6006,26.8919,2025-05-18T0100,11,,0.4,5,8,91,,29,
衡阳市,真空机电公司,112.5664,26.9056,2025-05-18T0100,13,,0.5,2,4,97,,31,
衡阳市,师范学院,112.6703,26.882,2025-05-18T0100,11,,0.6,5,6,109,,35,
红河哈尼族彝族自治州,污水处理厂,103.3772,23.3993,2025-05-18T0100,11,24,0.5,7,8,46,,24,
红河哈尼族彝族自治州,监测站,103.3861,23.35,2025-05-18T0100,15,24,0.1,5,8,38,,24,
红河哈尼族彝族自治州,州图书馆,103.3758,23.368,2025-05-18T0100,17,18,0.2,4,3,47,,25,
呼和浩特市,呼市一监,111.6507,40.7517,2025-05-18T0100,11,34,0.3,18,6,64,,34,
呼和浩特市,小召,111.6572,40.8033,2025-05-18T0100,8,17,0.4,15,6,83,,26,
呼和浩特市,如意水处理厂,111.7516,40.8369,2025-05-18T0100,16,24,0.3,34,5,42,,24,
呼和浩特市,二十九中,111.7276,40.8062,2025-05-18T0100,41,,0.5,18,4,63,,58,细颗粒物(PM2.5)
呼和浩特市,工大金川校区,111.5512,40.7866,2025-05-18T0100,7,10,0.5,17,5,70,,22,
呼和浩特市,化肥厂生活区,111.717,40.7612,2025-05-18T0100,8,20,0.3,28,5,56,,20,
呼和浩特市,红旗小学,111.5968,40.8178,2025-05-18T0100,3,9,0.4,17,3,80,,25,
呼和浩特市,海东办,111.6518,40.8389,2025-05-18T0100,12,,0.4,15,7,71,,23,
呼伦贝尔市,区环保局,119.7594,49.2261,2025-05-18T0100,23,,0.2,5,5,66,,33,
呼伦贝尔市,国华电力东,119.7512,49.1577,2025-05-18T0100,14,29,0.3,4,3,61,,29,
湖州市,城西水厂,120.0751,30.8669,2025-05-18T0100,24,72,0.5,11,6,131,,61,颗粒物(PM10)
湖州市,仁皇山新区,120.0830,30.8929,2025-05-18T0100,22,68,0.7,12,5,114,,59,颗粒物(PM10)
湖州市,吴兴区站,120.1844,30.8596,2025-05-18T0100,19,58,0.4,10,6,112,,54,颗粒物(PM10)
湖州市,南浔区站,120.4148,30.8538,2025-05-18T0100,17,60,0.6,12,5,121,,55,颗粒物(PM10)
葫芦岛市,龙港区,120.9049,40.7211,2025-05-18T0100,26,35,0.6,62,8,18,,38,
葫芦岛市,化工街,120.8392,40.7514,2025-05-18T0100,29,63,0.5,67,8,8,,57,颗粒物(PM10)
葫芦岛市,新区,120.8341,40.7073,2025-05-18T0100,27,40,0.5,71,6,12,,40,
葫芦岛市,东城区,120.8695,40.7677,2025-05-18T0100,38,54,0.6,74,14,3,,54,细颗粒物(PM2.5)
怀化市,林科所,109.5981,27.5721,2025-05-18T0100,24,37,0.9,8,5,40,,37,
怀化市,河西地税局,109.9453,27.5444,2025-05-18T0100,22,29,0.5,9,3,52,,32,
怀化市,市四医院,109.9781,27.5342,2025-05-18T0100,23,,0.9,5,3,63,,33,
怀化市,监测楼,109.9972,27.5578,2025-05-18T0100,31,38,0.2,11,1,76,,45,
怀化市,市委党校,110.0394,27.583,2025-05-18T0100,41,79,0.7,19,2,33,,65,颗粒物(PM10)
淮安市,钵池山,119.036,33.5981,2025-05-18T0100,20,44,1.1,10,8,97,,44,
淮安市,北京南路,119.007,33.575,2025-05-18T0100,19,46,0.8,11,8,102,,46,
淮安市,市监测站,118.989,33.6067,2025-05-18T0100,17,44,0.5,8,8,99,,44,
淮安市,楚州区监测站,119.135,33.5039,2025-05-18T0100,22,51,0.4,12,7,89,,51,颗粒物(PM10)
淮安市,新华书店,118.8755,33.2894,2025-05-18T0100,14,60,0.4,12,8,93,,55,颗粒物(PM10)
淮安市,承德北路606号,119.0288,33.6319,2025-05-18T0100,22,51,0.3,9,8,97,,51,颗粒物(PM10)
淮北市,监测站,116.8004,33.975,2025-05-18T0100,14,61,0.5,22,7,80,,56,颗粒物(PM10)
淮北市,烈山区政府,116.8091,33.9007,2025-05-18T0100,22,67,0.6,23,3,66,,59,颗粒物(PM10)
淮北市,杜集区检察院,116.8873,33.9836,2025-05-18T0100,22,84,0.6,29,7,55,,67,颗粒物(PM10)
淮北市,市博物馆,116.7923,33.9535,2025-05-18T0100,22,62,0.6,19,7,85,,56,颗粒物(PM10)
淮南市,潘集区政府,116.8305,32.7727,2025-05-18T0100,25,91,0.3,28,6,66,,71,颗粒物(PM10)
淮南市,谢家集区政府,116.8569,32.5951,2025-05-18T0100,21,100,0.2,20,8,70,,75,颗粒物(PM10)
淮南市,八公山区政府,116.8281,32.633,2025-05-18T0100,17,103,0.3,14,9,72,,77,颗粒物(PM10)
淮南市,焦岗湖风景区管理处,116.6325,32.6201,2025-05-18T0100,,,,,,,,,
淮南市,经济技术开发区消防队,117.0566,32.6531,2025-05-18T0100,35,99,0.3,25,8,65,,75,颗粒物(PM10)
淮南市,山南新区,117.0108,32.5893,2025-05-18T0100,15,131,0.2,16,8,88,,91,颗粒物(PM10)
淮南市,国庆中路369号,117.0031,32.6445,2025-05-18T0100,32,98,0.3,15,10,69,,74,颗粒物(PM10)
黄冈市,职工中心,114.9028,30.4742,2025-05-18T0100,,,,,,,,,
黄冈市,红卫路,114.8858,30.4519,2025-05-18T0100,56,184,0.5,2,6,126,,117,颗粒物(PM10)
黄冈市,市林业局,114.9136,30.4445,2025-05-18T0100,43,199,0.9,6,8,115,,125,颗粒物(PM10)
黄南藏族自治州,同仁县隆务镇,102.0199,35.5102,2025-05-18T0100,28,73,0.1,1,3,95,,62,颗粒物(PM10)
黄山市,延安路89号,118.2903,29.6963,2025-05-18T0100,14,24,0.5,10,5,23,,24,
黄山市,黄山区政府5号楼,118.1371,30.2756,2025-05-18T0100,12,30,0.4,8,3,15,,30,
黄山市,滨江东路7-2号,118.3354,29.7203,2025-05-18T0100,16,31,0.3,11,4,16,,31,
黄石市,沈家营,115.0601,30.2313,2025-05-18T0100,25,53,0.8,20,6,60,,52,颗粒物(PM10)
黄石市,铁山,114.8988,30.2019,2025-05-18T0100,44,54,0.4,28,13,47,,62,细颗粒物(PM2.5)
黄石市,团城山,115.0307,30.2092,2025-05-18T0100,30,61,0.7,18,7,67,,56,颗粒物(PM10)
黄石市,笔架山北路,115.0235,30.1578,2025-05-18T0100,32,59,0.8,4,7,55,,55,颗粒物(PM10)
黄石市,磁湖东路29号,115.0780,30.21118,2025-05-18T0100,39,79,0.7,38,9,46,,65,颗粒物(PM10)
惠州市,河南岸金山湖子站,114.4183,23.0528,2025-05-18T0100,21,33,0.4,25,9,23,,33,
惠州市,下埔横江三路子站,114.4053,23.0822,2025-05-18T0100,25,38,0.4,24,7,34,,38,
惠州市,江北云山西路子站,114.4103,23.1142,2025-05-18T0100,26,43,0.6,29,6,28,,43,
惠州市,惠阳区承修路船湖子站,114.4645,22.7833,2025-05-18T0100,23,45,0.6,27,8,17,,45,
惠州市,大亚湾管委会子站,114.5317,22.7422,2025-05-18T0100,7,18,0.5,19,8,26,,18,
惠州市,惠阳秋长,114.4338,22.8134,2025-05-18T0100,9,22,0.4,22,10,26,,22,
惠州市,大亚湾霞涌,114.6517,22.775,2025-05-18T0100,2,,0.5,8,6,45,,,
鸡西市,环保局,130.9762,45.3001,2025-05-18T0100,3,6,0.4,5,5,68,,22,
鸡西市,第一中学,130.9429,45.3039,2025-05-18T0100,3,7,0.4,2,6,65,,21,
鸡西市,欧美日汽修厂,131.0207,45.3073,2025-05-18T0100,,,,,,,,,
鸡西市,市政设施管理处,130.9967,45.3106,2025-05-18T0100,10,,0.4,3,4,62,,20,
吉安市,红声器材厂,114.9754,27.0803,2025-05-18T0100,3,15,0.6,14,9,30,,15,
吉安市,市森林工业局,114.9658,27.0999,2025-05-18T0100,6,11,0.5,8,8,38,,12,
吉安市,市环境监测站,114.99,27.1312,2025-05-18T0100,6,18,0.6,9,12,34,,18,
吉安市,青原区法院,115.0093,27.0968,2025-05-18T0100,9,18,0.3,16,10,25,,18,
吉林市,哈达湾,126.54,43.8622,2025-05-18T0100,12,20,0.3,10,5,49,,20,
吉林市,东局子,126.5844,43.8358,2025-05-18T0100,22,,0.4,11,6,56,,32,
吉林市,电力学院,126.5052,43.8245,2025-05-18T0100,14,17,0.4,9,4,51,,20,
吉林市,江北,126.6133,43.8972,2025-05-18T0100,13,19,0.3,8,6,57,,19,
吉林市,江南公园,126.555,43.8306,2025-05-18T0100,12,17,0.3,11,5,51,,18,
吉林市,丰满,126.7061,43.7133,2025-05-18T0100,,,,,,,,,
吉林市,九站,126.4739,43.953,2025-05-18T0100,15,15,0.3,11,6,57,,22,
济南市,科干所,116.9862,36.6114,2025-05-18T0100,24,44,0.2,17,3,99,,44,
济南市,农科所,116.9376,36.665,2025-05-18T0100,17,61,0.3,27,6,78,,56,颗粒物(PM10)
济南市,开发区,117.1265,36.6734,2025-05-18T0100,24,49,0.5,18,6,91,,49,
济南市,省种子仓库,117.0624,36.6868,2025-05-18T0100,27,63,0.4,21,4,95,,57,颗粒物(PM10)
济南市,机床二厂,116.9489,36.6447,2025-05-18T0100,22,93,0.5,30,7,78,,72,颗粒物(PM10)
济南市,市监测站,117.0495,36.663,2025-05-18T0100,20,46,0.4,25,7,89,,46,
济南市,长清党校,116.7675,36.5484,2025-05-18T0100,22,49,0.6,26,4,91,,49,
济南市,技术学院,117.6795,36.229,2025-05-18T0100,24,48,0.4,40,10,69,,48,
济南市,东山小学,117.532,36.6868,2025-05-18T0100,24,49,0.3,26,6,74,,49,
济南市,泰兴公司,117.7161,36.2049,2025-05-18T0100,34,58,0.2,48,5,57,,54,颗粒物(PM10)
济南市,莱芜战役纪念馆,117.6867,36.2171,2025-05-18T0100,24,53,0.7,35,6,81,,52,颗粒物(PM10)
济南市,济阳区政府,117.1673,36.9782,2025-05-18T0100,37,83,0.4,50,8,46,,67,颗粒物(PM10)
济南市,锦屏中学,117.1171,36.63,2025-05-18T0100,12,46,0.3,21,7,80,,46,
济南市,济南四建,116.9814,36.6819,2025-05-18T0100,24,48,0.3,18,4,98,,48,
济宁市,火炬城,116.6251,35.4302,2025-05-18T0100,31,52,0.2,10,5,80,,51,颗粒物(PM10)
济宁市,电化厂,116.5491,35.4042,2025-05-18T0100,24,,0.4,8,2,90,,35,
济宁市,北湖一中,116.5814,35.3707,2025-05-18T0100,29,44,0.2,14,2,87,,44,
济宁市,服务中心,116.8249,35.5593,2025-05-18T0100,18,59,0.2,19,2,82,,55,颗粒物(PM10)
济宁市,市第七中学,116.5907,35.4054,2025-05-18T0100,22,64,0.3,10,6,87,,57,颗粒物(PM10)
佳木斯市,佳纺,130.2751,46.8028,2025-05-18T0100,3,6,0.2,6,4,56,,18,
佳木斯市,发电厂,130.3995,46.8307,2025-05-18T0100,3,8,0.1,4,4,62,,20,
佳木斯市,环保局,130.3258,46.7975,2025-05-18T0100,3,8,0.3,8,4,54,,17,
佳木斯市,十一中,130.3648,46.8032,2025-05-18T0100,3,6,0.3,8,3,59,,19,
佳木斯市,四丰,130.3794,46.7588,2025-05-18T0100,3,6,0.3,4,1,,,,
嘉兴市,清河小学,120.7436,30.778,2025-05-18T0100,20,63,0.5,11,6,114,,57,颗粒物(PM10)
嘉兴市,嘉兴学院,120.726,30.7478,2025-05-18T0100,24,59,0.3,8,6,117,,55,颗粒物(PM10)
嘉兴市,南湖区残联,120.7846,30.7525,2025-05-18T0100,26,71,0.7,6,6,121,,61,颗粒物(PM10)
嘉兴市,秀洲住建,120.6916,30.7739,2025-05-18T0100,27,68,0.6,3,6,122,,59,颗粒物(PM10)
嘉峪关市,气象局,98.2908,39.7711,2025-05-18T0100,31,107,0.3,11,4,94,,79,颗粒物(PM10)
嘉峪关市,酒钢宾馆,98.2672,39.7978,2025-05-18T0100,36,102,0.4,8,5,95,,76,颗粒物(PM10)
嘉峪关市,雄关区,98.2643,39.7724,2025-05-18T0100,29,85,0.3,11,9,98,,68,颗粒物(PM10)
江门市,北街,113.1064,22.6058,2025-05-18T0100,15,20,0.3,11,5,12,,22,
江门市,西区,113.0731,22.5835,2025-05-18T0100,7,13,0.4,14,6,24,,13,
江门市,圭峰西,113.0219,22.5311,2025-05-18T0100,14,20,0.4,12,4,19,,20,
江门市,东湖,113.0828,22.5947,2025-05-18T0100,11,16,0.5,13,8,25,,16,
江门市,江海富民,113.1075,22.5647,2025-05-18T0100,10,37,0.3,11,8,25,,37,
江门市,新会银湖,113.05,22.4667,2025-05-18T0100,10,,0.3,14,1,11,,15,
焦作市,影视城,113.1992,35.2590,2025-05-18T0100,,,,,,,,,
焦作市,太极体育中心,113.2725,35.2067,2025-05-18T0100,20,66,0.3,20,18,67,,58,颗粒物(PM10)
焦作市,马村街道办,113.3137,35.2641,2025-05-18T0100,31,74,0.4,19,11,78,,62,颗粒物(PM10)
焦作市,焦作技师学院,113.2465,35.2373,2025-05-18T0100,34,60,0.7,13,8,77,,55,颗粒物(PM10)
焦作市,中站许衡医院,113.1656,35.2539,2025-05-18T0100,26,117,0.4,24,7,83,,84,颗粒物(PM10)
焦作市,原李万街道办,113.2449,35.1803,2025-05-18T0100,24,83,0.7,16,18,77,,67,颗粒物(PM10)
焦作市,新安路1731号,113.2340,35.2190,2025-05-18T0100,15,65,0.5,17,8,74,,58,颗粒物(PM10)
揭阳市,新兴,116.3701,23.5345,2025-05-18T0100,19,26,0.5,15,5,26,,28,
揭阳市,西马,116.3264,23.5443,2025-05-18T0100,12,46,0.6,12,7,26,,46,
揭阳市,东兴,116.3611,23.5626,2025-05-18T0100,15,,0.6,12,4,26,,22,
揭阳市,渔湖,116.4151,23.5294,2025-05-18T0100,17,43,0.7,22,4,25,,43,
揭阳市,曲溪,116.403,23.5699,2025-05-18T0100,16,27,0.5,24,6,20,,27,
金昌市,天庆家园,102.1692,38.5167,2025-05-18T0100,49,85,0.4,2,6,111,,68,"颗粒物(PM10),细颗粒物(PM2.5)"
金昌市,金川区人防中心,102.1647,38.5371,2025-05-18T0100,41,125,0.5,3,5,102,,88,颗粒物(PM10)
金昌市,长春路96号,102.1930,38.5319,2025-05-18T0100,40,121,0.5,1,6,106,,86,颗粒物(PM10)
金华市,十五中,119.647,29.077,2025-05-18T0100,14,29,0.4,13,1,28,,29,
金华市,监测站,119.686,29.1029,2025-05-18T0100,31,52,0.8,40,3,0,,51,颗粒物(PM10)
金华市,气象局,119.656,29.1131,2025-05-18T0100,36,66,0.8,27,2,18,,58,颗粒物(PM10)
锦州市,南山,121.1115,41.0879,2025-05-18T0100,42,61,1.1,41,27,30,,59,细颗粒物(PM2.5)
锦州市,开发区,121.0604,40.8428,2025-05-18T0100,32,83,0.6,88,8,3,,67,颗粒物(PM10)
锦州市,百股街道,121.1836,41.1119,2025-05-18T0100,34,53,0.9,36,16,23,,52,颗粒物(PM10)
锦州市,天安街道,121.1178,41.1222,2025-05-18T0100,26,58,0.7,22,22,50,,54,颗粒物(PM10)
锦州市,北湖公园,121.1303,41.1386,2025-05-18T0100,22,50,0.7,16,20,59,,50,
晋城市,自来水公司,112.85,35.5051,2025-05-18T0100,9,51,0.0,9,7,106,,51,颗粒物(PM10)
晋城市,白云商贸,112.8318,35.4936,2025-05-18T0100,17,63,0.4,13,6,103,,57,颗粒物(PM10)
晋城市,市环保局,112.8508,35.4887,2025-05-18T0100,12,81,0.2,10,5,96,,66,颗粒物(PM10)
晋城市,技术学院,112.8676,35.4897,2025-05-18T0100,3,43,0.5,13,8,95,,43,
晋城市,白马寺,112.8453,35.546,2025-05-18T0100,20,121,0.3,8,4,110,,86,颗粒物(PM10)
晋城市,泽州一中,112.8271,35.4828,2025-05-18T0100,7,25,0.3,12,9,99,,31,
晋中市,南都小区,112.7249,37.7067,2025-05-18T0100,12,46,0.7,26,16,60,,46,
晋中市,榆次区政府,112.6991,37.6982,2025-05-18T0100,8,46,0.4,31,13,51,,46,
晋中市,榆次三中,112.7195,37.6828,2025-05-18T0100,24,70,0.9,32,18,52,,60,颗粒物(PM10)
晋中市,迎宾街26号,112.7478,37.6954,2025-05-18T0100,19,56,0.4,32,12,52,,53,颗粒物(PM10)
荆门市,竹园小学,112.2014,31.0481,2025-05-18T0100,54,139,0.6,35,5,51,,95,颗粒物(PM10)
荆门市,掇刀,112.1969,30.9891,2025-05-18T0100,50,132,0.5,22,16,93,,91,颗粒物(PM10)
荆门市,石化一小,112.2213,31.0386,2025-05-18T0100,76,136,1.0,40,6,37,,102,细颗粒物(PM2.5)
荆门市,西山林语,112.1849,31.0362,2025-05-18T0100,41,104,0.9,13,9,76,,77,颗粒物(PM10)
荆门市,龙泉中学南校,112.1632,31.0138,2025-05-18T0100,46,131,0.6,13,7,82,,91,颗粒物(PM10)
荆州市,市图书馆,112.2494,30.3197,2025-05-18T0100,53,78,0.6,53,5,26,,73,细颗粒物(PM2.5)
荆州市,市委党校,112.2008,30.3544,2025-05-18T0100,51,88,0.5,24,7,45,,70,细颗粒物(PM2.5)
荆州市,管委会,112.2747,30.3122,2025-05-18T0100,47,82,0.9,31,8,39,,66,颗粒物(PM10)
荆州市,学苑路85号,112.1722,30.3366,2025-05-18T0100,69,78,0.7,16,3,41,,93,细颗粒物(PM2.5)
景德镇市,王港中学,117.3102,29.3867,2025-05-18T0100,,,,,,,,,
景德镇市,老干部活动中心,117.2117,29.2933,2025-05-18T0100,18,48,0.6,26,7,35,,48,
景德镇市,兽医站,117.1894,29.2789,2025-05-18T0100,20,47,0.5,12,3,44,,47,
景德镇市,台达陶瓷,117.1547,29.2617,2025-05-18T0100,27,46,0.7,32,93,34,,46,
景德镇市,陶研所,117.2461,29.2956,2025-05-18T0100,18,25,0.4,7,5,42,,26,
九江市,十里,115.9872,29.6815,2025-05-18T0100,32,52,0.8,28,2,50,,51,颗粒物(PM10)
九江市,茅山头,115.9584,29.7046,2025-05-18T0100,39,60,0.8,34,5,30,,55,"颗粒物(PM10),细颗粒物(PM2.5)"
九江市,西园,115.9877,29.7295,2025-05-18T0100,44,63,1.0,103,28,16,,62,细颗粒物(PM2.5)
九江市,综合工业园,115.9114,29.6038,2025-05-18T0100,26,50,0.9,43,6,46,,50,
九江市,石化总厂,116.0721,29.7535,2025-05-18T0100,57,66,0.9,78,7,15,,78,细颗粒物(PM2.5)
九江市,庐山气象台,115.9773,29.5698,2025-05-18T0100,23,33,0.6,7,8,130,,41,
九江市,外国语学校,116.0254,29.6994,2025-05-18T0100,30,41,1.0,67,5,27,,43,
九江市,莲花大道8号,116.0102,29.6594,2025-05-18T0100,21,,0.7,3,3,85,,30,
酒泉市,玉门东路5号,98.4958,39.7339,2025-05-18T0100,39,119,0.3,8,14,83,,85,颗粒物(PM10)
酒泉市,北大街108号,98.5099,39.7506,2025-05-18T0100,31,151,0.3,15,25,75,,101,颗粒物(PM10)
喀什地区,巡警大队,76.0072,39.4467,2025-05-18T0100,40,130,0.3,15,4,103,,90,颗粒物(PM10)
喀什地区,吾办,75.9755,39.4694,2025-05-18T0100,86,126,0.6,16,10,100,,114,细颗粒物(PM2.5)
喀什地区,老干局,75.9483,39.4689,2025-05-18T0100,39,117,0.4,11,5,107,,84,颗粒物(PM10)
开封市,肿瘤医院,114.3389,34.7781,2025-05-18T0100,32,68,0.6,17,10,92,,59,颗粒物(PM10)
开封市,世纪星幼儿园,114.2885,34.7965,2025-05-18T0100,23,53,0.5,12,11,109,,52,颗粒物(PM10)
开封市,龙亭公园,114.3438,34.8106,2025-05-18T0100,23,63,0.4,26,10,80,,57,颗粒物(PM10)
开封市,汴京公园,114.3644,34.7964,2025-05-18T0100,23,71,0.5,15,5,88,,61,颗粒物(PM10)
开封市,技师学院,114.2485,34.8306,2025-05-18T0100,36,50,0.4,16,3,95,,52,细颗粒物(PM2.5)
开封市,祥符区生态环境局,114.4644,34.7556,2025-05-18T0100,28,,0.4,39,7,64,,,
克拉玛依市,长征新村,84.895,45.6094,2025-05-18T0100,31,80,0.6,31,8,35,,65,颗粒物(PM10)
克拉玛依市,南林小区,84.8988,45.5893,2025-05-18T0100,43,77,1.0,65,6,7,,64,颗粒物(PM10)
克拉玛依市,独山子区,84.905,44.3396,2025-05-18T0100,19,37,0.2,7,5,94,,37,
克拉玛依市,乌尔禾区商贸楼,85.6979,46.098,2025-05-18T0100,10,85,0.5,23,10,38,,68,颗粒物(PM10)
克拉玛依市,白碱滩区新站,85.1045,45.6899,2025-05-18T0100,30,42,0.1,22,13,63,,43,
克孜勒苏柯尔克孜自治州,市人民政府,76.1454,39.7142,2025-05-18T0100,48,93,0.3,15,4,94,,72,颗粒物(PM10)
克孜勒苏柯尔克孜自治州,克州文化中心,76.1658,39.7157,2025-05-18T0100,40,102,0.4,21,5,100,,76,颗粒物(PM10)
昆明市,呈贡新区,102.8204,24.8886,2025-05-18T0100,27,32,0.6,24,5,60,,39,
昆明市,西山森林公园,102.6251,24.9608,2025-05-18T0100,,,,,,,,,
昆明市,龙泉镇,102.7252,25.0902,2025-05-18T0100,17,36,0.4,10,1,68,,36,
昆明市,东风东路,102.7266,25.0375,2025-05-18T0100,16,33,0.4,12,6,81,,33,
昆明市,金鼎山,102.6742,25.0669,2025-05-18T0100,9,29,0.4,15,2,76,,29,
昆明市,碧鸡广场,102.6644,25.0401,2025-05-18T0100,12,32,0.5,13,5,81,,32,
昆明市,官渡区博物馆,102.7494,25.0119,2025-05-18T0100,12,33,0.5,15,6,74,,33,
昆明市,青年创业园,102.8017,24.8336,2025-05-18T0100,19,26,0.5,13,8,79,,28,
昆明市,昆明学院,102.7997,24.9786,2025-05-18T0100,24,36,0.3,19,4,68,,36,
昆明市,晋宁区生态环境分局,102.5967,24.6736,2025-05-18T0100,12,,0.6,16,6,80,,25,
昆明市,云天化总部,102.6678,24.9856,2025-05-18T0100,24,32,0.7,14,2,78,,35,
拉萨市,八廓街,91.1319,29.6514,2025-05-18T0100,6,12,0.4,18,6,135,,43,
拉萨市,市环保局,91.1221,29.6747,2025-05-18T0100,11,25,0.3,19,4,99,,31,
拉萨市,区监测站,91.0874,29.6475,2025-05-18T0100,3,12,0.3,17,6,138,,44,
拉萨市,西藏大学,91.1774,29.6541,2025-05-18T0100,6,11,0.3,15,7,138,,44,
拉萨市,区辐射站,90.9798,29.6588,2025-05-18T0100,8,20,0.5,22,5,117,,37,
拉萨市,拉萨火车站,91.0834,29.6292,2025-05-18T0100,10,10,0.5,13,3,141,,45,
来宾市,来宾技工学校,109.2203,23.7256,2025-05-18T0100,16,29,0.6,14,14,28,,29,
来宾市,兴宾区政府,109.1781,23.7297,2025-05-18T0100,10,20,0.6,16,5,27,,20,
来宾市,中南小学,109.2416,23.7461,2025-05-18T0100,10,30,0.5,20,7,21,,30,
兰州市,榆中兰大校区,104.1373,35.9454,2025-05-18T0100,,,,,,,,,
兰州市,铁路设计院,103.831,36.0464,2025-05-18T0100,48,69,0.4,22,8,92,,67,细颗粒物(PM2.5)
兰州市,百合公园,103.7439,36.0842,2025-05-18T0100,33,65,0.3,26,3,79,,58,颗粒物(PM10)
兰州市,和平,103.9611,35.998,2025-05-18T0100,32,68,0.2,6,6,97,,59,颗粒物(PM10)
兰州市,庄浪东路808号,103.6293,36.0938,2025-05-18T0100,37,61,0.2,12,9,100,,56,颗粒物(PM10)
兰州市,安宁西路88号,103.7251,36.1043,2025-05-18T0100,42,90,0.2,9,6,100,,70,颗粒物(PM10)
兰州市,北滨河东路1号,103.8470,36.0676,2025-05-18T0100,42,86,0.6,33,8,78,,68,颗粒物(PM10)
兰州新区,新区管委会,103.6633,36.533,2025-05-18T0100,41,42,0.3,7,25,105,,58,细颗粒物(PM2.5)
兰州新区,舟曲中学,103.6975,36.4789,2025-05-18T0100,26,60,0.3,6,8,104,,55,颗粒物(PM10)
廊坊市,药材公司,116.6708,39.5111,2025-05-18T0100,11,20,0.3,20,3,58,,20,
廊坊市,开发区,116.7214,39.5589,2025-05-18T0100,16,26,0.2,49,2,32,,26,
廊坊市,北华航天学院,116.7244,39.5269,2025-05-18T0100,8,38,0.2,27,3,56,,38,
廊坊市,河北工业大学,116.7022,39.5453,2025-05-18T0100,13,36,0.2,25,3,52,,36,
乐山市,花湖湾,103.7723,29.5462,2025-05-18T0100,67,94,0.8,48,6,19,,90,细颗粒物(PM2.5)
乐山市,牛耳桥,103.7627,29.5844,2025-05-18T0100,67,94,0.9,43,7,6,,90,细颗粒物(PM2.5)
乐山市,市第三水厂,103.7508,29.6006,2025-05-18T0100,64,90,1.0,53,6,1,,87,细颗粒物(PM2.5)
乐山市,市监测站,103.7571,29.5664,2025-05-18T0100,42,75,1.2,47,6,3,,63,颗粒物(PM10)
乐山市,理工大学,103.7311,29.5628,2025-05-18T0100,70,91,1.5,50,10,1,,94,细颗粒物(PM2.5)
丽江市,西南郊,100.2143,26.8576,2025-05-18T0100,,,,,,,,,
丽江市,丽江古城,100.2497,26.8802,2025-05-18T0100,,28,0.4,8,9,95,,,
丽江市,市中心,100.2203,26.8906,2025-05-18T0100,15,,0.4,8,8,95,,30,
丽水市,监测站大楼,119.914,28.4514,2025-05-18T0100,14,30,0.8,23,2,0,,30,
丽水市,莲都小学,119.93,28.4586,2025-05-18T0100,11,23,0.5,26,3,2,,23,
丽水市,余庄前,119.879,28.4231,2025-05-18T0100,12,30,0.7,10,3,0,,30,
连云港市,市环境监测站,119.176,34.5885,2025-05-18T0100,14,36,0.5,13,7,106,,36,
连云港市,德源药业,119.3581,34.6972,2025-05-18T0100,12,34,0.5,7,9,100,,34,
连云港市,新城一中,119.178,34.844,2025-05-18T0100,14,57,0.5,9,7,101,,54,颗粒物(PM10)
连云港市,胡沟管理处,119.3608,34.7519,2025-05-18T0100,7,27,0.6,12,8,100,,32,
连云港市,矿山设计院,119.1478,34.5911,2025-05-18T0100,9,34,0.5,15,7,110,,35,
连云港市,工贸学校,119.2413,34.6539,2025-05-18T0100,16,23,0.5,5,9,118,,37,
连云港市,连云街道,119.4172,34.7341,2025-05-18T0100,9,21,0.4,12,8,103,,33,
凉山彝族自治州,青龙寺,102.3431,27.8099,2025-05-18T0100,6,22,0.5,10,4,79,,25,
凉山彝族自治州,邛海宾馆,102.2721,27.8415,2025-05-18T0100,10,17,0.4,6,10,100,,32,
凉山彝族自治州,西昌市政府,102.2625,27.898,2025-05-18T0100,3,13,0.3,5,11,96,,30,
凉山彝族自治州,凉山州政府,102.2685,27.8851,2025-05-18T0100,9,15,0,7,7,93,,30,
凉山彝族自治州,凯乐南路30号,102.2342,27.8859,2025-05-18T0100,9,23,0.3,9,6,91,,29,
辽阳市,宏伟区,123.2,41.1953,2025-05-18T0100,17,34,1.0,21,11,56,,34,
辽阳市,新华园,123.1683,41.2495,2025-05-18T0100,33,44,1.1,34,14,41,,48,
辽阳市,滨河路,123.2354,41.2639,2025-05-18T0100,33,,0.8,22,10,45,,48,
辽阳市,铁西工业园,123.149,41.2991,2025-05-18T0100,48,71,1.9,39,16,34,,67,细颗粒物(PM2.5)
辽源市,环保局,125.1358,42.8845,2025-05-18T0100,11,28,0.4,9,7,66,,28,
辽源市,银鹰制药,125.0764,42.9078,2025-05-18T0100,15,18,0.3,9,3,73,,23,
聊城市,区政府,115.9848,36.4372,2025-05-18T0100,33,64,0.6,37,5,69,,57,颗粒物(PM10)
聊城市,聊大东校,116.0072,36.4343,2025-05-18T0100,35,66,0.3,33,6,62,,58,颗粒物(PM10)
聊城市,监控中心,115.9819,36.4978,2025-05-18T0100,27,66,0.4,43,5,36,,58,颗粒物(PM10)
聊城市,九州社区,116.0445,36.4361,2025-05-18T0100,31,58,0.4,23,4,75,,54,颗粒物(PM10)
聊城市,星美广场,116.0567,36.4608,2025-05-18T0100,35,70,0.5,14,8,79,,60,颗粒物(PM10)
林芝市,林芝监测站,94.3681,29.6376,2025-05-18T0100,3,,0.4,5,5,71,,23,
林芝市,林芝人民医院,94.3616,29.6616,2025-05-18T0100,3,6,0.4,2,6,67,,21,
临沧市,市环保局,100.0781,23.8982,2025-05-18T0100,40,,0.8,11,8,,,,
临沧市,市气象局,100.0894,23.8822,2025-05-18T0100,25,28,0.6,10,8,40,,36,
临汾市,临钢医院,111.5531,36.0783,2025-05-18T0100,8,44,0.6,35,4,37,,44,
临汾市,技工学校,111.5028,36.0714,2025-05-18T0100,13,43,0.4,38,4,41,,43,
临汾市,市委,111.5018,36.0855,2025-05-18T0100,3,58,0.4,31,5,58,,54,颗粒物(PM10)
临汾市,唐尧大酒店,111.505,36.1014,2025-05-18T0100,8,38,0.4,21,5,63,,38,
临汾市,启星学校,111.4879,36.0530,2025-05-18T0100,14,54,0.6,48,3,26,,52,颗粒物(PM10)
临夏回族自治州,滨河东路1号,103.2464,35.6123,2025-05-18T0100,52,124,0.2,30,6,60,,87,颗粒物(PM10)
临夏回族自治州,新华街21号,103.2093,35.5995,2025-05-18T0100,35,77,0.2,20,6,73,,64,颗粒物(PM10)
临沂市,沂河小区,118.3429,35.0532,2025-05-18T0100,37,61,0.3,14,5,91,,56,颗粒物(PM10)
临沂市,鲁南制药厂,118.295,35.0583,2025-05-18T0100,20,56,0.6,34,7,95,,53,颗粒物(PM10)
临沂市,新光毛纺厂,118.2794,34.9976,2025-05-18T0100,31,44,0.3,24,8,97,,45,
临沂市,河东保险公司,118.3956,35.0888,2025-05-18T0100,26,53,0.4,24,6,83,,52,颗粒物(PM10)
临沂市,十里堡居委,118.3564,35.0215,2025-05-18T0100,22,56,0.4,21,6,99,,53,颗粒物(PM10)
临沂市,南坊新区,118.3604,35.1084,2025-05-18T0100,17,56,0.2,18,7,89,,53,颗粒物(PM10)
临沂市,皇山花园小区,118.3920,35.0300,2025-05-18T0100,26,61,0.4,28,7,88,,56,颗粒物(PM10)
柳州市,柳东小学,109.4856,24.3895,2025-05-18T0100,6,12,0.4,8,8,51,,16,
柳州市,环保监测站,109.4157,24.3277,2025-05-18T0100,3,16,0.7,12,3,48,,16,
柳州市,河西水厂,109.389,24.341,2025-05-18T0100,6,6,0.6,17,4,47,,15,
柳州市,市四中,109.4311,24.2921,2025-05-18T0100,10,,0.4,10,7,49,,16,
柳州市,市九中,109.4006,24.3631,2025-05-18T0100,3,18,0.6,17,7,44,,18,
柳州市,古亭山,109.4958,24.3134,2025-05-18T0100,3,,0.9,14,5,32,,10,
柳州市,市二中,109.5422,24.3996,2025-05-18T0100,7,,0.2,8,10,49,,16,
六安市,监测大楼,116.5079,31.737,2025-05-18T0100,35,110,0.2,10,5,89,,80,颗粒物(PM10)
六安市,皖西学院,116.4738,31.7643,2025-05-18T0100,45,135,0.2,14,6,87,,93,颗粒物(PM10)
六安市,朝阳厂,116.4996,31.7905,2025-05-18T0100,34,106,0.2,19,5,83,,78,颗粒物(PM10)
六安市,开发区,116.5567,31.7886,2025-05-18T0100,47,157,0.3,25,6,73,,104,颗粒物(PM10)
六盘水市,窑上,104.8,26.5892,2025-05-18T0100,19,28,0.3,6,4,33,,28,
六盘水市,黄土坡,104.83,26.5917,2025-05-18T0100,29,31,0.5,28,8,28,,42,
六盘水市,水钢,104.89,26.5939,2025-05-18T0100,20,40,0.5,11,10,79,,40,
六盘水市,民中,104.8475,26.5894,2025-05-18T0100,19,29,0.4,29,8,54,,29,
六盘水市,双水,104.9544,26.5506,2025-05-18T0100,19,34,0.2,14,9,78,,34,
龙岩市,龙岩师专,117.0189,25.1181,2025-05-18T0100,,,,,,,,,
龙岩市,龙岩市监测站,117.0217,25.1033,2025-05-18T0100,13,20,0.5,24,9,19,,20,
龙岩市,闽西职业技术学院,117.0258,25.0661,2025-05-18T0100,14,37,0.4,26,53,11,,37,
龙岩市,龙岩学院,117.0196,25.0306,2025-05-18T0100,9,15,0.3,10,11,26,,15,
陇南市,汉王镇固水子,105.0822,33.3261,2025-05-18T0100,,,,,,,,,
陇南市,滨江中学,104.9339,33.3826,2025-05-18T0100,21,69,0.4,11,6,81,,60,颗粒物(PM10)
陇南市,市总工会,104.955,33.371,2025-05-18T0100,20,44,0.4,7,6,83,,44,
娄底市,电视发射台,111.9589,27.8901,2025-05-18T0100,24,58,0.3,2,5,28,,54,颗粒物(PM10)
娄底市,市监测站,111.9975,27.725,2025-05-18T0100,33,63,0.8,18,9,39,,57,颗粒物(PM10)
娄底市,市委党校,112.0194,27.7314,2025-05-18T0100,40,52,0.6,9,3,41,,57,细颗粒物(PM2.5)
娄底市,涟钢,111.9561,27.7569,2025-05-18T0100,37,66,0.8,24,12,29,,58,颗粒物(PM10)
娄底市,市政府,111.9892,27.7044,2025-05-18T0100,24,50,0.2,,4,26,,,
泸州市,九狮山,105.4324,28.9634,2025-05-18T0100,56,72,0.4,27,5,5,,77,细颗粒物(PM2.5)
泸州市,小市上码头,105.4427,28.9063,2025-05-18T0100,54,96,0.6,30,5,34,,74,细颗粒物(PM2.5)
泸州市,兰田宪桥,105.4241,28.8573,2025-05-18T0100,48,78,0.6,30,10,19,,67,细颗粒物(PM2.5)
泸州市,市环监站,105.4379,28.8833,2025-05-18T0100,65,91,0.5,18,7,57,,88,细颗粒物(PM2.5)
泸州市,纳溪中医医院,105.3689,28.7783,2025-05-18T0100,50,66,0.8,49,7,12,,69,细颗粒物(PM2.5)
吕梁市,环保局,111.1406,37.5211,2025-05-18T0100,6,38,0.4,28,2,62,,38,
吕梁市,自来水公司,111.1297,37.5136,2025-05-18T0100,11,37,0.4,30,2,59,,37,
吕梁市,马茂庄小学,111.1283,37.51,2025-05-18T0100,14,38,0.5,27,2,59,,38,
洛阳市,市委党校,112.3931,34.6516,2025-05-18T0100,17,72,0.3,10,6,82,,61,颗粒物(PM10)
洛阳市,河南林校,112.494,34.6886,2025-05-18T0100,15,70,0,14,7,78,,60,颗粒物(PM10)
洛阳市,开发区管委会,112.3844,34.623,2025-05-18T0100,17,78,0.3,13,4,78,,64,颗粒物(PM10)
洛阳市,市委新办公区,112.4267,34.6258,2025-05-18T0100,17,72,0.1,18,7,76,,61,颗粒物(PM10)
洛阳市,伊滨,112.6005,34.6326,2025-05-18T0100,19,73,0.5,16,6,74,,62,颗粒物(PM10)
洛阳市,中移产业园,112.4951,34.6332,2025-05-18T0100,17,74,0.2,19,6,74,,62,颗粒物(PM10)
洛阳市,吉利监测站,112.5736,34.8993,2025-05-18T0100,43,72,0.2,19,13,72,,61,颗粒物(PM10)
洛阳市,河科大西苑校区,112.3677,34.662,2025-05-18T0100,14,78,0.2,14,7,83,,64,颗粒物(PM10)
洛阳市,英才小学,112.4388,34.6781,2025-05-18T0100,13,70,0.2,15,4,78,,60,颗粒物(PM10)
洛阳市,春都路1号院,112.4600,34.6949,2025-05-18T0100,17,83,0.3,20,4,80,,67,颗粒物(PM10)
漯河市,三五一五工厂,114.051,33.5699,2025-05-18T0100,24,82,0.4,12,7,88,,66,颗粒物(PM10)
漯河市,漯河大学,114.0055,33.5698,2025-05-18T0100,19,89,0.2,9,5,98,,70,颗粒物(PM10)
漯河市,市水利局,114.0138,33.5828,2025-05-18T0100,22,95,0.5,12,6,92,,73,颗粒物(PM10)
漯河市,市广电局,114.0261,33.5698,2025-05-18T0100,34,83,0.4,12,6,89,,67,颗粒物(PM10)
漯河市,市图书馆,113.9749,33.5664,2025-05-18T0100,19,96,0.4,15,6,96,,73,颗粒物(PM10)
漯河市,韶山路11号,114.0892,33.5882,2025-05-18T0100,19,80,0.6,20,7,72,,65,颗粒物(PM10)
马鞍山市,湖东路四小,118.5092,31.6837,2025-05-18T0100,33,197,0.5,10,6,104,,124,颗粒物(PM10)
马鞍山市,开发区,118.5024,31.6449,2025-05-18T0100,33,193,0.4,16,6,108,,122,颗粒物(PM10)
马鞍山市,濮塘,118.6245,31.7241,2025-05-18T0100,48,180,0.6,9,8,102,,115,颗粒物(PM10)
马鞍山市,雨山,118.4918,31.6809,2025-05-18T0100,38,198,0.6,10,6,104,,124,颗粒物(PM10)
马鞍山市,慈湖高新区,118.5274,31.72227,2025-05-18T0100,45,135,0.5,11,8,106,,93,颗粒物(PM10)
茂名市,电白南海,111.0286,21.4688,2025-05-18T0100,14,14,0.5,4,2,41,,20,
茂名市,茂石化七小,110.9294,21.6533,2025-05-18T0100,9,14,0.5,7,1,33,,14,
茂名市,健康路,110.9107,21.6687,2025-05-18T0100,12,,0.4,6,1,38,,18,
茂名市,高岭,110.8592,21.6828,2025-05-18T0100,3,19,0.4,15,3,23,,19,
茂名市,电白水东,111.01,21.5165,2025-05-18T0100,3,9,0.4,7,3,39,,13,
眉山市,黑龙滩水库,104.0308,30.0478,2025-05-18T0100,65,79,0.6,17,1,50,,88,细颗粒物(PM2.5)
眉山市,气象局,103.8416,30.0874,2025-05-18T0100,100,110,0.8,79,2,1,,132,细颗粒物(PM2.5)
眉山市,市委党校,103.8578,30.0744,2025-05-18T0100,75,122,0.8,77,10,4,,100,细颗粒物(PM2.5)
眉山市,区人社局,103.8291,30.0564,2025-05-18T0100,83,101,0.8,78,14,1,,110,细颗粒物(PM2.5)
梅州市,梅江月梅,116.1231,24.3284,2025-05-18T0100,11,12,0.6,6,4,54,,17,
梅州市,梅县新城,116.0797,24.2719,2025-05-18T0100,18,22,0.6,20,6,15,,26,
梅州市,环境监控中心,116.1248,24.2654,2025-05-18T0100,13,13,0.5,19,8,17,,19,
梅州市,梅龙,116.1233,24.2991,2025-05-18T0100,10,,0.5,10,6,33,,15,
绵阳市,富乐山,104.7778,31.4741,2025-05-18T0100,115,147,0.9,20,10,62,,150,细颗粒物(PM2.5)
绵阳市,高新区自来水公司,104.6697,31.4668,2025-05-18T0100,88,130,1.0,27,6,51,,117,细颗粒物(PM2.5)
绵阳市,三水厂,104.7287,31.5075,2025-05-18T0100,102,152,1.0,24,9,61,,134,细颗粒物(PM2.5)
绵阳市,西科大附属小学,104.69,31.5322,2025-05-18T0100,94,139,0.9,35,8,50,,124,细颗粒物(PM2.5)
绵阳市,安州区旅游局,104.5648,31.5343,2025-05-18T0100,107,157,1.1,34,10,44,,140,细颗粒物(PM2.5)
绵阳市,绵阳市气象局,104.7651,31.4531,2025-05-18T0100,105,163,1.1,19,6,64,,138,细颗粒物(PM2.5)
牡丹江市,环保大楼,129.61,44.561,2025-05-18T0100,10,,0.3,9,4,50,,16,
牡丹江市,文化广场,129.6115,44.5782,2025-05-18T0100,15,21,0.3,10,8,54,,22,
牡丹江市,第一医院,129.5904,44.5963,2025-05-18T0100,16,,0.4,9,5,55,,23,
牡丹江市,机车工厂,129.6364,44.6075,2025-05-18T0100,11,17,0.3,18,4,48,,17,
牡丹江市,第一中学,129.6386,44.5462,2025-05-18T0100,15,23,0.2,16,2,47,,23,
内江市,市监测站,105.0703,29.61,2025-05-18T0100,78,81,1.1,21,7,76,,104,细颗粒物(PM2.5)
内江市,东兴区政府,105.0717,29.5947,2025-05-18T0100,75,,0.8,15,14,80,,100,细颗粒物(PM2.5)
内江市,内江二中,105.0653,29.5817,2025-05-18T0100,84,87,0.7,17,8,57,,112,细颗粒物(PM2.5)
内江市,内江日报社,105.0406,29.5822,2025-05-18T0100,75,,0.9,40,7,42,,100,细颗粒物(PM2.5)
那曲市,那曲监测站,92.0657,31.4846,2025-05-18T0100,7,10,0.2,4,7,108,,34,
那曲市,那曲市委宣传部,92.0515,31.4787,2025-05-18T0100,3,8,0.5,4,4,112,,35,
南昌市,省外办,115.8931,28.6843,2025-05-18T0100,22,28,0.7,26,5,44,,32,
南昌市,省林业公司,115.8886,28.7003,2025-05-18T0100,22,29,0.9,23,10,44,,32,
南昌市,林科所,115.8126,28.7442,2025-05-18T0100,17,31,0.4,41,5,17,,31,
南昌市,建工学校,115.8518,28.687,2025-05-18T0100,17,32,0.7,34,6,40,,32,
南昌市,象湖,115.8921,28.6424,2025-05-18T0100,3,16,0.6,21,6,29,,16,
南昌市,武术学校,115.7423,28.7996,2025-05-18T0100,20,,0.8,5,7,0,,29,
南昌市,机电学校,115.9084,28.6062,2025-05-18T0100,7,22,0.4,21,4,22,,22,
南昌市,外国语学校,115.9721,28.7031,2025-05-18T0100,3,24,0.3,15,8,27,,24,
南昌市,南京东路235号,115.9316,28.68677,2025-05-18T0100,10,22,0.8,10,4,33,,22,
南充市,西山风景区,106.056,30.8064,2025-05-18T0100,,,,,,,,,
南充市,南充市委,106.0789,30.8023,2025-05-18T0100,82,102,0.6,18,7,68,,109,细颗粒物(PM2.5)
南充市,南充炼油厂,106.1031,30.8217,2025-05-18T0100,87,104,0.6,19,7,51,,115,细颗粒物(PM2.5)
南充市,梨树横街98号,106.1083,30.7884,2025-05-18T0100,74,196,0.6,17,5,58,,123,颗粒物(PM10)
南充市,清泉寺北路188号,106.1172,30.843,2025-05-18T0100,96,115,0.5,18,5,53,,127,细颗粒物(PM2.5)
南充市,同庆路1号,106.067,30.7616,2025-05-18T0100,85,100,0.5,28,6,47,,113,细颗粒物(PM2.5)
南京市,迈皋桥,118.8086,32.1065,2025-05-18T0100,12,62,0.1,8,4,100,,56,颗粒物(PM10)
南京市,草场门,118.7538,32.0551,2025-05-18T0100,12,114,0.1,19,2,94,,82,颗粒物(PM10)
南京市,山西路,118.7794,32.0745,2025-05-18T0100,9,110,0.1,22,5,97,,80,颗粒物(PM10)
南京市,中华门,118.7752,32.0023,2025-05-18T0100,22,97,0.3,2,4,93,,74,颗粒物(PM10)
南京市,瑞金路,118.8109,32.0309,2025-05-18T0100,14,83,0.1,13,6,97,,67,颗粒物(PM10)
南京市,玄武湖,118.7997,32.0754,2025-05-18T0100,7,108,0.4,11,4,95,,79,颗粒物(PM10)
南京市,浦口,118.6414,32.0931,2025-05-18T0100,9,156,0,13,4,99,,103,颗粒物(PM10)
南京市,奥体中心,118.7356,31.9996,2025-05-18T0100,17,119,0.2,12,6,107,,85,颗粒物(PM10)
南京市,仙林大学城,118.9125,32.1028,2025-05-18T0100,9,102,0.4,12,11,100,,76,颗粒物(PM10)
南京市,江宁彩虹桥,118.8436,31.9198,2025-05-18T0100,14,132,0.3,14,5,96,,91,颗粒物(PM10)
南京市,六合雄州,118.8554,32.3578,2025-05-18T0100,13,69,0.3,20,7,94,,60,颗粒物(PM10)
南京市,汶溪路181号,118.8708,31.3402,2025-05-18T0100,22,226,0.8,14,4,100,,138,颗粒物(PM10)
南京市,中山西路1号,119.019,31.6512,2025-05-18T0100,27,92,0.3,19,6,89,,71,颗粒物(PM10)
南宁市,二十一中,108.3103,22.7881,2025-05-18T0100,10,,0.6,12,3,19,,15,
南宁市,北湖,108.3141,22.8528,2025-05-18T0100,14,23,0.6,28,3,4,,23,
南宁市,市监测站,108.3206,22.8225,2025-05-18T0100,,,,,,,40,,
南宁市,大自然花园,108.3829,22.8037,2025-05-18T0100,7,22,0.5,13,4,7,,22,
南宁市,仙葫,108.4394,22.7904,2025-05-18T0100,15,,0.7,24,4,7,,,
南宁市,区农职院,108.2397,22.8467,2025-05-18T0100,10,21,0.3,26,3,2,,21,
南宁市,英华嘉园,108.3275,22.735,2025-05-18T0100,12,12,0.4,19,6,6,,18,
南宁市,红星社区,108.4834,22.7618,2025-05-18T0100,12,,0.5,22,8,5,,18,
南宁市,乐贤路16号,108.2177,22.7774,2025-05-18T0100,16,26,0.5,28,4,0,,26,
南平市,茫荡山,118.0966,26.6761,2025-05-18T0100,,,,,,,,,
南平市,南平市监测站,118.1681,26.6369,2025-05-18T0100,6,,0.6,6,3,46,,15,
南平市,南平铝业有限公司,118.1825,26.6489,2025-05-18T0100,7,9,0.6,9,2,43,,14,
南平市,南平七中,118.1756,26.6272,2025-05-18T0100,12,,0.6,6,3,35,,18,
南通市,狼山街道,120.9098,31.9663,2025-05-18T0100,23,81,0.5,14,4,115,,66,颗粒物(PM10)
南通市,虹桥,120.86,32.0005,2025-05-18T0100,21,64,0.4,10,2,109,,57,颗粒物(PM10)
南通市,城中,120.87,32.02,2025-05-18T0100,18,85,0.4,8,3,112,,68,颗粒物(PM10)
南通市,星湖花园,120.94,31.93,2025-05-18T0100,25,77,0.3,9,3,111,,64,颗粒物(PM10)
南通市,紫琅学院,120.81,32.0417,2025-05-18T0100,14,76,0.3,14,5,108,,63,颗粒物(PM10)
南通市,通州监测站,121.067,32.062,2025-05-18T0100,19,80,0.5,4,4,123,,65,颗粒物(PM10)
南通市,环境教育馆,120.9348,31.9883,2025-05-18T0100,21,83,0.2,8,2,118,,67,颗粒物(PM10)
南阳市,瓦房庄,112.5224,33.0122,2025-05-18T0100,62,298,0.3,14,6,93,,174,颗粒物(PM10)
南阳市,汉画馆,112.5003,32.9735,2025-05-18T0100,73,318,0.3,14,6,95,,184,颗粒物(PM10)
南阳市,气象站,112.5573,33.027,2025-05-18T0100,66,351,0.4,12,5,90,,202,颗粒物(PM10)
南阳市,理工学院,112.5481,32.9689,2025-05-18T0100,63,309,0.3,14,5,86,,180,颗粒物(PM10)
南阳市,卧龙区政府,112.5234,32.9922,2025-05-18T0100,65,333,0.3,14,5,93,,192,颗粒物(PM10)
宁波市,区环保大楼,121.8358,29.911,2025-05-18T0100,26,49,0.7,60,10,0,,49,
宁波市,万里学院,121.56,29.82,2025-05-18T0100,49,61,0.8,61,6,26,,68,细颗粒物(PM2.5)
宁波市,龙赛医院,121.713,29.9572,2025-05-18T0100,26,51,0.6,65,9,3,,51,颗粒物(PM10)
宁波市,钱湖水厂,121.633,29.7733,2025-05-18T0100,27,31,0.8,22,8,36,,39,
宁波市,太古小学,121.5856,29.8635,2025-05-18T0100,22,39,0.9,57,6,,,,
宁波市,市环境监测中心,121.524,29.8674,2025-05-18T0100,49,78,1.0,55,12,44,,68,细颗粒物(PM2.5)
宁波市,万里国际学校,121.6147,29.9017,2025-05-18T0100,22,,0.9,59,7,5,,,
宁波市,白沙活动中心,121.5594,29.8975,2025-05-18T0100,53,76,1.0,48,9,,,,
宁德市,金涵水库,119.5001,26.6946,2025-05-18T0100,,,,,,,,,
宁德市,宁德市监测站,119.5388,26.6612,2025-05-18T0100,26,,0.4,34,4,18,,38,
宁德市,宁德一中,119.5231,26.6562,2025-05-18T0100,29,36,0.6,16,3,39,,42,
怒江傈僳族自治州,州监测站,98.8601,25.8567,2025-05-18T0100,27,45,0.6,17,6,49,,45,
怒江傈僳族自治州,泸水一中,98.8546,25.8417,2025-05-18T0100,18,31,0.3,15,6,44,,31,
攀枝花市,弄弄坪,101.6891,26.571,2025-05-18T0100,12,38,0.5,11,14,86,,38,
攀枝花市,河门口,101.5769,26.5928,2025-05-18T0100,15,32,1.0,15,14,83,,32,
攀枝花市,炳草岗,101.7169,26.585,2025-05-18T0100,16,44,0.6,14,29,84,,44,
攀枝花市,仁和,101.7369,26.5008,2025-05-18T0100,15,28,0.4,10,8,44,,28,
攀枝花市,四十中小,101.7227,26.567,2025-05-18T0100,13,28,0.6,8,26,99,,31,
盘锦市,开发区,122.0303,41.1489,2025-05-18T0100,20,,0.4,10,9,88,,29,
盘锦市,兴隆台,122.0485,41.0883,2025-05-18T0100,20,27,0.4,10,7,94,,30,
盘锦市,新生街道,121.8297,41.1028,2025-05-18T0100,23,30,0.4,28,12,73,,33,
平顶山市,新华旅馆,113.3257,33.742,2025-05-18T0100,12,113,0.3,12,6,95,,82,颗粒物(PM10)
平顶山市,规划设计院,113.2919,33.737,2025-05-18T0100,22,96,0.3,11,7,98,,73,颗粒物(PM10)
平顶山市,平顶山工学院,113.182,33.774,2025-05-18T0100,9,84,0.2,8,3,106,,67,颗粒物(PM10)
平顶山市,规划局,113.3025,33.73,2025-05-18T0100,17,110,0.3,9,10,95,,80,颗粒物(PM10)
平顶山市,石龙区,112.8867,33.9116,2025-05-18T0100,26,165,0.8,20,13,83,,108,颗粒物(PM10)
平凉市,聚贤嘉苑,106.6692,35.5461,2025-05-18T0100,37,61,0.7,27,10,65,,56,颗粒物(PM10)
平凉市,博物馆,106.7021,35.5307,2025-05-18T0100,33,76,0.5,10,10,95,,63,颗粒物(PM10)
萍乡市,武功山,114.0997,27.5002,2025-05-18T0100,3,,0.7,3,16,28,,9,
萍乡市,中医院,113.8385,27.6434,2025-05-18T0100,17,46,1.3,24,17,14,,46,
萍乡市,市政府车库,113.8493,27.6253,2025-05-18T0100,28,37,1.3,27,4,6,,40,
萍乡市,市环保局,113.8676,27.6435,2025-05-18T0100,23,31,1.3,33,16,13,,33,
萍乡市,安源区政府,113.866,27.6198,2025-05-18T0100,14,30,1.0,21,7,8,,30,
莆田市,荔城区仓后路,119.0141,25.4325,2025-05-18T0100,11,40,0.4,24,5,11,,40,
莆田市,莆田市监测站,119.0015,25.4553,2025-05-18T0100,12,20,0.4,10,5,15,,20,
莆田市,涵江区六中,119.1119,25.4561,2025-05-18T0100,22,,0.3,22,3,13,,32,
莆田市,秀屿区政府,119.1013,25.3215,2025-05-18T0100,3,16,0.3,13,5,21,,16,
莆田市,东圳水库,118.981,25.4792,2025-05-18T0100,,,,,,,,,
濮阳市,环保局,115.0312,35.7636,2025-05-18T0100,,,,,,,103,,
濮阳市,油田运输公司,115.0574,35.7609,2025-05-18T0100,17,80,0.6,12,30,97,,65,颗粒物(PM10)
濮阳市,濮水河管理处,115,35.7668,2025-05-18T0100,20,38,0.4,20,9,82,,38,
濮阳市,任丘路479号,115.0924,35.7686,2025-05-18T0100,23,52,0.4,27,35,92,,51,颗粒物(PM10)
普洱市,市环保局,100.98,22.7633,2025-05-18T0100,23,36,0.5,3,7,27,,36,
普洱市,普洱第二中学,100.9817,22.8322,2025-05-18T0100,12,19,0.5,21,5,20,,19,
七台河市,新一中,131.0518,45.8751,2025-05-18T0100,,,0.6,5,10,69,,,
七台河市,中波台,131.0577,45.7879,2025-05-18T0100,3,8,0.3,10,6,54,,17,
七台河市,人民广场,131.0176,45.7761,2025-05-18T0100,15,,0.4,9,10,67,,22,
七台河市,新建矿广场,130.8781,45.8222,2025-05-18T0100,9,,0.5,8,9,59,,19,
齐齐哈尔市,安居小区,123.9305,47.3636,2025-05-18T0100,3,9,0.3,6,2,59,,19,
齐齐哈尔市,中心广场,123.9488,47.3386,2025-05-18T0100,3,17,0.2,3,3,65,,21,
齐齐哈尔市,农牧车辆厂,123.9483,47.3227,2025-05-18T0100,8,17,0.2,4,5,58,,19,
齐齐哈尔市,市环境监测站,123.945,47.2988,2025-05-18T0100,3,12,0.1,5,3,62,,20,
齐齐哈尔市,富区青少年活动中心,123.6333,47.2075,2025-05-18T0100,7,7,0.4,6,2,59,,19,
黔东南苗族侗族自治州,市环境监测站,107.9783,26.5747,2025-05-18T0100,29,34,0.6,15,3,36,,42,
黔东南苗族侗族自治州,凯里学院,107.8908,26.5311,2025-05-18T0100,26,36,0.5,16,2,27,,38,
黔南布依族苗族自治州,小围寨,107.5228,26.2403,2025-05-18T0100,36,48,0.4,11,6,33,,52,细颗粒物(PM2.5)
黔南布依族苗族自治州,沙坝,107.5175,26.2978,2025-05-18T0100,39,46,0.7,19,5,16,,55,细颗粒物(PM2.5)
黔西南布依族苗族自治州,场坝街,104.9022,25.0925,2025-05-18T0100,12,27,0.3,5,2,98,,31,
黔西南布依族苗族自治州,坪东大道,104.8811,25.0992,2025-05-18T0100,3,21,0.4,10,3,83,,26,
钦州市,市环保站,108.6236,21.9667,2025-05-18T0100,3,14,0.5,18,4,32,,14,
钦州市,沙埠小学,108.6549,21.9481,2025-05-18T0100,13,37,0.5,31,11,17,,37,
钦州市,港区一小,108.5989,21.7431,2025-05-18T0100,6,7,0.4,11,8,47,,15,
钦州市,北职校,108.5959,21.9633,2025-05-18T0100,10,23,0.4,18,7,25,,23,
秦皇岛市,第一关,119.7493,40.0116,2025-05-18T0100,30,42,0.3,59,4,6,,43,
秦皇岛市,监测站,119.5897,39.9499,2025-05-18T0100,31,59,0.4,76,4,2,,55,颗粒物(PM10)
秦皇岛市,建设大厦,119.5251,39.9041,2025-05-18T0100,15,45,0.3,58,6,25,,45,
秦皇岛市,文明里,119.610547,39.943889,2025-05-18T0100,25,93,0.4,73,3,2,,72,颗粒物(PM10)
秦皇岛市,北戴河轮滑馆,119.5090,39.8253,2025-05-18T0100,26,38,0.3,45,9,30,,38,
青岛市,仰口,120.6659,36.2403,2025-05-18T0100,18,22,0.3,2,7,105,,33,
青岛市,市南区东部子站,120.4134,36.0658,2025-05-18T0100,24,36,0.5,31,7,61,,36,
青岛市,四方区子站,120.3664,36.1032,2025-05-18T0100,22,31,0.6,21,6,76,,32,
青岛市,市南区西部子站,120.2994,36.054,2025-05-18T0100,10,34,0.7,30,8,68,,34,
青岛市,崂山区子站,120.4581,36.0858,2025-05-18T0100,12,19,0.4,13,8,75,,24,
青岛市,城阳区子站,120.3999,36.3083,2025-05-18T0100,12,41,0.5,27,5,56,,41,
青岛市,黄岛区4号,120.0405,35.8735,2025-05-18T0100,9,31,0.6,21,8,67,,31,
青岛市,即墨2号,120.5014,36.4034,2025-05-18T0100,19,50,0.6,22,7,51,,50,
青岛市,市北区南部,120.3503,36.0736,2025-05-18T0100,17,30,0.4,22,8,62,,30,
青岛市,李沧区北部,120.3948,36.1805,2025-05-18T0100,19,27,0.5,17,9,75,,28,
青岛市,珠江路669号,120.1969,35.9546,2025-05-18T0100,15,31,0.7,40,8,45,,31,
清远市,环保大楼,113.0426,23.691,2025-05-18T0100,12,32,0.6,14,11,28,,32,
清远市,凤城街办,113.0208,23.7106,2025-05-18T0100,11,14,0.5,14,6,34,,16,
清远市,技师学院,113.0477,23.6344,2025-05-18T0100,15,26,0.2,33,18,11,,26,
清远市,清新太和,112.9903,23.7403,2025-05-18T0100,7,13,0.4,14,7,17,,13,
清远市,清城东城,113.076,23.7198,2025-05-18T0100,10,18,0.6,11,12,30,,18,
庆阳市,庆阳五中,107.6325,35.7357,2025-05-18T0100,112,120,0.5,6,3,95,,147,细颗粒物(PM2.5)
庆阳市,市环保局,107.6364,35.7067,2025-05-18T0100,62,118,0.5,3,6,100,,84,"颗粒物(PM10),细颗粒物(PM2.5)"
曲靖市,环境监测站,103.7897,25.5035,2025-05-18T0100,18,46,0.6,9,2,89,,46,
曲靖市,烟厂办公区,103.8,25.5364,2025-05-18T0100,12,37,0.6,6,4,92,,37,
曲靖市,南苑二区,103.7947,25.462,2025-05-18T0100,24,41,0.7,8,4,89,,41,
曲靖市,曲靖师范学院,103.7444,25.5261,2025-05-18T0100,25,36,0.6,49,5,67,,36,
衢州市,环保大楼,118.8692,28.9398,2025-05-18T0100,24,45,0.5,26,4,3,,45,
衢州市,实验学校,118.8709,28.9666,2025-05-18T0100,19,39,0.4,24,3,2,,39,
衢州市,衢州学院,118.8621,28.9808,2025-05-18T0100,25,36,0.4,36,4,0,,36,
泉州市,涂山街,118.5819,24.9117,2025-05-18T0100,7,17,0.4,22,5,21,,17,
泉州市,津头埔,118.5972,24.8978,2025-05-18T0100,6,15,0.5,18,2,22,,15,
泉州市,万安,118.6663,24.9424,2025-05-18T0100,8,20,0.5,11,3,24,,20,
泉州市,清源山,118.6117,24.9604,2025-05-18T0100,,,,,,,,,
泉州市,城华南路,118.6333,24.9264,2025-05-18T0100,11,21,0.4,23,3,14,,21,
日喀则市,日喀则监测站,88.8876,29.2718,2025-05-18T0100,3,,0.3,4,2,160,,50,
日喀则市,林业技术推广中心,88.8781,29.2426,2025-05-18T0100,3,6,0.3,3,7,159,,50,
日照市,监测站,119.471,35.4209,2025-05-18T0100,31,51,0.5,23,8,74,,51,颗粒物(PM10)
日照市,市政府广场,119.523,35.4216,2025-05-18T0100,15,27,0.5,12,5,87,,28,
日照市,港务局,119.5587,35.4044,2025-05-18T0100,17,34,0.6,16,6,86,,34,
日照市,职业技术学院,119.5328,35.4625,2025-05-18T0100,12,27,0.6,18,5,77,,27,
日照市,岚山环保分局,119.3266,35.1044,2025-05-18T0100,16,44,0.6,19,4,86,,44,
三门峡市,市政府,111.1922,34.7752,2025-05-18T0100,33,150,0.5,11,8,110,,100,颗粒物(PM10)
三门峡市,开发区,111.1587,34.7942,2025-05-18T0100,32,125,0.4,11,8,104,,88,颗粒物(PM10)
三门峡市,风景区,111.143,34.7955,2025-05-18T0100,,,,,,,,,
三门峡市,三门峡市第一小学,111.1911,34.7829,2025-05-18T0100,55,134,0.4,12,11,113,,92,颗粒物(PM10)
三门峡市,富达温泉假日酒店,111.1,34.7167,2025-05-18T0100,47,171,0.2,15,10,98,,111,颗粒物(PM10)
三明市,三钢,117.6211,26.2625,2025-05-18T0100,25,,0.7,16,4,22,,36,
三明市,三明二中,117.635,26.2714,2025-05-18T0100,44,,0.6,10,4,28,,62,细颗粒物(PM2.5)
三明市,三元区政府,117.6028,26.2378,2025-05-18T0100,26,35,0.7,16,2,12,,38,
三明市,洋溪,117.7275,26.3108,2025-05-18T0100,,,,,,,,,
三亚市,河东子站,109.5078,18.2489,2025-05-18T0100,14,17,0.6,3,3,31,,20,
三亚市,河西子站,109.4964,18.2681,2025-05-18T0100,23,,0.2,12,2,18,,33,
三亚市,君悦子站,109.7348,18.3443,2025-05-18T0100,14,26,0.2,16,3,9,,26,
山南市,山南监测站,91.7608,29.2313,2025-05-18T0100,2,,0.4,2,4,157,,,
山南市,山南人民医院,91.7706,29.2436,2025-05-18T0100,3,,0.5,1,4,159,,50,
汕头市,金平子站,116.6794,23.3667,2025-05-18T0100,9,14,0.5,9,4,29,,14,
汕头市,龙湖子站,116.7244,23.3633,2025-05-18T0100,3,17,0.3,7,5,33,,17,
汕头市,濠江子站,116.7258,23.2775,2025-05-18T0100,18,,0.5,11,5,31,,26,
汕头市,澄海子站,116.7519,23.4714,2025-05-18T0100,11,23,0.5,15,2,29,,23,
汕头市,潮阳子站,116.6092,23.2539,2025-05-18T0100,3,11,0.3,5,7,37,,12,
汕头市,潮南峡山,116.454,23.2684,2025-05-18T0100,8,16,0.5,4,4,36,,16,
汕头市,潮南子站,116.4069,23.2533,2025-05-18T0100,18,19,0.4,4,4,34,,26,
汕尾市,市环保局,115.3653,22.775,2025-05-18T0100,3,20,0.5,2,6,41,,20,
汕尾市,市政府,115.3706,22.7898,2025-05-18T0100,9,10,0.3,4,4,45,,15,
汕尾市,新城中学,115.3622,22.7925,2025-05-18T0100,3,13,0.4,3,2,47,,15,
商洛市,监测站,109.9154,33.8715,2025-05-18T0100,72,197,0.4,17,8,49,,124,颗粒物(PM10)
商洛市,商州区中学,109.9643,33.8471,2025-05-18T0100,81,202,0.5,54,3,21,,126,颗粒物(PM10)
商丘市,环境监测站,115.6702,34.4285,2025-05-18T0100,25,69,0.1,28,3,77,,60,颗粒物(PM10)
商丘市,粮食局,115.6458,34.4045,2025-05-18T0100,21,64,0.1,20,2,86,,57,颗粒物(PM10)
商丘市,睢阳区环保局,115.6293,34.3948,2025-05-18T0100,18,60,0.3,16,5,95,,55,颗粒物(PM10)
商丘市,梁园区档案局,115.6071,34.4465,2025-05-18T0100,23,74,0.3,39,4,58,,62,颗粒物(PM10)
上海市,普陀,121.4,31.238,2025-05-18T0100,28,,0.5,14,5,,,,
上海市,十五厂,121.478,31.2036,2025-05-18T0100,27,44,0.5,14,8,125,,44,
上海市,虹口,121.467,31.3008,2025-05-18T0100,29,50,0.5,8,8,118,,50,
上海市,静安监测站,121.425,31.2261,2025-05-18T0100,15,48,0.7,16,8,123,,48,
上海市,浦东川沙,121.703,31.1907,2025-05-18T0100,25,34,0.7,8,6,121,,38,
上海市,浦东新区监测站,121.533,31.2284,2025-05-18T0100,20,40,0.7,18,9,115,,40,
上海市,浦东张江,121.577,31.2071,2025-05-18T0100,20,40,0.8,8,6,133,,42,
上海市,宝山庙行,121.4316,31.3322,2025-05-18T0100,22,44,0.5,10,6,122,,44,
上海市,崇明上实东滩,121.8791,31.4662,2025-05-18T0100,12,30,1.3,25,1,126,,40,
上海市,嘉定南翔,121.3162,31.2838,2025-05-18T0100,29,47,0.8,12,10,114,,47,
上海市,金山新城,121.3359,30.7456,2025-05-18T0100,63,66,0.7,14,3,148,,85,细颗粒物(PM2.5)
上海市,闵行浦江,121.4996,31.0739,2025-05-18T0100,31,,0.6,9,4,124,,45,
上海市,青浦徐泾,121.2886,31.1663,2025-05-18T0100,26,44,0.6,15,6,124,,44,
上海市,松江图书馆,121.2186,31.0378,2025-05-18T0100,31,48,0.5,13,8,125,,48,
上海市,长宁仙霞,121.3902,31.2059,2025-05-18T0100,24,41,0.8,14,7,124,,41,
上海市,浦东惠南,121.7965,31.0507,2025-05-18T0100,32,,1.0,8,7,127,,46,
上海市,奉贤南桥新城,121.4891,30.925,2025-05-18T0100,14,30,0.7,21,4,128,,40,
上海市,冠生园路458号,121.4174,31.16637,2025-05-18T0100,23,42,0.7,10,4,136,,43,
上海市,宁武路151号,121.5419,31.2683,2025-05-18T0100,18,55,0.6,19,5,109,,53,颗粒物(PM10)
上饶市,百草园,118.005,28.4572,2025-05-18T0100,,,,,,,,,
上饶市,市监测站,117.9756,28.4436,2025-05-18T0100,13,32,0.5,20,8,11,,32,
上饶市,凤凰光学,117.9519,28.4628,2025-05-18T0100,21,34,0.8,25,21,5,,34,
上饶市,双创科技城,117.897,28.4315,2025-05-18T0100,24,35,0.8,29,33,11,,35,
上饶市,裕丰大道,118.1904,28.4448,2025-05-18T0100,3,17,0.5,11,6,11,,17,
韶关市,市八中,113.5824,24.7733,2025-05-18T0100,6,16,0.7,22,17,20,,16,
韶关市,园林处,113.5917,24.7972,2025-05-18T0100,10,17,0.5,30,8,2,,17,
韶关市,曲江监测站,113.5971,24.6863,2025-05-18T0100,6,17,0.8,20,7,12,,17,
韶关市,大学路288号,113.6668,24.7756,2025-05-18T0100,10,31,0.5,9,5,3,,31,
韶关市,碧湖山庄,113.5556,24.8082,2025-05-18T0100,9,15,0.5,17,8,25,,15,
邵阳市,市水土所,111.5239,27.3033,2025-05-18T0100,,,,,,,,,
邵阳市,市化工厂,111.5283,27.2442,2025-05-18T0100,24,31,0.7,12,7,,,,
邵阳市,市环保局,111.4328,27.2272,2025-05-18T0100,22,38,0.8,7,4,74,,38,
邵阳市,北塔二期4-26地块,111.4460,27.2472,2025-05-18T0100,15,38,0.4,8,4,60,,38,
邵阳市,邵水西路287号,111.4739,27.2282,2025-05-18T0100,20,26,0.5,12,3,67,,29,
绍兴市,城东开发委,120.6053,29.9928,2025-05-18T0100,13,22,0.4,15,3,44,,22,
绍兴市,树下王站,120.5483,30.0003,2025-05-18T0100,10,24,0.5,12,6,53,,24,
绍兴市,绍兴中专,120.5683,29.9361,2025-05-18T0100,14,17,0.5,14,4,29,,20,
绍兴市,柯桥区政府,120.4906,30.0861,2025-05-18T0100,16,26,0.6,13,6,58,,26,
绍兴市,重华小学,120.8752,30.0249,2025-05-18T0100,18,29,0.6,14,8,41,,29,
绍兴市,上虞中学,120.8369,30.0137,2025-05-18T0100,23,32,0.5,22,8,31,,33,
绍兴市,柯桥妇保,120.4722,30.0415,2025-05-18T0100,12,21,0.6,14,6,51,,21,
绍兴市,袍江中学,120.6153,30.0764,2025-05-18T0100,16,22,0.7,10,6,60,,23,
深圳市,通心岭子站,114.1063,22.5545,2025-05-18T0100,7,14,0.5,39,8,3,,20,
深圳市,洪湖,114.117,22.5625,2025-05-18T0100,7,19,0.5,32,8,9,,19,
深圳市,华侨城,113.987,22.5417,2025-05-18T0100,,21,0.5,16,8,29,,,
深圳市,南海子站,113.9181,22.5171,2025-05-18T0100,6,11,0.6,37,8,12,,19,
深圳市,盐田,114.2458,22.5689,2025-05-18T0100,8,22,0.4,26,6,0,,22,
深圳市,龙岗,114.2283,22.7244,2025-05-18T0100,8,18,0.6,19,6,23,,18,
深圳市,南澳,114.494,22.5422,2025-05-18T0100,3,13,0.3,6,8,20,,13,
深圳市,葵涌,114.41,22.6342,2025-05-18T0100,7,14,0.5,18,8,27,,14,
深圳市,梅沙,114.297,22.5978,2025-05-18T0100,3,14,0.3,9,7,15,,14,
深圳市,观澜,114.0678,22.738,2025-05-18T0100,22,75,0.7,48,6,0,,63,颗粒物(PM10)
深圳市,莲花,114.0731,22.559,2025-05-18T0100,9,13,0.8,31,7,8,,16,
深圳市,民治,114.0261,22.6198,2025-05-18T0100,3,9,0.4,27,6,19,,14,
深圳市,横岗,114.1871,22.6451,2025-05-18T0100,10,17,0.5,38,8,3,,19,
深圳市,坪山,114.3551,22.7151,2025-05-18T0100,3,12,0.5,12,7,31,,12,
深圳市,西乡,113.8953,22.5861,2025-05-18T0100,3,22,0.6,41,11,9,,22,
沈阳市,森林路,123.6836,41.9339,2025-05-18T0100,,,,,,,,,
沈阳市,浑南东路,123.505,41.7406,2025-05-18T0100,29,46,0.8,25,43,41,,46,
沈阳市,新秀街,123.4231,41.6989,2025-05-18T0100,33,53,0.7,26,18,39,,52,颗粒物(PM10)
沈阳市,东陵路,123.5903,41.8411,2025-05-18T0100,21,36,0.6,33,7,28,,36,
沈阳市,陵东街,123.4264,41.8467,2025-05-18T0100,33,39,0.7,29,7,42,,48,
沈阳市,文化路,123.4114,41.7653,2025-05-18T0100,29,66,1.1,34,21,42,,58,颗粒物(PM10)
沈阳市,小河沿,123.4678,41.7867,2025-05-18T0100,30,33,1.2,23,18,46,,43,
沈阳市,太原街,123.4017,41.7972,2025-05-18T0100,41,44,1.0,29,12,43,,58,细颗粒物(PM2.5)
沈阳市,京沈街,123.3783,41.9228,2025-05-18T0100,53,,1.0,32,7,45,,73,细颗粒物(PM2.5)
沈阳市,沈辽西路,123.2444,41.7347,2025-05-18T0100,38,60,1.0,30,8,35,,55,颗粒物(PM10)
沈阳市,裕农路,123.5953,41.9086,2025-05-18T0100,26,36,0.7,30,8,31,,38,
十堰市,武当山,111.0419,32.395,2025-05-18T0100,44,133,0.5,6,8,93,,92,颗粒物(PM10)
十堰市,滨河新村,110.78,32.6494,2025-05-18T0100,60,170,0.5,33,7,48,,110,颗粒物(PM10)
十堰市,刘家沟,110.7258,32.6389,2025-05-18T0100,78,166,0.5,18,4,39,,108,颗粒物(PM10)
十堰市,铁二处,110.8839,32.5714,2025-05-18T0100,64,157,0.4,9,6,58,,104,颗粒物(PM10)
十堰市,郧阳区金沙路,110.8054,32.8401,2025-05-18T0100,65,136,0.1,2,7,100,,93,颗粒物(PM10)
石河子市,艾青诗歌馆,86.0497,44.2967,2025-05-18T0100,10,45,0.6,11,9,96,,45,
石河子市,南区管委会,86.047,44.2331,2025-05-18T0100,18,36,0.4,4,10,108,,36,
石河子市,世纪广场,86.0791,44.3017,2025-05-18T0100,11,42,0.5,7,9,96,,42,
石家庄市,职工医院,114.4422,38.0444,2025-05-18T0100,36,44,0.4,8,4,86,,52,细颗粒物(PM2.5)
石家庄市,高新区,114.6063,38.0266,2025-05-18T0100,29,54,0.4,26,2,66,,52,颗粒物(PM10)
石家庄市,西北水源,114.4898,38.1328,2025-05-18T0100,17,44,0.3,9,8,95,,44,
石家庄市,西南高教,114.4586,38.0058,2025-05-18T0100,22,64,0.1,15,5,80,,57,颗粒物(PM10)
石家庄市,世纪公园,114.5331,38.0178,2025-05-18T0100,33,58,0.4,23,4,66,,54,颗粒物(PM10)
石家庄市,人民会堂,114.509,38.0457,2025-05-18T0100,22,61,0.4,17,8,74,,56,颗粒物(PM10)
石家庄市,封龙山,114.3524,37.8911,2025-05-18T0100,,,,,,,86,,
石家庄市,22中南校区,114.5481,38.0378,2025-05-18T0100,38,62,0.4,23,4,69,,56,颗粒物(PM10)
石家庄市,鹿泉一中,114.289,38.0906,2025-05-18T0100,33,48,0.3,7,2,94,,48,
石家庄市,藁城区实验学校,114.8506765,38.0322033,2025-05-18T0100,22,55,0.3,21,5,61,,53,颗粒物(PM10)
石家庄市,栾城区星河路,114.6549,37.9020,2025-05-18T0100,18,45,0.3,20,4,72,,45,
石家庄市,矿区区委大楼,114.0494,38.059,2025-05-18T0100,16,47,0.4,22,6,61,,47,
石嘴山市,沙湖旅游区,106.3394,38.817,2025-05-18T0100,,,,,,,,,
石嘴山市,大武口朝阳西街,106.3668,39.0145,2025-05-18T0100,42,88,0.3,69,11,20,,69,颗粒物(PM10)
石嘴山市,惠农南大街,106.7704,39.2282,2025-05-18T0100,48,76,0.2,55,8,23,,67,细颗粒物(PM2.5)
石嘴山市,红果子镇惠新街,106.7099,39.1325,2025-05-18T0100,25,79,0.4,48,6,33,,65,颗粒物(PM10)
石嘴山市,妇女儿童医院,106.3495,38.9836,2025-05-18T0100,32,86,0.5,25,12,79,,68,颗粒物(PM10)
石嘴山市,石大公路,106.7492,39.2069,2025-05-18T0100,22,75,0.5,64,4,11,,63,颗粒物(PM10)
双鸭山市,双合村,131.1511,46.6937,2025-05-18T0100,7,8,0.1,3,4,62,,20,
双鸭山市,南小市,131.1652,46.6191,2025-05-18T0100,3,6,1.0,12,15,52,,17,
双鸭山市,环保局,131.1524,46.6554,2025-05-18T0100,3,40,0.2,2,8,56,,40,
双鸭山市,苗圃,131.12,46.5656,2025-05-18T0100,,,,,,,,,
朔州市,平朔,112.4397,39.3522,2025-05-18T0100,12,89,0.2,12,5,70,,70,颗粒物(PM10)
朔州市,朔唯,112.4575,39.3617,2025-05-18T0100,3,100,0.2,38,10,56,,75,颗粒物(PM10)
朔州市,区政府,112.4258,39.3197,2025-05-18T0100,3,52,0.2,13,5,70,,51,颗粒物(PM10)
朔州市,市环保局,112.4072,39.3278,2025-05-18T0100,10,46,0.3,8,6,74,,46,
朔州市,市二中,112.4272,39.3681,2025-05-18T0100,12,80,0.3,20,9,70,,65,颗粒物(PM10)
朔州市,一水厂,112.2931,39.53,2025-05-18T0100,9,31,0.2,4,8,102,,32,
四平市,一商场,124.4002,43.1713,2025-05-18T0100,30,41,0.4,20,4,44,,43,
四平市,境园,124.388,43.193,2025-05-18T0100,27,38,0.4,16,4,48,,39,
四平市,植物园,124.4036,43.1411,2025-05-18T0100,17,36,0.2,28,7,31,,36,
四平市,世纪城,124.3419,43.1666,2025-05-18T0100,24,36,0.3,17,2,49,,36,
松原市,江南,124.8006,45.1214,2025-05-18T0100,18,,0.5,9,7,58,,26,
松原市,江北,124.7965,45.1722,2025-05-18T0100,18,22,0.3,8,7,62,,26,
苏州市,上方山,120.561,31.2472,2025-05-18T0100,,,,,,,,,
苏州市,彩香,120.591,31.3019,2025-05-18T0100,13,51,0.5,9,6,99,,51,颗粒物(PM10)
苏州市,轧钢厂,120.596,31.3264,2025-05-18T0100,12,70,0.5,10,8,105,,60,颗粒物(PM10)
苏州市,吴中区,120.613,31.2703,2025-05-18T0100,11,44,0.4,8,5,104,,44,
苏州市,苏州新区,120.543,31.2994,2025-05-18T0100,14,55,0.4,14,3,103,,53,颗粒物(PM10)
苏州市,苏州工业园区,120.669,31.3097,2025-05-18T0100,14,59,0.4,9,5,108,,55,颗粒物(PM10)
苏州市,相城区,120.641,31.3708,2025-05-18T0100,12,60,0.4,11,7,105,,55,颗粒物(PM10)
苏州市,方洲路,120.743,31.3188,2025-05-18T0100,12,62,0.3,9,6,116,,56,颗粒物(PM10)
苏州市,木渎中学,120.5031,31.2774,2025-05-18T0100,17,77,0.7,11,4,111,,64,颗粒物(PM10)
苏州市,越秀幼儿园,120.624,31.1733,2025-05-18T0100,12,106,0.5,23,4,98,,78,颗粒物(PM10)
苏州市,高铁新城,120.6505,31.416,2025-05-18T0100,20,89,0.6,14,6,104,,70,颗粒物(PM10)
宿迁市,宿迁学院,118.293,33.9528,2025-05-18T0100,21,76,0.3,11,3,96,,63,颗粒物(PM10)
宿迁市,宿迁中学,118.2442,33.9592,2025-05-18T0100,18,73,0.3,12,6,102,,62,颗粒物(PM10)
宿迁市,市供电局,118.283,33.965,2025-05-18T0100,18,75,0.6,10,4,100,,63,颗粒物(PM10)
宿迁市,宿豫区政府,118.3225,33.9447,2025-05-18T0100,20,72,0.3,6,5,102,,61,颗粒物(PM10)
宿州市,远航博物馆,116.9509,33.666,2025-05-18T0100,20,120,0.3,24,6,78,,85,颗粒物(PM10)
宿州市,社会福利中心,116.9708,33.591,2025-05-18T0100,18,156,0.4,30,6,84,,103,颗粒物(PM10)
宿州市,宿州学院,116.9884,33.6305,2025-05-18T0100,22,112,0.3,22,5,80,,81,颗粒物(PM10)
宿州市,皖北煤电集团,116.9648,33.6252,2025-05-18T0100,20,108,0.3,20,5,88,,79,颗粒物(PM10)
绥化市,人和东街,126.9785,46.6365,2025-05-18T0100,14,19,0.5,9,3,71,,23,
绥化市,党政办公中心,126.964,46.6528,2025-05-18T0100,13,22,0.4,8,2,65,,22,
随州市,市委党校,113.3583,31.7275,2025-05-18T0100,61,245,0.5,13,7,122,,148,颗粒物(PM10)
随州市,市林业局,113.3833,31.6908,2025-05-18T0100,78,256,0.6,10,7,107,,153,颗粒物(PM10)
随州市,市立交桥水厂,113.3983,31.7308,2025-05-18T0100,74,238,0.5,9,9,102,,144,颗粒物(PM10)
遂宁市,石溪浩,105.5453,30.5678,2025-05-18T0100,70,137,0.5,27,7,34,,94,"颗粒物(PM10),细颗粒物(PM2.5)"
遂宁市,市监测站,105.5582,30.5232,2025-05-18T0100,79,121,0.6,29,6,43,,105,细颗粒物(PM2.5)
遂宁市,行政中心,105.5861,30.5366,2025-05-18T0100,,,,,,,,,
遂宁市,美宁食品公司,105.5918,30.4728,2025-05-18T0100,101,116,0.7,42,8,17,,133,细颗粒物(PM2.5)
塔城地区,东门外小游园,82.9994,46.7432,2025-05-18T0100,11,34,0.0,9,6,54,,34,
台州市,黄岩环保大楼,121.273,28.6459,2025-05-18T0100,14,24,0.5,7,4,17,,24,
台州市,台州环保大楼,121.419,28.6542,2025-05-18T0100,31,52,0.6,28,4,12,,51,颗粒物(PM10)
台州市,路桥田洋王,121.377,28.5773,2025-05-18T0100,,,,,,,71,,
台州市,台州科技职业学院,121.2568,28.6681,2025-05-18T0100,7,25,0.8,9,2,8,,25,
太原市,尖草坪,112.522,37.8873,2025-05-18T0100,30,44,0.5,37,5,62,,44,
太原市,上兰,112.434,38.0108,2025-05-18T0100,12,31,0.2,12,4,85,,31,
太原市,晋源,112.469,37.7124,2025-05-18T0100,22,38,0.3,38,9,51,,38,
太原市,小店,112.5583,37.7394,2025-05-18T0100,11,55,0.4,78,6,21,,53,颗粒物(PM10)
太原市,桃园,112.5369,37.8692,2025-05-18T0100,15,52,0.4,40,7,52,,51,颗粒物(PM10)
太原市,坞城,112.57,37.8195,2025-05-18T0100,117,,0.6,34,5,62,,153,细颗粒物(PM2.5)
太原市,南寨,112.549,37.9854,2025-05-18T0100,21,65,0.4,46,6,17,,58,颗粒物(PM10)
太原市,金胜,112.4719,37.7831,2025-05-18T0100,17,64,0.3,44,5,46,,57,颗粒物(PM10)
太原市,育英中学,112.5608,37.8807,2025-05-18T0100,12,52,0.4,39,4,48,,51,颗粒物(PM10)
泰安市,监测站,117.1437,36.1937,2025-05-18T0100,22,53,0.5,12,6,115,,52,颗粒物(PM10)
泰安市,人口学校,117.0885,36.2017,2025-05-18T0100,22,58,0.4,8,8,119,,54,颗粒物(PM10)
泰安市,电力学校,117.1089,36.1758,2025-05-18T0100,28,56,0.3,8,6,111,,53,颗粒物(PM10)
泰安市,国网新校,117.1812,36.2275,2025-05-18T0100,22,,0.1,11,1,105,,33,
泰安市,交通技校,117.0313,36.2018,2025-05-18T0100,18,63,0.4,6,2,117,,57,颗粒物(PM10)
泰安市,山东第一医科大学,117.0829,36.13,2025-05-18T0100,27,66,0.4,24,3,88,,58,颗粒物(PM10)
泰州市,公园路,119.905,32.4878,2025-05-18T0100,22,44,0.5,8,8,108,,44,
泰州市,莲花,119.9189,32.4625,2025-05-18T0100,3,54,0.5,5,9,110,,52,颗粒物(PM10)
泰州市,留学生创业园,119.888,32.4639,2025-05-18T0100,3,55,0.3,8,5,104,,53,颗粒物(PM10)
泰州市,王营,119.8767,32.3289,2025-05-18T0100,9,49,0.4,10,10,103,,49,
泰州市,姜堰区政府广场,120.1259,32.5099,2025-05-18T0100,14,63,0.4,7,6,106,,57,颗粒物(PM10)
泰州市,周山河街区,119.9192,32.4322,2025-05-18T0100,6,79,0.4,11,8,109,,65,颗粒物(PM10)
唐山市,物资局,118.1725,39.6334,2025-05-18T0100,16,33,0.6,,5,52,,,
唐山市,十二中,118.1705,39.6506,2025-05-18T0100,17,32,0.5,42,3,39,,32,
唐山市,小山,118.1869,39.622,2025-05-18T0100,10,29,0.6,29,6,,,,
唐山市,冀东油田职工医院,118.4359,39.2762,2025-05-18T0100,21,36,0.3,34,7,74,,36,
唐山市,正泰大街热力站,118.09279,39.58089,2025-05-18T0100,18,52,0.4,57,1,5,,51,颗粒物(PM10)
唐山市,丰润区政府,118.1562,39.8322,2025-05-18T0100,24,60,0.4,40,4,27,,55,颗粒物(PM10)
唐山市,金山小学,118.43673,39.73809,2025-05-18T0100,22,32,0.3,21,5,48,,32,
唐山市,政府服务中心,118.24498,39.66941,2025-05-18T0100,20,46,0.4,53,5,23,,46,
唐山市,消防缸窑路中队,118.2059,39.6585,2025-05-18T0100,28,49,0.4,36,8,38,,49,
唐山市,路南电大,118.1436,39.6202,2025-05-18T0100,10,35,0.5,24,4,52,,35,
唐山市,友谊北路34号,118.1309,39.6360,2025-05-18T0100,20,32,0.4,23,5,51,,32,
天津市,勤俭道,117.1444,39.1661,2025-05-18T0100,20,47,0.4,63,6,30,,47,
天津市,前进道,117.202,39.0927,2025-05-18T0100,20,49,0.4,49,8,45,,49,
天津市,淮河道,117.1837,39.2133,2025-05-18T0100,20,61,0.3,75,8,21,,56,颗粒物(PM10)
天津市,跃进路,117.3083,39.0884,2025-05-18T0100,25,63,0.2,49,8,51,,57,颗粒物(PM10)
天津市,第四大街,117.707,39.0343,2025-05-18T0100,20,42,0.7,64,7,32,,42,
天津市,永明路,117.457,38.8394,2025-05-18T0100,22,47,0.4,33,6,54,,47,
天津市,汉北路,117.764,39.1587,2025-05-18T0100,19,56,0.4,72,6,7,,53,颗粒物(PM10)
天津市,团泊洼,117.157,38.9194,2025-05-18T0100,,,,,,,,,
天津市,河西一经路,117.7918,39.2474,2025-05-18T0100,16,58,0.3,89,6,0,,54,颗粒物(PM10)
天津市,津沽路,117.3747,38.9846,2025-05-18T0100,24,64,0.3,69,4,25,,57,颗粒物(PM10)
天津市,宾水西道,117.1589,39.0845,2025-05-18T0100,20,74,0.5,53,8,34,,62,颗粒物(PM10)
天津市,大理道,117.1941,39.1067,2025-05-18T0100,19,53,0.3,54,6,48,,52,颗粒物(PM10)
天津市,中山北路,117.2101,39.1699,2025-05-18T0100,18,48,0.5,69,4,36,,48,
天津市,西四道,117.3876,39.1488,2025-05-18T0100,18,55,0.4,89,7,4,,53,颗粒物(PM10)
天津市,雍阳西道,117.0365,39.3828,2025-05-18T0100,14,43,0.3,46,7,38,,43,
天津市,辛老路,117.0296,39.0605,2025-05-18T0100,28,80,0.7,51,10,36,,65,颗粒物(PM10)
天津市,地纬路,116.9638,38.9375,2025-05-18T0100,35,73,0.7,39,14,48,,62,颗粒物(PM10)
天津市,北环路,117.4067,40.0583,2025-05-18T0100,3,6,0.2,11,5,84,,27,
天津市,建设路,117.3045,39.7169,2025-05-18T0100,10,38,0.3,25,6,51,,38,
天津市,滨水东路,117.8199,39.3521,2025-05-18T0100,11,36,0.3,43,6,36,,36,
天津市,光华路,117.2437,39.1029,2025-05-18T0100,22,55,0.5,42,9,55,,53,颗粒物(PM10)
天水市,麦积山,106.0055,34.343,2025-05-18T0100,,,,,,,,,
天水市,公园小学,105.7205,34.5786,2025-05-18T0100,40,66,0.3,11,10,88,,58,颗粒物(PM10)
天水市,麦积国土局,105.8945,34.5538,2025-05-18T0100,57,94,0.4,7,12,81,,78,细颗粒物(PM2.5)
铁岭市,汇工街西,123.8139,42.3022,2025-05-18T0100,71,,0.4,24,9,55,,95,细颗粒物(PM2.5)
铁岭市,水上乐园,123.8649,42.2923,2025-05-18T0100,24,34,0.4,19,5,47,,35,
铁岭市,银州路东段,123.8486,42.2867,2025-05-18T0100,34,48,0.4,22,10,52,,49,
铁岭市,金沙江路北,123.7153,42.2217,2025-05-18T0100,37,41,0.7,26,8,47,,53,细颗粒物(PM2.5)
通化市,光明,125.9358,41.7173,2025-05-18T0100,11,17,0.5,7,12,45,,17,
通化市,铁路,125.9446,41.7325,2025-05-18T0100,11,12,0.4,7,8,37,,16,
通辽市,艺术职业学校,122.2532,43.6801,2025-05-18T0100,31,57,0.3,12,7,75,,54,颗粒物(PM10)
通辽市,老干部活动中心,122.2584,43.6333,2025-05-18T0100,39,47,0.1,11,6,64,,55,细颗粒物(PM2.5)
通辽市,东方明珠社区,122.2922,43.6189,2025-05-18T0100,52,69,0.4,10,7,65,,72,细颗粒物(PM2.5)
铜川市,党校,109.0656,35.0994,2025-05-18T0100,,,,,,,,,
铜川市,王益区政府,109.0697,35.0697,2025-05-18T0100,63,184,0.5,38,10,61,,117,颗粒物(PM10)
铜川市,新区管委会,108.9344,34.9058,2025-05-18T0100,92,225,0.3,11,5,86,,138,颗粒物(PM10)
铜川市,大唐三路,108.9497,34.8705,2025-05-18T0100,65,196,0.3,12,7,87,,123,颗粒物(PM10)
铜陵市,市第四中学,117.8177,30.9412,2025-05-18T0100,77,315,0.4,41,11,66,,183,颗粒物(PM10)
铜陵市,市公路局,117.8059,30.9273,2025-05-18T0100,80,316,0.4,27,17,87,,183,颗粒物(PM10)
铜陵市,市新民污水厂,117.7807,30.9413,2025-05-18T0100,61,256,0.4,17,9,85,,153,颗粒物(PM10)
铜陵市,市第九中学,117.7439,30.8792,2025-05-18T0100,74,296,0.4,22,6,79,,173,颗粒物(PM10)
铜陵市,车站新区,117.846,30.9413,2025-05-18T0100,91,301,0.3,26,8,91,,176,颗粒物(PM10)
铜陵市,市职教基地,117.8483,30.97,2025-05-18T0100,66,307,0.7,26,6,94,,179,颗粒物(PM10)
铜仁市,铜仁卫校,109.1839,27.7344,2025-05-18T0100,22,61,0.3,18,2,26,,56,颗粒物(PM10)
铜仁市,铜仁七中,109.1753,27.6944,2025-05-18T0100,17,30,0.3,12,3,27,,30,
吐鲁番市,市环保局,89.1904,42.9418,2025-05-18T0100,16,78,0.6,23,5,72,,64,颗粒物(PM10)
吐鲁番市,地区环保局,89.1673,42.9559,2025-05-18T0100,25,68,0.5,29,6,62,,59,颗粒物(PM10)
威海市,华夏技校,122.1214,37.4236,2025-05-18T0100,15,,0.2,10,4,87,,28,
威海市,山大分校,122.0508,37.5236,2025-05-18T0100,10,12,0.3,7,6,85,,27,
威海市,市监测站,122.1067,37.5072,2025-05-18T0100,12,24,0.3,11,2,77,,25,
威海市,文登开发区,122.0693,37.2174,2025-05-18T0100,44,50,0.5,19,6,58,,62,细颗粒物(PM2.5)
威海市,临港区管委会,122.1379,37.3414,2025-05-18T0100,11,19,0.2,9,2,,,,
潍坊市,环保局,119.1437,36.7023,2025-05-18T0100,13,41,0.3,17,8,80,,41,
潍坊市,坊子邮政,119.1641,36.6523,2025-05-18T0100,14,51,0.4,25,7,76,,51,颗粒物(PM10)
潍坊市,潍坊七中,119.0587,36.721,2025-05-18T0100,16,36,0.4,24,6,72,,36,
潍坊市,高新实验学校,119.1977,36.6872,2025-05-18T0100,19,41,0.4,15,7,84,,41,
潍坊市,潍坊学院,119.1755,36.7149,2025-05-18T0100,11,41,0.4,10,6,94,,41,
潍坊市,寒亭区实验一小,119.2041,36.7699,2025-05-18T0100,12,31,0.6,16,5,85,,31,
渭南市,农科所,109.5293,34.5101,2025-05-18T0100,,,,,,,,,
渭南市,体育馆,109.4636,34.493,2025-05-18T0100,51,195,0.5,30,8,62,,123,颗粒物(PM10)
渭南市,高新一小,109.4259,34.5023,2025-05-18T0100,75,207,0.4,20,8,68,,129,颗粒物(PM10)
渭南市,渭花路4号,109.5051,34.4921,2025-05-18T0100,64,188,0.4,23,6,43,,119,颗粒物(PM10)
温州市,瓯海,120.634,28.0089,2025-05-18T0100,41,52,0.8,50,5,1,,58,细颗粒物(PM2.5)
温州市,南浦,120.6748,27.9939,2025-05-18T0100,39,45,0.7,45,4,1,,55,细颗粒物(PM2.5)
温州市,龙湾,120.76,27.9747,2025-05-18T0100,26,40,0.8,52,3,3,,40,
温州市,市站,120.6709,28.0167,2025-05-18T0100,36,50,0.5,45,4,4,,52,细颗粒物(PM2.5)
温州市,茶山,120.6985,27.9251,2025-05-18T0100,16,24,0.6,17,2,24,,24,
文山壮族苗族自治州,州水务局,104.2533,23.3594,2025-05-18T0100,3,23,0.3,9,14,24,,23,
文山壮族苗族自治州,市便民服务中心,104.2319,23.3892,2025-05-18T0100,3,14,0.5,17,8,37,,14,
乌海市,市林业局,106.8174,39.6973,2025-05-18T0100,16,78,1.2,37,16,44,,64,颗粒物(PM10)
乌海市,中海勃湾学校,106.7907,39.6667,2025-05-18T0100,26,74,0.9,27,12,54,,62,颗粒物(PM10)
乌海市,海北新区,106.813,39.7274,2025-05-18T0100,10,127,0.5,66,18,22,,89,颗粒物(PM10)
乌海市,聚英学校,106.8288,39.6778,2025-05-18T0100,43,90,1.3,46,32,40,,70,颗粒物(PM10)
乌兰察布市,集宁新区,113.1306,40.9923,2025-05-18T0100,14,22,0.1,14,7,67,,22,
乌兰察布市,光明街小学,113.1076,41.0385,2025-05-18T0100,13,21,0.3,13,10,73,,23,
乌兰察布市,北京八中,113.1376,40.9509,2025-05-18T0100,3,20,0.4,14,12,56,,20,
乌兰察布市,市委党校,113.1775,40.9779,2025-05-18T0100,19,,0.2,13,8,72,,28,
乌鲁木齐市,监测站,87.5801,43.8303,2025-05-18T0100,42,77,0.4,66,4,35,,64,颗粒物(PM10)
乌鲁木齐市,收费所,87.6046,43.768,2025-05-18T0100,41,96,0.4,81,4,8,,73,颗粒物(PM10)
乌鲁木齐市,新疆农科院农场,87.4754,43.9469,2025-05-18T0100,33,101,0.7,92,11,8,,76,颗粒物(PM10)
乌鲁木齐市,铁路局,87.5525,43.8711,2025-05-18T0100,31,78,0.8,102,4,3,,64,颗粒物(PM10)
乌鲁木齐市,三十一中学,87.6432,43.831,2025-05-18T0100,30,85,0.5,77,8,20,,68,颗粒物(PM10)
乌鲁木齐市,米东区环保局,87.7216,44.1747,2025-05-18T0100,27,50,0.3,33,13,42,,50,
乌鲁木齐市,培训基地,87.4651,43.4569,2025-05-18T0100,3,24,0.4,6,4,111,,35,
乌鲁木齐市,达坂城区环保局,88.3118,43.3658,2025-05-18T0100,9,29,0.1,8,6,68,,29,
乌鲁木齐市,红光山片区,87.6162,43.8801,2025-05-18T0100,35,59,0.9,96,5,8,,55,颗粒物(PM10)
乌鲁木齐市,新师大温泉校区,87.7024,43.8004,2025-05-18T0100,24,62,0.2,14,4,90,,56,颗粒物(PM10)
乌鲁木齐市,大绿谷,87.4921,43.8411,2025-05-18T0100,,,,,,,93,,
无锡市,雪浪,120.269,31.4867,2025-05-18T0100,17,127,0.5,11,4,105,,89,颗粒物(PM10)
无锡市,黄巷,120.275,31.6219,2025-05-18T0100,14,113,0.6,11,7,89,,82,颗粒物(PM10)
无锡市,曹张,120.294,31.56,2025-05-18T0100,22,135,0.5,,2,94,,,
无锡市,漆塘,120.242,31.5031,2025-05-18T0100,17,139,0.4,11,5,100,,95,颗粒物(PM10)
无锡市,东亭,120.3489,31.5863,2025-05-18T0100,12,102,0.4,11,6,98,,76,颗粒物(PM10)
无锡市,旺庄,120.354,31.5475,2025-05-18T0100,19,97,0.6,8,4,101,,74,颗粒物(PM10)
无锡市,荣巷,120.245,31.5631,2025-05-18T0100,24,119,0.4,11,6,104,,85,颗粒物(PM10)
无锡市,堰桥,120.299,31.6817,2025-05-18T0100,17,92,1.0,15,6,96,,71,颗粒物(PM10)
无锡市,华庄,120.3142,31.4753,2025-05-18T0100,12,96,0.7,11,3,105,,73,颗粒物(PM10)
吴忠市,教育园区,106.1532,37.9648,2025-05-18T0100,33,105,0.4,32,8,72,,78,颗粒物(PM10)
吴忠市,新区二泵站,106.1856,37.9956,2025-05-18T0100,56,114,0.4,34,9,92,,82,颗粒物(PM10)
吴忠市,文卫南街,106.2112,37.9768,2025-05-18T0100,24,77,0.5,28,13,100,,64,颗粒物(PM10)
芜湖市,监测站,118.3606,31.3519,2025-05-18T0100,34,175,0.5,5,8,117,,113,颗粒物(PM10)
芜湖市,科创中心,118.3714,31.4134,2025-05-18T0100,45,210,0.7,14,6,104,,130,颗粒物(PM10)
芜湖市,四水厂,118.3673,31.3131,2025-05-18T0100,39,208,0.5,7,3,115,,129,颗粒物(PM10)
芜湖市,市气象局,118.4209,31.3707,2025-05-18T0100,35,178,0.4,4,7,115,,114,颗粒物(PM10)
芜湖市,清苑社区,118.4781,31.3225,2025-05-18T0100,31,199,0.5,10,8,108,,125,颗粒物(PM10)
芜湖市,扬子职业技术学院,118.2746,31.2326,2025-05-18T0100,38,226,0.5,8,6,112,,138,颗粒物(PM10)
梧州市,市逸夫小学,111.3014,23.4832,2025-05-18T0100,15,28,0.1,13,22,26,,28,
梧州市,市十一中,111.3239,23.4794,2025-05-18T0100,6,23,0.3,19,13,5,,23,
梧州市,龙新,111.2711,23.4835,2025-05-18T0100,15,31,0.6,33,10,2,,31,
梧州市,政贤路18号,111.2419,23.4154,2025-05-18T0100,18,25,,29,8,,,,
五家渠市,农水大厦,87.5475,44.1756,2025-05-18T0100,41,49,0.3,15,5,63,,58,细颗粒物(PM2.5)
五家渠市,经开区管委会,87.546,44.1912,2025-05-18T0100,15,40,0.5,26,4,61,,40,
武汉市,东湖梨园,114.3677,30.5584,2025-05-18T0100,76,247,1.1,17,5,92,,149,颗粒物(PM10)
武汉市,汉阳月湖,114.2529,30.558,2025-05-18T0100,85,301,0.4,18,6,91,,176,颗粒物(PM10)
武汉市,汉口花桥,114.282,30.6189,2025-05-18T0100,73,266,0.4,13,8,90,,158,颗粒物(PM10)
武汉市,武昌紫阳,114.3025,30.5332,2025-05-18T0100,58,299,0.8,18,10,74,,175,颗粒物(PM10)
武汉市,青山钢花,114.3646,30.6217,2025-05-18T0100,83,333,0.7,19,5,92,,192,颗粒物(PM10)
武汉市,沌口新区,114.1566,30.4825,2025-05-18T0100,93,246,0.4,20,7,100,,148,颗粒物(PM10)
武汉市,汉口江滩,114.3014,30.5944,2025-05-18T0100,75,298,0.4,15,8,95,,174,颗粒物(PM10)
武汉市,吴家山,114.135,30.6319,2025-05-18T0100,83,298,0.3,14,8,94,,174,颗粒物(PM10)
武汉市,沉湖七壕,113.8454,30.2917,2025-05-18T0100,25,34,0.6,17,3,71,,36,
武汉市,民族大道182号,114.3877,30.4908,2025-05-18T0100,46,294,0.6,19,8,87,,172,颗粒物(PM10)
武威市,监测站,102.6201,37.9251,2025-05-18T0100,43,131,0.2,14,8,76,,91,颗粒物(PM10)
武威市,钟楼街149号,102.6447,37.9293,2025-05-18T0100,149,152,0.2,15,5,72,,199,细颗粒物(PM2.5)
西安市,兴庆小区,108.993,34.2629,2025-05-18T0100,52,195,0.5,17,8,79,,123,颗粒物(PM10)
西安市,纺织城,109.06,34.2572,2025-05-18T0100,73,212,0.3,28,10,60,,131,颗粒物(PM10)
西安市,小寨,108.9356,34.2173,2025-05-18T0100,72,215,0.5,18,10,81,,133,颗粒物(PM10)
西安市,市人民体育场,108.954,34.2713,2025-05-18T0100,58,258,0.5,18,4,78,,154,颗粒物(PM10)
西安市,高新西区,108.8922,34.2322,2025-05-18T0100,66,207,0.3,26,6,74,,129,颗粒物(PM10)
西安市,经开区,108.935,34.3474,2025-05-18T0100,54,215,0.5,24,9,73,,133,颗粒物(PM10)
西安市,长安区,108.906,34.1546,2025-05-18T0100,60,242,0.3,22,9,81,,146,颗粒物(PM10)
西安市,临潼区,109.2186,34.3731,2025-05-18T0100,57,215,0.3,4,13,99,,133,颗粒物(PM10)
西安市,草滩,108.869,34.378,2025-05-18T0100,69,199,0.3,44,4,47,,125,颗粒物(PM10)
西安市,曲江文化产业集团,108.985,34.1978,2025-05-18T0100,57,194,0.4,19,9,83,,122,颗粒物(PM10)
西安市,广运潭,109.051,34.3213,2025-05-18T0100,68,220,0.6,26,8,54,,135,颗粒物(PM10)
西安市,无线电监控中心,109.09,34.5236,2025-05-18T0100,70,259,0.4,29,9,56,,155,颗粒物(PM10)
西安市,行知小学,108.8869,34.2662,2025-05-18T0100,56,238,0.4,33,5,61,,144,颗粒物(PM10)
西安市,西苑北路977号,108.5962,34.1188,2025-05-18T0100,91,206,0.3,33,6,46,,128,颗粒物(PM10)
西宁市,第五水厂,101.524,36.6867,2025-05-18T0100,,,,,,,,,
西宁市,城北区政府,101.7775,36.6428,2025-05-18T0100,10,27,0.2,17,5,49,,27,
西宁市,世纪职校,101.8305,36.5786,2025-05-18T0100,18,30,0.3,13,8,56,,30,
西宁市,师大城西校区,101.7413,36.6397,2025-05-18T0100,23,31,0.4,23,6,61,,33,
西双版纳傣族自治州,景洪市江南,100.8018,21.9995,2025-05-18T0100,19,25,0.7,11,4,6,,28,
西双版纳傣族自治州,景洪市江北,100.8017,22.0225,2025-05-18T0100,14,34,0.4,9,8,7,,34,
西咸新区,北杜,108.7108,34.46,2025-05-18T0100,62,217,0.4,26,8,53,,134,颗粒物(PM10)
西咸新区,同德佳苑,108.7096,34.2956,2025-05-18T0100,72,240,0.3,23,6,71,,145,颗粒物(PM10)
西咸新区,崇文塔,108.8558,34.4978,2025-05-18T0100,68,225,0.5,30,10,50,,138,颗粒物(PM10)
锡林郭勒盟,市环保监测站,116.1042,43.9317,2025-05-18T0100,8,,0.2,25,1,36,,13,
锡林郭勒盟,市政府,116.0781,43.9311,2025-05-18T0100,6,21,0.1,12,1,45,,21,
厦门市,溪东,118.1608,24.8169,2025-05-18T0100,,,,,,,,,
厦门市,洪文,118.1514,24.4767,2025-05-18T0100,7,19,0.5,,8,11,,,
厦门市,鼓浪屿,118.0661,24.4444,2025-05-18T0100,7,17,0.3,27,3,20,,17,
厦门市,湖里中学,118.0936,24.5058,2025-05-18T0100,6,16,0.4,14,1,20,,16,
厦门市,集美中学,118.0958,24.5688,2025-05-18T0100,3,12,0.5,36,4,8,,18,
厦门市,同安二实小,118.1493,24.7245,2025-05-18T0100,7,15,0.3,32,2,6,,16,
咸宁市,森林公园,114.3175,29.8142,2025-05-18T0100,15,27,0.6,3,6,98,,31,
咸宁市,长江产业园,114.3375,29.8683,2025-05-18T0100,39,45,0.9,13,2,34,,55,细颗粒物(PM2.5)
咸宁市,双鹤路18号,114.3182,29.8447,2025-05-18T0100,36,48,0.6,22,4,33,,52,细颗粒物(PM2.5)
咸宁市,碧桂路,114.284,29.8595,2025-05-18T0100,31,47,0.7,11,4,29,,47,
咸阳市,气象站,108.7197,34.3956,2025-05-18T0100,,,,,,,,,
咸阳市,实验中学,108.673,34.3155,2025-05-18T0100,87,311,0.5,30,9,77,,181,颗粒物(PM10)
咸阳市,师范学院,108.7233,34.3617,2025-05-18T0100,72,255,0.4,18,4,74,,153,颗粒物(PM10)
咸阳市,两寺渡,108.6594,34.2969,2025-05-18T0100,86,268,0.6,29,8,60,,159,颗粒物(PM10)
咸阳市,奥体中心,108.6396,34.4078,2025-05-18T0100,62,202,0.5,32,6,44,,126,颗粒物(PM10)
湘潭市,板塘,112.9433,27.8614,2025-05-18T0100,7,26,0.9,24,7,37,,26,
湘潭市,市监测站,112.9118,27.8403,2025-05-18T0100,15,,0.7,13,3,45,,22,
湘潭市,江麓,112.8937,27.8728,2025-05-18T0100,15,20,0.8,6,6,62,,22,
湘潭市,岳塘,112.9227,27.8159,2025-05-18T0100,12,23,0.8,12,3,49,,23,
湘潭市,科大,112.9074,27.9119,2025-05-18T0100,20,42,0.7,6,4,38,,42,
湘潭市,昭山,113.0048,27.9153,2025-05-18T0100,16,27,1.0,19,6,24,,27,
湘潭市,韶山,112.4876,27.9164,2025-05-18T0100,18,44,0.7,11,10,29,,44,
湘西土家族苗族自治州,跃进水库,109.6414,28.2558,2025-05-18T0100,16,31,0.6,2,6,18,,31,
湘西土家族苗族自治州,州政府,109.7325,28.3169,2025-05-18T0100,21,30,0.6,5,8,17,,30,
湘西土家族苗族自治州,吉首市计生局,109.6958,28.2675,2025-05-18T0100,24,37,0.3,11,3,24,,37,
襄阳市,襄城运动路,112.155,32.0197,2025-05-18T0100,81,214,0.6,17,7,64,,132,颗粒物(PM10)
襄阳市,高新管委会,112.1825,32.1142,2025-05-18T0100,88,362,0.3,14,5,98,,218,颗粒物(PM10)
襄阳市,襄州航空路,112.2106,32.0903,2025-05-18T0100,80,360,0.4,12,9,103,,215,颗粒物(PM10)
襄阳市,襄城隆中路,112.0828,32.0067,2025-05-18T0100,177,247,0.9,33,14,61,,227,细颗粒物(PM2.5)
襄阳市,高新台子湾,112.1214,32.1008,2025-05-18T0100,88,272,0.4,13,8,93,,161,颗粒物(PM10)
襄阳市,铁院东路4号,112.1433,32.0581,2025-05-18T0100,73,272,0.4,23,9,82,,161,颗粒物(PM10)
孝感市,文化路,113.9153,30.9285,2025-05-18T0100,89,359,0.4,19,7,86,,213,颗粒物(PM10)
孝感市,东城区,113.942,30.9075,2025-05-18T0100,92,383,0.5,17,10,92,,248,颗粒物(PM10)
忻州市,开发区,112.7383,38.4519,2025-05-18T0100,16,19,0.5,21,6,60,,23,
忻州市,会展中心,112.7003,38.4928,2025-05-18T0100,14,31,0.5,64,5,15,,32,
忻州市,市政府,112.7283,38.4153,2025-05-18T0100,8,62,0.4,38,5,22,,56,颗粒物(PM10)
新乡市,环保西院,113.836,35.311,2025-05-18T0100,18,44,0.2,25,8,67,,44,
新乡市,开发区,113.884,35.272,2025-05-18T0100,17,62,0.2,21,12,78,,56,颗粒物(PM10)
新乡市,环保东院,113.883,35.303,2025-05-18T0100,29,61,0.3,26,7,63,,56,颗粒物(PM10)
新乡市,市委党校,113.9194,35.2847,2025-05-18T0100,20,55,0.1,28,5,60,,53,颗粒物(PM10)
新乡市,市政府,113.9188,35.3045,2025-05-18T0100,26,50,0.2,43,6,45,,50,
新乡市,行政服务中心,113.9003,35.372,2025-05-18T0100,21,68,0.4,26,8,50,,59,颗粒物(PM10)
新乡市,建设东路46号,113.9166,35.3315,2025-05-18T0100,22,72,0.2,36,6,39,,61,颗粒物(PM10)
新余市,北岗,115.0861,27.9317,2025-05-18T0100,,,,,,,,,
新余市,飞宇,114.9886,27.8431,2025-05-18T0100,3,32,1.0,7,3,7,,32,
新余市,第二水厂,114.9231,27.8246,2025-05-18T0100,9,21,0.2,3,5,36,,21,
新余市,市气象局,114.9308,27.8036,2025-05-18T0100,22,,0.8,8,2,34,,32,
新余市,新钢沁园村,114.9149,27.807,2025-05-18T0100,8,27,0.6,7,6,34,,27,
信阳市,平桥分局,114.1099,32.1059,2025-05-18T0100,83,233,0.2,14,6,94,,142,颗粒物(PM10)
信阳市,南湾水厂,113.9956,32.1271,2025-05-18T0100,69,251,0.2,13,4,90,,151,颗粒物(PM10)
信阳市,市酿酒公司,114.0775,32.1195,2025-05-18T0100,58,188,0.2,14,4,94,,119,颗粒物(PM10)
信阳市,审计局,114.0609,32.1399,2025-05-18T0100,66,233,0.2,17,7,93,,142,颗粒物(PM10)
兴安盟,胜华新制药厂,122.0392,46.0656,2025-05-18T0100,22,25,0.2,1,2,73,,32,
兴安盟,科右前旗环保局,121.9504,46.0741,2025-05-18T0100,15,24,0.2,2,6,70,,24,
兴安盟,北滨河,122.0931,46.0707,2025-05-18T0100,25,26,0.2,5,6,77,,36,
邢台市,达活泉,114.4704,37.0886,2025-05-18T0100,31,56,0.6,25,7,66,,53,颗粒物(PM10)
邢台市,邢师高专,114.5062,37.0349,2025-05-18T0100,31,70,0.2,28,3,43,,60,颗粒物(PM10)
邢台市,路桥公司,114.5237,37.0851,2025-05-18T0100,36,51,0.1,22,4,72,,52,细颗粒物(PM2.5)
邢台市,市环保局,114.4725,37.0719,2025-05-18T0100,30,75,0.5,24,3,72,,63,颗粒物(PM10)
雄安新区,容城县环境保护局,115.8844,39.0341,2025-05-18T0100,31,84,0.2,34,10,49,,67,颗粒物(PM10)
雄安新区,河北容城中学,115.8665,39.0645,2025-05-18T0100,48,82,0.3,31,8,52,,67,细颗粒物(PM2.5)
雄安新区,安新县民政局,115.923,38.9405,2025-05-18T0100,36,85,0.3,44,5,52,,68,颗粒物(PM10)
雄安新区,安新县电力局,115.9324,38.9338,2025-05-18T0100,27,71,0.1,21,7,61,,61,颗粒物(PM10)
雄安新区,雄县环境保护局,116.0901,38.9816,2025-05-18T0100,29,56,0.3,18,7,70,,53,颗粒物(PM10)
雄安新区,雄县国土资源局,116.1105,39.0046,2025-05-18T0100,21,63,0.3,18,7,71,,57,颗粒物(PM10)
徐州市,黄河新村,117.179,34.2761,2025-05-18T0100,18,92,0.3,35,9,76,,71,颗粒物(PM10)
徐州市,新城区,117.256,34.2153,2025-05-18T0100,20,85,0.5,30,8,70,,68,颗粒物(PM10)
徐州市,农科院,117.2933,34.2778,2025-05-18T0100,20,97,0.4,39,8,56,,74,颗粒物(PM10)
徐州市,鼓楼区政府,117.1814,34.29,2025-05-18T0100,18,88,0.4,28,9,65,,69,颗粒物(PM10)
