area,positionname,longitude,latitude,timepoint,pm2_5,pm10,co,no2,so2,o3,o3_8h,aqi,primarypollutant
阿坝藏族羌族自治州,州农科所,102.1879,31.914,2025-01-29T0700,6,10,1.1,2,8,55,,18,
阿坝藏族羌族自治州,马师校,102.2502,31.8896,2025-01-29T0700,12,,0.4,11,5,52,,18,
阿坝藏族羌族自治州,马尔康中学西区,102.2165,31.9024,2025-01-29T0700,3,17,0.4,2,5,51,,17,
阿克苏地区,电视台,80.292,41.1694,2025-01-29T0700,52,197,1.0,23,4,44,,124,颗粒物(PM10)
阿克苏地区,艺术中心,80.2613,41.1551,2025-01-29T0700,60,218,0.6,21,7,40,,134,颗粒物(PM10)
阿拉善盟,西城区西花园,105.6467,38.8363,2025-01-29T0700,14,22,0.6,6,8,98,,31,
阿拉善盟,蒙二幼,105.6985,38.8411,2025-01-29T0700,14,,0.6,6,12,89,,28,
阿拉善盟,环保局新楼,105.724,38.8516,2025-01-29T0700,6,15,0.4,3,8,96,,30,
阿勒泰地区,市站,88.1264,47.8517,2025-01-29T0700,10,10,0.3,7,2,64,,20,
阿里地区,阿里监测站,80.1161,32.5,2025-01-29T0700,3,6,0.4,2,6,76,,24,
阿里地区,阿里藏医院,80.0903,32.5028,2025-01-29T0700,7,10,0.6,11,6,68,,22,
安康市,香溪洞,109.0318,32.6537,2025-01-29T0700,120,143,0.8,9,12,33,,158,细颗粒物(PM2.5)
安康市,汉滨区检察院,109.0072,32.6975,2025-01-29T0700,141,190,0.7,10,6,15,,188,细颗粒物(PM2.5)
安康市,市邮政管理局,109.0325,32.6913,2025-01-29T0700,163,206,0.8,13,6,15,,213,细颗粒物(PM2.5)
安庆市,环科院,117.0809,30.5177,2025-01-29T0700,213,,1.2,15,49,35,,263,细颗粒物(PM2.5)
安庆市,马山宾馆,117.0331,30.5119,2025-01-29T0700,251,,0.9,30,14,17,,301,细颗粒物(PM2.5)
安庆市,安庆大学,116.9896,30.6145,2025-01-29T0700,319,374,0.6,12,11,24,,369,细颗粒物(PM2.5)
安庆市,市人大,117.0598,30.5351,2025-01-29T0700,242,249,1.3,15,44,28,,292,细颗粒物(PM2.5)
安顺市,伍家关,105.9606,26.2611,2025-01-29T0700,30,42,0.7,3,11,76,,43,
安顺市,凤凰山,105.9408,26.2431,2025-01-29T0700,38,61,0.5,6,14,66,,56,颗粒物(PM10)
安顺市,金钟山,105.9439,26.2564,2025-01-29T0700,32,38,0.5,5,15,67,,46,
安顺市,娄家坡,105.8983,26.2481,2025-01-29T0700,27,37,0.6,2,5,71,,39,
安阳市,棉研所,114.4839,36.0621,2025-01-29T0700,271,,1.5,22,46,15,,321,细颗粒物(PM2.5)
安阳市,红庙街,114.3551,36.1017,2025-01-29T0700,98,153,1.0,21,10,27,,129,细颗粒物(PM2.5)
安阳市,银杏小区,114.361,36.0681,2025-01-29T0700,192,,1.3,20,14,20,,242,细颗粒物(PM2.5)
安阳市,信访局,114.3922,36.0878,2025-01-29T0700,171,183,1.1,16,15,31,,221,细颗粒物(PM2.5)
安阳市,左辅环卫站,114.4705,36.0637,2025-01-29T0700,252,,1.1,16,32,27,,302,细颗粒物(PM2.5)
安阳市,安钢职工学校,114.2917,36.0949,2025-01-29T0700,182,,0.9,19,21,28,,232,细颗粒物(PM2.5)
鞍山市,深沟寺,123.044,41.1196,2025-01-29T0700,98,,0.8,8,10,53,,129,细颗粒物(PM2.5)
鞍山市,太阳城,123.011,41.0931,2025-01-29T0700,35,90,0.5,14,9,56,,70,颗粒物(PM10)
鞍山市,太平,123.0485,41.1442,2025-01-29T0700,286,362,2.1,44,25,13,,336,细颗粒物(PM2.5)
鞍山市,铁西三道街,122.9642,41.0971,2025-01-29T0700,220,258,2.1,45,,9,,270,细颗粒物(PM2.5)
鞍山市,明达新区,123.022,41.0821,2025-01-29T0700,103,128,1.1,20,6,46,,135,细颗粒物(PM2.5)
鞍山市,千山,123.1289,41.0228,2025-01-29T0700,,,,,,,60,,
鞍山市,兴盛南路290号,122.9446,41.0826,2025-01-29T0700,306,345,2.2,55,13,10,,356,细颗粒物(PM2.5)
巴彦淖尔市,附二中,107.4212,40.761,2025-01-29T0700,357,494,2.6,41,4,9,,405,细颗粒物(PM2.5)
巴彦淖尔市,市环保大楼,107.37,40.7372,2025-01-29T0700,325,389,2.3,41,4,17,,375,细颗粒物(PM2.5)
巴音郭楞蒙古自治州,孔雀公园,86.1472,41.7538,2025-01-29T0700,63,443,0.6,10,3,56,,329,颗粒物(PM10)
巴音郭楞蒙古自治州,棉纺厂,86.1972,41.7166,2025-01-29T0700,51,487,0.7,35,1,32,,384,颗粒物(PM10)
巴音郭楞蒙古自治州,经济开发区,86.2357,41.7173,2025-01-29T0700,45,376,0.6,5,3,58,,238,颗粒物(PM10)
巴中市,苏山坪,106.7677,31.8794,2025-01-29T0700,77,112,0.7,4,8,69,,103,细颗粒物(PM2.5)
巴中市,市五中,106.7768,31.8526,2025-01-29T0700,176,228,1.0,15,5,14,,226,细颗粒物(PM2.5)
巴中市,圣泉水务公司,106.7418,31.8654,2025-01-29T0700,104,134,0.8,8,4,30,,137,细颗粒物(PM2.5)
巴中市,市中心医院,106.7616,31.8344,2025-01-29T0700,220,241,1.1,17,4,4,,270,细颗粒物(PM2.5)
白城市,洮北区环保局,122.7911,45.6077,2025-01-29T0700,22,31,0.3,8,6,70,,32,
白城市,市环保局,122.8738,45.5725,2025-01-29T0700,17,19,0.4,9,3,64,,25,
白山市,喜丰,126.4219,41.9171,2025-01-29T0700,33,53,0.7,16,33,48,,52,颗粒物(PM10)
白山市,环保局,126.4077,41.9419,2025-01-29T0700,29,64,0.7,10,12,56,,57,颗粒物(PM10)
白银市,第三小学,104.1724,36.5446,2025-01-29T0700,210,,2.0,33,28,33,,260,细颗粒物(PM2.5)
白银市,动力公司,104.1465,36.5482,2025-01-29T0700,118,131,1.6,22,6,35,,155,细颗粒物(PM2.5)
百色市,市监测站,106.6103,23.9011,2025-01-29T0700,38,45,0.7,7,8,23,,54,细颗粒物(PM2.5)
百色市,市中心血站,106.6538,23.8859,2025-01-29T0700,114,,0.4,15,9,15,,149,细颗粒物(PM2.5)
百色市,祈福高中,106.6085,23.8798,2025-01-29T0700,76,86,0.7,10,,20,,102,细颗粒物(PM2.5)
蚌埠市,工人疗养院,117.396,32.939,2025-01-29T0700,58,79,0.7,13,7,69,,79,细颗粒物(PM2.5)
蚌埠市,百货大楼,117.3605,32.9427,2025-01-29T0700,71,95,0.5,13,12,70,,95,细颗粒物(PM2.5)
蚌埠市,蚌埠学院,117.4185,32.8911,2025-01-29T0700,72,95,0.4,8,10,67,,97,细颗粒物(PM2.5)
蚌埠市,淮上区政府,117.3533,32.9673,2025-01-29T0700,74,107,0.6,14,16,74,,99,细颗粒物(PM2.5)
蚌埠市,高新区,117.3145,32.8977,2025-01-29T0700,87,112,0.4,12,12,57,,115,细颗粒物(PM2.5)
蚌埠市,蚌埠田家炳中学,117.3092,32.9314,2025-01-29T0700,91,105,0.4,15,24,58,,120,细颗粒物(PM2.5)
包头市,市环境监测站,109.8756,40.6532,2025-01-29T0700,403,468,1.3,59,23,6,,436,细颗粒物(PM2.5)
包头市,包头八中,109.9991,40.5842,2025-01-29T0700,600,,2.7,65,65,13,,500,细颗粒物(PM2.5)
包头市,青山宾馆,109.8538,40.6821,2025-01-29T0700,272,,1.4,50,12,11,,322,细颗粒物(PM2.5)
包头市,惠龙物流,109.8642,40.6288,2025-01-29T0700,694,920,3.3,68,47,10,,500,"颗粒物(PM10),细颗粒物(PM2.5)"
包头市,东河鸿龙湾,110.0377,40.5546,2025-01-29T0700,462,514,3.4,69,34,20,,475,细颗粒物(PM2.5)
包头市,滨河大厦,109.9154,40.5685,2025-01-29T0700,426,493,2.7,70,40,9,,451,细颗粒物(PM2.5)
包头市,包头市委党校,109.9447,40.6261,2025-01-29T0700,154,434,2.7,49,21,11,,318,颗粒物(PM10)
包头市,昆区政府,109.8331,40.6576,2025-01-29T0700,374,,1.8,55,25,11,,416,细颗粒物(PM2.5)
宝鸡市,庙沟村,107.185,34.3063,2025-01-29T0700,164,,0.8,17,6,67,,214,细颗粒物(PM2.5)
宝鸡市,竹园沟,107.0708,34.3017,2025-01-29T0700,56,65,0.9,7,5,33,,77,细颗粒物(PM2.5)
宝鸡市,三陆医院,107.1906,34.3672,2025-01-29T0700,111,116,0.6,27,4,38,,145,细颗粒物(PM2.5)
宝鸡市,监测站,107.1431,34.3547,2025-01-29T0700,118,,0.7,19,6,30,,155,细颗粒物(PM2.5)
宝鸡市,技工学校,107.1186,34.3739,2025-01-29T0700,95,123,0.7,18,5,34,,125,细颗粒物(PM2.5)
宝鸡市,陈仓区环保局家属楼,107.3906,34.3528,2025-01-29T0700,148,161,1.1,31,23,24,,198,细颗粒物(PM2.5)
宝鸡市,文理学院,107.2058,34.3497,2025-01-29T0700,154,,0.7,18,5,32,,204,细颗粒物(PM2.5)
宝鸡市,三迪小学,107.2386,34.3622,2025-01-29T0700,136,,0.8,19,6,32,,180,细颗粒物(PM2.5)
保定市,游泳馆,115.493,38.8632,2025-01-29T0700,327,343,0.9,47,19,10,,377,细颗粒物(PM2.5)
保定市,华电二区,115.5213,38.8959,2025-01-29T0700,354,,0.8,51,9,3,,403,细颗粒物(PM2.5)
保定市,接待中心,115.4713,38.9108,2025-01-29T0700,361,375,1.0,51,14,10,,408,细颗粒物(PM2.5)
保定市,地表水厂,115.4612,38.8416,2025-01-29T0700,349,377,1.0,50,13,18,,399,细颗粒物(PM2.5)
保定市,满城区生态环境分局,115.31981,38.95208,2025-01-29T0700,320,332,1.7,40,12,13,,370,细颗粒物(PM2.5)
保定市,清苑区第二中学,115.47694,38.76408,2025-01-29T0700,493,622,1.2,45,45,14,,500,颗粒物(PM10)
保定市,徐水物探局,115.62909,39.02311,2025-01-29T0700,344,,0.8,53,19,5,,394,细颗粒物(PM2.5)
保定市,双鹰农机,115.4202,38.8656,2025-01-29T0700,359,365,0.9,37,19,17,,406,细颗粒物(PM2.5)
保定市,植保所站,115.5150,38.8590,2025-01-29T0700,393,,1.0,46,26,4,,429,细颗粒物(PM2.5)
保山市,市环境监测站,99.1678,25.1081,2025-01-29T0700,77,85,0.9,11,7,17,,103,细颗粒物(PM2.5)
保山市,市环保局,99.1711,25.1328,2025-01-29T0700,75,89,1.0,10,7,15,,100,细颗粒物(PM2.5)
北海市,牛尾岭水库,109.2262,21.588,2025-01-29T0700,122,138,0.6,9,7,12,,160,细颗粒物(PM2.5)
北海市,海滩公园,109.1436,21.4086,2025-01-29T0700,115,119,0.5,13,13,67,,150,细颗粒物(PM2.5)
北海市,新市环保局,109.0981,21.4661,2025-01-29T0700,322,429,0.9,27,31,24,,372,细颗粒物(PM2.5)
北海市,北海工业园,109.1778,21.5233,2025-01-29T0700,132,190,0.6,14,15,43,,175,细颗粒物(PM2.5)
北海市,龙潭自来水厂,109.1911,21.4415,2025-01-29T0700,305,,0.8,20,8,16,,355,细颗粒物(PM2.5)
北京市,万寿西宫,116.3621,39.8784,2025-01-29T0700,51,65,0.5,13,8,54,,70,细颗粒物(PM2.5)
北京市,定陵,116.2202,40.2915,2025-01-29T0700,,,,,,,,,
北京市,东四,116.4174,39.9289,2025-01-29T0700,69,83,0.5,22,6,37,,93,细颗粒物(PM2.5)
北京市,天坛,116.4072,39.8863,2025-01-29T0700,55,69,0.6,17,2,38,,75,细颗粒物(PM2.5)
北京市,农展馆,116.462,39.9365,2025-01-29T0700,78,87,0.8,22,6,43,,104,细颗粒物(PM2.5)
北京市,官园,116.3392,39.9295,2025-01-29T0700,43,49,0.4,11,7,55,,60,细颗粒物(PM2.5)
北京市,海淀万柳,116.2878,39.9611,2025-01-29T0700,39,50,0.6,23,5,44,,55,细颗粒物(PM2.5)
北京市,顺义新城,116.6636,40.135,2025-01-29T0700,64,76,0.3,9,3,55,,87,细颗粒物(PM2.5)
北京市,怀柔镇,116.6275,40.3275,2025-01-29T0700,35,46,0.4,16,2,39,,50,
北京市,昌平镇,116.2296,40.217,2025-01-29T0700,17,25,0.2,8,3,44,,25,
北京市,奥体中心,116.3966,39.9821,2025-01-29T0700,48,57,0.3,15,5,54,,67,细颗粒物(PM2.5)
北京市,延庆夏都,115.9718,40.4529,2025-01-29T0700,62,78,0.6,8,4,35,,84,细颗粒物(PM2.5)
北京市,平谷新城,117.0709,40.1465,2025-01-29T0700,52,58,0.4,9,1,36,,72,细颗粒物(PM2.5)
北京市,密云新城,116.8336,40.4095,2025-01-29T0700,44,57,0.3,5,3,50,,62,细颗粒物(PM2.5)
北京市,门头沟三家店,116.088,39.9726,2025-01-29T0700,29,,0.2,8,3,31,,42,
北京市,丰台云岗,116.1541,39.8204,2025-01-29T0700,44,59,0.3,8,1,46,,62,细颗粒物(PM2.5)
北京市,通州东关,116.6804,39.9081,2025-01-29T0700,170,194,0.4,15,8,22,,220,细颗粒物(PM2.5)
北京市,房山燕山,115.9577,39.7603,2025-01-29T0700,63,67,1.0,19,2,25,,85,细颗粒物(PM2.5)
北京市,大兴旧宫,116.4672,39.7733,2025-01-29T0700,96,122,0.4,37,2,18,,127,细颗粒物(PM2.5)
北京市,延庆石河营,115.986,40.4563,2025-01-29T0700,68,78,0.7,8,3,37,,92,细颗粒物(PM2.5)
北京市,怀柔新城,116.6151,40.3053,2025-01-29T0700,39,47,0.2,9,3,42,,55,细颗粒物(PM2.5)
北京市,丰台小屯,116.2545,39.8768,2025-01-29T0700,39,49,0.3,19,6,49,,55,细颗粒物(PM2.5)
北京市,密云镇,116.84,40.3844,2025-01-29T0700,70,95,0.4,12,2,37,,94,细颗粒物(PM2.5)
北京市,八角,116.1942,39.91583,2025-01-29T0700,53,66,0.4,57,3,5,,73,细颗粒物(PM2.5)
本溪市,大峪,123.8275,41.3064,2025-01-29T0700,206,239,3.0,44,14,18,,256,细颗粒物(PM2.5)
本溪市,溪湖,123.7567,41.3325,2025-01-29T0700,132,190,0.8,20,9,36,,175,细颗粒物(PM2.5)
本溪市,彩屯,123.7169,41.3094,2025-01-29T0700,175,200,1.0,14,10,49,,225,细颗粒物(PM2.5)
本溪市,东明,123.7669,41.2864,2025-01-29T0700,144,203,1.4,35,14,31,,192,细颗粒物(PM2.5)
本溪市,新立屯,123.7992,41.2664,2025-01-29T0700,120,157,2.0,22,10,41,,158,细颗粒物(PM2.5)
本溪市,威宁,123.8142,41.3472,2025-01-29T0700,146,,0.9,37,2,21,,195,细颗粒物(PM2.5)
毕节市,八中,105.2864,27.3125,2025-01-29T0700,64,80,0.6,9,9,48,,87,细颗粒物(PM2.5)
毕节市,师专,105.31,27.2944,2025-01-29T0700,63,69,0.4,11,9,46,,85,细颗粒物(PM2.5)
毕节市,碧海医院,105.3688,27.3599,2025-01-29T0700,71,84,0.7,9,12,54,,95,细颗粒物(PM2.5)
滨州市,第二水厂,118.0018,37.3617,2025-01-29T0700,166,205,0.5,30,39,38,,216,细颗粒物(PM2.5)
滨州市,北中新校,117.9776,37.393,2025-01-29T0700,163,195,0.9,29,33,35,,213,细颗粒物(PM2.5)
滨州市,中海酒店,117.9378,37.3956,2025-01-29T0700,151,175,0.7,26,34,50,,201,细颗粒物(PM2.5)
滨州市,开发区一中,117.9378,37.3553,2025-01-29T0700,183,215,0.8,38,44,31,,233,细颗粒物(PM2.5)
滨州市,金海六路,118.0917,37.694,2025-01-29T0700,127,159,1.3,25,26,40,,168,细颗粒物(PM2.5)
滨州市,滨州市西街道办事处,117.9956,37.3753,2025-01-29T0700,188,207,1.0,25,37,30,,238,细颗粒物(PM2.5)
亳州市,污水处理厂,115.8072,33.8399,2025-01-29T0700,549,627,1.6,38,45,23,,500,"颗粒物(PM10),细颗粒物(PM2.5)"
亳州市,三国揽胜宫,115.7789,33.8518,2025-01-29T0700,559,584,1.2,38,44,31,,500,细颗粒物(PM2.5)
亳州市,亳州学院,115.7633,33.8034,2025-01-29T0700,536,649,1.5,32,50,24,,500,"颗粒物(PM10),细颗粒物(PM2.5)"
博尔塔拉蒙古自治州,市党校,82.0485,44.8556,2025-01-29T0700,83,112,1.1,17,7,32,,110,细颗粒物(PM2.5)
博尔塔拉蒙古自治州,市环保局,82.0806,44.8969,2025-01-29T0700,41,123,1.0,13,6,52,,87,颗粒物(PM10)
沧州市,沧县城建局,116.8842,38.2991,2025-01-29T0700,526,,1.3,55,69,16,,500,细颗粒物(PM2.5)
沧州市,电视转播站,116.8584,38.3254,2025-01-29T0700,486,541,1.3,51,83,11,,491,细颗粒物(PM2.5)
沧州市,市环保局,116.8709,38.3228,2025-01-29T0700,483,,1.1,44,81,14,,489,细颗粒物(PM2.5)
沧州市,河北水利电力学院,116.8136,38.3004,2025-01-29T0700,434,525,1.2,43,86,16,,456,细颗粒物(PM2.5)
昌都市,昌都监测站,97.1806,31.1273,2025-01-29T0700,3,,0.9,2,5,56,,18,
昌都市,昌都会议中心,97.1714,31.1406,2025-01-29T0700,8,215,0.2,1,2,55,,133,颗粒物(PM10)
昌吉回族自治州,天山天池,88.1236,43.8886,2025-01-29T0700,3,6,0.7,2,3,73,,23,
昌吉回族自治州,新区政务中心,87.2717,44.0297,2025-01-29T0700,105,139,1.1,45,2,14,,138,细颗粒物(PM2.5)
昌吉回族自治州,亚心广场,87.3095,44.0142,2025-01-29T0700,185,222,1.3,39,5,24,,235,细颗粒物(PM2.5)
长春市,食品厂,125.3325,43.9166,2025-01-29T0700,34,52,0.3,11,9,59,,51,颗粒物(PM10)
长春市,客车厂,125.2863,43.9027,2025-01-29T0700,37,102,0.5,20,12,49,,76,颗粒物(PM10)
长春市,邮电学院,125.2841,43.8463,2025-01-29T0700,39,46,0.6,12,19,56,,55,细颗粒物(PM2.5)
长春市,劳动公园,125.3716,43.8772,2025-01-29T0700,35,35,0.6,12,8,59,,50,
长春市,园林处,125.3297,43.8805,2025-01-29T0700,,30,0.4,11,14,54,,,
长春市,净月潭,125.4605,43.79,2025-01-29T0700,30,32,0.3,4,8,,,,
长春市,甩湾子,125.7194,43.515,2025-01-29T0700,,,,,,,,,
长春市,经开区环卫处,125.3863,43.8447,2025-01-29T0700,30,33,0.4,11,19,50,,43,
长春市,高新区管委会,125.245,43.7783,2025-01-29T0700,29,29,0.5,9,10,56,,42,
长春市,岱山公园,125.1761,43.8325,2025-01-29T0700,23,54,0.4,5,7,64,,52,颗粒物(PM10)
长沙市,经开区环保局,113.0833,28.2325,2025-01-29T0700,301,427,0.6,13,17,40,,351,细颗粒物(PM2.5)
长沙市,高开区环保局,112.8872,28.2189,2025-01-29T0700,359,440,1.1,21,45,42,,406,细颗粒物(PM2.5)
长沙市,马坡岭,113.0792,28.2053,2025-01-29T0700,469,574,0.9,21,40,17,,480,细颗粒物(PM2.5)
长沙市,湖南师范大学,112.9394,28.19,2025-01-29T0700,139,192,0.5,2,13,49,,185,细颗粒物(PM2.5)
长沙市,雨花区环保局,113.0178,28.1322,2025-01-29T0700,124,126,0.6,5,12,70,,163,细颗粒物(PM2.5)
长沙市,伍家岭,112.9792,28.2597,2025-01-29T0700,726,779,1.6,23,34,0,,500,"颗粒物(PM10),细颗粒物(PM2.5)"
长沙市,火车新站,113.0014,28.1944,2025-01-29T0700,278,299,0.8,32,40,26,,328,细颗粒物(PM2.5)
长沙市,天心区环保局,112.9844,28.1178,2025-01-29T0700,185,,0.6,9,14,74,,235,细颗粒物(PM2.5)
长沙市,湖南中医药大学,112.8908,28.1308,2025-01-29T0700,407,534,0.9,26,9,6,,438,细颗粒物(PM2.5)
长沙市,沙坪,112.9581,28.3611,2025-01-29T0700,175,264,0.9,19,41,53,,225,细颗粒物(PM2.5)
长治市,清华站,113.1147,36.1547,2025-01-29T0700,22,39,0.8,16,20,48,,39,
长治市,审计局,113.0886,36.2125,2025-01-29T0700,97,,0.9,23,17,28,,128,细颗粒物(PM2.5)
长治市,长治八中,113.0844,36.1856,2025-01-29T0700,67,92,1.1,19,18,32,,90,细颗粒物(PM2.5)
长治市,德盛苑,113.1569,36.1911,2025-01-29T0700,14,31,0.7,7,12,77,,31,
长治市,向阳小学,113.06,36.0464,2025-01-29T0700,93,110,0.8,24,61,59,,123,细颗粒物(PM2.5)
长治市,屯留一中,112.8792,36.3144,2025-01-29T0700,69,81,1.2,24,27,33,,93,细颗粒物(PM2.5)
长治市,英华南巷50号,113.1131,36.19948,2025-01-29T0700,24,41,0.7,19,17,57,,41,
长治市,学府街1号,113.2367,36.3344,2025-01-29T0700,81,87,0.8,14,4,36,,108,细颗粒物(PM2.5)
常德市,市二中,111.6975,28.9703,2025-01-29T0700,272,556,0.8,24,23,17,,456,颗粒物(PM10)
常德市,白鹤山,111.7158,29.1456,2025-01-29T0700,,,,,,,,,
常德市,武陵区永安,111.7153,29.0289,2025-01-29T0700,498,595,1.3,25,18,4,,499,细颗粒物(PM2.5)
常德市,鼎城区玉霞,111.6892,28.9881,2025-01-29T0700,423,456,1.4,16,15,4,,449,细颗粒物(PM2.5)
常德市,武陵区长庚,111.6625,29.0531,2025-01-29T0700,575,658,1.0,21,17,5,,500,"颗粒物(PM10),细颗粒物(PM2.5)"
常州市,市监测站,119.9633,31.762,2025-01-29T0700,115,161,0.8,26,10,45,,150,细颗粒物(PM2.5)
常州市,武进监测站,119.9468,31.7069,2025-01-29T0700,103,121,0.7,11,11,53,,135,细颗粒物(PM2.5)
常州市,安家,119.9255,31.9087,2025-01-29T0700,172,252,0.7,23,12,39,,222,细颗粒物(PM2.5)
常州市,行政中心,119.9805,31.8174,2025-01-29T0700,111,154,0.7,19,11,38,,145,细颗粒物(PM2.5)
常州市,经开区,120.0522,31.7748,2025-01-29T0700,103,116,0.5,20,10,58,,135,细颗粒物(PM2.5)
常州市,钟楼,119.9025,31.7964,2025-01-29T0700,105,135,0.8,18,11,47,,138,细颗粒物(PM2.5)
常州市,武进经发区,119.8598,31.7066,2025-01-29T0700,130,164,0.7,12,10,56,,172,细颗粒物(PM2.5)
常州市,金坛城区,119.5826,31.7245,2025-01-29T0700,66,90,0.5,4,13,84,,89,细颗粒物(PM2.5)
朝阳市,西梁,120.4318,41.5881,2025-01-29T0700,436,459,1.5,31,52,22,,458,细颗粒物(PM2.5)
朝阳市,河畔小区,120.4521,41.5646,2025-01-29T0700,373,479,1.4,26,54,23,,416,细颗粒物(PM2.5)
朝阳市,八里堡,120.4176,41.5648,2025-01-29T0700,473,496,1.8,30,50,24,,482,细颗粒物(PM2.5)
朝阳市,农业园区,120.3806,41.5969,2025-01-29T0700,504,509,2.0,39,36,14,,500,细颗粒物(PM2.5)
潮州市,西园路,116.6367,23.6719,2025-01-29T0700,83,103,0.2,8,5,33,,110,细颗粒物(PM2.5)
潮州市,市政府,116.6183,23.6608,2025-01-29T0700,66,97,0.2,20,7,41,,89,细颗粒物(PM2.5)
潮州市,金山,116.6461,23.6761,2025-01-29T0700,66,70,0.3,6,7,33,,89,细颗粒物(PM2.5)
郴州市,马头岭,113.0073,25.9061,2025-01-29T0700,135,274,0.8,12,54,45,,179,细颗粒物(PM2.5)
郴州市,市职中,113.0116,25.8226,2025-01-29T0700,222,252,0.5,10,24,24,,272,细颗粒物(PM2.5)
郴州市,市审计局,113.0383,25.8071,2025-01-29T0700,224,256,0.9,15,12,13,,274,细颗粒物(PM2.5)
郴州市,市环保局,113.0348,25.7759,2025-01-29T0700,148,155,0.6,12,10,17,,198,细颗粒物(PM2.5)
郴州市,人民路派出所,113.0138,25.8011,2025-01-29T0700,202,246,0.5,12,37,25,,252,细颗粒物(PM2.5)
成都市,金泉两河,103.9728,30.7236,2025-01-29T0700,411,412,1.4,35,3,1,,441,细颗粒物(PM2.5)
成都市,十里店,104.176,30.6872,2025-01-29T0700,432,478,0.7,38,6,9,,455,细颗粒物(PM2.5)
成都市,三瓦窑,104.079,30.5706,2025-01-29T0700,239,278,0.7,36,6,16,,289,细颗粒物(PM2.5)
成都市,沙河铺,104.1114,30.63,2025-01-29T0700,235,264,0.5,27,3,21,,285,细颗粒物(PM2.5)
成都市,君平街,104.0786,30.6531,2025-01-29T0700,249,,0.7,48,7,10,,299,细颗粒物(PM2.5)
成都市,灵岩寺,103.613,31.0283,2025-01-29T0700,,,,,,,,,
成都市,大石西路,104.0239,30.65639,2025-01-29T0700,204,225,0.7,40,3,11,,254,细颗粒物(PM2.5)
成都市,龙泉驿区区政府,104.2725,30.5589,2025-01-29T0700,29,63,0.7,13,4,59,,57,颗粒物(PM10)
成都市,金博路,104.0106,30.6931,2025-01-29T0700,352,415,0.9,41,2,3,,402,细颗粒物(PM2.5)
成都市,华阳,104.0578,30.5225,2025-01-29T0700,195,224,0.8,28,1,20,,245,细颗粒物(PM2.5)
成都市,青白江技师分院,104.3853,30.7453,2025-01-29T0700,57,98,0.3,20,3,32,,78,细颗粒物(PM2.5)
成都市,科学城,104.0789,30.4072,2025-01-29T0700,124,150,0.7,5,4,16,,163,细颗粒物(PM2.5)
成都市,光华大道三段,103.8506,30.6947,2025-01-29T0700,463,502,0.9,32,3,2,,476,细颗粒物(PM2.5)
成都市,鲸龙路1057号,104.2433,30.5353,2025-01-29T0700,120,154,0.7,9,3,35,,158,细颗粒物(PM2.5)
承德市,铁路,117.9531,40.9081,2025-01-29T0700,117,134,0.8,29,11,17,,153,细颗粒物(PM2.5)
承德市,中国银行,117.9392,40.9763,2025-01-29T0700,121,175,0.5,17,7,28,,159,细颗粒物(PM2.5)
承德市,开发区,117.9503,40.928,2025-01-29T0700,144,195,0.5,29,35,30,,192,细颗粒物(PM2.5)
承德市,文化中心,117.8051,40.9655,2025-01-29T0700,41,58,0.5,21,4,28,,58,细颗粒物(PM2.5)
承德市,离宫,117.9268,41.0026,2025-01-29T0700,137,159,0.6,17,9,32,,182,细颗粒物(PM2.5)
池州市,池州学院,117.47,30.6618,2025-01-29T0700,73,91,0.3,11,8,44,,98,细颗粒物(PM2.5)
池州市,展览馆,117.4918,30.6617,2025-01-29T0700,80,94,0.4,10,5,37,,107,细颗粒物(PM2.5)
池州市,第八中学,117.5627,30.695,2025-01-29T0700,105,131,0.3,5,8,44,,138,细颗粒物(PM2.5)
池州市,第十二中学,117.5038,30.6243,2025-01-29T0700,114,138,0.5,11,18,31,,149,细颗粒物(PM2.5)
赤峰市,松山一中,118.9233,42.2816,2025-01-29T0700,192,253,1.0,31,51,26,,242,细颗粒物(PM2.5)
赤峰市,哈达街,118.9576,42.2728,2025-01-29T0700,298,336,1.3,27,34,29,,348,细颗粒物(PM2.5)
赤峰市,天义路,118.8788,42.2554,2025-01-29T0700,254,318,0.8,19,30,35,,304,细颗粒物(PM2.5)
赤峰市,银河街,119.2658,42.0353,2025-01-29T0700,499,553,2.9,42,51,8,,500,细颗粒物(PM2.5)
赤峰市,桥北物流园区,118.9359,42.3147,2025-01-29T0700,195,,0.9,32,26,28,,245,细颗粒物(PM2.5)
崇左市,市环保局江州分局,107.3476,22.4136,2025-01-29T0700,141,157,1.0,13,10,28,,188,细颗粒物(PM2.5)
崇左市,城南新区,107.3702,22.3707,2025-01-29T0700,156,160,0.9,16,10,25,,206,细颗粒物(PM2.5)
滁州市,老年大学,118.3093,32.3153,2025-01-29T0700,74,93,0.4,13,6,32,,99,细颗粒物(PM2.5)
滁州市,人大宾馆,118.3244,32.2786,2025-01-29T0700,66,125,0.7,20,7,20,,89,细颗粒物(PM2.5)
滁州市,市政府原办公楼,118.3118,32.3038,2025-01-29T0700,113,135,0.3,21,3,18,,148,细颗粒物(PM2.5)
滁州市,图书馆,118.3267,32.2634,2025-01-29T0700,72,87,0.5,13,7,53,,97,细颗粒物(PM2.5)
楚雄彝族自治州,州环境监测站,101.5482,25.0441,2025-01-29T0700,20,,0.7,3,10,40,,29,
楚雄彝族自治州,市经济开发区,101.538,25.0492,2025-01-29T0700,41,,0.7,5,22,36,,58,细颗粒物(PM2.5)
达州市,达州职业技术学院,107.5277,31.2827,2025-01-29T0700,180,225,1.1,15,5,10,,230,细颗粒物(PM2.5)
达州市,市环境监测站,107.5086,31.2186,2025-01-29T0700,158,195,1.0,20,8,14,,208,细颗粒物(PM2.5)
达州市,凤凰小区,107.4988,31.2132,2025-01-29T0700,161,202,0.8,20,14,22,,211,细颗粒物(PM2.5)
达州市,达县机关宾馆,107.5082,31.1986,2025-01-29T0700,102,158,1.0,20,7,17,,134,细颗粒物(PM2.5)
达州市,市政中心,107.4644,31.2124,2025-01-29T0700,158,194,0.9,25,5,9,,208,细颗粒物(PM2.5)
大理白族自治州,大理市环境监测站,100.1542,25.7054,2025-01-29T0700,11,,0.7,3,7,36,,16,
大理白族自治州,大理古城,100.2171,25.5811,2025-01-29T0700,80,,0.9,7,26,29,,107,细颗粒物(PM2.5)
大连市,甘井子,121.612,38.9741,2025-01-29T0700,62,85,0.4,13,14,61,,84,细颗粒物(PM2.5)
大连市,周水子,121.565,38.9511,2025-01-29T0700,75,79,0.8,19,17,46,,100,细颗粒物(PM2.5)
大连市,星海三站,121.5637,38.8845,2025-01-29T0700,62,89,1.0,18,16,42,,84,细颗粒物(PM2.5)
大连市,青泥洼桥,121.6302,38.9117,2025-01-29T0700,57,61,0.4,11,15,53,,78,细颗粒物(PM2.5)
大连市,傅家庄,121.6251,38.8638,2025-01-29T0700,55,65,0.7,8,13,57,,75,细颗粒物(PM2.5)
大连市,七贤岭,121.5213,38.8661,2025-01-29T0700,49,70,0.7,15,14,56,,68,细颗粒物(PM2.5)
大连市,旅顺,121.2529,38.8061,2025-01-29T0700,29,77,0.5,8,9,65,,64,颗粒物(PM10)
大连市,金州,121.7485,39.1311,2025-01-29T0700,,,,,,,,,
大连市,开发区,121.7811,39.0496,2025-01-29T0700,26,59,0.4,13,9,50,,55,颗粒物(PM10)
大连市,双D港,121.9762,39.0631,2025-01-29T0700,25,42,0.9,11,12,60,,42,
大庆市,大同区,124.81117,46.03138,2025-01-29T0700,30,38,0.3,7,8,54,,43,
大庆市,龙凤区,125.129,46.533,2025-01-29T0700,19,38,0.3,11,12,56,,38,
大庆市,红岗区,124.902,46.408,2025-01-29T0700,14,36,0.4,8,9,53,,36,
大庆市,萨尔图区,125.153,46.586,2025-01-29T0700,24,,0.2,8,7,64,,35,
大庆市,让胡路区,124.9042,46.6215,2025-01-29T0700,33,35,0.3,3,9,61,,48,
大庆市,萨区政府监测点,125.141,46.634,2025-01-29T0700,19,36,0.4,8,6,60,,36,
大同市,果树场,113.3819,40.1097,2025-01-29T0700,,,,,,,,,
大同市,云冈宾馆,113.2994,40.0758,2025-01-29T0700,116,255,1.2,32,19,20,,153,颗粒物(PM10)
大同市,大同大学,113.3444,40.0917,2025-01-29T0700,313,,1.1,31,18,20,,363,细颗粒物(PM2.5)
大同市,安家小村,113.2661,40.1269,2025-01-29T0700,145,208,2.2,33,32,19,,193,细颗粒物(PM2.5)
大同市,教育学院,113.2711,40.0844,2025-01-29T0700,167,190,1.9,54,19,5,,217,细颗粒物(PM2.5)
大同市,大同市卫生学校,113.3397,40.0597,2025-01-29T0700,360,,1.2,50,17,8,,407,细颗粒物(PM2.5)
大同市,云冈站,113.1367,40.1122,2025-01-29T0700,204,255,1.6,38,33,15,,254,细颗粒物(PM2.5)
大同市,图书馆,113.1186,40.2556,2025-01-29T0700,142,152,2.0,27,31,18,,189,细颗粒物(PM2.5)
大同市,区一中,113.5931,40.0461,2025-01-29T0700,272,549,2.4,46,51,16,,449,颗粒物(PM10)
大同市,魏都大道141号,113.2798,40.0997,2025-01-29T0700,636,,2.1,52,28,7,,500,细颗粒物(PM2.5)
大兴安岭地区,科技局,124.1069,50.4097,2025-01-29T0700,25,26,0.4,4,8,56,,36,
大兴安岭地区,红旗社区,124.1164,50.4278,2025-01-29T0700,48,,0.5,6,3,50,,67,细颗粒物(PM2.5)
丹东市,江湾东路,124.3303,40.0625,2025-01-29T0700,45,66,0.5,8,10,64,,63,细颗粒物(PM2.5)
丹东市,临江后街,124.4256,40.1503,2025-01-29T0700,49,68,0.6,12,11,57,,68,细颗粒物(PM2.5)
丹东市,元宝山,124.3933,40.1461,2025-01-29T0700,42,49,1.0,9,13,62,,59,细颗粒物(PM2.5)
丹东市,民主桥,124.3633,40.1092,2025-01-29T0700,41,78,0.6,8,14,61,,64,颗粒物(PM10)
儋州市,第一中学子站,109.5726,19.5167,2025-01-29T0700,,,,,,,,,
儋州市,东坡学校子站,109.5567,19.5187,2025-01-29T0700,24,37,0.6,3,6,99,,37,
德宏傣族景颇族自治州,德宏州监测站,98.5842,24.428,2025-01-29T0700,114,129,1.3,19,11,12,,149,细颗粒物(PM2.5)
德宏傣族景颇族自治州,芒市人民政府综合楼,98.5881,24.4368,2025-01-29T0700,71,88,1.0,12,6,8,,95,细颗粒物(PM2.5)
德阳市,东山公园,104.4239,31.1208,2025-01-29T0700,142,167,0.6,15,13,55,,189,细颗粒物(PM2.5)
德阳市,西小区,104.3826,31.1317,2025-01-29T0700,171,256,0.8,18,9,30,,221,细颗粒物(PM2.5)
德阳市,耐火材料厂,104.3553,31.1091,2025-01-29T0700,294,,0.9,21,13,17,,344,细颗粒物(PM2.5)
德阳市,市教育局,104.4019,31.1244,2025-01-29T0700,172,213,0.6,27,7,27,,222,细颗粒物(PM2.5)
德州市,儿童乐园,116.3032,37.4674,2025-01-29T0700,117,156,0.9,11,32,57,,153,细颗粒物(PM2.5)
德州市,监理站,116.2991,37.4451,2025-01-29T0700,132,163,0.9,18,40,58,,175,细颗粒物(PM2.5)
德州市,九衢泉纯净水厂,116.2721,37.4379,2025-01-29T0700,156,197,0.9,16,38,51,,206,细颗粒物(PM2.5)
德州市,开发区人民医院,116.3728,37.4403,2025-01-29T0700,168,210,0.4,17,48,59,,218,细颗粒物(PM2.5)
德州市,太阳城中学,116.3572,37.4094,2025-01-29T0700,246,293,1.1,23,65,47,,296,细颗粒物(PM2.5)
德州市,陵城艺术中心,116.5652,37.3319,2025-01-29T0700,112,132,0.8,14,30,53,,147,细颗粒物(PM2.5)
迪庆藏族自治州,迪庆州站,99.7056,27.8317,2025-01-29T0700,17,25,0.4,6,10,66,,25,
迪庆藏族自治州,质量技术监督局,99.7136,27.8094,2025-01-29T0700,13,19,0.8,9,8,63,,20,
定西市,东关小学,104.6241,35.5734,2025-01-29T0700,110,224,1.9,15,13,24,,144,细颗粒物(PM2.5)
定西市,供电公司,104.6194,35.5934,2025-01-29T0700,,,,,,,,,
东莞市,莞城梨川,113.7547,23.0494,2025-01-29T0700,43,69,0.5,6,7,73,,60,"颗粒物(PM10),细颗粒物(PM2.5)"
东莞市,东城石井,113.7944,23.0128,2025-01-29T0700,40,63,0.3,10,10,73,,57,"颗粒物(PM10),细颗粒物(PM2.5)"
东莞市,南城西平,113.7383,22.9658,2025-01-29T0700,40,71,0.6,6,10,77,,61,颗粒物(PM10)
东莞市,万江金泰,113.7338,23.0381,2025-01-29T0700,38,58,0.6,4,9,73,,54,"颗粒物(PM10),细颗粒物(PM2.5)"
东莞市,南城元岭,113.7533,23.0202,2025-01-29T0700,39,62,0.3,6,8,65,,56,颗粒物(PM10)
东莞市,东城主山,113.7875,23.0457,2025-01-29T0700,44,63,0.5,2,10,76,,62,细颗粒物(PM2.5)
东营市,市环保局,118.6614,37.4309,2025-01-29T0700,222,246,1.0,34,32,31,,272,细颗粒物(PM2.5)
东营市,开发区管委会,118.6904,37.4338,2025-01-29T0700,227,264,1.1,35,29,30,,277,细颗粒物(PM2.5)
东营市,垦利区民丰路,118.5719,37.565,2025-01-29T0700,122,136,0.7,18,25,43,,160,细颗粒物(PM2.5)
东营市,河口城区,118.5055,37.8612,2025-01-29T0700,78,110,0.9,16,47,48,,104,细颗粒物(PM2.5)
东营市,胜利站,118.4978,37.4623,2025-01-29T0700,124,125,0.9,23,27,45,,163,细颗粒物(PM2.5)
东营市,理想之城,118.35,37.26,2025-01-29T0700,219,254,1.0,30,32,32,,269,细颗粒物(PM2.5)
鄂尔多斯市,综合楼,110.0023,39.8129,2025-01-29T0700,36,114,0.6,11,15,69,,82,颗粒物(PM10)
鄂尔多斯市,巴音孟克林场办事处,109.9486,39.8261,2025-01-29T0700,41,122,0.7,9,21,72,,86,颗粒物(PM10)
鄂尔多斯市,康泽苑,109.7736,39.5986,2025-01-29T0700,41,100,0.8,19,5,36,,75,颗粒物(PM10)
鄂尔多斯市,华泰汽车城,109.8119,39.5989,2025-01-29T0700,112,175,0.6,15,3,30,,147,细颗粒物(PM2.5)
鄂尔多斯市,奥林花园,109.9734,39.7884,2025-01-29T0700,34,105,0.4,15,7,57,,78,颗粒物(PM10)
鄂州市,市政府,114.8938,30.3994,2025-01-29T0700,,,,,,,52,,
鄂州市,赵家坝,114.8989,30.3714,2025-01-29T0700,218,390,0.9,10,20,49,,268,细颗粒物(PM2.5)
鄂州市,精准医疗中心,114.8094,30.4089,2025-01-29T0700,320,515,1.2,26,31,40,,415,颗粒物(PM10)
恩施土家族苗族自治州,湖北民院,109.4978,30.2981,2025-01-29T0700,215,245,0.7,14,8,8,,265,细颗粒物(PM2.5)
恩施土家族苗族自治州,州电力总公司,109.4707,30.2798,2025-01-29T0700,243,,0.9,12,8,13,,293,细颗粒物(PM2.5)
恩施土家族苗族自治州,龙凤新区,109.5061,30.3772,2025-01-29T0700,158,182,0.7,4,6,14,,208,细颗粒物(PM2.5)
防城港市,沙万,108.3411,21.6158,2025-01-29T0700,114,130,0.5,10,13,62,,149,细颗粒物(PM2.5)
防城港市,防城档案局,108.3514,21.7731,2025-01-29T0700,147,182,0.7,12,14,49,,196,细颗粒物(PM2.5)
防城港市,大海花园,108.3506,21.6414,2025-01-29T0700,132,137,0.9,10,10,40,,175,细颗粒物(PM2.5)
佛山市,湾梁,113.1294,23.0067,2025-01-29T0700,46,56,0.2,13,9,61,,64,细颗粒物(PM2.5)
佛山市,华材职中,113.1083,23.0478,2025-01-29T0700,94,119,0.5,16,18,58,,124,细颗粒物(PM2.5)
佛山市,南海气象局,113.144,23.0453,2025-01-29T0700,58,72,0.5,9,9,67,,79,细颗粒物(PM2.5)
佛山市,顺德苏岗,113.2881,22.8094,2025-01-29T0700,14,39,0.4,9,10,54,,39,
佛山市,高明孔堂,112.8383,22.8678,2025-01-29T0700,72,91,0.5,9,10,52,,97,细颗粒物(PM2.5)
佛山市,三水监测站,112.8836,23.1588,2025-01-29T0700,38,53,0.4,16,2,65,,54,细颗粒物(PM2.5)
佛山市,三水云东海,112.867,23.185,2025-01-29T0700,40,49,0.4,11,10,60,,57,细颗粒物(PM2.5)
佛山市,容桂街道办,113.2544,22.7642,2025-01-29T0700,24,46,0.4,14,9,63,,46,
福州市,鼓山,119.3903,26.0543,2025-01-29T0700,,,,,,,84,,
福州市,师大,119.2681,26.0504,2025-01-29T0700,122,,0.4,6,9,54,,160,细颗粒物(PM2.5)
福州市,五四北路,119.2984,26.1028,2025-01-29T0700,86,,0.5,7,5,53,,114,细颗粒物(PM2.5)
福州市,杨桥西路,119.2648,26.0768,2025-01-29T0700,96,,0.4,8,4,52,,127,细颗粒物(PM2.5)
福州市,紫阳,119.317,26.0746,2025-01-29T0700,99,,0.5,10,8,55,,130,细颗粒物(PM2.5)
福州市,九龙,119.5799,26.0936,2025-01-29T0700,58,71,0.5,8,2,50,,79,细颗粒物(PM2.5)
福州市,吴航,119.5189,25.9664,2025-01-29T0700,127,157,0.7,16,6,40,,168,细颗粒物(PM2.5)
抚顺市,望花区,123.7977,41.8491,2025-01-29T0700,131,,1.3,26,13,40,,173,细颗粒物(PM2.5)
抚顺市,顺城区,123.9161,41.8822,2025-01-29T0700,63,92,0.7,21,11,50,,85,细颗粒物(PM2.5)
抚顺市,东洲区,124.0436,41.8611,2025-01-29T0700,170,203,1.0,20,15,28,,220,细颗粒物(PM2.5)
抚顺市,新抚区,123.9247,41.8642,2025-01-29T0700,90,,0.8,18,9,49,,119,细颗粒物(PM2.5)
抚顺市,大伙房水库,124.0972,41.8961,2025-01-29T0700,104,149,0.8,20,10,43,,137,细颗粒物(PM2.5)
抚顺市,沈抚新城,123.7086,41.8391,2025-01-29T0700,63,,0.6,17,7,46,,85,细颗粒物(PM2.5)
抚州市,桐源党溪,116.2127,28.0814,2025-01-29T0700,293,480,0.8,6,112,14,,375,颗粒物(PM10)
抚州市,市站,116.3544,27.9831,2025-01-29T0700,111,148,1.9,10,6,34,,145,细颗粒物(PM2.5)
抚州市,血防站,116.3565,27.963,2025-01-29T0700,99,126,0.4,9,12,39,,130,细颗粒物(PM2.5)
抚州市,采茶剧团,116.3564,28.0007,2025-01-29T0700,168,206,1.2,8,15,22,,218,细颗粒物(PM2.5)
抚州市,医学分院,116.385,27.9647,2025-01-29T0700,77,115,0.5,5,8,29,,103,细颗粒物(PM2.5)
阜新市,工业园区,121.6094,41.998,2025-01-29T0700,49,74,0.3,10,9,61,,68,细颗粒物(PM2.5)
阜新市,长青街,121.6697,42.0279,2025-01-29T0700,55,,0.3,4,11,65,,75,细颗粒物(PM2.5)
阜新市,农业园区,121.6673,42.0705,2025-01-29T0700,48,52,0.4,5,13,60,,67,细颗粒物(PM2.5)
阜新市,东苑,121.6717,42.0224,2025-01-29T0700,42,65,0.4,,12,60,,,
阜新市,玉龙新城,121.6506,42.0498,2025-01-29T0700,65,65,0.4,9,10,59,,88,细颗粒物(PM2.5)
阜阳市,市监测站,115.8277,32.8929,2025-01-29T0700,301,331,1.0,16,16,40,,351,细颗粒物(PM2.5)
阜阳市,开发区,115.8554,32.8605,2025-01-29T0700,270,388,1.1,18,16,38,,320,细颗粒物(PM2.5)
阜阳市,阜阳职业技术学院,115.784,32.8892,2025-01-29T0700,188,215,0.8,10,17,55,,238,细颗粒物(PM2.5)
阜阳市,市规划展馆,115.7901,32.8613,2025-01-29T0700,411,458,1.1,13,24,50,,441,细颗粒物(PM2.5)
阜阳市,枣园社区,115.836,32.9183,2025-01-29T0700,431,446,0.9,24,20,40,,454,细颗粒物(PM2.5)
甘南藏族自治州,州政府,102.9099,34.9841,2025-01-29T0700,82,246,1.4,35,13,6,,148,颗粒物(PM10)
甘南藏族自治州,甘肃民族师范学院,102.8914,34.9617,2025-01-29T0700,35,77,0.6,24,5,22,,64,颗粒物(PM10)
甘孜藏族自治州,水桥子,101.9603,30.0475,2025-01-29T0700,9,14,0.5,5,3,41,,14,
甘孜藏族自治州,州环保局,101.9533,29.9972,2025-01-29T0700,3,6,0.4,2,4,53,,17,
赣江新区,桑海产业园,115.8347,28.932,2025-01-29T0700,96,146,0.5,15,16,34,,127,细颗粒物(PM2.5)
赣州市,通天岩,114.9017,25.9149,2025-01-29T0700,9,48,0.2,4,6,36,,48,
赣州市,地委,114.9367,25.8664,2025-01-29T0700,55,81,0.2,5,2,35,,75,细颗粒物(PM2.5)
赣州市,气象台,114.9461,25.8481,2025-01-29T0700,56,102,0.6,8,10,43,,77,细颗粒物(PM2.5)
赣州市,市图书馆,114.9322,25.8333,2025-01-29T0700,58,76,0.4,12,3,38,,79,细颗粒物(PM2.5)
赣州市,华坚鞋城,114.8905,25.8471,2025-01-29T0700,45,92,0.2,7,5,36,,71,颗粒物(PM10)
赣州市,赣县区卫计委,115.0093,25.8613,2025-01-29T0700,55,77,0.1,5,4,37,,75,细颗粒物(PM2.5)
固原市,马园,106.2319,36.1417,2025-01-29T0700,111,161,1.3,30,7,36,,145,细颗粒物(PM2.5)
固原市,监测站,106.2792,36.0022,2025-01-29T0700,49,,0.8,18,12,62,,68,细颗粒物(PM2.5)
固原市,新区,106.2375,36.0211,2025-01-29T0700,123,,0.5,25,6,46,,162,细颗粒物(PM2.5)
固原市,原州区十五小,106.2177,35.9959,2025-01-29T0700,26,42,0.3,5,6,84,,42,
广安市,小平旧居,106.6308,30.5278,2025-01-29T0700,,,,,,,,,
广安市,市委,106.6303,30.4576,2025-01-29T0700,212,218,0.8,17,4,18,,262,细颗粒物(PM2.5)
广安市,友谊中学,106.6271,30.4663,2025-01-29T0700,206,248,0.8,14,6,16,,256,细颗粒物(PM2.5)
广安市,广电花园,106.6388,30.4551,2025-01-29T0700,227,,0.9,13,2,14,,277,细颗粒物(PM2.5)
广安市,北辰小学,106.6351,30.4865,2025-01-29T0700,213,224,0.8,15,6,21,,263,细颗粒物(PM2.5)
广元市,黑石坡,105.8945,32.4535,2025-01-29T0700,75,108,0.6,6,4,32,,100,细颗粒物(PM2.5)
广元市,老城,105.821,32.4444,2025-01-29T0700,94,156,0.4,8,3,22,,124,细颗粒物(PM2.5)
广元市,监测站,105.8628,32.4287,2025-01-29T0700,103,123,0.4,11,4,28,,135,细颗粒物(PM2.5)
广元市,经开区,105.8047,32.4166,2025-01-29T0700,177,211,0.9,18,5,12,,227,细颗粒物(PM2.5)
广州市,广雅中学,113.2347,23.1423,2025-01-29T0700,44,75,0.6,11,6,65,,63,颗粒物(PM10)
广州市,市五中,113.2612,23.105,2025-01-29T0700,44,68,0.5,10,6,63,,62,细颗粒物(PM2.5)
广州市,广东商学院,113.3478,23.0916,2025-01-29T0700,39,61,0.3,6,5,69,,56,颗粒物(PM10)
广州市,市八十六中,113.4332,23.1047,2025-01-29T0700,40,59,0.6,10,5,70,,57,细颗粒物(PM2.5)
广州市,番禺中学,113.3505,22.9483,2025-01-29T0700,39,67,0.6,10,4,75,,59,颗粒物(PM10)
广州市,花都师范,113.2146,23.3916,2025-01-29T0700,40,66,0.5,11,6,77,,58,颗粒物(PM10)
广州市,市监测站,113.2597,23.1331,2025-01-29T0700,47,71,0.3,7,8,72,,65,细颗粒物(PM2.5)
广州市,九龙镇镇龙,113.5618,23.312,2025-01-29T0700,53,81,0.4,8,7,67,,73,细颗粒物(PM2.5)
广州市,麓湖,113.2765,23.1544,2025-01-29T0700,46,65,0.5,8,5,60,,64,细颗粒物(PM2.5)
广州市,帽峰山森林公园,113.443,23.3035,2025-01-29T0700,53,81,0.5,5,28,64,,73,细颗粒物(PM2.5)
广州市,体育西,113.3221,23.1322,2025-01-29T0700,43,67,0.3,2,7,62,,60,细颗粒物(PM2.5)
广州市,从化街口,113.5717,23.5491,2025-01-29T0700,71,98,0.6,9,10,49,,95,细颗粒物(PM2.5)
广州市,白云竹料,113.3472,23.3692,2025-01-29T0700,86,118,0.6,6,10,66,,114,细颗粒物(PM2.5)
广州市,白云嘉禾,113.2981,23.237,2025-01-29T0700,65,91,1.4,14,11,65,,88,细颗粒物(PM2.5)
广州市,黄埔科学城,113.4256,23.1716,2025-01-29T0700,45,72,0.4,8,9,63,,63,细颗粒物(PM2.5)
广州市,番禺大学城,113.3942,23.0483,2025-01-29T0700,33,59,0.2,8,6,82,,55,颗粒物(PM10)
广州市,南沙黄阁,113.4922,22.8168,2025-01-29T0700,53,69,0.1,,7,66,,,
广州市,南沙街,113.5342,22.7896,2025-01-29T0700,44,69,0.6,9,7,68,,62,细颗粒物(PM2.5)
广州市,花都梯面,113.2902,23.5544,2025-01-29T0700,31,52,0.7,1,6,82,,51,颗粒物(PM10)
广州市,从化良口,113.7858,23.7478,2025-01-29T0700,32,55,0.4,4,6,60,,53,颗粒物(PM10)
广州市,增城荔城,113.8051,23.2614,2025-01-29T0700,26,52,0.3,5,6,78,,51,颗粒物(PM10)
贵港市,德智高中,109.568,23.1478,2025-01-29T0700,,,,,,,,,
贵港市,江南子站,109.6047,23.0666,2025-01-29T0700,406,,1.1,30,43,24,,438,细颗粒物(PM2.5)
贵港市,贵城子站,109.6014,23.0948,2025-01-29T0700,367,395,1.0,24,48,23,,412,细颗粒物(PM2.5)
贵港市,荷城子站,109.5669,23.1065,2025-01-29T0700,171,207,0.6,13,30,51,,221,细颗粒物(PM2.5)
贵港市,新世纪学校,109.5886,23.1172,2025-01-29T0700,236,293,0.7,17,21,39,,286,细颗粒物(PM2.5)
贵阳市,马鞍山,106.6899,26.5998,2025-01-29T0700,34,46,0.6,8,1,39,,49,
贵阳市,鉴湖路,106.6243,26.6266,2025-01-29T0700,36,58,0.4,6,11,60,,54,颗粒物(PM10)
贵阳市,燕子冲,106.7487,26.6343,2025-01-29T0700,22,22,0.5,5,6,49,,32,
贵阳市,碧云窝,106.6555,26.4365,2025-01-29T0700,39,53,0.5,6,8,40,,55,细颗粒物(PM2.5)
贵阳市,红边门,106.7109,26.6027,2025-01-29T0700,39,56,0.5,13,13,58,,55,细颗粒物(PM2.5)
贵阳市,新华路,106.7164,26.5699,2025-01-29T0700,27,39,0.4,4,14,58,,39,
贵阳市,太慈桥,106.674,26.5424,2025-01-29T0700,31,41,0.3,4,5,31,,45,
贵阳市,桐木岭,106.805,26.3003,2025-01-29T0700,27,51,0.6,1,10,60,,51,颗粒物(PM10)
贵阳市,花果园大街66号,106.6882,26.5695,2025-01-29T0700,68,,0.4,11,6,50,,92,细颗粒物(PM2.5)
贵阳市,漓江路57号,106.6873,26.5169,2025-01-29T0700,51,58,0.4,8,11,44,,70,细颗粒物(PM2.5)
桂林市,电子科大尧山校区,110.4144,25.3167,2025-01-29T0700,49,84,0.4,10,9,80,,68,细颗粒物(PM2.5)
桂林市,监测站,110.2819,25.2697,2025-01-29T0700,68,80,0.7,12,10,77,,92,细颗粒物(PM2.5)
桂林市,龙隐路小学,110.3089,25.2708,2025-01-29T0700,60,76,0.4,11,13,77,,82,细颗粒物(PM2.5)
桂林市,八中,110.2869,25.2178,2025-01-29T0700,64,78,0.7,13,12,74,,87,细颗粒物(PM2.5)
桂林市,创业大厦,110.1764,25.2381,2025-01-29T0700,46,75,0.9,8,10,84,,64,细颗粒物(PM2.5)
桂林市,旅游学院,110.296,25.1253,2025-01-29T0700,92,122,1.0,14,11,42,,122,细颗粒物(PM2.5)
果洛藏族自治州,玛沁县大武镇,100.2561,34.4714,2025-01-29T0700,16,31,0.5,2,15,38,,31,
哈尔滨市,岭北,126.5422,45.755,2025-01-29T0700,119,133,,23,17,50,,156,细颗粒物(PM2.5)
哈尔滨市,松北商大,126.561,45.8167,2025-01-29T0700,103,126,0.8,34,8,26,,135,细颗粒物(PM2.5)
哈尔滨市,阿城会宁,126.979,45.5419,2025-01-29T0700,68,73,0.7,8,11,53,,92,细颗粒物(PM2.5)
哈尔滨市,南岗学府路,126.599,45.7222,2025-01-29T0700,113,152,0.6,26,10,40,,148,细颗粒物(PM2.5)
哈尔滨市,太平宏伟公园,126.689,45.7733,2025-01-29T0700,67,111,0.6,22,12,40,,90,细颗粒物(PM2.5)
哈尔滨市,道外承德广场,126.635,45.7667,2025-01-29T0700,100,147,0.5,17,14,46,,132,细颗粒物(PM2.5)
哈尔滨市,香坊红旗大街,126.685,45.7319,2025-01-29T0700,111,134,0.5,26,17,30,,145,细颗粒物(PM2.5)
哈尔滨市,动力和平路,126.6411,45.7258,2025-01-29T0700,94,144,0.7,25,7,30,,124,细颗粒物(PM2.5)
哈尔滨市,道里建国路,126.593,45.7478,2025-01-29T0700,93,120,0.5,19,8,39,,123,细颗粒物(PM2.5)
哈尔滨市,平房东轻厂,126.615,45.61,2025-01-29T0700,72,112,0.5,37,7,28,,97,细颗粒物(PM2.5)
哈尔滨市,呼兰师专,126.595,45.9855,2025-01-29T0700,53,76,0.4,12,8,46,,73,细颗粒物(PM2.5)
哈尔滨市,省农科院,126.6206,45.6842,2025-01-29T0700,111,155,0.8,39,9,20,,145,细颗粒物(PM2.5)
哈密市,地区监测站,93.5128,42.8172,2025-01-29T0700,79,221,0.8,15,3,39,,136,颗粒物(PM10)
哈密市,哈密师范学校,93.4961,42.8328,2025-01-29T0700,120,235,1.3,27,16,30,,158,细颗粒物(PM2.5)
海北藏族自治州,海晏县西海镇,100.9048,36.9639,2025-01-29T0700,7,11,0.3,1,8,58,,19,
海东市,平安区公安北苑,102.0738,36.5056,2025-01-29T0700,117,143,1.1,29,22,33,,153,细颗粒物(PM2.5)
海口市,东寨港,110.576,19.9507,2025-01-29T0700,50,61,0.4,4,16,49,,69,细颗粒物(PM2.5)
海口市,海南大学,110.3232,20.0574,2025-01-29T0700,13,32,0.4,4,5,93,,32,
海口市,秀英海南医院,110.283,20.0053,2025-01-29T0700,15,35,0.3,3,3,81,,35,
海口市,海南师范大学,110.338,19.9969,2025-01-29T0700,16,39,0.3,5,6,86,,39,
海口市,龙华路环保局宿舍,110.33,20.0356,2025-01-29T0700,16,38,0.4,5,6,88,,38,
海口市,桂林洋子站,110.5111,19.9736,2025-01-29T0700,13,30,0.2,4,5,90,,30,
海南藏族自治州,共和县恰卜恰镇,100.6188,36.2866,2025-01-29T0700,65,68,0.7,14,10,46,,88,细颗粒物(PM2.5)
海西蒙古族藏族自治州,德令哈市,97.3731,37.3753,2025-01-29T0700,7,32,0.4,1,16,74,,32,
邯郸市,东污水处理厂,114.5302,36.6116,2025-01-29T0700,158,179,1.1,34,15,15,,208,细颗粒物(PM2.5)
邯郸市,矿院,114.4918,36.5713,2025-01-29T0700,215,268,1.3,53,14,3,,265,细颗粒物(PM2.5)
邯郸市,丛台公园,114.484,36.6133,2025-01-29T0700,160,,1.3,42,15,13,,210,细颗粒物(PM2.5)
邯郸市,香泉濮院小区,114.7895,36.5593,2025-01-29T0700,,,1.4,31,,29,,,
邯郸市,永年区实验高中,114.50634,36.77178,2025-01-29T0700,101,149,2.1,50,47,13,,133,细颗粒物(PM2.5)
邯郸市,峰峰矿区临水派出所,114.20016,36.44293,2025-01-29T0700,46,58,0.8,11,26,68,,64,细颗粒物(PM2.5)
汉中市,汉川机床厂子校,106.9893,33.1842,2025-01-29T0700,77,94,0.7,5,6,35,,103,细颗粒物(PM2.5)
汉中市,市监测站,107.0154,33.0706,2025-01-29T0700,197,250,2.1,28,9,18,,247,细颗粒物(PM2.5)
汉中市,鑫源开发区,107.0089,33.1138,2025-01-29T0700,285,294,1.8,18,11,22,,335,细颗粒物(PM2.5)
汉中市,南郑大河坎水厂,107.007,33.0323,2025-01-29T0700,126,162,1.2,14,6,20,,166,细颗粒物(PM2.5)
杭州市,滨江,120.2072,30.2111,2025-01-29T0700,253,292,0.4,18,14,40,,303,细颗粒物(PM2.5)
杭州市,西溪,120.0633,30.2747,2025-01-29T0700,143,173,0.7,17,6,31,,190,细颗粒物(PM2.5)
杭州市,下沙,120.3461,30.3153,2025-01-29T0700,98,139,0.6,18,9,44,,129,细颗粒物(PM2.5)
杭州市,卧龙桥,120.1269,30.2456,2025-01-29T0700,71,83,0.7,20,6,39,,95,细颗粒物(PM2.5)
杭州市,浙江农大,120.1903,30.2692,2025-01-29T0700,210,251,0.5,18,13,40,,260,细颗粒物(PM2.5)
杭州市,和睦小学,120.1197,30.3119,2025-01-29T0700,234,315,0.7,22,10,23,,284,细颗粒物(PM2.5)
杭州市,临平镇,120.3019,30.4183,2025-01-29T0700,76,98,0.7,25,7,44,,102,细颗粒物(PM2.5)
杭州市,城厢镇,120.2697,30.1819,2025-01-29T0700,142,168,0.4,12,6,44,,189,细颗粒物(PM2.5)
杭州市,云栖,120.0883,30.1808,2025-01-29T0700,81,110,0.7,24,6,45,,108,细颗粒物(PM2.5)
杭州市,镇二中,119.9464,30.0494,2025-01-29T0700,450,483,0.5,24,16,22,,467,细颗粒物(PM2.5)
杭州市,市府大楼,119.7183,30.2367,2025-01-29T0700,302,336,0.6,23,11,28,,352,细颗粒物(PM2.5)
杭州市,消防大队,120.1556,30.2864,2025-01-29T0700,135,184,0.6,18,15,58,,179,细颗粒物(PM2.5)
合肥市,明珠广场,117.1959,31.7848,2025-01-29T0700,112,141,0.7,19,13,56,,147,细颗粒物(PM2.5)
合肥市,三里街,117.3072,31.8764,2025-01-29T0700,127,156,0.6,17,6,40,,168,细颗粒物(PM2.5)
合肥市,琥珀山庄,117.2588,31.8707,2025-01-29T0700,144,153,0.8,41,7,14,,192,细颗粒物(PM2.5)
合肥市,董铺水库,117.1604,31.9052,2025-01-29T0700,83,119,0.4,17,3,22,,110,细颗粒物(PM2.5)
合肥市,长江中路,117.25,31.8571,2025-01-29T0700,134,151,0.8,26,8,35,,178,细颗粒物(PM2.5)
合肥市,庐阳区,117.266,31.9436,2025-01-29T0700,141,173,0.8,38,5,26,,188,细颗粒物(PM2.5)
合肥市,瑶海区,117.336,31.8586,2025-01-29T0700,121,144,0.5,14,7,44,,159,细颗粒物(PM2.5)
合肥市,包河区,117.3027,31.7964,2025-01-29T0700,124,149,0.5,35,3,22,,163,细颗粒物(PM2.5)
合肥市,滨湖新区,117.2776,31.7385,2025-01-29T0700,122,158,0.5,30,6,37,,160,细颗粒物(PM2.5)
合肥市,高新区,117.1318,31.8403,2025-01-29T0700,98,124,0.4,14,12,70,,129,细颗粒物(PM2.5)
合肥市,高教基地,117.3803,31.9147,2025-01-29T0700,141,141,0.4,9,6,36,,188,细颗粒物(PM2.5)
和田地区,地区环保局,79.924,37.0877,2025-01-29T0700,60,300,0.1,11,2,44,,175,颗粒物(PM10)
和田地区,市环保局,79.9131,37.113,2025-01-29T0700,48,292,1.9,13,1,30,,171,颗粒物(PM10)
河池市,东仁乐园,108.2011,24.715,2025-01-29T0700,148,169,0.6,14,11,27,,198,细颗粒物(PM2.5)
河池市,市环保站,108.0497,24.6947,2025-01-29T0700,103,151,0.6,5,15,32,,135,细颗粒物(PM2.5)
河池市,市疾控中心,108.0983,24.6989,2025-01-29T0700,138,138,0.6,10,14,24,,183,细颗粒物(PM2.5)
河源市,源西,114.6778,23.7569,2025-01-29T0700,76,91,0.4,7,13,57,,102,细颗粒物(PM2.5)
河源市,东埔,114.6944,23.7586,2025-01-29T0700,62,89,0.6,12,10,52,,84,细颗粒物(PM2.5)
河源市,老城,114.6892,23.7233,2025-01-29T0700,80,88,0.4,9,9,44,,107,细颗粒物(PM2.5)
菏泽市,气象局,115.4208,35.2464,2025-01-29T0700,362,,0.8,28,26,37,,408,细颗粒物(PM2.5)
菏泽市,定陶老年大学,115.5564,35.0891,2025-01-29T0700,305,,0.9,29,26,41,,355,细颗粒物(PM2.5)
菏泽市,永昌路1号,115.4797,35.24401,2025-01-29T0700,322,322,0.8,26,29,42,,372,细颗粒物(PM2.5)
菏泽市,长城路999号,115.4715,35.2800,2025-01-29T0700,277,340,0.7,27,21,38,,327,细颗粒物(PM2.5)
贺州市,环保小区,111.5264,24.4172,2025-01-29T0700,497,,0.7,17,42,20,,498,细颗粒物(PM2.5)
贺州市,政协大楼,111.5608,24.4078,2025-01-29T0700,302,351,0.8,21,36,15,,352,细颗粒物(PM2.5)
贺州市,西湾,111.4744,24.4553,2025-01-29T0700,182,225,0.8,13,18,38,,232,细颗粒物(PM2.5)
鹤壁市,市监测站,114.17,35.9019,2025-01-29T0700,39,49,0.7,2,3,48,,55,细颗粒物(PM2.5)
鹤壁市,市交警支队,114.2956,35.7511,2025-01-29T0700,95,123,0.8,19,2,17,,125,细颗粒物(PM2.5)
鹤壁市,迎宾馆,114.2878,35.7306,2025-01-29T0700,119,144,0.9,29,3,10,,156,细颗粒物(PM2.5)
鹤壁市,大新区,114.2617,35.6822,2025-01-29T0700,215,,0.8,28,5,5,,265,细颗粒物(PM2.5)
鹤壁市,南山宾馆,114.1572,35.9603,2025-01-29T0700,43,,0.6,4,7,67,,60,细颗粒物(PM2.5)
鹤岗市,哈啤分公司,130.2537,47.3416,2025-01-29T0700,17,17,0.5,4,16,57,,25,
鹤岗市,斯达机电,130.2684,47.3086,2025-01-29T0700,18,23,0.3,3,14,58,,26,
鹤岗市,东山纸板厂,130.3114,47.3388,2025-01-29T0700,11,,0.4,7,13,61,,20,
鹤岗市,五号水库,130.1097,47.3382,2025-01-29T0700,3,8,0.3,5,9,81,,26,
黑河市,交通局,127.4833,50.2524,2025-01-29T0700,17,,0.3,2,6,67,,25,
黑河市,环保局,127.5144,50.2341,2025-01-29T0700,15,20,0.2,2,4,64,,22,
黑河市,大黑河岛,127.5291,50.2472,2025-01-29T0700,6,23,,12,2,6,,,
衡水市,电机北厂,115.6838,37.7541,2025-01-29T0700,179,234,0.8,15,31,50,,229,细颗粒物(PM2.5)
衡水市,市监测站,115.6303,37.7316,2025-01-29T0700,203,232,0.9,15,34,48,,253,细颗粒物(PM2.5)
衡水市,市城管局,115.6683,37.7217,2025-01-29T0700,171,221,0.9,16,32,45,,221,细颗粒物(PM2.5)
衡水市,地表水厂,115.5989,37.5491,2025-01-29T0700,319,335,1.1,24,42,26,,369,细颗粒物(PM2.5)
衡阳市,原169医院,112.5003,26.9167,2025-01-29T0700,396,484,1.1,24,66,9,,431,细颗粒物(PM2.5)
衡阳市,衡阳化工总厂,112.6194,26.9258,2025-01-29T0700,310,391,0.9,18,37,14,,360,细颗粒物(PM2.5)
衡阳市,珠晖区环保局,112.6211,26.8956,2025-01-29T0700,252,264,1.0,21,70,22,,302,细颗粒物(PM2.5)
衡阳市,市委党校,112.6197,26.8733,2025-01-29T0700,216,,0.7,14,62,44,,266,细颗粒物(PM2.5)
衡阳市,市监测站,112.6006,26.8919,2025-01-29T0700,244,278,1.0,22,27,15,,294,细颗粒物(PM2.5)
衡阳市,真空机电公司,112.5664,26.9056,2025-01-29T0700,263,356,1.1,18,27,22,,313,细颗粒物(PM2.5)
衡阳市,师范学院,112.6703,26.882,2025-01-29T0700,151,293,0.8,22,109,35,,201,细颗粒物(PM2.5)
红河哈尼族彝族自治州,污水处理厂,103.3772,23.3993,2025-01-29T0700,52,,0.6,5,7,43,,72,细颗粒物(PM2.5)
红河哈尼族彝族自治州,监测站,103.3861,23.35,2025-01-29T0700,25,36,0.5,4,9,50,,36,
红河哈尼族彝族自治州,州图书馆,103.3758,23.368,2025-01-29T0700,24,33,0.5,3,7,45,,35,
呼和浩特市,呼市一监,111.6507,40.7517,2025-01-29T0700,436,,2.4,44,16,8,,458,细颗粒物(PM2.5)
呼和浩特市,小召,111.6572,40.8033,2025-01-29T0700,318,,2.2,54,32,10,,368,细颗粒物(PM2.5)
呼和浩特市,如意水处理厂,111.7516,40.8369,2025-01-29T0700,189,224,2.1,48,13,7,,239,细颗粒物(PM2.5)
呼和浩特市,二十九中,111.7276,40.8062,2025-01-29T0700,152,,1.1,32,11,22,,202,细颗粒物(PM2.5)
呼和浩特市,工大金川校区,111.5512,40.7866,2025-01-29T0700,126,172,1.1,32,16,27,,166,细颗粒物(PM2.5)
呼和浩特市,化肥厂生活区,111.717,40.7612,2025-01-29T0700,239,288,1.8,35,16,21,,289,细颗粒物(PM2.5)
呼和浩特市,红旗小学,111.5968,40.8178,2025-01-29T0700,155,,1.6,36,25,30,,205,细颗粒物(PM2.5)
呼和浩特市,海东办,111.6518,40.8389,2025-01-29T0700,263,,1.9,38,24,17,,313,细颗粒物(PM2.5)
呼伦贝尔市,区环保局,119.7594,49.2261,2025-01-29T0700,60,61,0.6,22,6,34,,82,细颗粒物(PM2.5)
呼伦贝尔市,国华电力东,119.7512,49.1577,2025-01-29T0700,32,45,0.2,11,5,54,,46,
湖州市,城西水厂,120.0751,30.8669,2025-01-29T0700,126,160,0.3,18,9,45,,166,细颗粒物(PM2.5)
湖州市,仁皇山新区,120.0875,30.8955,2025-01-29T0700,175,205,0.6,24,8,36,,225,细颗粒物(PM2.5)
湖州市,吴兴区站,120.1844,30.8596,2025-01-29T0700,114,132,0.7,13,7,52,,149,细颗粒物(PM2.5)
湖州市,南浔区站,120.4148,30.8538,2025-01-29T0700,114,135,0.6,12,12,53,,149,细颗粒物(PM2.5)
葫芦岛市,龙港区,120.9092,40.7136,2025-01-29T0700,221,,1.3,27,20,25,,271,细颗粒物(PM2.5)
葫芦岛市,化工街,120.8392,40.7514,2025-01-29T0700,68,97,0.8,26,16,26,,92,细颗粒物(PM2.5)
葫芦岛市,新区,120.8341,40.7073,2025-01-29T0700,157,,1.2,26,21,26,,207,细颗粒物(PM2.5)
葫芦岛市,东城区,120.8695,40.7677,2025-01-29T0700,119,,1.2,27,8,14,,156,细颗粒物(PM2.5)
怀化市,林科所,109.5981,27.5721,2025-01-29T0700,256,276,1.1,19,11,8,,306,细颗粒物(PM2.5)
怀化市,河西地税局,109.9453,27.5444,2025-01-29T0700,186,219,0.7,8,4,16,,236,细颗粒物(PM2.5)
怀化市,市四医院,109.9781,27.5342,2025-01-29T0700,282,345,0.8,25,7,2,,332,细颗粒物(PM2.5)
怀化市,监测楼,109.9972,27.5578,2025-01-29T0700,318,382,0.8,22,10,1,,368,细颗粒物(PM2.5)
怀化市,市委党校,110.0394,27.583,2025-01-29T0700,239,271,0.8,18,32,8,,289,细颗粒物(PM2.5)
淮安市,钵池山,119.036,33.5981,2025-01-29T0700,82,105,0.9,23,11,50,,109,细颗粒物(PM2.5)
淮安市,北京南路,119.007,33.575,2025-01-29T0700,116,134,1.0,43,10,13,,152,细颗粒物(PM2.5)
淮安市,市监测站,118.989,33.6067,2025-01-29T0700,107,114,0.9,29,10,32,,140,细颗粒物(PM2.5)
淮安市,楚州区监测站,119.135,33.5039,2025-01-29T0700,188,,1.2,28,10,28,,238,细颗粒物(PM2.5)
淮安市,淮阴区监测站,119.0186,33.6297,2025-01-29T0700,96,102,0.9,25,10,44,,127,细颗粒物(PM2.5)
淮安市,新华书店,118.8755,33.2894,2025-01-29T0700,127,134,0.8,14,14,56,,168,细颗粒物(PM2.5)
淮北市,监测站,116.8004,33.975,2025-01-29T0700,124,128,0.6,13,15,59,,163,细颗粒物(PM2.5)
淮北市,烈山区政府,116.8091,33.9007,2025-01-29T0700,131,155,0.7,14,15,62,,173,细颗粒物(PM2.5)
淮北市,杜集区检察院,116.8873,33.9836,2025-01-29T0700,91,92,0.7,12,11,72,,120,细颗粒物(PM2.5)
淮北市,市博物馆,116.7923,33.9535,2025-01-29T0700,132,142,0.7,18,17,58,,175,细颗粒物(PM2.5)
淮南市,潘集区政府,116.8305,32.7727,2025-01-29T0700,148,162,0.6,16,16,61,,198,细颗粒物(PM2.5)
淮南市,谢家集区政府,116.8569,32.5951,2025-01-29T0700,95,129,0.4,3,13,62,,125,细颗粒物(PM2.5)
淮南市,八公山区政府,116.8281,32.633,2025-01-29T0700,91,124,0.5,6,7,70,,120,细颗粒物(PM2.5)
淮南市,焦岗湖风景区管理处,116.6325,32.6201,2025-01-29T0700,179,228,0.3,8,9,38,,229,细颗粒物(PM2.5)
淮南市,经济技术开发区消防队,117.0566,32.6531,2025-01-29T0700,249,268,0.6,15,16,39,,299,细颗粒物(PM2.5)
淮南市,山南新区,117.0108,32.5893,2025-01-29T0700,241,255,0.6,9,17,58,,291,细颗粒物(PM2.5)
淮南市,国庆中路369号,117.0031,32.6445,2025-01-29T0700,,,,,,,67,,
黄冈市,职工中心,114.9028,30.4742,2025-01-29T0700,422,473,1.7,19,33,28,,448,细颗粒物(PM2.5)
黄冈市,红卫路,114.8858,30.4519,2025-01-29T0700,471,545,1.6,25,29,26,,481,细颗粒物(PM2.5)
黄冈市,市林业局,114.9136,30.4445,2025-01-29T0700,464,470,1.3,21,36,29,,476,细颗粒物(PM2.5)
黄南藏族自治州,同仁县隆务镇,102.0199,35.5102,2025-01-29T0700,63,90,0.5,8,17,54,,85,细颗粒物(PM2.5)
黄山市,延安路89号,118.2903,29.6963,2025-01-29T0700,143,199,0.4,4,6,12,,190,细颗粒物(PM2.5)
黄山市,黄山区政府5号楼,118.1371,30.2756,2025-01-29T0700,87,118,0.4,3,10,19,,115,细颗粒物(PM2.5)
黄山市,滨江东路7-2号,118.3354,29.7203,2025-01-29T0700,312,342,0.3,16,8,4,,362,细颗粒物(PM2.5)
黄石市,沈家营,115.0601,30.2313,2025-01-29T0700,221,328,0.8,21,17,33,,271,细颗粒物(PM2.5)
黄石市,铁山,114.8988,30.2019,2025-01-29T0700,143,186,1.1,14,18,62,,190,细颗粒物(PM2.5)
黄石市,团城山,115.0307,30.2092,2025-01-29T0700,284,408,0.9,23,17,37,,334,细颗粒物(PM2.5)
黄石市,笔架山北路,115.0235,30.1578,2025-01-29T0700,175,180,1.1,12,41,61,,225,细颗粒物(PM2.5)
黄石市,磁湖东路29号,115.0780,30.21118,2025-01-29T0700,256,326,1.2,16,20,29,,306,细颗粒物(PM2.5)
惠州市,河南岸金山湖子站,114.4183,23.0528,2025-01-29T0700,76,107,0.6,4,12,69,,102,细颗粒物(PM2.5)
惠州市,下埔横江三路子站,114.4053,23.0822,2025-01-29T0700,82,117,0.5,5,14,70,,109,细颗粒物(PM2.5)
惠州市,江北云山西路子站,114.4103,23.1142,2025-01-29T0700,75,108,0.4,3,13,72,,100,细颗粒物(PM2.5)
惠州市,惠阳区承修路船湖子站,114.4645,22.7833,2025-01-29T0700,94,148,0.6,4,12,57,,124,细颗粒物(PM2.5)
惠州市,大亚湾管委会子站,114.5317,22.7422,2025-01-29T0700,79,105,0.4,7,14,54,,105,细颗粒物(PM2.5)
惠州市,惠阳秋长,114.4338,22.8134,2025-01-29T0700,98,,0.5,6,17,66,,129,细颗粒物(PM2.5)
惠州市,大亚湾霞涌,114.6517,22.775,2025-01-29T0700,91,114,0.8,5,15,56,,120,细颗粒物(PM2.5)
鸡西市,环保局,130.9762,45.3001,2025-01-29T0700,20,21,0.6,6,6,62,,29,
鸡西市,第一中学,130.9429,45.3039,2025-01-29T0700,15,16,0.2,3,4,62,,22,
鸡西市,欧美日汽修厂,131.0207,45.3073,2025-01-29T0700,22,30,0.7,12,19,65,,32,
鸡西市,市政设施管理处,130.9967,45.3106,2025-01-29T0700,14,28,0.5,7,5,68,,28,
吉安市,红声器材厂,114.9754,27.0803,2025-01-29T0700,145,196,0.6,11,59,40,,193,细颗粒物(PM2.5)
吉安市,市森林工业局,114.9658,27.0999,2025-01-29T0700,129,177,0.7,16,75,44,,170,细颗粒物(PM2.5)
吉安市,市环境监测站,114.99,27.1312,2025-01-29T0700,159,204,0.6,10,112,40,,209,细颗粒物(PM2.5)
吉安市,青原区法院,115.0093,27.0968,2025-01-29T0700,191,254,0.5,19,111,35,,241,细颗粒物(PM2.5)
吉林市,哈达湾,126.54,43.8622,2025-01-29T0700,74,96,0.7,10,13,61,,99,细颗粒物(PM2.5)
吉林市,东局子,126.5844,43.8358,2025-01-29T0700,73,90,0.4,17,10,51,,98,细颗粒物(PM2.5)
吉林市,电力学院,126.5052,43.8245,2025-01-29T0700,62,67,0.9,11,7,58,,84,细颗粒物(PM2.5)
吉林市,江北,126.6133,43.8972,2025-01-29T0700,69,86,0.8,14,15,55,,93,细颗粒物(PM2.5)
吉林市,江南公园,126.555,43.8306,2025-01-29T0700,91,100,0.6,13,12,54,,120,细颗粒物(PM2.5)
吉林市,丰满,126.7061,43.7133,2025-01-29T0700,,,,,,,,,
吉林市,九站,126.4739,43.953,2025-01-29T0700,65,80,1.0,12,11,58,,88,细颗粒物(PM2.5)
济南市,科干所,116.9862,36.6114,2025-01-29T0700,27,36,0.7,7,10,87,,39,
济南市,农科所,116.9376,36.665,2025-01-29T0700,24,46,0.7,8,13,76,,46,
济南市,开发区,117.1265,36.6734,2025-01-29T0700,24,32,0.6,2,9,81,,35,
济南市,省种子仓库,117.0624,36.6868,2025-01-29T0700,29,46,0.5,31,7,32,,46,
济南市,机床二厂,116.9489,36.6447,2025-01-29T0700,27,44,0.6,10,21,84,,44,
济南市,市监测站,117.0495,36.663,2025-01-29T0700,22,37,0.7,8,10,83,,37,
济南市,长清党校,116.7675,36.5484,2025-01-29T0700,37,59,0.7,7,12,91,,55,颗粒物(PM10)
济南市,技术学院,117.6795,36.229,2025-01-29T0700,80,110,1.4,23,19,34,,107,细颗粒物(PM2.5)
济南市,东山小学,117.532,36.6868,2025-01-29T0700,34,46,0.6,10,13,81,,49,
济南市,泰兴公司,117.7161,36.2049,2025-01-29T0700,102,127,1.2,29,14,19,,134,细颗粒物(PM2.5)
济南市,莱芜战役纪念馆,117.6867,36.2171,2025-01-29T0700,105,136,1.2,29,13,27,,138,细颗粒物(PM2.5)
济南市,济阳区政府,117.1673,36.9782,2025-01-29T0700,,88,0.8,7,23,52,,,
济南市,锦屏中学,117.1171,36.63,2025-01-29T0700,27,32,0.4,8,11,86,,39,
济南市,济南四建,116.9814,36.6819,2025-01-29T0700,,,,,,,,,
济宁市,火炬城,116.6251,35.4302,2025-01-29T0700,195,275,0.9,20,43,48,,245,细颗粒物(PM2.5)
济宁市,电化厂,116.5491,35.4042,2025-01-29T0700,251,326,1.2,21,42,41,,301,细颗粒物(PM2.5)
济宁市,北湖一中,116.5814,35.3707,2025-01-29T0700,310,395,1.7,48,40,27,,360,细颗粒物(PM2.5)
济宁市,服务中心,116.8249,35.5593,2025-01-29T0700,176,307,1.1,25,29,38,,226,细颗粒物(PM2.5)
济宁市,市第七中学,116.5907,35.4054,2025-01-29T0700,283,397,1.0,31,44,35,,333,细颗粒物(PM2.5)
佳木斯市,佳纺,130.2751,46.8028,2025-01-29T0700,36,43,0.9,15,7,46,,52,细颗粒物(PM2.5)
佳木斯市,发电厂,130.3995,46.8307,2025-01-29T0700,38,41,0.4,10,6,54,,54,细颗粒物(PM2.5)
佳木斯市,环保局,130.3258,46.7975,2025-01-29T0700,37,50,0.9,15,11,48,,53,细颗粒物(PM2.5)
佳木斯市,十一中,130.3648,46.8032,2025-01-29T0700,27,34,0.7,26,16,44,,39,
佳木斯市,四丰,130.3794,46.7588,2025-01-29T0700,19,,1.0,6,1,58,,,
嘉兴市,清河小学,120.7436,30.778,2025-01-29T0700,93,110,0.7,12,7,50,,123,细颗粒物(PM2.5)
嘉兴市,嘉兴学院,120.726,30.7478,2025-01-29T0700,105,114,0.7,14,10,51,,138,细颗粒物(PM2.5)
嘉兴市,南湖区残联,120.7846,30.7525,2025-01-29T0700,97,,0.5,11,12,58,,128,细颗粒物(PM2.5)
嘉兴市,秀洲住建,120.6916,30.7739,2025-01-29T0700,123,,0.3,14,8,53,,162,细颗粒物(PM2.5)
嘉峪关市,气象局,98.2908,39.7711,2025-01-29T0700,12,39,0.4,14,10,66,,39,
嘉峪关市,酒钢宾馆,98.2672,39.7978,2025-01-29T0700,34,73,0.8,10,52,66,,62,颗粒物(PM10)
嘉峪关市,雄关区,98.2643,39.7724,2025-01-29T0700,10,41,0.4,43,6,47,,41,
江门市,北街,113.1064,22.6058,2025-01-29T0700,58,84,0.6,22,13,52,,79,细颗粒物(PM2.5)
江门市,西区,113.0731,22.5835,2025-01-29T0700,54,104,0.4,14,14,58,,77,颗粒物(PM10)
江门市,圭峰西,113.0219,22.5311,2025-01-29T0700,65,101,0.5,10,13,53,,88,细颗粒物(PM2.5)
江门市,东湖,113.0828,22.5947,2025-01-29T0700,82,86,0.3,11,11,56,,109,细颗粒物(PM2.5)
江门市,江海富民,113.1075,22.5647,2025-01-29T0700,51,71,0.3,12,11,57,,70,细颗粒物(PM2.5)
江门市,新会银湖,113.05,22.4667,2025-01-29T0700,54,91,0.7,22,8,33,,74,细颗粒物(PM2.5)
焦作市,影视城,113.1992,35.2590,2025-01-29T0700,17,37,0.5,8,8,83,,37,
焦作市,太极体育中心,113.2725,35.2067,2025-01-29T0700,94,151,1.1,14,17,46,,124,细颗粒物(PM2.5)
焦作市,马村街道办,113.3137,35.2641,2025-01-29T0700,97,108,0.9,14,29,43,,128,细颗粒物(PM2.5)
焦作市,焦作技师学院,113.2465,35.2373,2025-01-29T0700,56,79,1.1,18,23,38,,77,细颗粒物(PM2.5)
焦作市,中站许衡医院,113.1656,35.2539,2025-01-29T0700,35,49,0.8,14,20,68,,50,
焦作市,原李万街道办,113.2449,35.1803,2025-01-29T0700,193,240,1.1,21,47,43,,243,细颗粒物(PM2.5)
焦作市,新安路1731号,113.2340,35.2190,2025-01-29T0700,108,145,0.8,20,20,38,,142,细颗粒物(PM2.5)
揭阳市,新兴,116.3701,23.5345,2025-01-29T0700,119,,0.6,6,8,33,,156,细颗粒物(PM2.5)
揭阳市,西马,116.3264,23.5443,2025-01-29T0700,71,78,0.7,8,7,44,,95,细颗粒物(PM2.5)
揭阳市,东兴,116.3611,23.5626,2025-01-29T0700,50,73,0.8,8,,49,,,
揭阳市,渔湖,116.4151,23.5294,2025-01-29T0700,61,76,0.7,6,6,48,,83,细颗粒物(PM2.5)
揭阳市,曲溪,116.403,23.5699,2025-01-29T0700,53,68,0.6,12,12,61,,73,细颗粒物(PM2.5)
金昌市,天庆家园,102.1692,38.5167,2025-01-29T0700,49,82,0.8,10,31,49,,68,细颗粒物(PM2.5)
金昌市,金川区人防中心,102.1647,38.5371,2025-01-29T0700,37,64,0.7,6,8,60,,57,颗粒物(PM10)
金昌市,长春路96号,102.1930,38.5319,2025-01-29T0700,89,,0.9,16,30,55,,118,细颗粒物(PM2.5)
金华市,十五中,119.647,29.077,2025-01-29T0700,142,174,0.2,12,8,32,,189,细颗粒物(PM2.5)
金华市,监测站,119.686,29.1029,2025-01-29T0700,110,134,0.4,6,5,23,,144,细颗粒物(PM2.5)
金华市,气象局,119.656,29.1131,2025-01-29T0700,111,144,1.0,20,6,18,,145,细颗粒物(PM2.5)
锦州市,南山,121.1115,41.0879,2025-01-29T0700,324,,1.1,36,41,20,,374,细颗粒物(PM2.5)
锦州市,开发区,121.0533,40.8434,2025-01-29T0700,179,196,1.5,18,74,41,,229,细颗粒物(PM2.5)
锦州市,百股街道,121.1836,41.1119,2025-01-29T0700,161,183,1.1,16,10,27,,211,细颗粒物(PM2.5)
锦州市,天安街道,121.1178,41.1222,2025-01-29T0700,272,288,0.7,17,25,34,,322,细颗粒物(PM2.5)
锦州市,北湖公园,121.1303,41.1386,2025-01-29T0700,129,,0.7,18,14,35,,170,细颗粒物(PM2.5)
晋城市,自来水公司,112.85,35.5051,2025-01-29T0700,119,125,1.3,41,31,28,,156,细颗粒物(PM2.5)
晋城市,白云商贸,112.8318,35.4936,2025-01-29T0700,73,121,1.0,26,20,38,,98,细颗粒物(PM2.5)
晋城市,市环保局,112.8508,35.4887,2025-01-29T0700,75,99,1.2,27,17,32,,100,细颗粒物(PM2.5)
晋城市,技术学院,112.8676,35.4897,2025-01-29T0700,83,93,1.0,25,22,36,,110,细颗粒物(PM2.5)
晋城市,白马寺,112.8453,35.546,2025-01-29T0700,,,,,,,,,
晋城市,泽州一中,112.8271,35.4828,2025-01-29T0700,75,,1.1,22,14,46,,100,细颗粒物(PM2.5)
晋中市,南都小区,112.7249,37.7067,2025-01-29T0700,130,176,1.1,26,40,28,,172,细颗粒物(PM2.5)
晋中市,榆次区政府,112.6991,37.6982,2025-01-29T0700,161,227,1.4,44,87,7,,211,细颗粒物(PM2.5)
晋中市,榆次三中,112.7195,37.6828,2025-01-29T0700,153,197,1.3,38,43,12,,203,细颗粒物(PM2.5)
晋中市,榆次一中,112.7478,37.6954,2025-01-29T0700,124,166,1.1,17,40,36,,163,细颗粒物(PM2.5)
荆门市,竹园小学,112.2014,31.0481,2025-01-29T0700,142,215,0.7,16,15,67,,189,细颗粒物(PM2.5)
荆门市,掇刀,112.1969,30.9891,2025-01-29T0700,152,230,0.7,18,27,69,,202,细颗粒物(PM2.5)
荆门市,石化一小,112.2213,31.0386,2025-01-29T0700,139,201,0.8,19,16,54,,185,细颗粒物(PM2.5)
荆门市,西山林语,112.1849,31.0362,2025-01-29T0700,174,196,0.4,10,13,72,,224,细颗粒物(PM2.5)
荆门市,龙泉中学南校,112.1632,31.0138,2025-01-29T0700,165,217,0.6,10,26,65,,215,细颗粒物(PM2.5)
荆州市,市图书馆,112.2494,30.3197,2025-01-29T0700,147,156,0.6,20,12,60,,196,细颗粒物(PM2.5)
荆州市,市委党校,112.2008,30.3544,2025-01-29T0700,142,169,0.2,21,13,51,,189,细颗粒物(PM2.5)
荆州市,管委会,112.2747,30.3122,2025-01-29T0700,174,192,0.8,15,15,61,,224,细颗粒物(PM2.5)
荆州市,学苑路,112.1655,30.3364,2025-01-29T0700,205,208,0.7,23,20,61,,255,细颗粒物(PM2.5)
景德镇市,王港中学,117.3102,29.3867,2025-01-29T0700,,,,,,,,,
景德镇市,老干部活动中心,117.2117,29.2933,2025-01-29T0700,,,,,,,58,,
景德镇市,兽医站,117.1894,29.2789,2025-01-29T0700,119,163,0.6,3,46,22,,156,细颗粒物(PM2.5)
景德镇市,台达陶瓷,117.1547,29.2617,2025-01-29T0700,106,143,0.3,7,45,30,,139,细颗粒物(PM2.5)
景德镇市,陶研所,117.2461,29.2956,2025-01-29T0700,282,,0.7,9,72,14,,332,细颗粒物(PM2.5)
九江市,十里,115.9872,29.6815,2025-01-29T0700,147,190,0.7,16,8,29,,196,细颗粒物(PM2.5)
九江市,茅山头,115.9584,29.7046,2025-01-29T0700,185,232,0.9,25,12,23,,235,细颗粒物(PM2.5)
九江市,西园,115.9877,29.7295,2025-01-29T0700,292,331,0.5,20,25,39,,342,细颗粒物(PM2.5)
九江市,综合工业园,115.9114,29.6038,2025-01-29T0700,39,62,0.3,8,10,42,,56,颗粒物(PM10)
九江市,石化总厂,116.0721,29.7535,2025-01-29T0700,347,433,1.1,12,50,25,,397,细颗粒物(PM2.5)
九江市,庐山气象台,115.9773,29.5698,2025-01-29T0700,11,38,0.5,1,7,87,,38,
九江市,外国语学校,116.0254,29.6994,2025-01-29T0700,288,364,0.7,19,35,35,,338,细颗粒物(PM2.5)
九江市,莲花大道8号,116.0102,29.6594,2025-01-29T0700,198,281,0.9,28,9,20,,248,细颗粒物(PM2.5)
酒泉市,仓门街子站,98.5061,39.7443,2025-01-29T0700,31,70,0.6,12,32,44,,60,颗粒物(PM10)
酒泉市,玉门东路5号,98.4958,39.7339,2025-01-29T0700,25,56,0.5,8,17,47,,53,颗粒物(PM10)
喀什地区,巡警大队,76.0072,39.4467,2025-01-29T0700,61,261,2.6,46,7,16,,156,颗粒物(PM10)
喀什地区,吾办,75.9755,39.4694,2025-01-29T0700,72,236,2.0,36,2,35,,143,颗粒物(PM10)
喀什地区,老干局,75.9483,39.4689,2025-01-29T0700,54,257,3.0,35,3,21,,154,颗粒物(PM10)
开封市,肿瘤医院,114.3389,34.7781,2025-01-29T0700,148,181,0.7,13,20,42,,198,细颗粒物(PM2.5)
开封市,世纪星幼儿园,114.2885,34.7965,2025-01-29T0700,144,165,0.6,17,13,36,,192,细颗粒物(PM2.5)
开封市,龙亭公园,114.3438,34.8106,2025-01-29T0700,170,171,1.1,21,13,40,,220,细颗粒物(PM2.5)
开封市,汴京公园,114.3644,34.7964,2025-01-29T0700,200,,0.8,24,18,34,,250,细颗粒物(PM2.5)
开封市,技师学院,114.2485,34.8306,2025-01-29T0700,126,192,0.7,22,10,40,,166,细颗粒物(PM2.5)
开封市,祥符区生态环境局,114.4644,34.7556,2025-01-29T0700,182,200,0.6,14,22,46,,232,细颗粒物(PM2.5)
克拉玛依市,长征新村,84.895,45.6094,2025-01-29T0700,33,51,0.4,8,7,71,,51,颗粒物(PM10)
克拉玛依市,南林小区,84.8988,45.5893,2025-01-29T0700,42,,0.4,4,3,74,,59,细颗粒物(PM2.5)
克拉玛依市,独山子区,84.905,44.3396,2025-01-29T0700,185,,0.7,15,4,77,,235,细颗粒物(PM2.5)
克拉玛依市,乌尔禾区商贸楼,85.6979,46.098,2025-01-29T0700,76,83,0.9,14,5,67,,102,细颗粒物(PM2.5)
克拉玛依市,白碱滩区新站,85.1045,45.6899,2025-01-29T0700,40,62,0.5,6,18,70,,57,细颗粒物(PM2.5)
克孜勒苏柯尔克孜自治州,市人民政府,76.1454,39.7142,2025-01-29T0700,56,240,0.8,9,4,54,,145,颗粒物(PM10)
克孜勒苏柯尔克孜自治州,克州文化中心,76.1658,39.7157,2025-01-29T0700,47,222,1.0,10,9,60,,136,颗粒物(PM10)
昆明市,呈贡新区,102.8204,24.8886,2025-01-29T0700,49,,0.6,7,5,35,,68,细颗粒物(PM2.5)
昆明市,西山森林公园,102.6251,24.9608,2025-01-29T0700,,,,,,,,,
昆明市,龙泉镇,102.7252,25.0902,2025-01-29T0700,181,209,0.6,16,9,10,,231,细颗粒物(PM2.5)
昆明市,东风东路,102.7266,25.0375,2025-01-29T0700,44,54,0.4,9,7,41,,62,细颗粒物(PM2.5)
昆明市,金鼎山,102.6742,25.0669,2025-01-29T0700,41,,0.7,10,9,36,,58,细颗粒物(PM2.5)
昆明市,碧鸡广场,102.6644,25.0401,2025-01-29T0700,50,57,0.6,7,6,40,,69,细颗粒物(PM2.5)
昆明市,官渡区博物馆,102.7494,25.0119,2025-01-29T0700,100,126,0.6,26,8,3,,132,细颗粒物(PM2.5)
昆明市,青年创业园,102.8017,24.8336,2025-01-29T0700,40,44,0.7,4,6,44,,57,细颗粒物(PM2.5)
昆明市,昆明学院,102.7997,24.9786,2025-01-29T0700,67,86,0.6,16,4,21,,90,细颗粒物(PM2.5)
昆明市,晋宁区生态环境分局,102.5967,24.6736,2025-01-29T0700,56,64,1.2,17,12,20,,77,细颗粒物(PM2.5)
昆明市,云天化总部,102.6678,24.9856,2025-01-29T0700,53,62,0.5,6,6,46,,73,细颗粒物(PM2.5)
拉萨市,八廓街,91.1319,29.6514,2025-01-29T0700,6,10,0.3,6,5,81,,26,
拉萨市,市环保局,91.1221,29.6747,2025-01-29T0700,8,19,0.6,14,3,74,,24,
拉萨市,区监测站,91.0874,29.6475,2025-01-29T0700,7,16,0.5,9,5,81,,26,
拉萨市,西藏大学,91.1774,29.6541,2025-01-29T0700,8,17,0.4,3,4,81,,26,
拉萨市,区辐射站,90.9798,29.6588,2025-01-29T0700,3,11,0.4,7,6,76,,24,
拉萨市,拉萨火车站,91.0834,29.6292,2025-01-29T0700,7,15,0.7,12,4,76,,24,
来宾市,来宾技工学校,109.2203,23.7256,2025-01-29T0700,192,198,0.8,14,23,50,,242,细颗粒物(PM2.5)
来宾市,兴宾区政府,109.1781,23.7297,2025-01-29T0700,186,228,0.9,12,19,55,,236,细颗粒物(PM2.5)
来宾市,中南小学,109.2416,23.7461,2025-01-29T0700,198,201,0.9,16,27,44,,248,细颗粒物(PM2.5)
兰州市,榆中兰大校区,104.1373,35.9454,2025-01-29T0700,,,,,,,,,
兰州市,铁路设计院,103.831,36.0464,2025-01-29T0700,164,202,2.6,70,19,7,,214,细颗粒物(PM2.5)
兰州市,百合公园,103.7439,36.0842,2025-01-29T0700,157,194,2.1,47,14,18,,207,细颗粒物(PM2.5)
兰州市,和平,103.9611,35.998,2025-01-29T0700,70,93,1.0,25,14,65,,94,细颗粒物(PM2.5)
兰州市,庄浪东路808号,103.6293,36.0938,2025-01-29T0700,166,196,1.6,47,10,30,,216,细颗粒物(PM2.5)
兰州市,安宁西路88号,103.7251,36.1043,2025-01-29T0700,150,207,1.4,54,20,14,,200,细颗粒物(PM2.5)
兰州市,北滨河东路1号,103.8470,36.0676,2025-01-29T0700,188,231,1.7,71,14,12,,238,细颗粒物(PM2.5)
兰州新区,新区管委会,103.6633,36.533,2025-01-29T0700,30,50,0.8,15,13,34,,50,
兰州新区,舟曲中学,103.6975,36.4789,2025-01-29T0700,81,114,0.6,21,14,48,,108,细颗粒物(PM2.5)
廊坊市,药材公司,116.6708,39.5111,2025-01-29T0700,240,262,0.6,38,26,23,,290,细颗粒物(PM2.5)
廊坊市,开发区,116.7214,39.5589,2025-01-29T0700,383,441,0.8,50,21,7,,422,细颗粒物(PM2.5)
廊坊市,北华航天学院,116.7244,39.5269,2025-01-29T0700,271,395,0.7,40,31,14,,321,细颗粒物(PM2.5)
廊坊市,河北工业大学,116.7022,39.5453,2025-01-29T0700,305,357,0.7,45,26,10,,355,细颗粒物(PM2.5)
乐山市,花湖湾,103.7723,29.5462,2025-01-29T0700,180,222,0.7,17,9,28,,230,细颗粒物(PM2.5)
乐山市,牛耳桥,103.7627,29.5844,2025-01-29T0700,113,129,0.5,18,8,19,,148,细颗粒物(PM2.5)
乐山市,市第三水厂,103.7508,29.6006,2025-01-29T0700,208,227,0.7,9,12,41,,258,细颗粒物(PM2.5)
乐山市,市监测站,103.7571,29.5664,2025-01-29T0700,178,218,0.6,18,7,22,,228,细颗粒物(PM2.5)
乐山市,理工大学,103.7311,29.5628,2025-01-29T0700,95,116,0.7,16,8,27,,125,细颗粒物(PM2.5)
丽江市,西南郊,100.2143,26.8576,2025-01-29T0700,74,95,1.0,8,5,30,,99,细颗粒物(PM2.5)
丽江市,丽江古城,100.2497,26.8802,2025-01-29T0700,27,31,1.2,7,8,42,,39,
丽江市,市中心,100.2203,26.8906,2025-01-29T0700,28,30,0.8,15,11,39,,40,
丽水市,监测站大楼,119.914,28.4514,2025-01-29T0700,54,62,0.2,2,4,31,,74,细颗粒物(PM2.5)
丽水市,莲都小学,119.93,28.4586,2025-01-29T0700,78,109,0.5,1,8,34,,104,细颗粒物(PM2.5)
丽水市,余庄前,119.879,28.4231,2025-01-29T0700,57,70,0.4,6,4,16,,78,细颗粒物(PM2.5)
连云港市,市环境监测站,119.176,34.5885,2025-01-29T0700,149,166,1.1,18,20,29,,199,细颗粒物(PM2.5)
连云港市,德源药业,119.3581,34.6972,2025-01-29T0700,78,92,0.5,19,10,33,,104,细颗粒物(PM2.5)
连云港市,新城一中,119.178,34.844,2025-01-29T0700,170,,1.0,20,26,35,,220,细颗粒物(PM2.5)
连云港市,胡沟管理处,119.3608,34.7519,2025-01-29T0700,29,34,0.7,10,11,61,,42,
连云港市,矿山设计院,119.1478,34.5911,2025-01-29T0700,134,158,0.9,24,20,32,,178,细颗粒物(PM2.5)
连云港市,工贸学校,119.2413,34.6539,2025-01-29T0700,74,97,0.5,12,33,65,,99,细颗粒物(PM2.5)
连云港市,连云街道,119.4172,34.7341,2025-01-29T0700,23,32,0.5,4,18,61,,33,
凉山彝族自治州,青龙寺,102.3431,27.8099,2025-01-29T0700,19,43,0.9,5,2,35,,43,
凉山彝族自治州,邛海宾馆,102.2721,27.8415,2025-01-29T0700,26,34,0.8,9,9,39,,38,
凉山彝族自治州,西昌市政府,102.2625,27.898,2025-01-29T0700,24,33,0.8,8,12,41,,35,
凉山彝族自治州,凉山州政府,102.2685,27.8851,2025-01-29T0700,19,23,0.8,8,11,44,,28,
凉山彝族自治州,长安,102.237,27.8914,2025-01-29T0700,20,24,0.8,10,12,46,,29,
辽阳市,宏伟区,123.2,41.1953,2025-01-29T0700,14,40,0.5,5,6,67,,40,
辽阳市,新华园,123.1683,41.2495,2025-01-29T0700,56,,0.5,8,11,61,,77,细颗粒物(PM2.5)
辽阳市,滨河路,123.2354,41.2639,2025-01-29T0700,64,,0.7,30,7,50,,87,细颗粒物(PM2.5)
辽阳市,铁西工业园,123.149,41.2991,2025-01-29T0700,86,155,1.0,22,7,42,,114,细颗粒物(PM2.5)
辽源市,环保局,125.1358,42.8845,2025-01-29T0700,44,63,0.6,13,14,56,,62,细颗粒物(PM2.5)
辽源市,银鹰制药,125.0764,42.9078,2025-01-29T0700,50,65,1.0,10,8,56,,69,细颗粒物(PM2.5)
聊城市,区政府,115.9848,36.4372,2025-01-29T0700,149,233,0.9,19,48,57,,199,细颗粒物(PM2.5)
聊城市,聊大东校,116.0072,36.4343,2025-01-29T0700,200,227,0.9,22,40,56,,250,细颗粒物(PM2.5)
聊城市,监控中心,115.9819,36.4978,2025-01-29T0700,173,216,0.8,18,41,62,,223,细颗粒物(PM2.5)
聊城市,九州社区,116.0445,36.4361,2025-01-29T0700,177,182,0.7,18,38,58,,227,细颗粒物(PM2.5)
聊城市,星美广场,116.0567,36.4608,2025-01-29T0700,161,186,1.0,17,35,59,,211,细颗粒物(PM2.5)
林芝市,林芝监测站,94.3681,29.6376,2025-01-29T0700,,,0.2,2,7,58,,,
林芝市,林芝人民医院,94.3616,29.6616,2025-01-29T0700,8,11,0.3,2,6,59,,19,
临沧市,市环保局,100.0781,23.8982,2025-01-29T0700,27,40,0.7,10,8,12,,40,
临沧市,市气象局,100.0894,23.8822,2025-01-29T0700,41,47,0.7,9,17,15,,58,细颗粒物(PM2.5)
临汾市,临钢医院,111.5531,36.0783,2025-01-29T0700,63,86,1.1,10,9,38,,85,细颗粒物(PM2.5)
临汾市,技工学校,111.5028,36.0714,2025-01-29T0700,122,156,1.1,15,12,26,,160,细颗粒物(PM2.5)
临汾市,市委,111.5018,36.0855,2025-01-29T0700,125,176,1.2,17,9,30,,165,细颗粒物(PM2.5)
临汾市,唐尧大酒店,111.505,36.1014,2025-01-29T0700,133,172,0.9,20,11,25,,176,细颗粒物(PM2.5)
临汾市,启星学校,111.4879,36.0530,2025-01-29T0700,142,180,0.9,18,5,19,,189,细颗粒物(PM2.5)
临夏回族自治州,环保局,103.2069,35.5993,2025-01-29T0700,41,174,2.1,27,9,21,,112,颗粒物(PM10)
临夏回族自治州,建设大厦,103.2417,35.6057,2025-01-29T0700,33,107,1.8,11,16,46,,79,颗粒物(PM10)
临沂市,沂河小区,118.3429,35.0532,2025-01-29T0700,206,224,1.4,43,45,18,,256,细颗粒物(PM2.5)
临沂市,鲁南制药厂,118.295,35.0583,2025-01-29T0700,246,266,2.0,48,75,11,,296,细颗粒物(PM2.5)
临沂市,新光毛纺厂,118.2794,34.9976,2025-01-29T0700,238,,1.8,52,58,13,,288,细颗粒物(PM2.5)
临沂市,河东保险公司,118.3956,35.0888,2025-01-29T0700,223,256,1.8,42,36,11,,273,细颗粒物(PM2.5)
临沂市,十里堡居委,118.3564,35.0215,2025-01-29T0700,183,215,1.5,29,68,29,,233,细颗粒物(PM2.5)
临沂市,南坊新区,118.3604,35.1084,2025-01-29T0700,188,227,0.9,34,38,27,,238,细颗粒物(PM2.5)
临沂市,皇山花园小区,118.3920,35.0300,2025-01-29T0700,155,200,1.1,24,32,23,,205,细颗粒物(PM2.5)
柳州市,柳东小学,109.4856,24.3895,2025-01-29T0700,68,68,0.7,11,12,74,,92,细颗粒物(PM2.5)
柳州市,环保监测站,109.4157,24.3277,2025-01-29T0700,72,,0.6,7,14,77,,97,细颗粒物(PM2.5)
柳州市,河西水厂,109.389,24.341,2025-01-29T0700,53,86,0.7,8,13,68,,73,细颗粒物(PM2.5)
柳州市,市四中,109.4311,24.2921,2025-01-29T0700,75,,0.9,7,11,76,,100,细颗粒物(PM2.5)
柳州市,市九中,109.4006,24.3631,2025-01-29T0700,137,,0.8,8,11,74,,182,细颗粒物(PM2.5)
柳州市,古亭山,109.4958,24.3134,2025-01-29T0700,59,63,0.5,5,16,82,,80,细颗粒物(PM2.5)
柳州市,市二中,109.5422,24.3996,2025-01-29T0700,46,62,0.7,8,12,68,,64,细颗粒物(PM2.5)
六安市,监测大楼,116.5079,31.737,2025-01-29T0700,155,164,0.6,10,8,41,,205,细颗粒物(PM2.5)
六安市,皖西学院,116.4738,31.7643,2025-01-29T0700,149,168,0.7,14,6,37,,199,细颗粒物(PM2.5)
六安市,朝阳厂,116.4996,31.7905,2025-01-29T0700,156,,0.5,17,5,40,,206,细颗粒物(PM2.5)
六安市,开发区,116.5567,31.7886,2025-01-29T0700,272,343,1.0,14,10,38,,322,细颗粒物(PM2.5)
六盘水市,窑上,104.8,26.5892,2025-01-29T0700,41,71,0.5,8,5,45,,61,颗粒物(PM10)
六盘水市,黄土坡,104.83,26.5917,2025-01-29T0700,44,55,0.6,10,7,48,,62,细颗粒物(PM2.5)
六盘水市,水钢,104.89,26.5939,2025-01-29T0700,48,73,0.5,7,6,54,,67,细颗粒物(PM2.5)
六盘水市,民中,104.8475,26.5894,2025-01-29T0700,46,52,0.5,8,8,47,,64,细颗粒物(PM2.5)
六盘水市,双水,104.9544,26.5506,2025-01-29T0700,42,63,0.3,5,8,57,,59,细颗粒物(PM2.5)
龙岩市,龙岩师专,117.0189,25.1181,2025-01-29T0700,,,,,,,,,
龙岩市,龙岩市监测站,117.0217,25.1033,2025-01-29T0700,98,,0.3,9,71,46,,129,细颗粒物(PM2.5)
龙岩市,闽西职业技术学院,117.0258,25.0661,2025-01-29T0700,76,,0.3,3,41,38,,102,细颗粒物(PM2.5)
龙岩市,龙岩学院,117.0196,25.0306,2025-01-29T0700,134,,0.4,7,44,31,,178,细颗粒物(PM2.5)
陇南市,汉王镇固水子,105.0822,33.3261,2025-01-29T0700,,,,,,,,,
陇南市,滨江中学,104.9339,33.3826,2025-01-29T0700,71,87,0.9,25,133,13,,95,细颗粒物(PM2.5)
陇南市,市总工会,104.955,33.371,2025-01-29T0700,80,109,0.9,23,54,19,,107,细颗粒物(PM2.5)
娄底市,电视发射台,111.9589,27.8901,2025-01-29T0700,28,60,0.5,6,6,57,,55,颗粒物(PM10)
娄底市,市监测站,111.9975,27.725,2025-01-29T0700,600,737,1.0,38,35,5,,500,"颗粒物(PM10),细颗粒物(PM2.5)"
娄底市,市委党校,112.0194,27.7314,2025-01-29T0700,583,755,1.0,27,10,8,,500,"颗粒物(PM10),细颗粒物(PM2.5)"
娄底市,涟钢,111.9561,27.7569,2025-01-29T0700,466,564,1.2,23,9,11,,478,细颗粒物(PM2.5)
娄底市,市政府,111.9892,27.7044,2025-01-29T0700,965,1115,1.1,22,20,3,,500,"颗粒物(PM10),细颗粒物(PM2.5)"
泸州市,九狮山,105.4324,28.9634,2025-01-29T0700,,,,,,,,,
泸州市,小市上码头,105.4427,28.9063,2025-01-29T0700,174,252,1.0,22,7,30,,224,细颗粒物(PM2.5)
泸州市,兰田宪桥,105.4241,28.8573,2025-01-29T0700,155,190,1.1,14,3,23,,205,细颗粒物(PM2.5)
泸州市,市环监站,105.4379,28.8833,2025-01-29T0700,162,198,0.9,16,9,34,,212,细颗粒物(PM2.5)
泸州市,纳溪区环保局,105.3617,28.7703,2025-01-29T0700,201,212,1.0,14,8,15,,251,细颗粒物(PM2.5)
吕梁市,环保局,111.1406,37.5211,2025-01-29T0700,64,64,0.5,11,9,36,,87,细颗粒物(PM2.5)
吕梁市,自来水公司,111.1297,37.5136,2025-01-29T0700,103,148,0.6,21,12,25,,135,细颗粒物(PM2.5)
吕梁市,马茂庄小学,111.1283,37.51,2025-01-29T0700,44,74,0.4,16,11,37,,62,"颗粒物(PM10),细颗粒物(PM2.5)"
洛阳市,市委党校,112.3931,34.6516,2025-01-29T0700,80,114,1.1,13,4,44,,107,细颗粒物(PM2.5)
洛阳市,河南林校,112.494,34.6886,2025-01-29T0700,141,143,0.8,18,2,32,,188,细颗粒物(PM2.5)
洛阳市,开发区管委会,112.3844,34.623,2025-01-29T0700,109,137,0.8,14,5,50,,143,细颗粒物(PM2.5)
洛阳市,市委新办公区,112.4267,34.6258,2025-01-29T0700,110,157,0.7,11,3,42,,144,细颗粒物(PM2.5)
洛阳市,伊滨,112.6005,34.6326,2025-01-29T0700,184,290,1.1,12,5,38,,234,细颗粒物(PM2.5)
洛阳市,中移产业园,112.4951,34.6332,2025-01-29T0700,91,116,0.8,15,6,51,,120,细颗粒物(PM2.5)
洛阳市,吉利监测站,112.5736,34.8993,2025-01-29T0700,68,73,0.2,9,3,46,,92,细颗粒物(PM2.5)
洛阳市,河科大西苑校区,112.3677,34.662,2025-01-29T0700,100,148,0.9,16,10,43,,132,细颗粒物(PM2.5)
洛阳市,英才小学,112.4388,34.6781,2025-01-29T0700,122,172,0.8,16,8,28,,160,细颗粒物(PM2.5)
洛阳市,春都路1号院,112.4600,34.6949,2025-01-29T0700,118,162,1.4,11,8,33,,155,细颗粒物(PM2.5)
漯河市,三五一五工厂,114.051,33.5699,2025-01-29T0700,407,415,0.7,18,50,48,,438,细颗粒物(PM2.5)
漯河市,漯河大学,114.0055,33.5698,2025-01-29T0700,268,289,0.6,17,44,60,,318,细颗粒物(PM2.5)
漯河市,市水利局,114.0138,33.5828,2025-01-29T0700,268,317,0.9,19,31,55,,318,细颗粒物(PM2.5)
漯河市,市广电局,114.0261,33.5698,2025-01-29T0700,305,364,0.9,18,44,52,,355,细颗粒物(PM2.5)
漯河市,市图书馆,113.9749,33.5664,2025-01-29T0700,277,336,0.8,22,39,57,,327,细颗粒物(PM2.5)
漯河市,召陵区卫健委,114.0967,33.5906,2025-01-29T0700,,,,,,,,,
马鞍山市,湖东路四小,118.5092,31.6837,2025-01-29T0700,104,134,0.7,27,6,23,,137,细颗粒物(PM2.5)
马鞍山市,开发区,118.5024,31.6449,2025-01-29T0700,121,141,1.1,34,11,25,,159,细颗粒物(PM2.5)
马鞍山市,濮塘,118.6245,31.7241,2025-01-29T0700,69,86,0.8,3,9,78,,93,细颗粒物(PM2.5)
马鞍山市,雨山,118.4918,31.6809,2025-01-29T0700,109,133,0.9,18,8,35,,143,细颗粒物(PM2.5)
马鞍山市,慈湖高新区,118.5274,31.72227,2025-01-29T0700,96,138,1.1,27,10,30,,127,细颗粒物(PM2.5)
茂名市,电白南海,111.0286,21.4688,2025-01-29T0700,136,175,0.7,10,22,51,,180,细颗粒物(PM2.5)
茂名市,茂石化七小,110.9294,21.6533,2025-01-29T0700,251,288,0.6,13,46,40,,301,细颗粒物(PM2.5)
茂名市,健康路,110.9107,21.6687,2025-01-29T0700,307,368,0.7,20,116,37,,357,细颗粒物(PM2.5)
茂名市,高岭,110.8592,21.6828,2025-01-29T0700,278,337,0.8,15,50,38,,328,细颗粒物(PM2.5)
茂名市,电白水东,111.01,21.5165,2025-01-29T0700,85,114,0.6,11,20,62,,113,细颗粒物(PM2.5)
眉山市,黑龙滩水库,104.0308,30.0478,2025-01-29T0700,,,,,,,,,
眉山市,气象局,103.8416,30.0874,2025-01-29T0700,302,409,0.9,18,11,9,,352,细颗粒物(PM2.5)
眉山市,市委党校,103.8578,30.0744,2025-01-29T0700,315,371,1.0,21,14,10,,365,细颗粒物(PM2.5)
眉山市,区人社局,103.8291,30.0564,2025-01-29T0700,339,,1.1,34,20,10,,389,细颗粒物(PM2.5)
梅州市,梅江月梅,116.1231,24.3284,2025-01-29T0700,68,80,0.2,4,14,45,,92,细颗粒物(PM2.5)
梅州市,梅县新城,116.0797,24.2719,2025-01-29T0700,103,114,0.5,8,9,38,,135,细颗粒物(PM2.5)
梅州市,环境监控中心,116.1248,24.2654,2025-01-29T0700,60,,0.3,3,8,44,,82,细颗粒物(PM2.5)
梅州市,梅龙,116.1233,24.2991,2025-01-29T0700,63,63,0.5,9,10,45,,85,细颗粒物(PM2.5)
绵阳市,富乐山,104.7778,31.4741,2025-01-29T0700,204,265,1.3,23,2,19,,254,细颗粒物(PM2.5)
绵阳市,高新区自来水公司,104.6697,31.4668,2025-01-29T0700,195,286,1.3,18,2,8,,245,细颗粒物(PM2.5)
绵阳市,三水厂,104.7287,31.5075,2025-01-29T0700,298,351,1.6,20,6,5,,348,细颗粒物(PM2.5)
绵阳市,西科大附属小学,104.69,31.5322,2025-01-29T0700,176,212,1.2,13,6,24,,226,细颗粒物(PM2.5)
绵阳市,安州区旅游局,104.5648,31.5343,2025-01-29T0700,132,163,1.2,8,10,14,,175,细颗粒物(PM2.5)
绵阳市,绵阳市气象局,104.7651,31.4531,2025-01-29T0700,200,265,1.5,27,9,9,,250,细颗粒物(PM2.5)
牡丹江市,环保大楼,129.61,44.561,2025-01-29T0700,32,49,0.5,8,8,65,,49,
牡丹江市,文化广场,129.6115,44.5782,2025-01-29T0700,32,46,0.5,11,13,69,,46,
牡丹江市,第一医院,129.5904,44.5963,2025-01-29T0700,45,46,0.5,8,12,67,,63,细颗粒物(PM2.5)
牡丹江市,机车工厂,129.6364,44.6075,2025-01-29T0700,40,50,0.6,8,10,68,,57,细颗粒物(PM2.5)
牡丹江市,第一中学,129.6386,44.5462,2025-01-29T0700,25,34,0.5,8,10,58,,36,
内江市,市监测站,105.0703,29.61,2025-01-29T0700,232,,0.2,12,13,27,,282,细颗粒物(PM2.5)
内江市,东兴区政府,105.0717,29.5947,2025-01-29T0700,204,,0.5,16,8,43,,254,细颗粒物(PM2.5)
内江市,内江二中,105.0653,29.5817,2025-01-29T0700,215,217,0.6,16,13,40,,265,细颗粒物(PM2.5)
内江市,内江日报社,105.0406,29.5822,2025-01-29T0700,195,202,0.6,20,12,35,,245,细颗粒物(PM2.5)
那曲市,那曲监测站,92.0657,31.4846,2025-01-29T0700,7,17,1.0,2,6,57,,18,
那曲市,那曲会议中心,92.0506,31.4797,2025-01-29T0700,10,27,1.1,2,2,49,,27,
南昌市,省外办,115.8931,28.6843,2025-01-29T0700,124,147,0.7,36,5,15,,163,细颗粒物(PM2.5)
南昌市,省林业公司,115.8886,28.7003,2025-01-29T0700,95,129,0.7,22,11,26,,125,细颗粒物(PM2.5)
南昌市,林科所,115.8126,28.7442,2025-01-29T0700,51,88,0.6,11,22,62,,70,细颗粒物(PM2.5)
南昌市,建工学校,115.8518,28.687,2025-01-29T0700,68,96,0.9,16,11,44,,92,细颗粒物(PM2.5)
南昌市,象湖,115.8921,28.6424,2025-01-29T0700,90,124,0.9,19,6,36,,119,细颗粒物(PM2.5)
南昌市,武术学校,115.7423,28.7996,2025-01-29T0700,41,,0.3,5,2,18,,58,细颗粒物(PM2.5)
南昌市,机电学校,115.9084,28.6062,2025-01-29T0700,171,213,0.8,31,16,9,,221,细颗粒物(PM2.5)
南昌市,外国语学校,115.9721,28.7031,2025-01-29T0700,270,360,0.7,24,15,,,320,细颗粒物(PM2.5)
南昌市,南京东路235号,115.9316,28.68677,2025-01-29T0700,251,262,0.8,35,33,16,,301,细颗粒物(PM2.5)
南充市,西山风景区,106.056,30.8064,2025-01-29T0700,146,172,0.4,7,3,49,,195,细颗粒物(PM2.5)
南充市,南充市委,106.0789,30.8023,2025-01-29T0700,228,261,0.6,15,4,11,,278,细颗粒物(PM2.5)
南充市,南充炼油厂,106.1031,30.8217,2025-01-29T0700,269,304,0.7,19,5,15,,319,细颗粒物(PM2.5)
南充市,嘉陵区环保局,106.0642,30.7636,2025-01-29T0700,205,235,0.8,21,5,16,,255,细颗粒物(PM2.5)
南充市,市环境监测站,106.1087,30.8388,2025-01-29T0700,194,282,0.7,18,9,23,,244,细颗粒物(PM2.5)
南充市,梨树横街98号,106.1083,30.7884,2025-01-29T0700,294,396,1.0,26,6,2,,344,细颗粒物(PM2.5)
南京市,迈皋桥,118.8086,32.1065,2025-01-29T0700,56,70,0.5,30,4,35,,77,细颗粒物(PM2.5)
南京市,草场门,118.7538,32.0551,2025-01-29T0700,68,85,0.4,38,6,23,,92,细颗粒物(PM2.5)
南京市,山西路,118.7794,32.0745,2025-01-29T0700,83,105,0.4,39,5,39,,110,细颗粒物(PM2.5)
南京市,中华门,118.7752,32.0023,2025-01-29T0700,88,105,0.7,26,13,38,,117,细颗粒物(PM2.5)
南京市,瑞金路,118.8109,32.0309,2025-01-29T0700,92,112,0.8,42,6,14,,122,细颗粒物(PM2.5)
南京市,玄武湖,118.7997,32.0754,2025-01-29T0700,59,93,0.8,13,7,36,,80,细颗粒物(PM2.5)
南京市,浦口,118.6414,32.0931,2025-01-29T0700,38,64,0.5,13,9,68,,57,颗粒物(PM10)
南京市,奥体中心,118.7356,31.9996,2025-01-29T0700,102,120,0.6,38,6,16,,134,细颗粒物(PM2.5)
南京市,仙林大学城,118.9125,32.1028,2025-01-29T0700,107,124,0.6,29,6,15,,140,细颗粒物(PM2.5)
南京市,江宁彩虹桥,118.8436,31.9198,2025-01-29T0700,178,280,0.7,27,6,61,,228,细颗粒物(PM2.5)
南京市,溧水永阳,119.0138,31.6494,2025-01-29T0700,120,,0.7,14,4,21,,158,细颗粒物(PM2.5)
南京市,六合雄州,118.8554,32.3578,2025-01-29T0700,238,304,0.7,12,5,19,,288,细颗粒物(PM2.5)
南京市,汶溪路181号,118.8708,31.3402,2025-01-29T0700,124,124,0.3,4,13,33,,163,细颗粒物(PM2.5)
南宁市,二十一中,108.3103,22.7881,2025-01-29T0700,234,234,0.8,27,26,27,,284,细颗粒物(PM2.5)
南宁市,北湖,108.3141,22.8528,2025-01-29T0700,141,,0.7,9,21,45,,188,细颗粒物(PM2.5)
南宁市,市监测站,108.3206,22.8225,2025-01-29T0700,172,177,0.9,20,22,34,,222,细颗粒物(PM2.5)
南宁市,大自然花园,108.3829,22.8037,2025-01-29T0700,268,294,1.1,27,16,15,,318,细颗粒物(PM2.5)
南宁市,仙葫,108.4394,22.7904,2025-01-29T0700,401,490,0.7,23,38,20,,434,细颗粒物(PM2.5)
南宁市,区农职院,108.2397,22.8467,2025-01-29T0700,139,,0.7,13,15,34,,185,细颗粒物(PM2.5)
南宁市,英华嘉园,108.3275,22.735,2025-01-29T0700,192,232,0.6,14,32,35,,242,细颗粒物(PM2.5)
南宁市,红星社区,108.4834,22.7618,2025-01-29T0700,272,,0.8,26,50,34,,322,细颗粒物(PM2.5)
南宁市,乐贤路16号,108.2177,22.7774,2025-01-29T0700,187,227,0.9,15,34,32,,237,细颗粒物(PM2.5)
南平市,茫荡山,118.0966,26.6761,2025-01-29T0700,,,,,,,,,
南平市,南平市监测站,118.1681,26.6369,2025-01-29T0700,137,150,0.3,6,31,24,,182,细颗粒物(PM2.5)
南平市,南平铝业有限公司,118.1825,26.6489,2025-01-29T0700,149,,0.4,6,37,,,199,细颗粒物(PM2.5)
南平市,南平七中,118.1756,26.6272,2025-01-29T0700,142,,0.7,5,32,23,,189,细颗粒物(PM2.5)
南通市,狼山街道,120.9098,31.9663,2025-01-29T0700,91,103,0.8,8,9,59,,120,细颗粒物(PM2.5)
南通市,虹桥,120.86,32.0005,2025-01-29T0700,157,166,0.9,14,14,49,,207,细颗粒物(PM2.5)
南通市,城中,120.87,32.02,2025-01-29T0700,182,220,0.8,16,20,51,,232,细颗粒物(PM2.5)
南通市,星湖花园,120.94,31.93,2025-01-29T0700,97,115,0.7,12,7,49,,128,细颗粒物(PM2.5)
南通市,紫琅学院,120.81,32.0417,2025-01-29T0700,229,257,0.7,18,10,33,,279,细颗粒物(PM2.5)
南通市,通州监测站,121.067,32.062,2025-01-29T0700,210,239,0.7,18,14,50,,260,细颗粒物(PM2.5)
南通市,环境教育馆,120.9348,31.9883,2025-01-29T0700,76,83,0.5,6,11,73,,102,细颗粒物(PM2.5)
南阳市,瓦房庄,112.5224,33.0122,2025-01-29T0700,157,186,0.8,16,19,35,,207,细颗粒物(PM2.5)
南阳市,汉画馆,112.5003,32.9735,2025-01-29T0700,323,359,1.0,20,14,10,,373,细颗粒物(PM2.5)
南阳市,气象站,112.5573,33.027,2025-01-29T0700,129,187,0.7,8,16,49,,170,细颗粒物(PM2.5)
南阳市,理工学院,112.5481,32.9689,2025-01-29T0700,307,341,0.8,18,42,26,,357,细颗粒物(PM2.5)
南阳市,卧龙区政府,112.5234,32.9922,2025-01-29T0700,189,231,0.8,16,16,28,,239,细颗粒物(PM2.5)
宁波市,区环保大楼,121.8358,29.911,2025-01-29T0700,69,88,0.7,6,8,59,,93,细颗粒物(PM2.5)
宁波市,万里学院,121.56,29.82,2025-01-29T0700,64,90,0.5,8,4,45,,87,细颗粒物(PM2.5)
宁波市,龙赛医院,121.713,29.9572,2025-01-29T0700,79,128,0.4,7,10,54,,105,细颗粒物(PM2.5)
宁波市,钱湖水厂,121.633,29.7733,2025-01-29T0700,56,76,0.3,2,4,61,,77,细颗粒物(PM2.5)
宁波市,太古小学,121.5856,29.8635,2025-01-29T0700,75,107,0.6,18,7,36,,100,细颗粒物(PM2.5)
宁波市,市环境监测中心,121.524,29.8674,2025-01-29T0700,77,115,0.6,14,6,39,,103,细颗粒物(PM2.5)
宁波市,万里国际学校,121.6147,29.9017,2025-01-29T0700,105,,0.4,15,8,44,,138,细颗粒物(PM2.5)
宁波市,白沙活动中心,121.5594,29.8975,2025-01-29T0700,94,106,0.7,8,7,56,,124,细颗粒物(PM2.5)
宁德市,金涵水库,119.5001,26.6946,2025-01-29T0700,,,,,,,,,
宁德市,宁德市监测站,119.5388,26.6612,2025-01-29T0700,74,91,0.9,6,10,44,,99,细颗粒物(PM2.5)
宁德市,宁德一中,119.5231,26.6562,2025-01-29T0700,92,,1.0,5,12,40,,122,细颗粒物(PM2.5)
怒江傈僳族自治州,州监测站,98.8601,25.8567,2025-01-29T0700,71,89,0.8,7,6,13,,95,细颗粒物(PM2.5)
怒江傈僳族自治州,泸水一中,98.8546,25.8417,2025-01-29T0700,70,70,0.7,10,6,6,,94,细颗粒物(PM2.5)
攀枝花市,弄弄坪,101.6891,26.571,2025-01-29T0700,30,47,1.0,24,48,15,,47,
攀枝花市,河门口,101.5769,26.5928,2025-01-29T0700,23,35,1.1,17,34,25,,35,
攀枝花市,炳草岗,101.7169,26.585,2025-01-29T0700,36,,0.9,16,26,17,,52,细颗粒物(PM2.5)
攀枝花市,仁和,101.7369,26.5008,2025-01-29T0700,42,49,0.8,11,11,15,,59,细颗粒物(PM2.5)
攀枝花市,四十中小,101.7227,26.567,2025-01-29T0700,27,42,0.8,9,43,24,,42,
盘锦市,开发区,122.0303,41.1489,2025-01-29T0700,64,,0.7,15,8,54,,87,细颗粒物(PM2.5)
盘锦市,兴隆台,122.0485,41.0883,2025-01-29T0700,66,72,1.0,25,11,44,,89,细颗粒物(PM2.5)
盘锦市,新生街道,121.8297,41.1028,2025-01-29T0700,46,98,1.1,48,13,15,,74,颗粒物(PM10)
平顶山市,新华旅馆,113.3257,33.742,2025-01-29T0700,174,229,0.5,71,14,8,,224,细颗粒物(PM2.5)
平顶山市,规划设计院,113.2919,33.737,2025-01-29T0700,196,298,1.2,15,18,34,,246,细颗粒物(PM2.5)
平顶山市,平顶山工学院,113.182,33.774,2025-01-29T0700,124,191,1.0,14,16,49,,163,细颗粒物(PM2.5)
平顶山市,规划局,113.3025,33.73,2025-01-29T0700,196,227,1.0,16,15,28,,246,细颗粒物(PM2.5)
平顶山市,石龙区,112.8867,33.9116,2025-01-29T0700,44,80,0.8,8,,63,,,
平凉市,聚贤嘉苑,106.6692,35.5461,2025-01-29T0700,26,49,0.7,19,25,68,,49,
平凉市,博物馆,106.7021,35.5307,2025-01-29T0700,33,67,1.7,23,15,48,,59,颗粒物(PM10)
萍乡市,武功山,114.0997,27.5002,2025-01-29T0700,40,42,0.6,5,6,26,,57,细颗粒物(PM2.5)
萍乡市,中医院,113.8385,27.6434,2025-01-29T0700,73,123,0.7,6,13,67,,98,细颗粒物(PM2.5)
萍乡市,市政府车库,113.8493,27.6253,2025-01-29T0700,93,114,1.6,15,17,55,,123,细颗粒物(PM2.5)
萍乡市,市环保局,113.8676,27.6435,2025-01-29T0700,96,129,0.8,12,16,58,,127,细颗粒物(PM2.5)
萍乡市,安源区政府,113.866,27.6198,2025-01-29T0700,87,124,0.7,7,18,59,,115,细颗粒物(PM2.5)
莆田市,荔城区仓后路,119.0141,25.4325,2025-01-29T0700,108,,0.5,7,4,52,,142,细颗粒物(PM2.5)
莆田市,莆田市监测站,119.0015,25.4553,2025-01-29T0700,42,49,0.4,2,3,58,,59,细颗粒物(PM2.5)
莆田市,涵江区六中,119.1119,25.4561,2025-01-29T0700,34,42,0.5,6,3,76,,49,
莆田市,秀屿区政府,119.1013,25.3215,2025-01-29T0700,57,,0.5,5,6,69,,78,细颗粒物(PM2.5)
莆田市,东圳水库,118.981,25.4792,2025-01-29T0700,,,,,,,,,
濮阳市,环保局,115.0312,35.7636,2025-01-29T0700,169,221,0.9,20,25,33,,219,细颗粒物(PM2.5)
濮阳市,油田运输公司,115.0574,35.7609,2025-01-29T0700,165,226,1.1,21,25,23,,215,细颗粒物(PM2.5)
濮阳市,濮水河管理处,115,35.7668,2025-01-29T0700,234,276,0.9,20,16,23,,284,细颗粒物(PM2.5)
濮阳市,任丘路479号,115.0924,35.7686,2025-01-29T0700,185,226,0.7,13,26,34,,235,细颗粒物(PM2.5)
普洱市,市环保局,100.98,22.7633,2025-01-29T0700,12,58,0.6,4,7,39,,54,颗粒物(PM10)
普洱市,普洱第二中学,100.9817,22.8322,2025-01-29T0700,19,51,0.6,6,6,31,,51,颗粒物(PM10)
七台河市,新一中,131.0518,45.8751,2025-01-29T0700,8,11,1.8,8,12,76,,24,
七台河市,中波台,131.0577,45.7879,2025-01-29T0700,12,17,0.2,7,7,62,,20,
七台河市,人民广场,131.0176,45.7761,2025-01-29T0700,16,30,0.1,16,9,65,,30,
七台河市,新建矿广场,130.8781,45.8222,2025-01-29T0700,18,,0.2,14,7,52,,26,
齐齐哈尔市,安居小区,123.9305,47.3636,2025-01-29T0700,28,,0.5,9,7,59,,40,
齐齐哈尔市,中心广场,123.9488,47.3386,2025-01-29T0700,17,21,0.3,6,4,58,,25,
齐齐哈尔市,农牧车辆厂,123.9483,47.3227,2025-01-29T0700,16,19,0.2,6,6,62,,23,
齐齐哈尔市,市环境监测站,123.945,47.2988,2025-01-29T0700,17,23,0.2,8,4,61,,25,
齐齐哈尔市,富区青少年活动中心,123.6333,47.2075,2025-01-29T0700,11,17,0.4,6,6,61,,20,
黔东南苗族侗族自治州,市环境监测站,107.9783,26.5747,2025-01-29T0700,110,136,0.4,8,8,41,,144,细颗粒物(PM2.5)
黔东南苗族侗族自治州,凯里学院,107.8908,26.5311,2025-01-29T0700,69,90,0.7,1,6,35,,93,细颗粒物(PM2.5)
黔南布依族苗族自治州,小围寨,107.5228,26.2403,2025-01-29T0700,95,107,0.6,8,7,30,,125,细颗粒物(PM2.5)
黔南布依族苗族自治州,沙坝,107.5175,26.2978,2025-01-29T0700,110,122,0.7,6,6,22,,144,细颗粒物(PM2.5)
黔西南布依族苗族自治州,场坝街,104.9022,25.0925,2025-01-29T0700,76,82,0.3,8,12,43,,102,细颗粒物(PM2.5)
黔西南布依族苗族自治州,坪东大道,104.8811,25.0992,2025-01-29T0700,63,72,0.4,8,9,45,,85,细颗粒物(PM2.5)
钦州市,市环保站,108.6236,21.9667,2025-01-29T0700,107,146,0.8,15,15,52,,140,细颗粒物(PM2.5)
钦州市,沙埠小学,108.6549,21.9481,2025-01-29T0700,141,158,0.6,15,24,58,,188,细颗粒物(PM2.5)
钦州市,港区一小,108.5989,21.7431,2025-01-29T0700,131,178,0.8,14,21,56,,173,细颗粒物(PM2.5)
钦州市,北职校,108.5959,21.9633,2025-01-29T0700,195,235,0.8,13,18,44,,245,细颗粒物(PM2.5)
秦皇岛市,第一关,119.7493,40.0116,2025-01-29T0700,27,,0.3,20,11,64,,39,
秦皇岛市,监测站,119.5897,39.9499,2025-01-29T0700,42,,0.6,28,4,39,,59,细颗粒物(PM2.5)
秦皇岛市,建设大厦,119.5251,39.9041,2025-01-29T0700,41,56,0.7,11,4,50,,58,细颗粒物(PM2.5)
秦皇岛市,文明里,119.610547,39.943889,2025-01-29T0700,31,60,0.6,19,4,40,,55,颗粒物(PM10)
秦皇岛市,北戴河轮滑馆,119.5090,39.8253,2025-01-29T0700,62,90,0.7,11,6,36,,84,细颗粒物(PM2.5)
青岛市,仰口,120.6659,36.2403,2025-01-29T0700,12,,,2,2,88,,,
青岛市,市南区东部子站,120.4134,36.0658,2025-01-29T0700,75,102,1.1,31,20,38,,100,细颗粒物(PM2.5)
青岛市,四方区子站,120.3664,36.1032,2025-01-29T0700,107,129,0.9,28,12,34,,140,细颗粒物(PM2.5)
青岛市,市南区西部子站,120.2994,36.054,2025-01-29T0700,29,41,0.5,67,20,18,,42,
青岛市,崂山区子站,120.4581,36.0858,2025-01-29T0700,122,144,0.9,,22,43,,160,细颗粒物(PM2.5)
青岛市,黄岛区子站,120.1983,35.9608,2025-01-29T0700,37,,0.7,10,11,64,,53,细颗粒物(PM2.5)
青岛市,城阳区子站,120.3999,36.3083,2025-01-29T0700,73,117,0.9,13,20,44,,98,细颗粒物(PM2.5)
青岛市,黄岛区4号,120.0405,35.8735,2025-01-29T0700,48,58,0.7,10,20,67,,67,细颗粒物(PM2.5)
青岛市,即墨2号,120.5014,36.4034,2025-01-29T0700,129,135,1.2,26,31,40,,170,细颗粒物(PM2.5)
青岛市,市北区南部,120.3503,36.0736,2025-01-29T0700,53,90,0.8,23,12,49,,73,细颗粒物(PM2.5)
青岛市,李沧区北部,120.3948,36.1805,2025-01-29T0700,153,166,1.3,28,22,35,,203,细颗粒物(PM2.5)
清远市,环保大楼,113.0426,23.691,2025-01-29T0700,30,33,0.6,5,10,80,,43,
清远市,凤城街办,113.0208,23.7106,2025-01-29T0700,38,64,0.6,2,9,72,,57,颗粒物(PM10)
清远市,技师学院,113.0477,23.6344,2025-01-29T0700,44,76,0.7,8,15,73,,63,颗粒物(PM10)
清远市,清新太和,112.9903,23.7403,2025-01-29T0700,33,59,0.7,6,14,70,,55,颗粒物(PM10)
清远市,清城东城,113.076,23.7198,2025-01-29T0700,36,68,0.7,3,11,71,,59,颗粒物(PM10)
庆阳市,庆阳五中,107.6325,35.7357,2025-01-29T0700,124,,0.8,13,6,72,,163,细颗粒物(PM2.5)
庆阳市,市环保局,107.6364,35.7067,2025-01-29T0700,90,100,0.8,12,6,81,,119,细颗粒物(PM2.5)
曲靖市,环境监测站,103.7897,25.5035,2025-01-29T0700,72,109,0.7,12,4,25,,97,细颗粒物(PM2.5)
曲靖市,烟厂办公区,103.8,25.5364,2025-01-29T0700,72,106,0.5,14,4,24,,97,细颗粒物(PM2.5)
曲靖市,南苑二区,103.7947,25.462,2025-01-29T0700,73,129,0.6,13,3,30,,98,细颗粒物(PM2.5)
曲靖市,曲靖师范学院,103.7444,25.5261,2025-01-29T0700,87,100,0.5,11,6,29,,115,细颗粒物(PM2.5)
衢州市,环保大楼,118.8692,28.9398,2025-01-29T0700,166,212,0.8,13,5,32,,216,细颗粒物(PM2.5)
衢州市,实验学校,118.8709,28.9666,2025-01-29T0700,159,175,0.4,15,9,24,,209,细颗粒物(PM2.5)
衢州市,衢州学院,118.8621,28.9808,2025-01-29T0700,126,143,0.5,12,3,20,,166,细颗粒物(PM2.5)
泉州市,涂山街,118.5819,24.9117,2025-01-29T0700,92,116,0.5,6,8,69,,122,细颗粒物(PM2.5)
泉州市,津头埔,118.5972,24.8978,2025-01-29T0700,43,47,0.5,5,3,79,,60,细颗粒物(PM2.5)
泉州市,万安,118.6663,24.9424,2025-01-29T0700,54,57,0.5,4,4,77,,74,细颗粒物(PM2.5)
泉州市,清源山,118.6117,24.9604,2025-01-29T0700,,,,,,,,,
泉州市,城华南路,118.6333,24.9264,2025-01-29T0700,41,66,0.4,2,4,80,,58,"颗粒物(PM10),细颗粒物(PM2.5)"
日喀则市,日喀则监测站,88.8876,29.2718,2025-01-29T0700,20,30,0.8,12,32,32,,30,
日喀则市,林业技术推广中心,88.8781,29.2426,2025-01-29T0700,19,29,0.7,4,7,45,,29,
日照市,监测站,119.471,35.4209,2025-01-29T0700,99,122,1.5,35,11,6,,130,细颗粒物(PM2.5)
日照市,市政府广场,119.523,35.4216,2025-01-29T0700,132,146,1.2,30,10,15,,175,细颗粒物(PM2.5)
日照市,港务局,119.5587,35.4044,2025-01-29T0700,80,100,1.0,30,11,22,,107,细颗粒物(PM2.5)
日照市,职业技术学院,119.5328,35.4625,2025-01-29T0700,56,66,0.8,14,17,43,,77,细颗粒物(PM2.5)
日照市,岚山环保分局,119.3266,35.1044,2025-01-29T0700,58,100,1.0,12,46,65,,79,细颗粒物(PM2.5)
三门峡市,市政府,111.1922,34.7752,2025-01-29T0700,49,71,0.8,13,8,54,,68,细颗粒物(PM2.5)
三门峡市,开发区,111.1587,34.7942,2025-01-29T0700,51,89,0.5,9,3,42,,70,"颗粒物(PM10),细颗粒物(PM2.5)"
三门峡市,风景区,111.143,34.7955,2025-01-29T0700,45,79,0.7,13,10,49,,65,颗粒物(PM10)
三门峡市,三门峡市第一小学,111.1911,34.7829,2025-01-29T0700,49,64,0.8,10,7,45,,68,细颗粒物(PM2.5)
三门峡市,富达温泉假日酒店,111.1,34.7167,2025-01-29T0700,83,133,0.9,13,9,38,,110,细颗粒物(PM2.5)
三明市,三钢,117.6211,26.2625,2025-01-29T0700,100,,0.6,10,18,30,,132,细颗粒物(PM2.5)
三明市,三明二中,117.635,26.2714,2025-01-29T0700,120,,0.4,6,50,28,,158,细颗粒物(PM2.5)
三明市,三元区政府,117.6028,26.2378,2025-01-29T0700,56,63,0.8,8,16,22,,77,细颗粒物(PM2.5)
三明市,洋溪,117.7275,26.3108,2025-01-29T0700,,,,,,,,,
三亚市,河东子站,109.5078,18.2489,2025-01-29T0700,18,28,0.3,2,2,96,,30,
三亚市,河西子站,109.4964,18.2681,2025-01-29T0700,19,28,0.4,4,3,91,,29,
三亚市,君悦子站,109.7348,18.3443,2025-01-29T0700,32,55,0.5,6,4,88,,53,颗粒物(PM10)
山南市,山南监测站,91.7608,29.2313,2025-01-29T0700,3,14,0.3,5,5,60,,19,
山南市,山南人民医院,91.7706,29.2436,2025-01-29T0700,3,17,0.4,5,2,65,,21,
汕头市,金平子站,116.6794,23.3667,2025-01-29T0700,64,,0.8,10,7,71,,87,细颗粒物(PM2.5)
汕头市,龙湖子站,116.7244,23.3633,2025-01-29T0700,41,65,0.7,9,6,68,,58,"颗粒物(PM10),细颗粒物(PM2.5)"
汕头市,濠江子站,116.7258,23.2775,2025-01-29T0700,73,,0.7,4,6,76,,98,细颗粒物(PM2.5)
汕头市,澄海子站,116.7519,23.4714,2025-01-29T0700,51,53,0.6,11,9,66,,70,细颗粒物(PM2.5)
汕头市,潮阳子站,116.6092,23.2539,2025-01-29T0700,74,81,0.6,3,9,74,,99,细颗粒物(PM2.5)
汕头市,潮南峡山,116.454,23.2684,2025-01-29T0700,57,89,0.6,8,10,62,,78,细颗粒物(PM2.5)
汕头市,潮南子站,116.4069,23.2533,2025-01-29T0700,69,106,0.6,8,10,69,,93,细颗粒物(PM2.5)
汕尾市,市环保局,115.3653,22.775,2025-01-29T0700,129,136,0.6,8,17,52,,170,细颗粒物(PM2.5)
汕尾市,市政府,115.3706,22.7898,2025-01-29T0700,133,138,0.5,6,19,53,,176,细颗粒物(PM2.5)
汕尾市,新城中学,115.3622,22.7925,2025-01-29T0700,115,151,0.5,6,18,56,,150,细颗粒物(PM2.5)
商洛市,监测站,109.9154,33.8715,2025-01-29T0700,72,90,0.5,7,5,31,,97,细颗粒物(PM2.5)
商洛市,商州区中学,109.9643,33.8471,2025-01-29T0700,96,124,0.8,10,10,35,,127,细颗粒物(PM2.5)
商丘市,环境监测站,115.6702,34.4285,2025-01-29T0700,365,,0.6,22,39,40,,410,细颗粒物(PM2.5)
商丘市,粮食局,115.6458,34.4045,2025-01-29T0700,398,,0.8,23,34,45,,432,细颗粒物(PM2.5)
商丘市,睢阳区环保局,115.6293,34.3948,2025-01-29T0700,524,,0.7,29,56,38,,500,细颗粒物(PM2.5)
商丘市,梁园区档案局,115.6071,34.4465,2025-01-29T0700,511,,0.9,19,56,41,,500,细颗粒物(PM2.5)
上海市,普陀,121.4,31.238,2025-01-29T0700,101,148,0.8,30,16,39,,133,细颗粒物(PM2.5)
上海市,十五厂,121.478,31.2036,2025-01-29T0700,78,118,1.2,24,17,55,,104,细颗粒物(PM2.5)
上海市,虹口,121.467,31.3008,2025-01-29T0700,95,152,1.4,44,14,34,,125,细颗粒物(PM2.5)
上海市,静安监测站,121.425,31.2261,2025-01-29T0700,104,141,0.8,27,18,47,,137,细颗粒物(PM2.5)
上海市,浦东川沙,121.703,31.1907,2025-01-29T0700,98,136,0.9,46,8,13,,129,细颗粒物(PM2.5)
上海市,浦东新区监测站,121.533,31.2284,2025-01-29T0700,72,109,1.3,25,18,59,,97,细颗粒物(PM2.5)
上海市,浦东张江,121.577,31.2071,2025-01-29T0700,57,99,1.1,31,13,51,,78,细颗粒物(PM2.5)
上海市,宝山庙行,121.4316,31.3322,2025-01-29T0700,99,164,1.1,28,16,57,,130,细颗粒物(PM2.5)
上海市,崇明上实东滩,121.8791,31.4662,2025-01-29T0700,106,119,0.6,9,8,66,,139,细颗粒物(PM2.5)
上海市,嘉定南翔,121.3162,31.2838,2025-01-29T0700,107,156,0.5,57,9,5,,140,细颗粒物(PM2.5)
上海市,金山新城,121.3359,30.7456,2025-01-29T0700,80,113,0.6,12,8,60,,107,细颗粒物(PM2.5)
上海市,闵行浦江,121.4996,31.0739,2025-01-29T0700,103,164,0.7,26,11,38,,135,细颗粒物(PM2.5)
上海市,青浦徐泾,121.2886,31.1663,2025-01-29T0700,92,140,0.9,37,9,31,,122,细颗粒物(PM2.5)
上海市,松江图书馆,121.2186,31.0378,2025-01-29T0700,99,140,0.8,32,8,28,,130,细颗粒物(PM2.5)
上海市,长宁仙霞,121.3902,31.2059,2025-01-29T0700,99,144,1.3,43,8,24,,130,细颗粒物(PM2.5)
上海市,浦东惠南,121.7965,31.0507,2025-01-29T0700,162,242,1.0,42,8,10,,212,细颗粒物(PM2.5)
上海市,奉贤南桥新城,121.4891,30.925,2025-01-29T0700,86,157,0.7,24,10,36,,114,细颗粒物(PM2.5)
上海市,冠生园路458号,121.4174,31.16637,2025-01-29T0700,98,151,1.1,29,5,31,,129,细颗粒物(PM2.5)
上海市,宁武路151号,121.5419,31.2683,2025-01-29T0700,73,121,1.2,22,13,54,,98,细颗粒物(PM2.5)
上饶市,百草园,118.005,28.4572,2025-01-29T0700,264,306,0.8,7,21,21,,314,细颗粒物(PM2.5)
上饶市,市监测站,117.9756,28.4436,2025-01-29T0700,202,298,0.6,12,25,25,,252,细颗粒物(PM2.5)
上饶市,凤凰光学,117.9519,28.4628,2025-01-29T0700,320,411,0.9,11,43,20,,370,细颗粒物(PM2.5)
上饶市,双创科技城,117.897,28.4315,2025-01-29T0700,246,302,0.8,12,25,24,,296,细颗粒物(PM2.5)
上饶市,裕丰大道,118.1904,28.4448,2025-01-29T0700,195,215,0.5,10,21,30,,245,细颗粒物(PM2.5)
韶关市,市八中,113.5824,24.7733,2025-01-29T0700,186,238,0.5,10,8,40,,236,细颗粒物(PM2.5)
韶关市,园林处,113.5917,24.7972,2025-01-29T0700,132,,0.3,16,16,43,,175,细颗粒物(PM2.5)
韶关市,韶关学院,113.6735,24.7791,2025-01-29T0700,112,134,0.4,9,7,31,,147,细颗粒物(PM2.5)
韶关市,曲江监测站,113.5971,24.6863,2025-01-29T0700,141,177,0.6,16,10,29,,188,细颗粒物(PM2.5)
韶关市,碧湖山庄,113.5556,24.8082,2025-01-29T0700,112,147,0.5,8,13,48,,147,细颗粒物(PM2.5)
邵阳市,市水土所,111.5239,27.3033,2025-01-29T0700,,,,,,,,,
邵阳市,市化工厂,111.5283,27.2442,2025-01-29T0700,403,460,0.5,22,12,8,,436,细颗粒物(PM2.5)
邵阳市,市环保局,111.4328,27.2272,2025-01-29T0700,273,305,1.0,14,18,36,,323,细颗粒物(PM2.5)
邵阳市,邵阳卫生学校,111.4399,27.2495,2025-01-29T0700,331,334,1.0,16,21,19,,381,细颗粒物(PM2.5)
邵阳市,邵阳市第二中学图书馆,111.4684,27.2316,2025-01-29T0700,318,343,0.8,20,14,20,,368,细颗粒物(PM2.5)
绍兴市,城东开发委,120.6053,29.9928,2025-01-29T0700,115,140,0.6,6,5,42,,150,细颗粒物(PM2.5)
绍兴市,树下王站,120.5483,30.0003,2025-01-29T0700,89,100,0.6,14,5,43,,118,细颗粒物(PM2.5)
绍兴市,绍兴中专,120.5683,29.9361,2025-01-29T0700,70,85,0.4,11,2,53,,94,细颗粒物(PM2.5)
绍兴市,柯桥区政府,120.4906,30.0861,2025-01-29T0700,123,167,0.5,14,6,43,,162,细颗粒物(PM2.5)
绍兴市,重华小学,120.8752,30.0249,2025-01-29T0700,116,,0.4,4,11,52,,152,细颗粒物(PM2.5)
绍兴市,上虞中学,120.8369,30.0137,2025-01-29T0700,130,,0.5,7,6,37,,172,细颗粒物(PM2.5)
绍兴市,柯桥妇保,120.4722,30.0415,2025-01-29T0700,106,131,0.5,16,5,41,,139,细颗粒物(PM2.5)
绍兴市,袍江中学,120.6153,30.0764,2025-01-29T0700,115,,0.9,12,4,44,,150,细颗粒物(PM2.5)
深圳市,通心岭子站,114.1063,22.5545,2025-01-29T0700,57,79,0.5,5,12,67,,78,细颗粒物(PM2.5)
深圳市,洪湖,114.117,22.5625,2025-01-29T0700,63,93,0.4,4,10,65,,85,细颗粒物(PM2.5)
深圳市,华侨城,113.987,22.5417,2025-01-29T0700,48,72,0.5,3,8,71,,67,细颗粒物(PM2.5)
深圳市,南海子站,113.9181,22.5171,2025-01-29T0700,42,79,0.4,8,9,75,,65,颗粒物(PM10)
深圳市,盐田,114.2458,22.5689,2025-01-29T0700,41,85,0.6,9,10,71,,68,颗粒物(PM10)
深圳市,龙岗,114.2283,22.7244,2025-01-29T0700,70,95,0.5,1,12,69,,94,细颗粒物(PM2.5)
深圳市,南澳,114.494,22.5422,2025-01-29T0700,48,69,0.6,5,12,80,,67,细颗粒物(PM2.5)
深圳市,葵涌,114.41,22.6342,2025-01-29T0700,85,103,0.5,7,10,52,,113,细颗粒物(PM2.5)
深圳市,梅沙,114.297,22.5978,2025-01-29T0700,52,85,0.6,8,12,67,,72,细颗粒物(PM2.5)
深圳市,观澜,114.0678,22.738,2025-01-29T0700,57,93,0.4,2,10,68,,78,细颗粒物(PM2.5)
深圳市,莲花,114.0731,22.559,2025-01-29T0700,54,85,0.7,3,7,69,,74,细颗粒物(PM2.5)
深圳市,民治,114.0261,22.6198,2025-01-29T0700,57,84,0.3,7,9,68,,78,细颗粒物(PM2.5)
深圳市,横岗,114.1871,22.6451,2025-01-29T0700,77,106,0.4,2,10,65,,103,细颗粒物(PM2.5)
深圳市,坪山,114.3551,22.7151,2025-01-29T0700,86,122,0.4,7,14,63,,114,细颗粒物(PM2.5)
深圳市,西乡,113.8953,22.5861,2025-01-29T0700,48,94,0.4,5,12,77,,72,颗粒物(PM10)
沈阳市,森林路,123.6836,41.9339,2025-01-29T0700,,,,,,,,,
沈阳市,浑南东路,123.505,41.7406,2025-01-29T0700,54,78,0.6,27,32,44,,74,细颗粒物(PM2.5)
沈阳市,新秀街,123.4231,41.6989,2025-01-29T0700,53,79,0.5,21,20,48,,73,细颗粒物(PM2.5)
沈阳市,东陵路,123.5903,41.8411,2025-01-29T0700,41,59,0.5,15,10,58,,58,细颗粒物(PM2.5)
沈阳市,陵东街,123.4264,41.8467,2025-01-29T0700,38,70,0.6,14,14,54,,60,颗粒物(PM10)
沈阳市,文化路,123.4114,41.7653,2025-01-29T0700,28,62,0.8,23,18,52,,56,颗粒物(PM10)
沈阳市,小河沿,123.4678,41.7867,2025-01-29T0700,26,45,0.6,20,20,51,,45,
沈阳市,太原街,123.4017,41.7972,2025-01-29T0700,49,51,0.6,26,16,48,,68,细颗粒物(PM2.5)
沈阳市,京沈街,123.3783,41.9228,2025-01-29T0700,46,74,0.4,9,17,55,,64,细颗粒物(PM2.5)
沈阳市,沈辽西路,123.2444,41.7347,2025-01-29T0700,45,70,0.8,11,33,54,,63,细颗粒物(PM2.5)
沈阳市,裕农路,123.5953,41.9086,2025-01-29T0700,50,53,0.7,20,11,50,,69,细颗粒物(PM2.5)
十堰市,武当山,111.0419,32.395,2025-01-29T0700,29,49,0.5,5,9,82,,49,
十堰市,滨河新村,110.78,32.6494,2025-01-29T0700,117,142,0.9,8,7,25,,153,细颗粒物(PM2.5)
十堰市,刘家沟,110.7258,32.6389,2025-01-29T0700,80,101,1.1,15,11,15,,107,细颗粒物(PM2.5)
十堰市,铁二处,110.8839,32.5714,2025-01-29T0700,58,,0.7,9,6,14,,79,细颗粒物(PM2.5)
十堰市,郧阳区金沙路,110.8054,32.8401,2025-01-29T0700,96,107,0.6,3,4,40,,127,细颗粒物(PM2.5)
石河子市,艾青诗歌馆,86.0497,44.2967,2025-01-29T0700,210,231,0.9,57,25,19,,260,细颗粒物(PM2.5)
石河子市,南区管委会,86.047,44.2331,2025-01-29T0700,43,78,0.9,19,10,75,,64,颗粒物(PM10)
石河子市,世纪广场,86.0791,44.3017,2025-01-29T0700,108,361,0.9,39,15,38,,216,颗粒物(PM10)
石家庄市,职工医院,114.4422,38.0444,2025-01-29T0700,148,179,0.8,20,17,30,,198,细颗粒物(PM2.5)
石家庄市,高新区,114.6063,38.0266,2025-01-29T0700,205,267,0.8,28,22,30,,255,细颗粒物(PM2.5)
石家庄市,西北水源,114.4898,38.1328,2025-01-29T0700,278,317,1.1,28,14,14,,328,细颗粒物(PM2.5)
石家庄市,西南高教,114.4586,38.0058,2025-01-29T0700,136,165,0.6,17,13,40,,180,细颗粒物(PM2.5)
石家庄市,世纪公园,114.5331,38.0178,2025-01-29T0700,156,204,0.7,22,18,32,,206,细颗粒物(PM2.5)
石家庄市,人民会堂,114.509,38.0457,2025-01-29T0700,198,254,0.8,23,21,27,,248,细颗粒物(PM2.5)
石家庄市,封龙山,114.3524,37.8911,2025-01-29T0700,26,61,0.4,2,21,81,,56,颗粒物(PM10)
石家庄市,22中南校区,114.5481,38.0378,2025-01-29T0700,200,226,0.9,22,25,30,,250,细颗粒物(PM2.5)
石家庄市,鹿泉一中,114.289,38.0906,2025-01-29T0700,66,96,0.7,22,11,35,,89,细颗粒物(PM2.5)
石家庄市,藁城区实验学校,114.8506765,38.0322033,2025-01-29T0700,198,250,1.1,26,28,34,,248,细颗粒物(PM2.5)
石家庄市,井陉矿区区委大楼,114.0504658,38.0591645,2025-01-29T0700,56,105,0.7,52,18,13,,78,颗粒物(PM10)
石家庄市,栾城区星河路,114.6549,37.9020,2025-01-29T0700,332,385,1.3,35,33,15,,382,细颗粒物(PM2.5)
石嘴山市,沙湖旅游区,106.3394,38.817,2025-01-29T0700,,,,,,,,,
石嘴山市,大武口朝阳西街,106.3668,39.0145,2025-01-29T0700,308,,1.6,24,19,39,,358,细颗粒物(PM2.5)
石嘴山市,惠农南大街,106.7704,39.2282,2025-01-29T0700,51,68,0.7,15,25,47,,70,细颗粒物(PM2.5)
石嘴山市,红果子镇惠新街,106.7099,39.1325,2025-01-29T0700,22,49,0.5,10,5,47,,49,
石嘴山市,妇女儿童医院,106.3495,38.9836,2025-01-29T0700,161,188,1.3,33,6,38,,211,细颗粒物(PM2.5)
石嘴山市,石大公路,106.7492,39.2069,2025-01-29T0700,20,56,0.7,34,12,26,,53,颗粒物(PM10)
双鸭山市,双合村,131.1511,46.6937,2025-01-29T0700,19,19,0.3,6,10,56,,28,
双鸭山市,南小市,131.1652,46.6191,2025-01-29T0700,19,,0.4,26,10,49,,28,
双鸭山市,环保局,131.1524,46.6554,2025-01-29T0700,20,36,0.5,17,10,53,,36,
双鸭山市,苗圃,131.12,46.5656,2025-01-29T0700,27,,0.3,13,5,50,,39,
朔州市,平朔,112.4397,39.3522,2025-01-29T0700,84,190,1.4,32,50,16,,120,颗粒物(PM10)
朔州市,朔唯,112.4575,39.3617,2025-01-29T0700,67,151,1.4,34,59,20,,101,颗粒物(PM10)
朔州市,区政府,112.4258,39.3197,2025-01-29T0700,104,215,1.8,29,70,25,,137,细颗粒物(PM2.5)
朔州市,市环保局,112.4072,39.3278,2025-01-29T0700,100,187,1.8,22,73,30,,132,细颗粒物(PM2.5)
朔州市,市二中,112.4272,39.3681,2025-01-29T0700,67,180,1.2,34,49,17,,115,颗粒物(PM10)
朔州市,一水厂,112.2931,39.53,2025-01-29T0700,59,94,2.1,36,73,27,,80,细颗粒物(PM2.5)
四平市,一商场,124.4002,43.1713,2025-01-29T0700,27,36,0.2,9,4,65,,39,
四平市,境园,124.388,43.193,2025-01-29T0700,22,42,0.3,9,4,64,,42,
四平市,植物园,124.4036,43.1411,2025-01-29T0700,24,36,0.3,12,4,58,,36,
四平市,世纪城,124.3419,43.1666,2025-01-29T0700,37,42,0.4,4,4,69,,53,细颗粒物(PM2.5)
松原市,江南,124.8006,45.1214,2025-01-29T0700,45,51,0.8,9,6,60,,63,细颗粒物(PM2.5)
松原市,江北,124.7965,45.1722,2025-01-29T0700,42,53,0.5,7,3,61,,59,细颗粒物(PM2.5)
苏州市,上方山,120.561,31.2472,2025-01-29T0700,,,,,,,,,
苏州市,彩香,120.591,31.3019,2025-01-29T0700,100,115,0.7,27,9,37,,132,细颗粒物(PM2.5)
苏州市,轧钢厂,120.596,31.3264,2025-01-29T0700,132,153,1.2,30,7,21,,175,细颗粒物(PM2.5)
苏州市,吴中区,120.613,31.2703,2025-01-29T0700,77,96,1.0,23,9,52,,103,细颗粒物(PM2.5)
苏州市,苏州新区,120.543,31.2994,2025-01-29T0700,89,109,0.8,18,10,60,,118,细颗粒物(PM2.5)
苏州市,苏州工业园区,120.669,31.3097,2025-01-29T0700,155,173,1.0,21,9,44,,205,细颗粒物(PM2.5)
苏州市,相城区,120.641,31.3708,2025-01-29T0700,85,112,0.8,17,10,60,,113,细颗粒物(PM2.5)
苏州市,方洲路,120.743,31.3188,2025-01-29T0700,85,102,0.8,16,6,51,,113,细颗粒物(PM2.5)
苏州市,木渎中学,120.5031,31.2774,2025-01-29T0700,88,109,0.7,12,8,61,,117,细颗粒物(PM2.5)
苏州市,越秀幼儿园,120.624,31.1733,2025-01-29T0700,75,77,0.6,14,10,65,,100,细颗粒物(PM2.5)
苏州市,高铁新城,120.6505,31.416,2025-01-29T0700,96,117,0.8,20,11,56,,127,细颗粒物(PM2.5)
宿迁市,宿迁学院,118.293,33.9528,2025-01-29T0700,215,,0.5,12,9,47,,265,细颗粒物(PM2.5)
宿迁市,宿迁中学,118.2442,33.9592,2025-01-29T0700,206,229,0.5,21,13,51,,256,细颗粒物(PM2.5)
宿迁市,市供电局,118.283,33.965,2025-01-29T0700,175,206,0.7,17,8,51,,225,细颗粒物(PM2.5)
宿迁市,宿豫区政府,118.3225,33.9447,2025-01-29T0700,183,,0.6,12,12,46,,233,细颗粒物(PM2.5)
宿州市,远航博物馆,116.9509,33.666,2025-01-29T0700,109,138,0.5,14,13,72,,143,细颗粒物(PM2.5)
宿州市,社会福利中心,116.9708,33.591,2025-01-29T0700,207,259,0.6,22,27,45,,257,细颗粒物(PM2.5)
宿州市,宿州学院,116.9884,33.6305,2025-01-29T0700,171,191,0.4,16,17,61,,221,细颗粒物(PM2.5)
宿州市,皖北煤电集团,116.9648,33.6252,2025-01-29T0700,146,174,0.5,15,16,63,,195,细颗粒物(PM2.5)
绥化市,人和东街,126.9785,46.6365,2025-01-29T0700,36,46,0.4,14,9,58,,52,细颗粒物(PM2.5)
绥化市,党政办公中心,126.964,46.6528,2025-01-29T0700,31,39,0.4,14,10,59,,45,
随州市,市委党校,113.3583,31.7275,2025-01-29T0700,232,288,0.9,22,9,18,,282,细颗粒物(PM2.5)
随州市,市林业局,113.3833,31.6908,2025-01-29T0700,292,328,1.1,23,20,28,,342,细颗粒物(PM2.5)
随州市,市立交桥水厂,113.3983,31.7308,2025-01-29T0700,216,275,1.2,15,20,35,,266,细颗粒物(PM2.5)
遂宁市,石溪浩,105.5453,30.5678,2025-01-29T0700,276,378,0.9,14,4,5,,326,细颗粒物(PM2.5)
遂宁市,市监测站,105.5582,30.5232,2025-01-29T0700,301,431,0.7,16,7,6,,351,细颗粒物(PM2.5)
遂宁市,行政中心,105.5861,30.5366,2025-01-29T0700,263,348,0.6,19,10,6,,313,细颗粒物(PM2.5)
遂宁市,美宁食品公司,105.5918,30.4728,2025-01-29T0700,240,324,0.8,18,7,7,,290,细颗粒物(PM2.5)
塔城地区,东门外小游园,82.9994,46.7432,2025-01-29T0700,25,25,0.0,99,4,38,,50,
台州市,黄岩环保大楼,121.273,28.6459,2025-01-29T0700,46,64,0.5,6,4,57,,64,细颗粒物(PM2.5)
台州市,台州环保大楼,121.419,28.6542,2025-01-29T0700,93,119,0.3,6,5,50,,123,细颗粒物(PM2.5)
台州市,路桥田洋王,121.377,28.5773,2025-01-29T0700,117,139,0.4,4,5,46,,153,细颗粒物(PM2.5)
台州市,台州科技职业学院,121.2568,28.6681,2025-01-29T0700,58,89,0.9,5,5,51,,79,细颗粒物(PM2.5)
太原市,尖草坪,112.522,37.8873,2025-01-29T0700,329,357,1.1,36,32,26,,379,细颗粒物(PM2.5)
太原市,上兰,112.434,38.0108,2025-01-29T0700,50,81,0.5,9,9,60,,69,细颗粒物(PM2.5)
太原市,晋源,112.469,37.7124,2025-01-29T0700,562,719,1.9,67,88,9,,500,"颗粒物(PM10),细颗粒物(PM2.5)"
太原市,小店,112.5583,37.7394,2025-01-29T0700,214,338,2.1,53,76,16,,264,细颗粒物(PM2.5)
太原市,桃园,112.5369,37.8692,2025-01-29T0700,310,414,0.8,38,28,30,,360,细颗粒物(PM2.5)
太原市,坞城,112.57,37.8195,2025-01-29T0700,268,323,1.4,44,67,20,,318,细颗粒物(PM2.5)
太原市,南寨,112.549,37.9854,2025-01-29T0700,119,135,0.8,27,7,20,,156,细颗粒物(PM2.5)
太原市,金胜,112.4719,37.7831,2025-01-29T0700,443,541,1.6,60,60,18,,462,细颗粒物(PM2.5)
太原市,育英中学,112.5608,37.8807,2025-01-29T0700,318,341,0.9,33,25,29,,368,细颗粒物(PM2.5)
泰安市,监测站,117.1437,36.1937,2025-01-29T0700,142,173,1.3,25,14,19,,189,细颗粒物(PM2.5)
泰安市,人口学校,117.0885,36.2017,2025-01-29T0700,93,163,0.8,30,26,27,,123,细颗粒物(PM2.5)
泰安市,电力学校,117.1089,36.1758,2025-01-29T0700,273,,1.8,41,23,15,,323,细颗粒物(PM2.5)
泰安市,国网新校,117.1812,36.2275,2025-01-29T0700,61,76,0.8,11,7,49,,83,细颗粒物(PM2.5)
泰安市,交通技校,117.0313,36.2018,2025-01-29T0700,219,239,1.2,42,22,17,,269,细颗粒物(PM2.5)
泰安市,山东第一医科大学,117.0829,36.13,2025-01-29T0700,275,,1.7,37,25,20,,325,细颗粒物(PM2.5)
泰州市,公园路,119.905,32.4878,2025-01-29T0700,280,295,1.5,18,13,33,,330,细颗粒物(PM2.5)
泰州市,莲花,119.9189,32.4625,2025-01-29T0700,307,349,1.4,30,14,24,,357,细颗粒物(PM2.5)
泰州市,留学生创业园,119.888,32.4639,2025-01-29T0700,363,413,0.8,21,17,34,,409,细颗粒物(PM2.5)
泰州市,王营,119.8767,32.3289,2025-01-29T0700,239,246,0.6,27,11,34,,289,细颗粒物(PM2.5)
泰州市,姜堰区政府广场,120.1259,32.5099,2025-01-29T0700,268,286,0.8,16,22,50,,318,细颗粒物(PM2.5)
泰州市,周山河街区,119.9192,32.4322,2025-01-29T0700,322,397,1.3,24,9,30,,372,细颗粒物(PM2.5)
唐山市,物资局,118.1725,39.6334,2025-01-29T0700,127,177,1.0,35,23,22,,168,细颗粒物(PM2.5)
唐山市,十二中,118.1705,39.6506,2025-01-29T0700,113,157,1.1,56,20,17,,148,细颗粒物(PM2.5)
唐山市,小山,118.1869,39.622,2025-01-29T0700,142,164,1.0,32,19,27,,189,细颗粒物(PM2.5)
唐山市,冀东油田职工医院,118.4359,39.2762,2025-01-29T0700,116,129,0.6,12,19,46,,152,细颗粒物(PM2.5)
唐山市,正泰大街热力站,118.09279,39.58089,2025-01-29T0700,160,203,0.6,28,19,22,,210,细颗粒物(PM2.5)
唐山市,丰润区政府,118.1562,39.8322,2025-01-29T0700,70,77,1.2,16,7,32,,94,细颗粒物(PM2.5)
唐山市,金山小学,118.43673,39.73809,2025-01-29T0700,69,99,0.9,19,16,41,,93,细颗粒物(PM2.5)
唐山市,政府服务中心,118.24498,39.66941,2025-01-29T0700,108,121,1.3,44,22,17,,142,细颗粒物(PM2.5)
唐山市,消防缸窑路中队,118.2059,39.6585,2025-01-29T0700,116,152,1.6,42,14,13,,152,细颗粒物(PM2.5)
唐山市,路南电大,118.1436,39.6202,2025-01-29T0700,146,193,0.9,33,25,29,,195,细颗粒物(PM2.5)
唐山市,友谊北路34号,118.1309,39.6360,2025-01-29T0700,138,156,1.2,34,19,27,,183,细颗粒物(PM2.5)
天津市,勤俭道,117.1444,39.1661,2025-01-29T0700,424,477,0.8,44,30,14,,450,细颗粒物(PM2.5)
天津市,前进道,117.202,39.0927,2025-01-29T0700,287,323,0.7,27,39,32,,337,细颗粒物(PM2.5)
天津市,淮河道,117.1837,39.2133,2025-01-29T0700,550,663,0.8,36,49,22,,500,"颗粒物(PM10),细颗粒物(PM2.5)"
天津市,跃进路,117.307,39.0877,2025-01-29T0700,270,334,0.6,26,31,34,,320,细颗粒物(PM2.5)
天津市,第四大街,117.707,39.0343,2025-01-29T0700,274,332,1.3,48,20,12,,324,细颗粒物(PM2.5)
天津市,永明路,117.457,38.8394,2025-01-29T0700,138,158,1.0,19,20,39,,183,细颗粒物(PM2.5)
天津市,汉北路,117.764,39.1587,2025-01-29T0700,236,269,0.7,13,9,31,,286,细颗粒物(PM2.5)
天津市,团泊洼,117.157,38.9194,2025-01-29T0700,,,,,,,,,
天津市,河西一经路,117.7918,39.2474,2025-01-29T0700,280,373,0.6,26,11,30,,330,细颗粒物(PM2.5)
天津市,津沽路,117.3747,38.9846,2025-01-29T0700,202,259,0.7,26,30,40,,252,细颗粒物(PM2.5)
天津市,宾水西道,117.1589,39.0845,2025-01-29T0700,322,,0.6,21,14,24,,372,细颗粒物(PM2.5)
天津市,大理道,117.1941,39.1067,2025-01-29T0700,303,304,0.9,26,37,51,,353,细颗粒物(PM2.5)
天津市,中山北路,117.2101,39.1699,2025-01-29T0700,466,556,0.5,52,22,10,,478,细颗粒物(PM2.5)
天津市,西四道,117.3876,39.1488,2025-01-29T0700,253,295,0.6,23,17,36,,303,细颗粒物(PM2.5)
天津市,雍阳西道,117.0365,39.3828,2025-01-29T0700,398,496,0.4,39,52,30,,432,细颗粒物(PM2.5)
天津市,辛老路,117.0296,39.0605,2025-01-29T0700,278,375,0.9,30,45,22,,328,细颗粒物(PM2.5)
天津市,地纬路,116.9638,38.9375,2025-01-29T0700,396,410,1.1,32,49,26,,431,细颗粒物(PM2.5)
天津市,北环路,117.4067,40.0583,2025-01-29T0700,125,149,0.5,7,12,53,,165,细颗粒物(PM2.5)
天津市,建设路,117.3045,39.7169,2025-01-29T0700,,,,,,,67,,
天津市,滨水东路,117.8199,39.3521,2025-01-29T0700,324,389,0.8,25,40,39,,374,细颗粒物(PM2.5)
天津市,光华路,117.2437,39.1029,2025-01-29T0700,257,318,0.9,23,37,29,,307,细颗粒物(PM2.5)
天水市,麦积山,106.0055,34.343,2025-01-29T0700,,,,,,,,,
天水市,公园小学,105.7205,34.5786,2025-01-29T0700,83,114,1.1,23,11,29,,110,细颗粒物(PM2.5)
天水市,麦积国土局,105.8945,34.5538,2025-01-29T0700,137,179,1.7,26,7,26,,182,细颗粒物(PM2.5)
铁岭市,汇工街西,123.8139,42.3022,2025-01-29T0700,94,133,1.0,16,14,46,,124,细颗粒物(PM2.5)
铁岭市,水上乐园,123.8649,42.2923,2025-01-29T0700,88,,0.7,13,7,49,,117,细颗粒物(PM2.5)
铁岭市,银州路东段,123.8486,42.2867,2025-01-29T0700,122,138,0.8,17,7,47,,160,细颗粒物(PM2.5)
铁岭市,金沙江路北,123.7153,42.2217,2025-01-29T0700,83,135,0.7,17,11,51,,110,细颗粒物(PM2.5)
通化市,光明,125.9358,41.7173,2025-01-29T0700,31,36,0.9,29,24,29,,45,
通化市,铁路,125.9446,41.7325,2025-01-29T0700,31,50,0.6,26,10,34,,50,
通辽市,艺术职业学校,122.2532,43.6801,2025-01-29T0700,16,37,0.3,18,7,39,,37,
通辽市,老干部活动中心,122.2584,43.6333,2025-01-29T0700,25,40,0.4,12,9,57,,40,
通辽市,东方明珠社区,122.2922,43.6189,2025-01-29T0700,30,44,0.3,10,12,60,,44,
铜川市,党校,109.0656,35.0994,2025-01-29T0700,,,,,,,,,
铜川市,王益区政府,109.0697,35.0697,2025-01-29T0700,67,78,0.6,28,3,30,,90,细颗粒物(PM2.5)
铜川市,新区管委会,108.9344,34.9058,2025-01-29T0700,52,65,0.5,10,10,58,,72,细颗粒物(PM2.5)
铜川市,旺旺集团,108.9543,34.8732,2025-01-29T0700,58,64,0.6,7,8,62,,79,细颗粒物(PM2.5)
铜陵市,市第四中学,117.8177,30.9412,2025-01-29T0700,67,120,0.6,16,10,39,,90,细颗粒物(PM2.5)
铜陵市,市公路局,117.8059,30.9273,2025-01-29T0700,64,81,0.8,25,11,37,,87,细颗粒物(PM2.5)
铜陵市,市新民污水厂,117.7807,30.9413,2025-01-29T0700,98,156,0.8,32,9,10,,129,细颗粒物(PM2.5)
铜陵市,市第九中学,117.7439,30.8792,2025-01-29T0700,89,133,0.9,22,6,47,,118,细颗粒物(PM2.5)
铜陵市,车站新区,117.846,30.9413,2025-01-29T0700,73,101,0.5,18,4,38,,98,细颗粒物(PM2.5)
铜陵市,市职教基地,117.8483,30.97,2025-01-29T0700,117,138,0.7,14,6,25,,153,细颗粒物(PM2.5)
铜仁市,铜仁卫校,109.1839,27.7344,2025-01-29T0700,135,172,0.8,11,2,8,,179,细颗粒物(PM2.5)
铜仁市,铜仁七中,109.1753,27.6944,2025-01-29T0700,148,,0.6,12,4,9,,198,细颗粒物(PM2.5)
吐鲁番市,市环保局,89.1904,42.9418,2025-01-29T0700,41,152,0.8,18,5,47,,101,颗粒物(PM10)
吐鲁番市,地区环保局,89.1673,42.9559,2025-01-29T0700,30,159,0.9,26,2,46,,105,颗粒物(PM10)
威海市,华夏技校,122.1214,37.4236,2025-01-29T0700,13,17,0.4,9,4,64,,20,
威海市,山大分校,122.0508,37.5236,2025-01-29T0700,17,34,0.5,12,6,71,,34,
威海市,市监测站,122.1067,37.5072,2025-01-29T0700,20,20,0.4,21,3,63,,29,
威海市,文登开发区,122.0693,37.2174,2025-01-29T0700,31,43,0.2,8,6,53,,45,
威海市,临港区管委会,122.1379,37.3414,2025-01-29T0700,23,29,0.4,10,5,45,,33,
潍坊市,环保局,119.1437,36.7023,2025-01-29T0700,86,105,0.9,23,18,40,,114,细颗粒物(PM2.5)
潍坊市,坊子邮政,119.1641,36.6523,2025-01-29T0700,90,105,1.0,15,20,41,,119,细颗粒物(PM2.5)
潍坊市,潍坊七中,119.0587,36.721,2025-01-29T0700,103,119,1.0,10,21,45,,135,细颗粒物(PM2.5)
潍坊市,高新实验学校,119.1977,36.6872,2025-01-29T0700,84,105,0.8,15,18,52,,112,细颗粒物(PM2.5)
潍坊市,潍坊学院,119.1755,36.7149,2025-01-29T0700,77,107,1.0,13,26,46,,103,细颗粒物(PM2.5)
潍坊市,寒亭区实验一小,119.2041,36.7699,2025-01-29T0700,95,124,1.2,19,24,51,,125,细颗粒物(PM2.5)
渭南市,农科所,109.5293,34.5101,2025-01-29T0700,,,,,,,,,
渭南市,体育馆,109.4636,34.493,2025-01-29T0700,117,153,0.8,31,4,34,,153,细颗粒物(PM2.5)
渭南市,高新一小,109.4259,34.5023,2025-01-29T0700,454,598,1.6,30,14,9,,498,颗粒物(PM10)
渭南市,渭花路4号,109.5051,34.4921,2025-01-29T0700,94,112,0.6,20,4,49,,124,细颗粒物(PM2.5)
温州市,瓯海,120.634,28.0089,2025-01-29T0700,121,145,0.4,16,9,31,,159,细颗粒物(PM2.5)
温州市,南浦,120.6748,27.9939,2025-01-29T0700,125,158,0.4,13,7,38,,165,细颗粒物(PM2.5)
温州市,龙湾,120.76,27.9747,2025-01-29T0700,80,94,0.4,17,6,37,,107,细颗粒物(PM2.5)
温州市,市站,120.6709,28.0167,2025-01-29T0700,76,96,0.5,4,9,45,,102,细颗粒物(PM2.5)
温州市,茶山,120.6985,27.9251,2025-01-29T0700,76,98,0.5,7,5,36,,102,细颗粒物(PM2.5)
文山壮族苗族自治州,州水务局,104.2533,23.3594,2025-01-29T0700,49,58,0.3,5,3,38,,68,细颗粒物(PM2.5)
文山壮族苗族自治州,市便民服务中心,104.2319,23.3892,2025-01-29T0700,42,56,0.5,5,3,35,,59,细颗粒物(PM2.5)
乌海市,市林业局,106.8174,39.6973,2025-01-29T0700,732,899,2.1,45,89,29,,500,"颗粒物(PM10),细颗粒物(PM2.5)"
乌海市,中海勃湾学校,106.7907,39.6667,2025-01-29T0700,588,739,2.6,28,28,36,,500,"颗粒物(PM10),细颗粒物(PM2.5)"
乌海市,海北新区,106.813,39.7274,2025-01-29T0700,86,133,2.3,28,35,43,,114,细颗粒物(PM2.5)
乌海市,聚英学校,106.8288,39.6778,2025-01-29T0700,96,137,1.5,34,118,41,,127,细颗粒物(PM2.5)
乌兰察布市,集宁新区,113.1306,40.9923,2025-01-29T0700,62,101,1.6,29,22,39,,84,细颗粒物(PM2.5)
乌兰察布市,光明街小学,113.1076,41.0385,2025-01-29T0700,878,1038,1.3,37,20,39,,500,"颗粒物(PM10),细颗粒物(PM2.5)"
乌兰察布市,北京八中,113.1376,40.9509,2025-01-29T0700,144,151,1.7,30,20,27,,192,细颗粒物(PM2.5)
乌兰察布市,市委党校,113.1775,40.9779,2025-01-29T0700,117,164,1.2,26,21,33,,153,细颗粒物(PM2.5)
乌鲁木齐市,监测站,87.5801,43.8303,2025-01-29T0700,562,819,1.7,89,4,5,,500,"颗粒物(PM10),细颗粒物(PM2.5)"
乌鲁木齐市,收费所,87.6046,43.768,2025-01-29T0700,24,100,0.4,17,12,65,,75,颗粒物(PM10)
乌鲁木齐市,新疆农科院农场,87.4754,43.9469,2025-01-29T0700,,,,,,,30,,
乌鲁木齐市,铁路局,87.5525,43.8711,2025-01-29T0700,360,425,1.7,87,4,4,,407,细颗粒物(PM2.5)
乌鲁木齐市,三十一中学,87.6432,43.831,2025-01-29T0700,286,339,1.5,110,6,6,,336,细颗粒物(PM2.5)
