area,positionname,longitude,latitude,timepoint,pm2_5,pm10,co,no2,so2,o3,o3_8h,aqi,primarypollutant
阿坝藏族羌族自治州,州农科所,102.1879,31.914,2025-03-26T1700,3,15,0.1,13,12,99,88,31,
阿坝藏族羌族自治州,马师校,102.2502,31.8896,2025-03-26T1700,6,9,0.2,4,4,111,96,35,
阿坝藏族羌族自治州,马尔康中学西区,102.2165,31.9024,2025-03-26T1700,6,8,0.2,7,5,114,100,36,
阿克苏地区,电视台,80.292,41.1694,2025-03-26T1700,1207,6965,0.3,6,4,85,88,500,"颗粒物(PM10),细颗粒物(PM2.5)"
阿克苏地区,艺术中心,80.2613,41.1551,2025-03-26T1700,1350,7913,0.5,5,4,84,86,500,"颗粒物(PM10),细颗粒物(PM2.5)"
阿拉善盟,西城区西花园,105.6467,38.8363,2025-03-26T1700,72,351,0.8,6,10,100,111,202,颗粒物(PM10)
阿拉善盟,蒙二幼,105.6985,38.8411,2025-03-26T1700,88,519,,5,5,89,98,419,颗粒物(PM10)
阿拉善盟,环保局新楼,105.724,38.8516,2025-03-26T1700,95,424,0.4,3,8,94,104,305,颗粒物(PM10)
阿勒泰地区,市站,88.1264,47.8517,2025-03-26T1700,3,9,0.4,1,2,79,66,25,
阿里地区,阿里监测站,80.1161,32.5,2025-03-26T1700,6,13,0.4,1,5,106,96,34,
阿里地区,阿里藏医院,80.0903,32.5028,2025-03-26T1700,6,32,0.4,1,6,105,101,33,
安康市,香溪洞,109.0318,32.6537,2025-03-26T1700,30,59,0.6,5,8,153,117,55,颗粒物(PM10)
安康市,汉滨区检察院,109.0072,32.6975,2025-03-26T1700,29,47,,,9,,118,,
安康市,市邮政管理局,109.0325,32.6913,2025-03-26T1700,24,46,0.5,15,8,160,125,50,
安庆市,环科院,117.0809,30.5177,2025-03-26T1700,52,76,0.7,20,10,164,150,72,细颗粒物(PM2.5)
安庆市,马山宾馆,117.0331,30.5119,2025-03-26T1700,47,70,0.6,11,6,168,144,65,细颗粒物(PM2.5)
安庆市,安庆大学,116.9896,30.6145,2025-03-26T1700,53,86,0.5,14,8,190,180,88,臭氧1小时
安庆市,市人大,117.0598,30.5351,2025-03-26T1700,45,64,0.7,8,11,182,161,78,臭氧1小时
安顺市,伍家关,105.9606,26.2611,2025-03-26T1700,17,28,0.2,9,4,173,146,67,臭氧1小时
安顺市,凤凰山,105.9408,26.2431,2025-03-26T1700,17,36,0.2,16,6,165,148,57,臭氧1小时
安顺市,金钟山,105.9439,26.2564,2025-03-26T1700,16,33,0.3,10,5,166,148,58,臭氧1小时
安顺市,娄家坡,105.8983,26.2481,2025-03-26T1700,18,27,0.3,9,4,165,147,57,臭氧1小时
安阳市,棉研所,114.4839,36.0621,2025-03-26T1700,,,,,,,,,
安阳市,红庙街,114.3551,36.1017,2025-03-26T1700,44,126,0.4,16,5,86,79,88,颗粒物(PM10)
安阳市,银杏小区,114.361,36.0681,2025-03-26T1700,46,122,0.5,17,5,98,86,86,颗粒物(PM10)
安阳市,信访局,114.3922,36.0878,2025-03-26T1700,44,110,0.4,18,4,94,85,80,颗粒物(PM10)
安阳市,左辅环卫站,114.4705,36.0637,2025-03-26T1700,42,130,0.3,11,7,115,103,90,颗粒物(PM10)
安阳市,安钢职工学校,114.2917,36.0949,2025-03-26T1700,46,127,0.5,20,6,90,82,89,颗粒物(PM10)
鞍山市,深沟寺,123.044,41.1196,2025-03-26T1700,44,66,0.7,12,11,92,73,62,细颗粒物(PM2.5)
鞍山市,太阳城,123.011,41.0931,2025-03-26T1700,49,73,0.8,19,8,90,71,68,细颗粒物(PM2.5)
鞍山市,太平,123.0485,41.1442,2025-03-26T1700,39,73,1.0,19,10,87,64,62,颗粒物(PM10)
鞍山市,铁西三道街,122.9642,41.0971,2025-03-26T1700,60,92,0.7,32,10,81,68,82,细颗粒物(PM2.5)
鞍山市,明达新区,123.022,41.0821,2025-03-26T1700,54,72,0.5,16,7,93,72,74,细颗粒物(PM2.5)
鞍山市,千山,123.1289,41.0228,2025-03-26T1700,,,,,,,75,,
鞍山市,兴盛南路290号,122.9446,41.0826,2025-03-26T1700,55,83,0.6,28,10,87,70,75,细颗粒物(PM2.5)
巴彦淖尔市,附二中,107.4212,40.761,2025-03-26T1700,75,415,0.6,5,6,85,92,293,颗粒物(PM10)
巴彦淖尔市,市环保大楼,107.37,40.7372,2025-03-26T1700,103,387,0.0,3,4,88,93,253,颗粒物(PM10)
巴音郭楞蒙古自治州,孔雀公园,86.1472,41.7538,2025-03-26T1700,1178,13083,0.2,13,4,74,82,500,"颗粒物(PM10),细颗粒物(PM2.5)"
巴音郭楞蒙古自治州,棉纺厂,86.1972,41.7166,2025-03-26T1700,1889,3612,0.2,6,2,83,86,500,"颗粒物(PM10),细颗粒物(PM2.5)"
巴音郭楞蒙古自治州,经济开发区,86.2357,41.7173,2025-03-26T1700,2643,12580,0.1,8,4,81,89,500,"颗粒物(PM10),细颗粒物(PM2.5)"
巴中市,苏山坪,106.7677,31.8794,2025-03-26T1700,27,45,0.4,9,6,151,132,48,
巴中市,市五中,106.7768,31.8526,2025-03-26T1700,25,38,0.5,12,8,154,117,49,
巴中市,圣泉水务公司,106.7418,31.8654,2025-03-26T1700,32,44,0.3,8,,158,136,,
巴中市,市中心医院,106.7616,31.8344,2025-03-26T1700,26,37,0.5,7,10,156,120,49,
白城市,洮北区环保局,122.7911,45.6077,2025-03-26T1700,110,134,0.7,20,5,77,72,144,细颗粒物(PM2.5)
白城市,市环保局,122.8738,45.5725,2025-03-26T1700,122,144,0.6,28,4,65,69,160,细颗粒物(PM2.5)
白山市,喜丰,126.4219,41.9171,2025-03-26T1700,,,1.1,44,5,27,56,,
白山市,环保局,126.4077,41.9419,2025-03-26T1700,53,82,1.4,52,11,42,60,73,细颗粒物(PM2.5)
白银市,第三小学,104.1724,36.5446,2025-03-26T1700,91,699,0.2,2,6,104,99,500,颗粒物(PM10)
白银市,动力公司,104.1465,36.5482,2025-03-26T1700,107,526,,6,4,105,102,426,颗粒物(PM10)
百色市,市监测站,106.6103,23.9011,2025-03-26T1700,40,90,0.7,12,8,132,125,70,颗粒物(PM10)
百色市,市中心血站,106.6538,23.8859,2025-03-26T1700,47,112,0.8,9,8,137,120,81,颗粒物(PM10)
百色市,祈福高中,106.6085,23.8798,2025-03-26T1700,34,123,0.7,8,5,126,107,87,颗粒物(PM10)
蚌埠市,工人疗养院,117.396,32.939,2025-03-26T1700,44,76,0.8,42,9,220,189,110,臭氧1小时
蚌埠市,百货大楼,117.3605,32.9427,2025-03-26T1700,49,91,0.6,19,9,200,172,100,臭氧1小时
蚌埠市,蚌埠学院,117.4185,32.8911,2025-03-26T1700,50,73,0.7,7,7,208,186,104,臭氧1小时
蚌埠市,淮上区政府,117.3533,32.9673,2025-03-26T1700,48,75,0.6,11,9,204,180,102,臭氧1小时
蚌埠市,高新区,117.3145,32.8977,2025-03-26T1700,53,85,0.7,15,9,204,179,102,臭氧1小时
蚌埠市,蚌埠田家炳中学,117.3092,32.9314,2025-03-26T1700,46,91,0.5,15,11,218,184,109,臭氧1小时
包头市,市环境监测站,109.8756,40.6532,2025-03-26T1700,53,344,0.2,5,8,94,97,197,颗粒物(PM10)
包头市,包头八中,109.9991,40.5842,2025-03-26T1700,63,358,0.3,6,6,94,97,212,颗粒物(PM10)
包头市,青山宾馆,109.8538,40.6821,2025-03-26T1700,66,293,0.3,3,6,93,96,172,颗粒物(PM10)
包头市,惠龙物流,109.8642,40.6288,2025-03-26T1700,56,384,0.3,6,6,97,100,249,颗粒物(PM10)
包头市,东河鸿龙湾,110.0377,40.5546,2025-03-26T1700,54,353,0.4,5,6,95,96,205,颗粒物(PM10)
包头市,滨河大厦,109.9154,40.5685,2025-03-26T1700,66,307,0.6,3,8,94,97,179,颗粒物(PM10)
包头市,包头市委党校,109.9447,40.6261,2025-03-26T1700,44,340,0.2,3,5,95,95,195,颗粒物(PM10)
包头市,昆区政府,109.8331,40.6576,2025-03-26T1700,44,315,0.4,6,5,93,96,183,颗粒物(PM10)
宝鸡市,庙沟村,107.185,34.3063,2025-03-26T1700,173,576,0.2,5,6,109,108,476,颗粒物(PM10)
宝鸡市,竹园沟,107.0708,34.3017,2025-03-26T1700,154,562,0.3,6,6,112,101,462,颗粒物(PM10)
宝鸡市,三陆医院,107.1906,34.3672,2025-03-26T1700,,,,,,,103,,
宝鸡市,监测站,107.1431,34.3547,2025-03-26T1700,167,609,0.4,5,7,108,95,500,颗粒物(PM10)
宝鸡市,技工学校,107.1186,34.3739,2025-03-26T1700,207,545,0.2,14,4,105,98,445,颗粒物(PM10)
宝鸡市,陈仓区环保局家属楼,107.3906,34.3528,2025-03-26T1700,161,616,0.5,2,6,100,91,500,颗粒物(PM10)
宝鸡市,文理学院,107.2058,34.3497,2025-03-26T1700,196,597,0.3,4,5,109,98,497,颗粒物(PM10)
宝鸡市,三迪小学,107.2386,34.3622,2025-03-26T1700,209,638,0.3,11,5,104,95,500,颗粒物(PM10)
保定市,游泳馆,115.493,38.8632,2025-03-26T1700,61,111,0.2,21,7,109,99,83,细颗粒物(PM2.5)
保定市,华电二区,115.5213,38.8959,2025-03-26T1700,36,84,0.3,14,1,112,103,67,颗粒物(PM10)
保定市,接待中心,115.4713,38.9108,2025-03-26T1700,46,102,0.6,19,4,107,98,76,颗粒物(PM10)
保定市,地表水厂,115.4612,38.8416,2025-03-26T1700,42,118,0.5,21,2,110,103,84,颗粒物(PM10)
保定市,满城区生态环境分局,115.31981,38.95208,2025-03-26T1700,56,105,0.4,22,4,107,95,78,颗粒物(PM10)
保定市,清苑区第二中学,115.47694,38.76408,2025-03-26T1700,44,127,0.4,22,5,106,98,89,颗粒物(PM10)
保定市,徐水物探局,115.62909,39.02311,2025-03-26T1700,48,127,0.3,18,10,117,105,89,颗粒物(PM10)
保定市,双鹰农机,115.4202,38.8656,2025-03-26T1700,44,103,0.4,15,3,108,84,77,颗粒物(PM10)
保定市,植保所站,115.5150,38.8590,2025-03-26T1700,41,101,0.5,18,4,110,99,76,颗粒物(PM10)
保山市,市环境监测站,99.1678,25.1081,2025-03-26T1700,18,25,0.3,6,4,122,110,39,
保山市,市环保局,99.1711,25.1328,2025-03-26T1700,18,22,0.3,4,4,128,117,40,
北海市,牛尾岭水库,109.2262,21.588,2025-03-26T1700,8,22,0.4,,5,70,70,,
北海市,海滩公园,109.1436,21.4086,2025-03-26T1700,12,39,0.6,9,5,85,89,39,
北海市,新市环保局,109.0981,21.4661,2025-03-26T1700,12,32,0.5,8,3,79,80,32,
北海市,北海工业园,109.1778,21.5233,2025-03-26T1700,20,36,0.4,7,6,80,82,36,
北海市,龙潭自来水厂,109.1911,21.4415,2025-03-26T1700,15,37,0.3,6,5,82,82,37,
北京市,万寿西宫,116.3621,39.8784,2025-03-26T1700,42,113,0.5,26,2,114,106,82,颗粒物(PM10)
北京市,定陵,116.2202,40.2915,2025-03-26T1700,,,,,,,,,
北京市,东四,116.4174,39.9289,2025-03-26T1700,39,107,0.5,27,6,106,97,79,颗粒物(PM10)
北京市,天坛,116.4072,39.8863,2025-03-26T1700,,,,,,,83,,
北京市,农展馆,116.462,39.9365,2025-03-26T1700,36,105,0.6,25,8,99,96,78,颗粒物(PM10)
北京市,官园,116.3392,39.9295,2025-03-26T1700,40,106,0.6,23,7,95,90,78,颗粒物(PM10)
北京市,海淀万柳,116.2878,39.9611,2025-03-26T1700,40,94,0.6,23,5,93,86,72,颗粒物(PM10)
北京市,顺义新城,116.6636,40.135,2025-03-26T1700,23,92,0.4,10,5,103,100,71,颗粒物(PM10)
北京市,怀柔镇,116.6275,40.3275,2025-03-26T1700,29,82,0.4,12,4,105,99,66,颗粒物(PM10)
北京市,昌平镇,116.2296,40.217,2025-03-26T1700,32,95,0.7,15,2,114,103,73,颗粒物(PM10)
北京市,奥体中心,116.3966,39.9821,2025-03-26T1700,37,101,0.7,29,5,93,89,76,颗粒物(PM10)
北京市,延庆夏都,115.9718,40.4529,2025-03-26T1700,31,161,0.3,2,5,109,93,106,颗粒物(PM10)
北京市,密云新城,116.8336,40.4095,2025-03-26T1700,22,77,0.5,7,4,106,96,64,颗粒物(PM10)
北京市,门头沟三家店,116.088,39.9726,2025-03-26T1700,,,,,,,60,,
北京市,丰台云岗,116.1541,39.8204,2025-03-26T1700,48,103,0.7,24,7,114,106,77,颗粒物(PM10)
北京市,通州东关,116.6804,39.9081,2025-03-26T1700,35,104,0.4,23,6,108,96,77,颗粒物(PM10)
北京市,房山燕山,115.9577,39.7603,2025-03-26T1700,38,101,0.6,25,6,98,84,76,颗粒物(PM10)
北京市,大兴旧宫,116.4672,39.7733,2025-03-26T1700,38,113,0.6,25,7,92,84,82,颗粒物(PM10)
北京市,延庆石河营,115.986,40.4563,2025-03-26T1700,28,142,0.3,3,4,109,93,96,颗粒物(PM10)
北京市,怀柔新城,116.6151,40.3053,2025-03-26T1700,38,93,0.6,11,5,109,99,72,颗粒物(PM10)
北京市,丰台小屯,116.2545,39.8768,2025-03-26T1700,41,164,0.5,28,3,97,92,107,颗粒物(PM10)
北京市,密云镇,116.84,40.3844,2025-03-26T1700,22,80,0.4,10,5,114,103,65,颗粒物(PM10)
北京市,八角北路9号,116.1942,39.9158,2025-03-26T1700,37,96,0.5,24,3,105,100,73,颗粒物(PM10)
北京市,洳河巡河路,117.0790,40.1518,2025-03-26T1700,31,81,0.5,12,3,120,108,66,颗粒物(PM10)
本溪市,大峪,123.8275,41.3064,2025-03-26T1700,30,49,0.6,10,9,92,80,49,
本溪市,溪湖,123.7567,41.3325,2025-03-26T1700,30,72,0.7,21,9,89,85,61,颗粒物(PM10)
本溪市,彩屯,123.7169,41.3094,2025-03-26T1700,42,84,2.7,43,23,66,74,67,颗粒物(PM10)
本溪市,东明,123.7669,41.2864,2025-03-26T1700,40,112,0.6,17,9,89,86,81,颗粒物(PM10)
本溪市,新立屯,123.7992,41.2664,2025-03-26T1700,24,73,0.5,17,7,96,93,62,颗粒物(PM10)
本溪市,威宁,123.8142,41.3472,2025-03-26T1700,29,94,0.6,18,7,78,74,72,颗粒物(PM10)
毕节市,八中,105.2864,27.3125,2025-03-26T1700,13,25,0.4,8,10,126,118,40,
毕节市,师专,105.31,27.2944,2025-03-26T1700,,,,,,,78,,
毕节市,工业大道,105.3688,27.3598,2025-03-26T1700,12,30,0.4,14,8,137,127,43,
滨州市,第二水厂,118.0018,37.3617,2025-03-26T1700,41,210,0.6,32,14,70,89,130,颗粒物(PM10)
滨州市,北中新校,117.9776,37.393,2025-03-26T1700,39,183,0.5,35,17,77,94,117,颗粒物(PM10)
滨州市,中海酒店,117.9378,37.3956,2025-03-26T1700,48,173,0.6,30,18,82,91,112,颗粒物(PM10)
滨州市,开发区一中,117.9378,37.3553,2025-03-26T1700,41,197,0.5,36,21,76,88,124,颗粒物(PM10)
滨州市,金海六路,118.0917,37.694,2025-03-26T1700,41,200,,25,,84,91,125,颗粒物(PM10)
滨州市,滨州市西街道办事处,117.9956,37.3753,2025-03-26T1700,51,195,0.6,30,13,78,98,123,颗粒物(PM10)
亳州市,污水处理厂,115.8072,33.8399,2025-03-26T1700,30,72,,10,5,179,167,,
亳州市,三国揽胜宫,115.7789,33.8518,2025-03-26T1700,34,72,0.4,3,6,171,161,64,臭氧1小时
亳州市,亳州学院,115.7633,33.8034,2025-03-26T1700,35,49,0.5,7,6,173,161,67,臭氧1小时
博尔塔拉蒙古自治州,市党校,82.0485,44.8556,2025-03-26T1700,14,59,,10,4,89,82,,
博尔塔拉蒙古自治州,市环保局,82.0806,44.8969,2025-03-26T1700,15,,1.2,12,3,65,76,,
沧州市,沧县城建局,116.8842,38.2991,2025-03-26T1700,54,160,0.6,29,11,72,69,105,颗粒物(PM10)
沧州市,电视转播站,116.8584,38.3254,2025-03-26T1700,66,150,0.6,37,14,74,73,100,颗粒物(PM10)
沧州市,市环保局,116.8709,38.3228,2025-03-26T1700,55,138,0.6,32,15,71,70,94,颗粒物(PM10)
沧州市,河北水利电力学院,116.8136,38.3004,2025-03-26T1700,60,173,0.8,37,13,70,68,112,颗粒物(PM10)
昌都市,昌都监测站,97.1806,31.1273,2025-03-26T1700,3,6,0.2,1,7,113,100,36,
昌都市,昌都会议中心,97.1714,31.1406,2025-03-26T1700,3,19,0.3,9,2,114,94,36,
昌吉回族自治州,天山天池,88.1236,43.8886,2025-03-26T1700,3,34,0.5,5,3,84,85,34,
昌吉回族自治州,新区政务中心,87.2717,44.0297,2025-03-26T1700,3,32,0.5,2,6,80,76,32,
昌吉回族自治州,亚心广场,87.3095,44.0142,2025-03-26T1700,9,36,0.4,5,5,78,79,36,
长春市,食品厂,125.3325,43.9166,2025-03-26T1700,64,76,0.8,,10,65,68,,
长春市,客车厂,125.2863,43.9027,2025-03-26T1700,67,74,0.8,38,9,55,65,90,细颗粒物(PM2.5)
长春市,邮电学院,125.2841,43.8463,2025-03-26T1700,75,84,0.7,48,22,41,63,100,细颗粒物(PM2.5)
长春市,劳动公园,125.3716,43.8772,2025-03-26T1700,78,,1.0,25,8,57,64,104,细颗粒物(PM2.5)
长春市,园林处,125.3297,43.8805,2025-03-26T1700,77,,0.6,23,7,70,70,103,细颗粒物(PM2.5)
长春市,净月潭,125.4605,43.79,2025-03-26T1700,60,72,0.6,12,6,70,66,82,细颗粒物(PM2.5)
长春市,甩湾子,125.7194,43.515,2025-03-26T1700,34,46,0.5,8,2,87,72,49,
长春市,经开区环卫处,125.3863,43.8447,2025-03-26T1700,66,71,0.7,23,6,59,60,89,细颗粒物(PM2.5)
长春市,高新区管委会,125.245,43.7783,2025-03-26T1700,62,68,0.6,23,8,67,65,84,细颗粒物(PM2.5)
长春市,岱山公园,125.1761,43.8325,2025-03-26T1700,68,68,0.9,36,5,62,62,92,细颗粒物(PM2.5)
长沙市,经开区环保局,113.0833,28.2325,2025-03-26T1700,55,82,0.7,13,7,167,159,75,细颗粒物(PM2.5)
长沙市,高开区环保局,112.8872,28.2189,2025-03-26T1700,57,84,0.8,5,6,161,152,78,细颗粒物(PM2.5)
长沙市,马坡岭,113.0792,28.2053,2025-03-26T1700,59,85,0.6,6,6,152,144,80,细颗粒物(PM2.5)
长沙市,湖南师范大学,112.9394,28.19,2025-03-26T1700,58,86,1.0,10,8,151,147,79,细颗粒物(PM2.5)
长沙市,雨花区环保局,113.0178,28.1322,2025-03-26T1700,54,80,0.7,11,8,160,151,74,细颗粒物(PM2.5)
长沙市,伍家岭,112.9792,28.2597,2025-03-26T1700,59,90,0.8,14,5,159,148,80,细颗粒物(PM2.5)
长沙市,火车新站,113.0014,28.1944,2025-03-26T1700,53,93,0.8,14,7,155,147,73,细颗粒物(PM2.5)
长沙市,天心区环保局,112.9844,28.1178,2025-03-26T1700,59,81,0.6,14,4,166,159,80,细颗粒物(PM2.5)
长沙市,湖南中医药大学,112.8908,28.1308,2025-03-26T1700,51,101,1.0,7,4,144,144,76,颗粒物(PM10)
长沙市,沙坪,112.9581,28.3611,2025-03-26T1700,62,96,1.0,13,8,152,140,84,细颗粒物(PM2.5)
长治市,清华站,113.1147,36.1547,2025-03-26T1700,61,152,0.6,17,12,130,121,101,颗粒物(PM10)
长治市,审计局,113.0886,36.2125,2025-03-26T1700,53,161,0.5,18,14,129,122,106,颗粒物(PM10)
长治市,长治八中,113.0844,36.1856,2025-03-26T1700,64,208,0.7,18,15,131,124,129,颗粒物(PM10)
长治市,德盛苑,113.1569,36.1911,2025-03-26T1700,53,178,0.6,14,12,133,99,114,颗粒物(PM10)
长治市,向阳小学,113.06,36.0464,2025-03-26T1700,80,216,0.6,25,16,112,114,133,颗粒物(PM10)
长治市,屯留一中,112.8792,36.3144,2025-03-26T1700,70,175,0.3,21,16,122,120,113,颗粒物(PM10)
长治市,英华南巷50号,113.1131,36.19948,2025-03-26T1700,58,184,1.0,18,16,132,124,117,颗粒物(PM10)
长治市,学府街1号,113.2367,36.3344,2025-03-26T1700,58,180,0.6,6,9,135,131,115,颗粒物(PM10)
常德市,市二中,111.6975,28.9703,2025-03-26T1700,46,66,0.6,5,5,144,129,64,细颗粒物(PM2.5)
常德市,白鹤山,111.7158,29.1456,2025-03-26T1700,,,,,,,,,
常德市,武陵区永安,111.7153,29.0289,2025-03-26T1700,49,,,7,5,142,,,
常德市,鼎城区玉霞,111.6892,28.9881,2025-03-26T1700,51,80,0.6,5,7,152,141,70,细颗粒物(PM2.5)
常德市,武陵区长庚,111.6625,29.0531,2025-03-26T1700,44,68,0.6,1,5,147,142,62,细颗粒物(PM2.5)
常州市,市监测站,119.9633,31.762,2025-03-26T1700,47,92,0.8,33,2,227,194,114,臭氧1小时
常州市,武进监测站,119.9468,31.7069,2025-03-26T1700,42,74,0.8,23,,225,190,113,臭氧1小时
常州市,安家,119.9255,31.9087,2025-03-26T1700,40,82,0.6,23,11,219,187,110,臭氧1小时
常州市,行政中心,119.9805,31.8174,2025-03-26T1700,52,78,0.5,28,21,221,188,111,臭氧1小时
常州市,经开区,120.0522,31.7748,2025-03-26T1700,42,98,1.5,27,18,226,200,113,臭氧1小时
常州市,钟楼,119.9025,31.7964,2025-03-26T1700,43,90,0.9,23,10,225,188,113,臭氧1小时
常州市,武进经发区,119.8598,31.7066,2025-03-26T1700,46,84,0.7,27,10,230,185,115,臭氧1小时
常州市,金坛城区,119.5826,31.7245,2025-03-26T1700,44,83,1.2,25,14,227,184,114,臭氧1小时
朝阳市,西梁,120.4318,41.5881,2025-03-26T1700,30,85,0.7,16,14,105,93,68,颗粒物(PM10)
朝阳市,河畔小区,120.4521,41.5646,2025-03-26T1700,34,100,0.7,17,9,111,98,75,颗粒物(PM10)
朝阳市,八里堡,120.4176,41.5648,2025-03-26T1700,33,99,0.5,12,9,109,93,75,颗粒物(PM10)
朝阳市,农业园区,120.3806,41.5969,2025-03-26T1700,52,106,,18,13,110,101,,
潮州市,西园路,116.6367,23.6719,2025-03-26T1700,,,,,,,,,
潮州市,市政府,116.6183,23.6608,2025-03-26T1700,25,78,0.5,21,,98,126,,
潮州市,金山,116.6461,23.6761,2025-03-26T1700,23,86,0.5,18,8,115,137,68,颗粒物(PM10)
郴州市,马头岭,113.0073,25.9061,2025-03-26T1700,,,,,,128,128,,
郴州市,市职中,113.0116,25.8226,2025-03-26T1700,55,66,0.7,11,8,156,162,75,细颗粒物(PM2.5)
郴州市,市审计局,113.0383,25.8071,2025-03-26T1700,54,71,0.5,12,4,159,166,74,细颗粒物(PM2.5)
郴州市,市环保局,113.0348,25.7759,2025-03-26T1700,51,81,0.6,10,20,157,164,70,细颗粒物(PM2.5)
郴州市,好美居路49号,113.0138,25.8011,2025-03-26T1700,48,65,0.7,11,8,152,167,67,细颗粒物(PM2.5)
成都市,金泉两河,103.9728,30.7236,2025-03-26T1700,41,76,0.7,14,6,228,169,114,臭氧1小时
成都市,十里店,104.176,30.6872,2025-03-26T1700,30,54,0.6,16,7,227,171,114,臭氧1小时
成都市,三瓦窑,104.079,30.5706,2025-03-26T1700,42,74,0.7,22,7,241,161,121,臭氧1小时
成都市,沙河铺,104.1114,30.63,2025-03-26T1700,36,66,0.6,17,9,209,154,105,臭氧1小时
成都市,君平街,104.0786,30.6531,2025-03-26T1700,39,73,0.8,19,10,227,171,114,臭氧1小时
成都市,灵岩寺,103.613,31.0283,2025-03-26T1700,,,,,,,,,
成都市,大石西路,104.0239,30.65639,2025-03-26T1700,41,74,,20,7,235,180,118,臭氧1小时
成都市,龙泉驿区区政府,104.2725,30.5589,2025-03-26T1700,27,53,,,7,193,158,,
成都市,金博路,104.0106,30.6931,2025-03-26T1700,34,62,0.6,16,10,213,156,107,臭氧1小时
成都市,华阳,104.0578,30.5225,2025-03-26T1700,48,75,,22,,240,160,120,臭氧1小时
成都市,青白江技师分院,104.3853,30.7453,2025-03-26T1700,26,58,0.7,15,10,204,172,102,臭氧1小时
成都市,科学城,104.0789,30.4072,2025-03-26T1700,25,39,0.6,10,7,187,151,84,臭氧1小时
成都市,光华大道三段,103.8506,30.6947,2025-03-26T1700,52,90,0.7,25,8,255,190,128,臭氧1小时
成都市,鲸龙路1057号,104.2433,30.5353,2025-03-26T1700,28,45,0.7,,9,201,169,101,臭氧1小时
承德市,铁路,117.9531,40.9081,2025-03-26T1700,52,279,0.3,8,9,99,88,165,颗粒物(PM10)
承德市,中国银行,117.9392,40.9763,2025-03-26T1700,48,277,0.3,5,4,100,90,164,颗粒物(PM10)
承德市,开发区,117.9503,40.928,2025-03-26T1700,41,252,0.3,7,9,104,93,151,颗粒物(PM10)
承德市,文化中心,117.8051,40.9655,2025-03-26T1700,54,297,0.2,5,3,103,90,174,颗粒物(PM10)
承德市,离宫,117.9268,41.0026,2025-03-26T1700,37,253,0.2,4,24,78,65,152,颗粒物(PM10)
池州市,池州学院,117.47,30.6618,2025-03-26T1700,48,74,0.9,11,9,168,156,67,细颗粒物(PM2.5)
池州市,展览馆,117.4918,30.6617,2025-03-26T1700,45,73,0.7,10,8,171,157,64,臭氧1小时
池州市,第八中学,117.5627,30.695,2025-03-26T1700,43,76,0.6,8,8,178,157,73,臭氧1小时
池州市,第十二中学,117.5038,30.6243,2025-03-26T1700,54,69,0.6,8,8,176,170,74,细颗粒物(PM2.5)
赤峰市,松山一中,118.9233,42.2816,2025-03-26T1700,53,411,0.3,10,7,88,83,288,颗粒物(PM10)
赤峰市,哈达街,118.9576,42.2728,2025-03-26T1700,55,410,0.4,14,6,72,75,286,颗粒物(PM10)
赤峰市,天义路,118.8788,42.2554,2025-03-26T1700,86,378,0.3,11,7,83,79,240,颗粒物(PM10)
赤峰市,银河街,119.2658,42.0353,2025-03-26T1700,72,347,0.4,11,11,89,80,199,颗粒物(PM10)
赤峰市,桥北物流园区,118.9359,42.3147,2025-03-26T1700,84,382,0.5,9,6,87,83,246,颗粒物(PM10)
崇左市,市环保局江州分局,107.3476,22.4136,2025-03-26T1700,54,79,0.8,10,12,174,126,74,细颗粒物(PM2.5)
崇左市,石景林东路7号,107.3750,22.3736,2025-03-26T1700,63,80,0.6,15,13,188,138,85,"细颗粒物(PM2.5),臭氧1小时"
滁州市,老年大学,118.3093,32.3153,2025-03-26T1700,48,66,0.7,13,13,209,182,105,臭氧1小时
滁州市,人大宾馆,118.3244,32.2786,2025-03-26T1700,55,73,0.6,19,14,202,176,101,臭氧1小时
滁州市,市政府原办公楼,118.3118,32.3038,2025-03-26T1700,51,66,0.5,6,10,211,183,106,臭氧1小时
滁州市,图书馆,118.3267,32.2634,2025-03-26T1700,,72,,11,12,201,176,101,臭氧1小时
楚雄彝族自治州,州环境监测站,101.5482,25.0441,2025-03-26T1700,12,25,0.4,5,6,153,141,48,
楚雄彝族自治州,市经济开发区,101.538,25.0492,2025-03-26T1700,12,,0.4,6,6,150,131,47,
达州市,达州职业技术学院,107.5277,31.2827,2025-03-26T1700,26,61,0.2,11,11,166,129,58,臭氧1小时
达州市,市环境监测站,107.5086,31.2186,2025-03-26T1700,22,41,0.8,17,9,179,119,74,臭氧1小时
达州市,凤凰小区,107.4988,31.2132,2025-03-26T1700,29,56,0.8,28,14,166,117,58,臭氧1小时
达州市,达县机关宾馆,107.5082,31.1986,2025-03-26T1700,25,58,1.1,46,9,134,114,54,颗粒物(PM10)
达州市,市政中心,107.4644,31.2124,2025-03-26T1700,29,46,0.9,18,14,162,118,53,臭氧1小时
大理白族自治州,大理市环境监测站,100.1542,25.7054,2025-03-26T1700,14,16,0.5,7,6,129,115,41,
大理白族自治州,大理古城,100.2171,25.5811,2025-03-26T1700,10,22,0.4,7,7,117,115,37,
大连市,甘井子,121.612,38.9741,2025-03-26T1700,52,113,0.7,29,7,99,106,82,颗粒物(PM10)
大连市,周水子,121.565,38.9511,2025-03-26T1700,65,124,0.6,26,7,92,94,88,细颗粒物(PM2.5)
大连市,星海三站,121.5637,38.8845,2025-03-26T1700,51,115,0.7,10,7,105,106,83,颗粒物(PM10)
大连市,青泥洼桥,121.6302,38.9117,2025-03-26T1700,53,110,0.8,7,8,108,107,80,颗粒物(PM10)
大连市,傅家庄,121.6251,38.8638,2025-03-26T1700,,120,,17,8,102,105,,
大连市,七贤岭,121.5213,38.8661,2025-03-26T1700,51,142,0.4,13,5,106,104,96,颗粒物(PM10)
大连市,旅顺,121.2529,38.8061,2025-03-26T1700,48,108,0.7,12,8,106,101,79,颗粒物(PM10)
大连市,金州,121.7485,39.1311,2025-03-26T1700,48,134,0.9,19,7,105,106,92,颗粒物(PM10)
大连市,开发区,121.7811,39.0496,2025-03-26T1700,44,111,1.0,24,5,94,96,81,颗粒物(PM10)
大连市,双D港,121.9762,39.0631,2025-03-26T1700,55,128,0.9,23,7,101,108,89,颗粒物(PM10)
大庆市,大同区,124.81117,46.03138,2025-03-26T1700,117,135,0.7,29,4,44,60,153,细颗粒物(PM2.5)
大庆市,龙凤区,125.129,46.533,2025-03-26T1700,47,61,0.5,13,4,69,66,65,细颗粒物(PM2.5)
大庆市,红岗区,124.902,46.408,2025-03-26T1700,58,58,0.7,14,7,68,71,79,细颗粒物(PM2.5)
大庆市,萨尔图区,125.153,46.586,2025-03-26T1700,45,60,0.4,13,7,66,64,63,细颗粒物(PM2.5)
大庆市,让胡路区,124.9042,46.6215,2025-03-26T1700,47,51,0.4,21,7,58,60,65,细颗粒物(PM2.5)
大庆市,萨区政府监测点,125.141,46.634,2025-03-26T1700,34,55,0.4,13,5,70,71,53,颗粒物(PM10)
大同市,果树场,113.3819,40.1097,2025-03-26T1700,48,385,0.6,7,8,96,86,250,颗粒物(PM10)
大同市,云冈宾馆,113.2994,40.0758,2025-03-26T1700,21,167,0.4,6,7,110,98,109,颗粒物(PM10)
大同市,大同大学,113.3444,40.0917,2025-03-26T1700,34,190,0.3,2,12,106,93,120,颗粒物(PM10)
大同市,安家小村,113.2661,40.1269,2025-03-26T1700,37,223,0.2,3,8,102,100,137,颗粒物(PM10)
大同市,教育学院,113.2711,40.0844,2025-03-26T1700,32,209,0.3,8,6,107,95,130,颗粒物(PM10)
大同市,大同市卫生学校,113.3397,40.0597,2025-03-26T1700,33,181,0.3,6,5,104,89,116,颗粒物(PM10)
大同市,云冈站,113.1367,40.1122,2025-03-26T1700,42,232,0.3,6,8,102,95,141,颗粒物(PM10)
大同市,图书馆,113.1186,40.2556,2025-03-26T1700,36,259,0.7,4,7,96,95,155,颗粒物(PM10)
大同市,区一中,113.5931,40.0461,2025-03-26T1700,22,235,0.1,6,16,103,88,143,颗粒物(PM10)
大同市,魏都大道141号,113.2798,40.0997,2025-03-26T1700,33,207,0.3,7,10,109,99,129,颗粒物(PM10)
大兴安岭地区,科技局,124.1069,50.4097,2025-03-26T1700,18,26,0.4,8,7,77,74,26,
大兴安岭地区,红旗社区,124.1164,50.4278,2025-03-26T1700,6,12,0.3,8,5,82,77,26,
丹东市,江湾东路,124.3303,40.0625,2025-03-26T1700,29,104,0.7,21,10,94,84,77,颗粒物(PM10)
丹东市,临江后街,124.4256,40.1503,2025-03-26T1700,24,97,1.0,23,13,81,76,74,颗粒物(PM10)
丹东市,元宝山,124.3933,40.1461,2025-03-26T1700,31,90,0.5,21,9,83,74,70,颗粒物(PM10)
丹东市,民主桥,124.3633,40.1092,2025-03-26T1700,26,111,0.8,17,11,93,78,81,颗粒物(PM10)
儋州市,第一中学子站,109.5726,19.5167,2025-03-26T1700,20,45,0.7,6,4,91,99,45,
儋州市,东坡学校子站,109.5567,19.5187,2025-03-26T1700,18,36,0.6,6,6,100,108,36,
德宏傣族景颇族自治州,德宏州监测站,98.5842,24.428,2025-03-26T1700,20,33,0.4,9,7,146,124,46,
德宏傣族景颇族自治州,芒市人民政府综合楼,98.5881,24.4368,2025-03-26T1700,25,49,0.2,10,9,144,123,49,
德阳市,东山公园,104.4239,31.1208,2025-03-26T1700,32,49,0.5,9,6,184,172,80,臭氧1小时
德阳市,西小区,104.3826,31.1317,2025-03-26T1700,34,54,0.5,12,8,185,164,82,臭氧1小时
德阳市,耐火材料厂,104.3553,31.1091,2025-03-26T1700,36,54,0.5,10,8,194,178,93,臭氧1小时
德阳市,市教育局,104.4019,31.1244,2025-03-26T1700,44,52,0.5,9,,191,166,,
德州市,儿童乐园,116.3032,37.4674,2025-03-26T1700,56,158,1.1,41,10,69,76,104,颗粒物(PM10)
德州市,监理站,116.2991,37.4451,2025-03-26T1700,56,180,0.6,28,18,71,76,115,颗粒物(PM10)
德州市,九衢泉纯净水厂,116.2721,37.4379,2025-03-26T1700,44,166,0.7,34,12,71,76,108,颗粒物(PM10)
德州市,开发区人民医院,116.3728,37.4403,2025-03-26T1700,,171,0.6,30,9,75,78,111,颗粒物(PM10)
德州市,太阳城中学,116.3572,37.4094,2025-03-26T1700,44,180,0.7,33,10,74,78,115,颗粒物(PM10)
德州市,陵城艺术中心,116.5652,37.3319,2025-03-26T1700,51,185,0.7,30,9,80,76,118,颗粒物(PM10)
迪庆藏族自治州,迪庆州站,99.7056,27.8317,2025-03-26T1700,11,24,0.3,7,8,95,92,30,
迪庆藏族自治州,质量技术监督局,99.7136,27.8094,2025-03-26T1700,13,85,0.4,12,9,94,93,68,颗粒物(PM10)
定西市,将台街,104.6092,35.5962,2025-03-26T1700,60,276,1.1,8,8,105,104,163,颗粒物(PM10)
定西市,正龙路62号,104.6159,35.5701,2025-03-26T1700,62,283,0.6,4,8,108,105,167,颗粒物(PM10)
东莞市,莞城梨川,113.7547,23.0494,2025-03-26T1700,20,39,0.4,13,4,114,113,39,
东莞市,东城石井,113.7944,23.0128,2025-03-26T1700,17,37,0.5,14,6,119,116,38,
东莞市,南城西平,113.7383,22.9658,2025-03-26T1700,18,30,0.6,13,5,108,110,34,
东莞市,万江金泰,113.7338,23.0381,2025-03-26T1700,16,35,0.7,7,37,125,124,40,
东莞市,南城元岭,113.7533,23.0202,2025-03-26T1700,16,36,0.6,11,5,104,107,36,
东莞市,东城主山,113.7875,23.0457,2025-03-26T1700,18,55,0.5,17,7,120,114,53,颗粒物(PM10)
东营市,市环保局,118.6614,37.4309,2025-03-26T1700,58,161,0.5,28,8,109,111,106,颗粒物(PM10)
东营市,开发区管委会,118.6904,37.4338,2025-03-26T1700,36,196,0.6,34,7,104,110,123,颗粒物(PM10)
东营市,垦利区民丰路,118.5719,37.565,2025-03-26T1700,36,175,0.6,26,3,97,105,113,颗粒物(PM10)
东营市,河口城区,118.5055,37.8612,2025-03-26T1700,49,207,0.7,26,6,112,109,129,颗粒物(PM10)
东营市,胜利站,118.4978,37.4623,2025-03-26T1700,36,178,1.1,29,11,105,105,114,颗粒物(PM10)
东营市,理想之城,118.35,37.26,2025-03-26T1700,46,197,0.5,32,9,109,110,124,颗粒物(PM10)
鄂尔多斯市,综合楼,110.0023,39.8129,2025-03-26T1700,53,329,0.3,11,6,94,93,190,颗粒物(PM10)
鄂尔多斯市,巴音孟克林场办事处,109.9486,39.8261,2025-03-26T1700,58,298,0.3,8,6,97,96,174,颗粒物(PM10)
鄂尔多斯市,康泽苑,109.7736,39.5986,2025-03-26T1700,68,351,0.2,5,2,97,95,202,颗粒物(PM10)
鄂尔多斯市,华泰汽车城,109.8119,39.5989,2025-03-26T1700,68,324,0.3,6,4,97,94,187,颗粒物(PM10)
鄂尔多斯市,奥林花园,109.9734,39.7884,2025-03-26T1700,46,315,0.3,9,6,100,98,183,颗粒物(PM10)
鄂州市,市政府,114.8938,30.3994,2025-03-26T1700,55,83,1.3,12,10,214,179,107,臭氧1小时
鄂州市,赵家坝,114.8989,30.3714,2025-03-26T1700,47,67,1.4,4,7,194,171,93,臭氧1小时
鄂州市,精准医疗中心,114.8094,30.4089,2025-03-26T1700,42,59,0.7,6,5,196,188,95,臭氧1小时
恩施土家族苗族自治州,湖北民院,109.4978,30.2981,2025-03-26T1700,54,,0.5,2,3,160,137,74,细颗粒物(PM2.5)
恩施土家族苗族自治州,州电力总公司,109.4707,30.2798,2025-03-26T1700,45,56,0.0,9,8,151,108,63,细颗粒物(PM2.5)
恩施土家族苗族自治州,龙凤新区,109.5061,30.3772,2025-03-26T1700,48,52,0.6,13,7,157,111,67,细颗粒物(PM2.5)
防城港市,沙万,108.3411,21.6158,2025-03-26T1700,16,44,0.3,11,8,63,66,44,
防城港市,防城档案局,108.3514,21.7731,2025-03-26T1700,18,42,0.1,5,1,75,74,42,
防城港市,大海花园,108.3506,21.6414,2025-03-26T1700,,,,3,5,72,76,,
佛山市,湾梁,113.1294,23.0067,2025-03-26T1700,25,61,0.5,19,8,146,135,56,颗粒物(PM10)
佛山市,华材职中,113.1083,23.0478,2025-03-26T1700,28,,0.4,19,6,160,149,,
佛山市,南海气象局,113.144,23.0453,2025-03-26T1700,26,80,0.5,19,7,124,113,65,颗粒物(PM10)
佛山市,顺德苏岗,113.2881,22.8094,2025-03-26T1700,22,49,0.6,12,6,103,102,49,
佛山市,高明孔堂,112.8383,22.8678,2025-03-26T1700,26,36,0.4,6,5,120,114,38,
佛山市,三水监测站,112.8836,23.1588,2025-03-26T1700,34,48,0.5,31,2,120,114,49,
佛山市,三水云东海,112.867,23.185,2025-03-26T1700,31,55,0.5,21,1,145,132,53,颗粒物(PM10)
佛山市,容桂街道办,113.2544,22.7642,2025-03-26T1700,19,44,0.6,18,8,107,102,44,
福州市,鼓山,119.3903,26.0543,2025-03-26T1700,,,,,,,177,,
福州市,师大,119.2681,26.0504,2025-03-26T1700,28,89,0.3,19,6,162,170,70,颗粒物(PM10)
福州市,五四北路,119.2984,26.1028,2025-03-26T1700,39,77,0.5,24,6,168,167,64,颗粒物(PM10)
福州市,杨桥西路,119.2648,26.0768,2025-03-26T1700,38,99,0.4,22,6,166,167,75,颗粒物(PM10)
福州市,紫阳,119.317,26.0746,2025-03-26T1700,32,93,0.3,54,6,129,137,72,颗粒物(PM10)
福州市,九龙,119.5799,26.0936,2025-03-26T1700,34,67,0.3,10,5,168,154,60,臭氧1小时
福州市,吴航,119.5189,25.9664,2025-03-26T1700,20,39,0.4,11,5,154,158,49,
抚顺市,望花区,123.7977,41.8491,2025-03-26T1700,34,214,0.7,24,13,87,56,132,颗粒物(PM10)
抚顺市,顺城区,123.9161,41.8822,2025-03-26T1700,201,298,2.4,109,17,23,53,251,细颗粒物(PM2.5)
抚顺市,东洲区,124.0436,41.8611,2025-03-26T1700,190,347,1.7,49,9,63,57,240,细颗粒物(PM2.5)
抚顺市,新抚区,123.9247,41.8642,2025-03-26T1700,232,340,2.2,102,15,26,51,282,细颗粒物(PM2.5)
抚顺市,大伙房水库,124.0972,41.8961,2025-03-26T1700,201,270,1.7,34,8,80,61,251,细颗粒物(PM2.5)
抚顺市,沈抚新城,123.7086,41.8391,2025-03-26T1700,42,174,1.0,23,10,90,57,112,颗粒物(PM10)
抚州市,桐源党溪,116.2127,28.0814,2025-03-26T1700,38,66,0.5,3,5,147,152,58,颗粒物(PM10)
抚州市,市站,116.3544,27.9831,2025-03-26T1700,,,0.9,10,4,126,140,,
抚州市,血防站,116.3565,27.963,2025-03-26T1700,43,66,1.5,8,18,133,140,60,细颗粒物(PM2.5)
抚州市,采茶剧团,116.3564,28.0007,2025-03-26T1700,40,72,0.7,9,3,121,120,61,颗粒物(PM10)
抚州市,医学分院,116.385,27.9647,2025-03-26T1700,39,83,0.8,17,4,104,109,67,颗粒物(PM10)
阜新市,工业园区,121.6094,41.998,2025-03-26T1700,60,158,0.7,28,18,98,88,104,颗粒物(PM10)
阜新市,长青街,121.6697,42.0279,2025-03-26T1700,48,130,0.7,24,13,98,87,90,颗粒物(PM10)
阜新市,农业园区,121.6673,42.0705,2025-03-26T1700,53,156,0.7,18,16,104,92,103,颗粒物(PM10)
阜新市,东苑,121.6717,42.0224,2025-03-26T1700,49,162,0.6,29,15,93,82,106,颗粒物(PM10)
阜新市,玉龙新城,121.6506,42.0498,2025-03-26T1700,51,142,0.7,24,14,99,87,96,颗粒物(PM10)
阜阳市,市监测站,115.8277,32.8929,2025-03-26T1700,40,56,0.4,15,10,169,152,62,臭氧1小时
阜阳市,开发区,115.8554,32.8605,2025-03-26T1700,34,64,0.4,8,8,178,160,73,臭氧1小时
阜阳市,阜阳职业技术学院,115.784,32.8892,2025-03-26T1700,40,59,0.6,9,9,167,152,59,臭氧1小时
阜阳市,市规划展馆,115.7901,32.8613,2025-03-26T1700,53,68,0.6,11,9,186,166,83,臭氧1小时
阜阳市,枣园社区,115.836,32.9183,2025-03-26T1700,62,64,0.6,7,9,191,172,89,臭氧1小时
甘南藏族自治州,州政府,102.9099,34.9841,2025-03-26T1700,11,17,,2,,96,82,,
甘南藏族自治州,甘肃民族师范学院,102.8914,34.9617,2025-03-26T1700,3,47,0.2,2,8,100,89,47,
甘孜藏族自治州,水桥子,101.9603,30.0475,2025-03-26T1700,8,21,0.7,14,5,103,89,33,
甘孜藏族自治州,州环保局,101.9533,29.9972,2025-03-26T1700,3,8,0.4,6,5,115,102,36,
赣江新区,桑海产业园,115.8347,28.932,2025-03-26T1700,47,90,0.6,16,13,183,163,79,臭氧1小时
赣州市,通天岩,114.9017,25.9149,2025-03-26T1700,12,58,1.1,2,8,158,199,54,颗粒物(PM10)
赣州市,地委,114.9367,25.8664,2025-03-26T1700,36,61,1.4,10,1,121,155,56,颗粒物(PM10)
赣州市,气象台,114.9461,25.8481,2025-03-26T1700,29,55,0.5,11,7,134,164,53,颗粒物(PM10)
赣州市,市图书馆,114.9322,25.8333,2025-03-26T1700,36,57,1.0,14,4,125,163,54,颗粒物(PM10)
赣州市,华坚鞋城,114.8905,25.8471,2025-03-26T1700,30,56,0.8,13,8,136,171,53,颗粒物(PM10)
赣州市,赣县区卫计委,115.0093,25.8613,2025-03-26T1700,45,55,0.7,5,6,124,136,63,细颗粒物(PM2.5)
固原市,马园,106.2319,36.1417,2025-03-26T1700,63,318,0.5,9,4,98,96,184,颗粒物(PM10)
固原市,监测站,106.2792,36.0022,2025-03-26T1700,67,289,0.3,4,5,110,106,170,颗粒物(PM10)
固原市,新区,106.2375,36.0211,2025-03-26T1700,76,254,0.2,4,6,109,105,152,颗粒物(PM10)
固原市,原州区十五小,106.2177,35.9959,2025-03-26T1700,69,284,0.2,5,6,105,101,167,颗粒物(PM10)
广安市,小平旧居,106.6308,30.5278,2025-03-26T1700,,,,,,,,,
广安市,市委,106.6303,30.4576,2025-03-26T1700,37,40,0.4,10,14,175,130,69,臭氧1小时
广安市,友谊中学,106.6271,30.4663,2025-03-26T1700,37,60,0.5,21,8,179,136,74,臭氧1小时
广安市,广电花园,106.6388,30.4551,2025-03-26T1700,36,39,0.6,16,11,174,125,68,臭氧1小时
广安市,北辰小学,106.6351,30.4865,2025-03-26T1700,35,49,0.2,12,12,180,136,75,臭氧1小时
广元市,黑石坡,105.8945,32.4535,2025-03-26T1700,10,49,0.4,8,1,154,115,49,
广元市,老城,105.821,32.4444,2025-03-26T1700,18,32,0.4,5,1,170,124,63,臭氧1小时
广元市,监测站,105.8628,32.4287,2025-03-26T1700,15,34,0.4,13,9,168,125,60,臭氧1小时
广元市,经开区,105.8047,32.4166,2025-03-26T1700,29,48,0.6,11,9,154,114,49,
广州市,广雅中学,113.2347,23.1423,2025-03-26T1700,21,46,0.5,23,4,120,133,46,
广州市,市五中,113.2612,23.105,2025-03-26T1700,22,55,0.5,26,2,106,127,53,颗粒物(PM10)
广州市,广东商学院,113.3478,23.0916,2025-03-26T1700,20,39,0.6,23,5,95,122,39,
广州市,市八十六中,113.4332,23.1047,2025-03-26T1700,13,41,0.5,27,3,98,90,41,
广州市,番禺中学,113.3505,22.9483,2025-03-26T1700,18,43,0.4,21,4,94,125,43,
广州市,花都师范,113.2146,23.3916,2025-03-26T1700,26,66,0.4,21,5,161,144,58,颗粒物(PM10)
广州市,市监测站,113.2597,23.1331,2025-03-26T1700,16,42,0.5,22,5,106,120,42,
广州市,九龙镇镇龙,113.5618,23.312,2025-03-26T1700,27,54,0.4,23,6,151,122,52,颗粒物(PM10)
广州市,麓湖,113.2765,23.1544,2025-03-26T1700,16,41,0.6,20,4,119,135,41,
广州市,帽峰山森林公园,113.443,23.3035,2025-03-26T1700,16,56,0.6,18,6,154,136,53,颗粒物(PM10)
广州市,体育西,113.3221,23.1322,2025-03-26T1700,15,42,0.4,,4,105,131,,
广州市,从化街口,113.5717,23.5491,2025-03-26T1700,36,68,0.6,18,9,200,155,100,臭氧1小时
广州市,白云竹料,113.3472,23.3692,2025-03-26T1700,27,66,0.7,23,8,169,150,62,臭氧1小时
广州市,白云嘉禾,113.2981,23.237,2025-03-26T1700,19,48,0.2,25,4,119,130,48,
广州市,黄埔科学城,113.4256,23.1716,2025-03-26T1700,18,49,0.6,23,9,,100,,
广州市,番禺大学城,113.3942,23.0483,2025-03-26T1700,12,57,0.3,25,11,94,120,54,颗粒物(PM10)
广州市,南沙黄阁,113.4922,22.8168,2025-03-26T1700,11,56,0.5,14,5,81,84,53,颗粒物(PM10)
广州市,南沙街,113.5342,22.7896,2025-03-26T1700,9,35,0.5,13,4,77,83,35,
广州市,花都梯面,113.2902,23.5544,2025-03-26T1700,26,64,0.7,22,6,210,156,105,臭氧1小时
广州市,从化良口,113.7858,23.7478,2025-03-26T1700,45,59,0.6,13,8,188,153,85,臭氧1小时
广州市,增城荔城,113.8051,23.2614,2025-03-26T1700,26,53,0.3,14,6,157,138,52,颗粒物(PM10)
贵港市,德智高中,109.568,23.1478,2025-03-26T1700,,,,,,,,,
贵港市,江南子站,109.6047,23.0666,2025-03-26T1700,35,78,,10,5,121,110,,
贵港市,贵城子站,109.6014,23.0948,2025-03-26T1700,29,63,0.6,10,6,117,106,57,颗粒物(PM10)
贵港市,荷城子站,109.5669,23.1065,2025-03-26T1700,29,73,0.5,10,4,109,103,62,颗粒物(PM10)
贵港市,新世纪学校,109.5886,23.1172,2025-03-26T1700,29,70,0.6,9,7,120,108,60,颗粒物(PM10)
贵阳市,马鞍山,106.6899,26.5998,2025-03-26T1700,19,34,0.3,9,6,173,151,67,臭氧1小时
贵阳市,鉴湖路,106.6243,26.6266,2025-03-26T1700,17,53,0.3,7,8,160,141,52,颗粒物(PM10)
贵阳市,燕子冲,106.7487,26.6343,2025-03-26T1700,24,41,0.3,14,2,164,147,55,臭氧1小时
贵阳市,碧云窝,106.6555,26.4365,2025-03-26T1700,19,56,0.4,7,5,170,149,63,臭氧1小时
贵阳市,红边门,106.7109,26.6027,2025-03-26T1700,29,56,0.3,21,11,155,136,53,颗粒物(PM10)
贵阳市,新华路,106.7164,26.5699,2025-03-26T1700,22,48,0.5,9,75,146,137,48,
贵阳市,太慈桥,106.674,26.5424,2025-03-26T1700,17,51,0.4,9,6,162,144,53,臭氧1小时
贵阳市,桐木岭,106.805,26.3003,2025-03-26T1700,31,75,0.4,8,29,162,136,63,颗粒物(PM10)
贵阳市,花果园大街66号,106.6882,26.5695,2025-03-26T1700,24,41,0.2,13,5,157,139,50,
贵阳市,漓江路57号,106.6873,26.5169,2025-03-26T1700,19,56,0.4,15,10,160,137,53,颗粒物(PM10)
桂林市,电子科大尧山校区,110.4144,25.3167,2025-03-26T1700,,,,,,,,,
桂林市,龙隐路小学,110.3089,25.2708,2025-03-26T1700,44,62,0.5,8,9,148,132,62,细颗粒物(PM2.5)
桂林市,八中,110.2869,25.2178,2025-03-26T1700,53,84,0.7,8,8,142,125,73,细颗粒物(PM2.5)
桂林市,旅游学院,110.296,25.1253,2025-03-26T1700,44,83,0.6,9,8,144,126,67,颗粒物(PM10)
桂林市,环湖路276号,110.1835,25.2444,2025-03-26T1700,44,78,0.5,9,7,136,120,64,颗粒物(PM10)
桂林市,信义路13号,110.2803,25.2773,2025-03-26T1700,41,60,0.7,10,11,137,125,58,细颗粒物(PM2.5)
果洛藏族自治州,玛沁县大武镇,100.2561,34.4714,2025-03-26T1700,11,44,0.3,1,10,109,101,44,
哈尔滨市,岭北,126.5422,45.755,2025-03-26T1700,61,79,1.1,27,20,83,98,83,细颗粒物(PM2.5)
哈尔滨市,松北商大,126.561,45.8167,2025-03-26T1700,63,,0.7,29,6,54,72,85,细颗粒物(PM2.5)
哈尔滨市,阿城会宁,126.979,45.5419,2025-03-26T1700,47,49,0.7,10,2,78,88,65,细颗粒物(PM2.5)
哈尔滨市,南岗学府路,126.599,45.7222,2025-03-26T1700,49,76,0.7,26,6,60,73,68,细颗粒物(PM2.5)
哈尔滨市,太平宏伟公园,126.689,45.7733,2025-03-26T1700,78,,1.1,37,6,45,69,104,细颗粒物(PM2.5)
哈尔滨市,道外承德广场,126.635,45.7667,2025-03-26T1700,70,102,0.8,45,6,41,63,94,细颗粒物(PM2.5)
哈尔滨市,香坊红旗大街,126.685,45.7319,2025-03-26T1700,67,78,0.7,36,10,47,63,90,细颗粒物(PM2.5)
哈尔滨市,动力和平路,126.6411,45.7258,2025-03-26T1700,66,74,0.7,32,10,52,68,89,细颗粒物(PM2.5)
哈尔滨市,道里建国路,126.593,45.7478,2025-03-26T1700,69,,0.9,32,6,51,71,93,细颗粒物(PM2.5)
哈尔滨市,平房东轻厂,126.615,45.61,2025-03-26T1700,45,48,0.8,9,7,74,76,63,细颗粒物(PM2.5)
哈尔滨市,呼兰师专,126.595,45.9855,2025-03-26T1700,81,,0.8,27,8,61,49,108,细颗粒物(PM2.5)
哈尔滨市,省农科院,126.6206,45.6842,2025-03-26T1700,61,78,0.6,33,9,51,67,83,细颗粒物(PM2.5)
哈密市,地区监测站,93.5128,42.8172,2025-03-26T1700,33,382,0.1,5,7,77,78,246,颗粒物(PM10)
哈密市,哈密师范学校,93.4961,42.8328,2025-03-26T1700,55,285,0.2,6,4,83,83,168,颗粒物(PM10)
海北藏族自治州,海晏县西海镇,100.9048,36.9639,2025-03-26T1700,18,80,0.4,1,10,105,97,65,颗粒物(PM10)
海东市,平安区公安北苑,102.0738,36.5056,2025-03-26T1700,271,974,1.0,5,,92,92,500,颗粒物(PM10)
海口市,东寨港,110.576,19.9507,2025-03-26T1700,23,38,0.2,4,3,75,76,38,
海口市,海南大学,110.3232,20.0574,2025-03-26T1700,36,57,0.4,24,3,108,97,54,颗粒物(PM10)
海口市,秀英海南医院,110.283,20.0053,2025-03-26T1700,33,51,0.4,18,6,120,95,51,颗粒物(PM10)
海口市,海南师范大学,110.338,19.9969,2025-03-26T1700,31,53,0.3,12,4,152,110,52,颗粒物(PM10)
海口市,龙华路环保局宿舍,110.33,20.0356,2025-03-26T1700,30,47,0.4,15,6,133,105,47,
海口市,桂林洋子站,110.5111,19.9736,2025-03-26T1700,14,32,0.2,6,4,100,91,32,
海南藏族自治州,共和县恰卜恰镇,100.6188,36.2866,2025-03-26T1700,27,79,,,11,114,95,,
海西蒙古族藏族自治州,德令哈市,97.3731,37.3753,2025-03-26T1700,19,93,0.4,2,10,106,89,72,颗粒物(PM10)
邯郸市,东污水处理厂,114.5302,36.6116,2025-03-26T1700,22,103,0.4,29,4,72,72,77,颗粒物(PM10)
邯郸市,矿院,114.4918,36.5713,2025-03-26T1700,27,114,0.4,22,5,71,71,82,颗粒物(PM10)
邯郸市,丛台公园,114.484,36.6133,2025-03-26T1700,33,114,0.5,23,8,71,72,82,颗粒物(PM10)
邯郸市,香泉濮院小区,114.7895,36.5593,2025-03-26T1700,25,104,0.3,10,4,94,92,77,颗粒物(PM10)
邯郸市,永年区实验高中,114.50634,36.77178,2025-03-26T1700,41,119,0.6,30,11,63,69,85,颗粒物(PM10)
邯郸市,峰峰矿区临水派出所,114.20016,36.44293,2025-03-26T1700,47,129,0.9,14,14,83,81,90,颗粒物(PM10)
汉中市,汉川机床厂子校,106.9893,33.1842,2025-03-26T1700,29,36,0.5,5,9,176,143,70,臭氧1小时
汉中市,市监测站,107.0154,33.0706,2025-03-26T1700,27,40,0.6,9,7,163,129,54,臭氧1小时
汉中市,鑫源开发区,107.0089,33.1138,2025-03-26T1700,26,29,0.6,16,6,166,128,58,臭氧1小时
汉中市,南郑大河坎水厂,107.007,33.0323,2025-03-26T1700,29,38,0.6,8,8,156,124,49,
杭州市,滨江,120.2072,30.2111,2025-03-26T1700,40,78,0.7,19,8,190,158,88,臭氧1小时
杭州市,西溪,120.0633,30.2747,2025-03-26T1700,54,82,0.3,17,8,193,146,92,臭氧1小时
杭州市,下沙,120.3417,30.3150,2025-03-26T1700,55,93,0.5,26,8,213,162,107,臭氧1小时
杭州市,卧龙桥,120.1269,30.2456,2025-03-26T1700,58,78,0.5,12,8,191,145,89,臭氧1小时
杭州市,浙江农大,120.1903,30.2692,2025-03-26T1700,42,69,0.5,14,4,175,166,69,臭氧1小时
杭州市,和睦小学,120.1197,30.3119,2025-03-26T1700,49,75,0.7,11,9,184,147,80,臭氧1小时
杭州市,临平镇,120.3019,30.4183,2025-03-26T1700,48,65,0.6,22,7,217,166,109,臭氧1小时
杭州市,城厢镇,120.2753,30.1839,2025-03-26T1700,42,84,0.7,23,9,192,174,90,臭氧1小时
杭州市,云栖,120.0883,30.1808,2025-03-26T1700,46,79,0.7,31,10,176,132,70,臭氧1小时
杭州市,镇二中,119.9464,30.0494,2025-03-26T1700,57,82,0.7,20,8,180,145,78,细颗粒物(PM2.5)
杭州市,市府大楼,119.7183,30.2367,2025-03-26T1700,47,79,0.7,23,10,160,140,65,"颗粒物(PM10),细颗粒物(PM2.5)"
杭州市,消防大队,120.1556,30.2864,2025-03-26T1700,50,78,0.6,16,4,189,155,87,臭氧1小时
合肥市,明珠广场,117.1959,31.7848,2025-03-26T1700,53,78,0.6,15,8,192,182,90,臭氧1小时
合肥市,三里街,117.3072,31.8764,2025-03-26T1700,44,88,0.6,24,9,,145,,
合肥市,琥珀山庄,117.2588,31.8707,2025-03-26T1700,51,95,0.6,14,5,190,182,88,臭氧1小时
合肥市,董铺水库,117.1604,31.9052,2025-03-26T1700,53,90,0.5,6,5,200,190,100,臭氧1小时
合肥市,长江中路,117.25,31.8571,2025-03-26T1700,58,80,0.7,14,10,190,185,88,臭氧1小时
合肥市,庐阳区,117.266,31.9436,2025-03-26T1700,48,83,0.6,17,11,194,183,93,臭氧1小时
合肥市,瑶海区,117.3453,31.8616,2025-03-26T1700,46,95,0.7,21,10,175,171,73,颗粒物(PM10)
合肥市,包河区,117.3027,31.7964,2025-03-26T1700,46,78,0.7,8,8,185,176,82,臭氧1小时
合肥市,滨湖新区,117.2776,31.7385,2025-03-26T1700,48,80,0.6,17,7,177,174,72,臭氧1小时
合肥市,高新区,117.1318,31.8403,2025-03-26T1700,49,80,0.9,14,7,187,177,84,臭氧1小时
合肥市,高教基地,117.3803,31.9147,2025-03-26T1700,57,79,0.5,13,7,194,191,93,臭氧1小时
和田地区,地区环保局,79.924,37.0877,2025-03-26T1700,30,168,0.9,5,2,100,88,109,颗粒物(PM10)
和田地区,市环保局,79.9131,37.113,2025-03-26T1700,27,176,0.5,40,1,102,92,113,颗粒物(PM10)
河池市,东仁乐园,108.2011,24.715,2025-03-26T1700,70,104,0.9,10,10,149,112,94,细颗粒物(PM2.5)
河池市,市环保站,108.0497,24.6947,2025-03-26T1700,60,77,0.8,7,7,149,110,82,细颗粒物(PM2.5)
河池市,市疾控中心,108.0983,24.6989,2025-03-26T1700,58,83,0.8,,7,158,119,,
河源市,源西,114.6778,23.7569,2025-03-26T1700,33,67,0.7,16,5,190,140,88,臭氧1小时
河源市,东埔,114.6944,23.7586,2025-03-26T1700,34,63,0.6,22,5,204,150,102,臭氧1小时
河源市,老城,114.6892,23.7233,2025-03-26T1700,38,68,0.7,19,5,209,153,105,臭氧1小时
菏泽市,气象局,115.4208,35.2464,2025-03-26T1700,74,220,0.5,22,12,144,131,135,颗粒物(PM10)
菏泽市,定陶老年大学,115.5564,35.0891,2025-03-26T1700,66,210,0.7,23,9,142,140,130,颗粒物(PM10)
菏泽市,永昌路1号,115.4797,35.24401,2025-03-26T1700,73,228,0.4,16,10,143,136,139,颗粒物(PM10)
菏泽市,长城路999号,115.4715,35.2800,2025-03-26T1700,,224,,24,13,138,140,137,颗粒物(PM10)
贺州市,环保小区,111.5264,24.4172,2025-03-26T1700,35,66,0.8,11,10,165,139,58,颗粒物(PM10)
贺州市,政协大楼,111.5608,24.4078,2025-03-26T1700,43,56,0.7,14,10,151,133,60,细颗粒物(PM2.5)
贺州市,西湾,111.4744,24.4553,2025-03-26T1700,45,59,0.8,12,10,150,129,63,细颗粒物(PM2.5)
鹤壁市,市监测站,114.17,35.9019,2025-03-26T1700,46,144,0.9,23,16,101,90,97,颗粒物(PM10)
鹤壁市,市交警支队,114.2956,35.7511,2025-03-26T1700,33,110,0.2,15,8,103,95,80,颗粒物(PM10)
鹤壁市,迎宾馆,114.2878,35.7306,2025-03-26T1700,27,135,0.4,17,4,107,98,93,颗粒物(PM10)
鹤壁市,大新区,114.2617,35.6822,2025-03-26T1700,35,137,0.6,20,7,106,98,94,颗粒物(PM10)
鹤壁市,南山宾馆,114.1572,35.9603,2025-03-26T1700,64,148,0.7,24,9,103,83,99,颗粒物(PM10)
鹤岗市,哈啤分公司,130.2537,47.3416,2025-03-26T1700,14,18,0.6,6,15,63,70,20,
鹤岗市,斯达机电,130.2684,47.3086,2025-03-26T1700,19,24,0.3,4,13,67,73,28,
鹤岗市,东山纸板厂,130.3114,47.3388,2025-03-26T1700,13,39,0.3,10,14,70,76,39,
鹤岗市,五号水库,130.1097,47.3382,2025-03-26T1700,,,,,,,,,
黑河市,交通局,127.4833,50.2524,2025-03-26T1700,14,23,0.5,11,8,77,72,25,
黑河市,环保局,127.5144,50.2341,2025-03-26T1700,16,16,0.2,6,3,78,76,25,
黑河市,大黑河岛,127.5291,50.2472,2025-03-26T1700,3,,,10,1,64,64,,
衡水市,电机北厂,115.6838,37.7541,2025-03-26T1700,63,142,0.5,22,12,91,78,96,颗粒物(PM10)
衡水市,市监测站,115.6303,37.7316,2025-03-26T1700,46,118,0.5,25,11,86,80,84,颗粒物(PM10)
衡水市,市城管局,115.6683,37.7217,2025-03-26T1700,57,125,0.6,24,6,85,75,88,颗粒物(PM10)
衡水市,地表水厂,115.5989,37.5491,2025-03-26T1700,42,106,0.5,25,11,85,84,78,颗粒物(PM10)
衡阳市,原169医院,112.5003,26.9167,2025-03-26T1700,45,78,0.5,1,6,99,100,64,颗粒物(PM10)
衡阳市,衡阳化工总厂,112.6194,26.9258,2025-03-26T1700,63,85,0.7,8,,139,137,,
衡阳市,珠晖区环保局,112.6211,26.8956,2025-03-26T1700,48,71,0.9,6,8,141,139,67,细颗粒物(PM2.5)
衡阳市,市委党校,112.6197,26.8733,2025-03-26T1700,50,79,0.8,8,7,144,139,69,细颗粒物(PM2.5)
衡阳市,市监测站,112.6006,26.8919,2025-03-26T1700,51,71,0.8,10,9,137,134,70,细颗粒物(PM2.5)
衡阳市,真空机电公司,112.5664,26.9056,2025-03-26T1700,48,81,1.0,5,6,144,136,67,细颗粒物(PM2.5)
衡阳市,师范学院,112.6703,26.882,2025-03-26T1700,52,103,0.8,10,9,146,142,77,颗粒物(PM10)
红河哈尼族彝族自治州,污水处理厂,103.3772,23.3993,2025-03-26T1700,44,51,0.4,6,8,136,133,62,细颗粒物(PM2.5)
红河哈尼族彝族自治州,监测站,103.3861,23.35,2025-03-26T1700,37,51,0.3,4,10,140,139,53,细颗粒物(PM2.5)
红河哈尼族彝族自治州,州图书馆,103.3758,23.368,2025-03-26T1700,41,,0.3,5,6,137,134,58,细颗粒物(PM2.5)
呼和浩特市,呼市一监,111.6507,40.7517,2025-03-26T1700,39,171,0.3,3,8,99,101,111,颗粒物(PM10)
呼和浩特市,小召,111.6572,40.8033,2025-03-26T1700,32,188,0.3,8,2,95,98,119,颗粒物(PM10)
呼和浩特市,如意水处理厂,111.7516,40.8369,2025-03-26T1700,65,189,0.2,3,5,88,91,120,颗粒物(PM10)
呼和浩特市,二十九中,111.7276,40.8062,2025-03-26T1700,40,190,0.4,3,2,95,98,120,颗粒物(PM10)
呼和浩特市,工大金川校区,111.5512,40.7866,2025-03-26T1700,35,167,0.4,7,4,95,97,109,颗粒物(PM10)
呼和浩特市,化肥厂生活区,111.717,40.7612,2025-03-26T1700,30,181,0.3,6,5,95,97,116,颗粒物(PM10)
呼和浩特市,红旗小学,111.5968,40.8178,2025-03-26T1700,36,180,0.3,6,3,96,101,115,颗粒物(PM10)
呼和浩特市,海东办,111.6518,40.8389,2025-03-26T1700,36,178,0.4,1,4,94,97,114,颗粒物(PM10)
呼伦贝尔市,区环保局,119.7594,49.2261,2025-03-26T1700,51,,0.5,12,7,83,83,70,细颗粒物(PM2.5)
呼伦贝尔市,国华电力东,119.7512,49.1577,2025-03-26T1700,40,60,0.3,7,5,87,86,57,细颗粒物(PM2.5)
湖州市,城西水厂,120.0751,30.8669,2025-03-26T1700,46,78,0.8,14,8,178,148,73,臭氧1小时
湖州市,仁皇山新区,120.0830,30.8929,2025-03-26T1700,43,76,0.8,22,7,168,145,63,颗粒物(PM10)
湖州市,吴兴区站,120.1844,30.8596,2025-03-26T1700,48,75,0.5,15,8,177,151,72,臭氧1小时
湖州市,南浔区站,120.4148,30.8538,2025-03-26T1700,46,78,0.5,22,5,217,173,109,臭氧1小时
葫芦岛市,龙港区,120.9049,40.7211,2025-03-26T1700,63,100,0.7,19,9,112,102,85,细颗粒物(PM2.5)
葫芦岛市,化工街,120.8392,40.7514,2025-03-26T1700,61,136,0.7,24,16,110,102,93,颗粒物(PM10)
葫芦岛市,新区,120.8341,40.7073,2025-03-26T1700,64,107,0.7,22,10,125,115,87,细颗粒物(PM2.5)
葫芦岛市,东城区,120.8695,40.7677,2025-03-26T1700,62,114,0.7,26,7,110,100,84,细颗粒物(PM2.5)
怀化市,林科所,109.5981,27.5721,2025-03-26T1700,36,70,0.3,11,5,122,120,60,颗粒物(PM10)
怀化市,河西地税局,109.9453,27.5444,2025-03-26T1700,47,63,0.4,6,10,130,116,65,细颗粒物(PM2.5)
怀化市,市四医院,109.9781,27.5342,2025-03-26T1700,51,93,0.6,18,8,130,118,72,颗粒物(PM10)
怀化市,监测楼,109.9972,27.5578,2025-03-26T1700,47,66,0.5,8,9,134,121,65,细颗粒物(PM2.5)
怀化市,市委党校,110.0394,27.583,2025-03-26T1700,43,62,0.7,6,4,137,123,60,细颗粒物(PM2.5)
淮安市,钵池山,119.036,33.5981,2025-03-26T1700,46,68,0.8,11,14,209,170,105,臭氧1小时
淮安市,北京南路,119.007,33.575,2025-03-26T1700,44,78,0.9,20,12,211,178,106,臭氧1小时
淮安市,市监测站,118.989,33.6067,2025-03-26T1700,,,,,,,134,,
淮安市,楚州区监测站,119.135,33.5039,2025-03-26T1700,45,71,0.6,9,11,192,182,90,臭氧1小时
淮安市,新华书店,118.8755,33.2894,2025-03-26T1700,46,64,0.9,11,11,191,171,89,臭氧1小时
淮安市,承德北路606号,119.0288,33.6319,2025-03-26T1700,47,70,0.9,17,13,210,175,105,臭氧1小时
淮北市,监测站,116.8004,33.975,2025-03-26T1700,49,85,0.5,10,8,172,158,68,"颗粒物(PM10),细颗粒物(PM2.5)"
淮北市,烈山区政府,116.8091,33.9007,2025-03-26T1700,45,59,0.9,11,9,173,166,67,臭氧1小时
淮北市,杜集区检察院,116.8873,33.9836,2025-03-26T1700,50,84,0.8,12,9,188,168,85,臭氧1小时
淮北市,市博物馆,116.7923,33.9535,2025-03-26T1700,50,76,1.0,10,10,178,162,73,臭氧1小时
淮南市,潘集区政府,116.8305,32.7727,2025-03-26T1700,42,70,0.6,13,7,172,161,65,臭氧1小时
淮南市,谢家集区政府,116.8569,32.5951,2025-03-26T1700,47,68,0.5,11,9,186,172,83,臭氧1小时
淮南市,八公山区政府,116.8281,32.633,2025-03-26T1700,46,77,0.4,8,7,190,167,88,臭氧1小时
淮南市,焦岗湖风景区管理处,116.6325,32.6201,2025-03-26T1700,29,47,0.7,7,9,89,90,47,
淮南市,经济技术开发区消防队,117.0566,32.6531,2025-03-26T1700,24,73,0.5,9,10,223,182,112,臭氧1小时
淮南市,山南新区,117.0108,32.5893,2025-03-26T1700,64,75,0.6,4,12,212,176,106,臭氧1小时
淮南市,国庆中路369号,117.0031,32.6445,2025-03-26T1700,43,75,0.5,19,15,214,181,107,臭氧1小时
黄冈市,职工中心,114.9028,30.4742,2025-03-26T1700,,,,,,,132,,
黄冈市,红卫路,114.8858,30.4519,2025-03-26T1700,50,80,1.0,23,11,211,187,106,臭氧1小时
黄冈市,市林业局,114.9136,30.4445,2025-03-26T1700,50,90,0.8,20,13,216,187,108,臭氧1小时
黄南藏族自治州,同仁县隆务镇,102.0199,35.5102,2025-03-26T1700,281,830,0.4,12,13,78,80,500,颗粒物(PM10)
黄山市,延安路89号,118.2903,29.6963,2025-03-26T1700,42,,,2,7,181,27,,
黄山市,黄山区政府5号楼,118.1371,30.2756,2025-03-26T1700,39,57,0.8,5,10,168,143,60,臭氧1小时
黄山市,滨江东路7-2号,118.3354,29.7203,2025-03-26T1700,39,61,0.6,3,7,182,147,78,臭氧1小时
黄石市,沈家营,115.0601,30.2313,2025-03-26T1700,56,94,1.1,34,15,198,178,98,臭氧1小时
黄石市,铁山,114.8988,30.2019,2025-03-26T1700,43,57,0.6,12,17,185,174,82,臭氧1小时
黄石市,团城山,115.0307,30.2092,2025-03-26T1700,42,61,0.7,16,11,202,174,101,臭氧1小时
黄石市,笔架山北路,115.0235,30.1578,2025-03-26T1700,50,59,0.9,9,14,210,179,105,臭氧1小时
黄石市,磁湖东路29号,115.0780,30.21118,2025-03-26T1700,62,108,0.9,21,13,212,184,106,臭氧1小时
惠州市,河南岸金山湖子站,114.4183,23.0528,2025-03-26T1700,24,42,0.5,21,8,113,117,42,
惠州市,下埔横江三路子站,114.4053,23.0822,2025-03-26T1700,16,40,0.4,19,8,120,138,40,
惠州市,江北云山西路子站,114.4103,23.1142,2025-03-26T1700,12,36,0.5,16,10,121,142,38,
惠州市,惠阳区承修路船湖子站,114.4645,22.7833,2025-03-26T1700,13,30,0.5,14,8,91,93,30,
惠州市,大亚湾管委会子站,114.5317,22.7422,2025-03-26T1700,14,34,0.4,,8,91,94,,
惠州市,惠阳秋长,114.4338,22.8134,2025-03-26T1700,14,39,0.7,,15,99,102,,
惠州市,大亚湾霞涌,114.6517,22.775,2025-03-26T1700,9,21,0.4,15,8,78,83,25,
鸡西市,环保局,130.9762,45.3001,2025-03-26T1700,200,243,0.5,,7,77,99,250,细颗粒物(PM2.5)
鸡西市,第一中学,130.9429,45.3039,2025-03-26T1700,136,171,0.5,14,9,78,100,180,细颗粒物(PM2.5)
鸡西市,欧美日汽修厂,131.0207,45.3073,2025-03-26T1700,168,243,0.8,23,13,79,114,218,细颗粒物(PM2.5)
鸡西市,市政设施管理处,130.9967,45.3106,2025-03-26T1700,135,226,0.6,24,8,70,100,179,细颗粒物(PM2.5)
吉安市,红声器材厂,114.9754,27.0803,2025-03-26T1700,41,66,0.6,11,11,170,172,63,臭氧1小时
吉安市,市森林工业局,114.9658,27.0999,2025-03-26T1700,47,69,0.6,16,11,161,171,65,细颗粒物(PM2.5)
吉安市,市环境监测站,114.99,27.1312,2025-03-26T1700,42,73,0.4,12,14,166,173,62,颗粒物(PM10)
吉安市,青原区法院,115.0093,27.0968,2025-03-26T1700,46,,0.6,14,14,181,188,77,臭氧1小时
吉林市,哈达湾,126.54,43.8622,2025-03-26T1700,36,50,0.7,13,7,83,76,52,细颗粒物(PM2.5)
吉林市,东局子,126.5844,43.8358,2025-03-26T1700,37,,0.6,13,6,82,82,53,细颗粒物(PM2.5)
吉林市,电力学院,126.5052,43.8245,2025-03-26T1700,37,42,0.4,14,6,82,71,53,细颗粒物(PM2.5)
吉林市,江北,126.6133,43.8972,2025-03-26T1700,35,46,0.6,11,4,83,76,50,
吉林市,江南公园,126.555,43.8306,2025-03-26T1700,42,47,0.3,13,6,82,77,59,细颗粒物(PM2.5)
吉林市,丰满,126.7061,43.7133,2025-03-26T1700,42,,1.1,9,5,90,93,59,细颗粒物(PM2.5)
吉林市,九站,126.4739,43.953,2025-03-26T1700,37,50,0.6,12,11,81,72,53,细颗粒物(PM2.5)
济南市,科干所,116.9862,36.6114,2025-03-26T1700,49,166,0.6,26,11,117,100,108,颗粒物(PM10)
济南市,农科所,116.9376,36.665,2025-03-26T1700,44,178,0.5,30,11,103,88,114,颗粒物(PM10)
济南市,开发区,117.1265,36.6734,2025-03-26T1700,54,159,0.7,31,12,111,98,105,颗粒物(PM10)
济南市,省种子仓库,117.0624,36.6868,2025-03-26T1700,53,180,0.8,26,9,105,93,115,颗粒物(PM10)
济南市,机床二厂,116.9489,36.6447,2025-03-26T1700,83,188,0.8,35,12,91,85,119,颗粒物(PM10)
济南市,市监测站,117.0495,36.663,2025-03-26T1700,51,181,0.6,36,12,95,92,116,颗粒物(PM10)
济南市,长清党校,116.7675,36.5484,2025-03-26T1700,49,156,0.8,33,9,112,111,103,颗粒物(PM10)
济南市,技术学院,117.6795,36.229,2025-03-26T1700,53,163,0.7,24,19,174,169,107,颗粒物(PM10)
济南市,东山小学,117.532,36.6868,2025-03-26T1700,44,173,0.8,22,14,132,137,112,颗粒物(PM10)
济南市,泰兴公司,117.7161,36.2049,2025-03-26T1700,56,139,1.1,23,20,177,163,95,颗粒物(PM10)
济南市,莱芜战役纪念馆,117.6867,36.2171,2025-03-26T1700,,,,27,15,175,168,,
济南市,济阳区政府,117.1673,36.9782,2025-03-26T1700,54,186,0.5,26,11,84,84,118,颗粒物(PM10)
济南市,锦屏中学,117.1171,36.63,2025-03-26T1700,46,159,0.6,29,14,114,100,105,颗粒物(PM10)
济南市,济南四建,116.9814,36.6819,2025-03-26T1700,46,158,0.5,26,9,99,100,104,颗粒物(PM10)
济宁市,火炬城,116.6251,35.4302,2025-03-26T1700,66,154,0.6,21,16,155,156,102,颗粒物(PM10)
济宁市,电化厂,116.5491,35.4042,2025-03-26T1700,75,212,0.8,23,9,143,154,131,颗粒物(PM10)
济宁市,北湖一中,116.5814,35.3707,2025-03-26T1700,56,155,0.6,28,20,149,150,103,颗粒物(PM10)
济宁市,服务中心,116.8249,35.5593,2025-03-26T1700,63,133,0.9,25,13,157,159,92,颗粒物(PM10)
济宁市,市第七中学,116.5907,35.4054,2025-03-26T1700,58,154,0.5,22,11,149,153,102,颗粒物(PM10)
佳木斯市,佳纺,130.2751,46.8028,2025-03-26T1700,10,36,0.3,15,6,65,72,36,
佳木斯市,发电厂,130.3995,46.8307,2025-03-26T1700,11,,0.5,11,7,72,78,,
佳木斯市,环保局,130.3258,46.7975,2025-03-26T1700,10,32,0.3,20,4,,76,,
佳木斯市,十一中,130.3648,46.8032,2025-03-26T1700,14,34,0.3,21,4,62,74,34,
佳木斯市,四丰,130.3794,46.7588,2025-03-26T1700,10,21,0.7,9,1,65,75,21,
嘉兴市,清河小学,120.7436,30.778,2025-03-26T1700,53,99,0.8,38,8,237,188,119,臭氧1小时
嘉兴市,嘉兴学院,120.726,30.7478,2025-03-26T1700,51,94,0.9,34,10,238,189,119,臭氧1小时
嘉兴市,南湖区残联,120.7846,30.7525,2025-03-26T1700,64,100,0.6,33,12,253,203,127,臭氧1小时
嘉兴市,秀洲住建,120.6916,30.7739,2025-03-26T1700,47,88,0.6,32,9,253,200,127,臭氧1小时
嘉峪关市,气象局,98.2908,39.7711,2025-03-26T1700,17,78,0.9,8,12,82,84,64,颗粒物(PM10)
嘉峪关市,酒钢宾馆,98.2672,39.7978,2025-03-26T1700,27,97,0.5,7,48,86,85,74,颗粒物(PM10)
嘉峪关市,雄关区,98.2643,39.7724,2025-03-26T1700,24,84,0.7,20,18,75,78,67,颗粒物(PM10)
江门市,北街,113.1064,22.6058,2025-03-26T1700,26,45,0.4,5,2,92,96,45,
江门市,西区,113.0731,22.5835,2025-03-26T1700,25,52,0.4,14,6,100,108,51,颗粒物(PM10)
江门市,圭峰西,113.0219,22.5311,2025-03-26T1700,23,78,0.4,13,4,83,94,64,颗粒物(PM10)
江门市,东湖,113.0828,22.5947,2025-03-26T1700,16,48,0.3,10,8,106,110,48,
江门市,江海富民,113.1075,22.5647,2025-03-26T1700,13,50,0.3,9,6,96,98,50,
江门市,新会银湖,113.05,22.4667,2025-03-26T1700,14,45,0.4,11,2,83,90,45,
焦作市,影视城,113.1992,35.2590,2025-03-26T1700,,,,,,,,,
焦作市,太极体育中心,113.2725,35.2067,2025-03-26T1700,65,231,0.6,24,12,144,135,141,颗粒物(PM10)
焦作市,马村街道办,113.3137,35.2641,2025-03-26T1700,63,179,0.6,24,12,130,126,115,颗粒物(PM10)
焦作市,焦作技师学院,113.2465,35.2373,2025-03-26T1700,58,203,0.9,24,12,141,137,127,颗粒物(PM10)
焦作市,中站许衡医院,113.1656,35.2539,2025-03-26T1700,67,172,0.9,21,15,158,150,111,颗粒物(PM10)
焦作市,原李万街道办,113.2449,35.1803,2025-03-26T1700,56,162,0.5,24,19,145,134,106,颗粒物(PM10)
焦作市,新安路1731号,113.2340,35.2190,2025-03-26T1700,84,211,0.9,22,16,144,135,131,颗粒物(PM10)
揭阳市,新兴,116.3701,23.5345,2025-03-26T1700,30,61,0.7,16,9,113,130,56,颗粒物(PM10)
揭阳市,西马,116.3264,23.5443,2025-03-26T1700,19,70,0.7,10,10,122,126,60,颗粒物(PM10)
揭阳市,东兴,116.3611,23.5626,2025-03-26T1700,24,83,0.8,8,8,122,135,67,颗粒物(PM10)
揭阳市,渔湖,116.4151,23.5294,2025-03-26T1700,30,63,0.6,6,6,108,130,57,颗粒物(PM10)
揭阳市,曲溪,116.403,23.5699,2025-03-26T1700,35,56,0.5,14,4,128,147,53,颗粒物(PM10)
金昌市,天庆家园,102.1692,38.5167,2025-03-26T1700,17,62,0.7,3,10,92,98,56,颗粒物(PM10)
金昌市,金川区人防中心,102.1647,38.5371,2025-03-26T1700,21,91,0.3,4,13,90,92,71,颗粒物(PM10)
金昌市,长春路96号,102.1930,38.5319,2025-03-26T1700,17,128,0.5,4,12,88,96,89,颗粒物(PM10)
金华市,十五中,119.647,29.077,2025-03-26T1700,56,85,0.9,28,10,215,174,108,臭氧1小时
金华市,监测站,119.686,29.1029,2025-03-26T1700,52,100,0.6,26,8,226,162,113,臭氧1小时
金华市,气象局,119.656,29.1131,2025-03-26T1700,51,80,0.6,20,8,228,176,114,臭氧1小时
锦州市,南山,121.1115,41.0879,2025-03-26T1700,75,106,0.8,25,14,106,101,100,细颗粒物(PM2.5)
锦州市,开发区,121.0604,40.8428,2025-03-26T1700,71,110,1.1,40,34,96,97,95,细颗粒物(PM2.5)
锦州市,百股街道,121.1836,41.1119,2025-03-26T1700,63,107,0.8,24,7,110,99,85,细颗粒物(PM2.5)
锦州市,天安街道,121.1178,41.1222,2025-03-26T1700,64,111,0.8,26,14,100,94,87,细颗粒物(PM2.5)
锦州市,北湖公园,121.1303,41.1386,2025-03-26T1700,65,106,0.7,25,12,105,99,88,细颗粒物(PM2.5)
晋城市,自来水公司,112.85,35.5051,2025-03-26T1700,56,271,0.7,16,11,136,137,161,颗粒物(PM10)
晋城市,白云商贸,112.8318,35.4936,2025-03-26T1700,78,,0.6,18,10,139,138,104,细颗粒物(PM2.5)
晋城市,市环保局,112.8508,35.4887,2025-03-26T1700,53,260,0.3,13,10,140,138,155,颗粒物(PM10)
晋城市,技术学院,112.8676,35.4897,2025-03-26T1700,68,273,0.6,19,10,142,140,162,颗粒物(PM10)
晋城市,白马寺,112.8453,35.546,2025-03-26T1700,65,224,0.7,10,10,140,139,137,颗粒物(PM10)
晋城市,泽州一中,112.8271,35.4828,2025-03-26T1700,80,251,0.6,13,12,142,140,151,颗粒物(PM10)
晋中市,南都小区,112.7249,37.7067,2025-03-26T1700,48,270,0.4,13,5,112,105,160,颗粒物(PM10)
晋中市,榆次区政府,112.6991,37.6982,2025-03-26T1700,39,305,0.4,16,5,110,107,178,颗粒物(PM10)
晋中市,榆次三中,112.7195,37.6828,2025-03-26T1700,56,320,0.3,12,3,114,108,185,颗粒物(PM10)
晋中市,迎宾街26号,112.7478,37.6954,2025-03-26T1700,51,288,0.5,12,6,118,110,169,颗粒物(PM10)
荆门市,竹园小学,112.2014,31.0481,2025-03-26T1700,57,90,0.8,9,8,184,159,80,臭氧1小时
荆门市,掇刀,112.1969,30.9891,2025-03-26T1700,64,95,0.6,8,9,205,175,103,臭氧1小时
荆门市,石化一小,112.2213,31.0386,2025-03-26T1700,61,85,0.6,14,9,178,158,83,细颗粒物(PM2.5)
荆门市,西山林语,112.1849,31.0362,2025-03-26T1700,54,87,0.4,9,8,182,159,78,臭氧1小时
荆门市,龙泉中学南校,112.1632,31.0138,2025-03-26T1700,64,96,0.7,4,9,174,150,87,细颗粒物(PM2.5)
荆州市,市图书馆,112.2494,30.3197,2025-03-26T1700,60,109,0.7,15,7,170,154,82,细颗粒物(PM2.5)
荆州市,市委党校,112.2008,30.3544,2025-03-26T1700,57,79,,,9,171,155,,
荆州市,管委会,112.2747,30.3122,2025-03-26T1700,64,88,0.6,12,10,176,159,87,细颗粒物(PM2.5)
荆州市,学苑路85号,112.1722,30.3366,2025-03-26T1700,60,,0.7,8,8,167,152,82,细颗粒物(PM2.5)
景德镇市,王港中学,117.3102,29.3867,2025-03-26T1700,,,,,,,,,
景德镇市,老干部活动中心,117.2117,29.2933,2025-03-26T1700,52,77,0.5,12,13,184,162,80,臭氧1小时
景德镇市,兽医站,117.1894,29.2789,2025-03-26T1700,46,70,0.8,15,7,183,161,79,臭氧1小时
景德镇市,台达陶瓷,117.1547,29.2617,2025-03-26T1700,50,101,0.6,18,10,177,161,76,颗粒物(PM10)
景德镇市,陶研所,117.2461,29.2956,2025-03-26T1700,53,67,0.7,11,5,189,164,87,臭氧1小时
九江市,十里,115.9872,29.6815,2025-03-26T1700,52,71,0.6,10,7,194,179,93,臭氧1小时
九江市,茅山头,115.9584,29.7046,2025-03-26T1700,58,77,0.5,12,8,178,159,79,细颗粒物(PM2.5)
九江市,西园,115.9877,29.7295,2025-03-26T1700,49,78,0.9,10,10,176,164,70,臭氧1小时
九江市,综合工业园,115.9114,29.6038,2025-03-26T1700,50,92,0.8,15,12,190,176,88,臭氧1小时
九江市,石化总厂,116.0721,29.7535,2025-03-26T1700,35,85,0.9,20,16,184,173,80,臭氧1小时
九江市,庐山气象台,115.9773,29.5698,2025-03-26T1700,49,59,0.5,10,14,180,167,75,臭氧1小时
九江市,外国语学校,116.0254,29.6994,2025-03-26T1700,48,93,0.7,18,6,190,171,88,臭氧1小时
九江市,莲花大道8号,116.0102,29.6594,2025-03-26T1700,54,75,0.7,5,11,187,171,84,臭氧1小时
酒泉市,玉门东路5号,98.4958,39.7339,2025-03-26T1700,28,78,0.2,2,6,86,85,64,颗粒物(PM10)
酒泉市,北大街108号,98.5099,39.7506,2025-03-26T1700,25,68,0.2,4,7,84,84,59,颗粒物(PM10)
喀什地区,巡警大队,76.0072,39.4467,2025-03-26T1700,581,2277,0.4,9,3,78,84,500,"颗粒物(PM10),细颗粒物(PM2.5)"
喀什地区,吾办,75.9755,39.4694,2025-03-26T1700,533,1772,,19,3,,83,500,"颗粒物(PM10),细颗粒物(PM2.5)"
喀什地区,老干局,75.9483,39.4689,2025-03-26T1700,552,2293,0.4,8,3,81,89,500,"颗粒物(PM10),细颗粒物(PM2.5)"
开封市,肿瘤医院,114.3389,34.7781,2025-03-26T1700,56,227,0.6,15,12,151,112,139,颗粒物(PM10)
开封市,世纪星幼儿园,114.2885,34.7965,2025-03-26T1700,56,238,0.7,22,7,152,119,144,颗粒物(PM10)
开封市,龙亭公园,114.3438,34.8106,2025-03-26T1700,63,222,0.4,21,6,148,118,136,颗粒物(PM10)
开封市,汴京公园,114.3644,34.7964,2025-03-26T1700,63,,0.9,24,9,150,123,,
开封市,技师学院,114.2485,34.8306,2025-03-26T1700,70,221,1.0,22,16,,85,136,颗粒物(PM10)
开封市,祥符区生态环境局,114.4644,34.7556,2025-03-26T1700,62,251,0.7,20,9,137,114,151,颗粒物(PM10)
克拉玛依市,长征新村,84.895,45.6094,2025-03-26T1700,11,18,0.2,5,6,87,80,28,
克拉玛依市,南林小区,84.8988,45.5893,2025-03-26T1700,6,18,0.3,2,4,85,80,27,
克拉玛依市,独山子区,84.905,44.3396,2025-03-26T1700,10,66,0.4,6,9,91,86,58,颗粒物(PM10)
克拉玛依市,乌尔禾区商贸楼,85.6979,46.098,2025-03-26T1700,,,0.3,3,4,86,76,,
克拉玛依市,白碱滩区新站,85.1045,45.6899,2025-03-26T1700,3,20,0.1,4,7,80,75,25,
克孜勒苏柯尔克孜自治州,市人民政府,76.1454,39.7142,2025-03-26T1700,410,1754,0.5,1,4,90,99,500,颗粒物(PM10)
克孜勒苏柯尔克孜自治州,克州文化中心,76.1658,39.7157,2025-03-26T1700,369,2055,0.4,4,6,87,99,500,颗粒物(PM10)
昆明市,呈贡新区,102.8204,24.8886,2025-03-26T1700,15,33,0.3,9,6,149,143,47,
昆明市,西山森林公园,102.6251,24.9608,2025-03-26T1700,,,,,,,,,
昆明市,龙泉镇,102.7252,25.0902,2025-03-26T1700,11,23,0.4,7,7,151,144,48,
昆明市,东风东路,102.7266,25.0375,2025-03-26T1700,12,24,0.3,12,8,145,140,46,
昆明市,金鼎山,102.6742,25.0669,2025-03-26T1700,8,30,0.4,12,4,140,136,44,
昆明市,碧鸡广场,102.6644,25.0401,2025-03-26T1700,3,18,0.3,8,7,148,142,47,
昆明市,官渡区博物馆,102.7494,25.0119,2025-03-26T1700,13,35,0.3,7,7,150,145,47,
昆明市,青年创业园,102.8017,24.8336,2025-03-26T1700,22,,0.2,,,148,142,,
昆明市,昆明学院,102.7997,24.9786,2025-03-26T1700,14,22,0.1,8,4,149,146,47,
昆明市,晋宁区生态环境分局,102.5967,24.6736,2025-03-26T1700,14,19,0.3,4,6,155,147,49,
昆明市,云天化总部,102.6678,24.9856,2025-03-26T1700,9,14,0.1,8,8,154,151,49,
拉萨市,八廓街,91.1319,29.6514,2025-03-26T1700,3,10,0.4,7,7,123,101,39,
拉萨市,市环保局,91.1221,29.6747,2025-03-26T1700,6,15,0.6,10,7,118,96,37,
拉萨市,区监测站,91.0874,29.6475,2025-03-26T1700,3,9,0.3,,,118,98,,
拉萨市,西藏大学,91.1774,29.6541,2025-03-26T1700,6,12,0.7,9,4,115,94,36,
拉萨市,区辐射站,90.9798,29.6588,2025-03-26T1700,3,8,0.4,12,7,111,90,35,
拉萨市,拉萨火车站,91.0834,29.6292,2025-03-26T1700,6,8,0.2,4,3,114,86,36,
来宾市,来宾技工学校,109.2203,23.7256,2025-03-26T1700,47,90,0.7,11,6,133,109,70,颗粒物(PM10)
来宾市,兴宾区政府,109.1781,23.7297,2025-03-26T1700,31,61,0.8,8,8,142,116,56,颗粒物(PM10)
来宾市,中南小学,109.2416,23.7461,2025-03-26T1700,30,83,0.7,7,7,128,103,67,颗粒物(PM10)
兰州市,榆中兰大校区,104.1373,35.9454,2025-03-26T1700,,,,,,,,,
兰州市,铁路设计院,103.831,36.0464,2025-03-26T1700,77,417,0.4,15,6,95,94,296,颗粒物(PM10)
兰州市,百合公园,103.7439,36.0842,2025-03-26T1700,76,467,0.3,3,6,98,95,359,颗粒物(PM10)
兰州市,和平,103.9611,35.998,2025-03-26T1700,108,448,0.7,5,7,104,100,335,颗粒物(PM10)
兰州市,庄浪东路808号,103.6293,36.0938,2025-03-26T1700,101,487,0.4,,9,94,96,384,颗粒物(PM10)
兰州市,安宁西路88号,103.7251,36.1043,2025-03-26T1700,100,644,0.2,2,5,102,101,500,颗粒物(PM10)
兰州市,北滨河东路1号,103.8470,36.0676,2025-03-26T1700,88,471,0.5,9,9,105,104,364,颗粒物(PM10)
兰州新区,新区管委会,103.6633,36.533,2025-03-26T1700,102,585,0.3,5,9,106,102,485,颗粒物(PM10)
兰州新区,舟曲中学,103.6975,36.4789,2025-03-26T1700,274,859,0.5,7,2,103,102,500,颗粒物(PM10)
廊坊市,药材公司,116.6708,39.5111,2025-03-26T1700,,128,0.7,23,6,104,95,,
廊坊市,开发区,116.7214,39.5589,2025-03-26T1700,56,134,0.7,23,6,111,98,92,颗粒物(PM10)
廊坊市,北华航天学院,116.7244,39.5269,2025-03-26T1700,49,128,0.7,24,7,100,92,89,颗粒物(PM10)
廊坊市,河北工业大学,116.7022,39.5453,2025-03-26T1700,51,114,0.6,19,9,108,98,82,颗粒物(PM10)
乐山市,花湖湾,103.7723,29.5462,2025-03-26T1700,33,49,0.4,13,10,226,171,113,臭氧1小时
乐山市,牛耳桥,103.7627,29.5844,2025-03-26T1700,31,50,0.6,16,10,205,158,103,臭氧1小时
乐山市,市第三水厂,103.7508,29.6006,2025-03-26T1700,31,50,0.4,10,7,211,166,106,臭氧1小时
乐山市,市监测站,103.7571,29.5664,2025-03-26T1700,40,55,0.6,11,8,207,179,104,臭氧1小时
乐山市,理工大学,103.7311,29.5628,2025-03-26T1700,36,59,0.5,15,9,228,167,114,臭氧1小时
丽江市,西南郊,100.2143,26.8576,2025-03-26T1700,,,,,,,,,
丽江市,丽江古城,100.2497,26.8802,2025-03-26T1700,9,15,0.4,8,8,97,99,31,
丽江市,市中心,100.2203,26.8906,2025-03-26T1700,3,26,0.5,15,9,96,94,30,
丽水市,监测站大楼,119.914,28.4514,2025-03-26T1700,69,104,1.0,12,4,161,128,93,细颗粒物(PM2.5)
丽水市,莲都小学,119.93,28.4586,2025-03-26T1700,55,113,0.8,9,4,166,136,82,颗粒物(PM10)
丽水市,余庄前,119.879,28.4231,2025-03-26T1700,61,100,0.9,10,6,167,130,83,细颗粒物(PM2.5)
连云港市,市环境监测站,119.176,34.5885,2025-03-26T1700,44,102,0.5,37,51,134,164,76,颗粒物(PM10)
连云港市,德源药业,119.3581,34.6972,2025-03-26T1700,46,127,0.5,55,12,144,117,89,颗粒物(PM10)
连云港市,新城一中,119.178,34.844,2025-03-26T1700,59,140,0.9,20,8,139,120,95,颗粒物(PM10)
连云港市,胡沟管理处,119.3608,34.7519,2025-03-26T1700,46,83,0.6,24,6,132,121,67,颗粒物(PM10)
连云港市,矿山设计院,119.1478,34.5911,2025-03-26T1700,44,119,0.7,48,10,115,149,85,颗粒物(PM10)
连云港市,工贸学校,119.2413,34.6539,2025-03-26T1700,53,124,0.8,39,10,120,141,87,颗粒物(PM10)
连云港市,连云街道,119.4172,34.7341,2025-03-26T1700,60,168,0.6,101,11,57,124,109,颗粒物(PM10)
凉山彝族自治州,青龙寺,102.3431,27.8099,2025-03-26T1700,8,25,0.6,5,6,125,120,40,
凉山彝族自治州,邛海宾馆,102.2721,27.8415,2025-03-26T1700,17,39,0.3,9,9,129,112,41,
凉山彝族自治州,西昌市政府,102.2625,27.898,2025-03-26T1700,23,33,0.6,9,15,117,108,37,
凉山彝族自治州,凉山州政府,102.2685,27.8851,2025-03-26T1700,17,31,0.4,10,12,126,114,40,
凉山彝族自治州,凯乐南路30号,102.2342,27.8859,2025-03-26T1700,19,38,0.7,12,13,119,101,38,
辽阳市,宏伟区,123.2,41.1953,2025-03-26T1700,39,69,1.1,12,11,103,89,60,颗粒物(PM10)
辽阳市,新华园,123.1683,41.2495,2025-03-26T1700,46,66,0.9,18,9,96,66,64,细颗粒物(PM2.5)
辽阳市,滨河路,123.2354,41.2639,2025-03-26T1700,38,76,0.6,16,,78,66,,
辽阳市,铁西工业园,123.149,41.2991,2025-03-26T1700,42,77,0.8,17,9,100,72,64,颗粒物(PM10)
辽源市,环保局,125.1358,42.8845,2025-03-26T1700,42,74,0.9,34,5,66,56,62,颗粒物(PM10)
辽源市,银鹰制药,125.0764,42.9078,2025-03-26T1700,53,67,1.0,26,45,61,57,73,细颗粒物(PM2.5)
聊城市,区政府,115.9848,36.4372,2025-03-26T1700,45,119,0.7,27,12,88,86,85,颗粒物(PM10)
聊城市,聊大东校,116.0072,36.4343,2025-03-26T1700,56,173,0.7,25,12,90,87,112,颗粒物(PM10)
聊城市,监控中心,115.9819,36.4978,2025-03-26T1700,56,171,0.6,21,14,86,80,111,颗粒物(PM10)
聊城市,九州社区,116.0445,36.4361,2025-03-26T1700,48,164,0.5,24,9,95,91,107,颗粒物(PM10)
聊城市,星美广场,116.0567,36.4608,2025-03-26T1700,47,164,0.8,20,12,87,82,107,颗粒物(PM10)
林芝市,林芝监测站,94.3681,29.6376,2025-03-26T1700,6,13,0.1,4,4,96,87,30,
林芝市,林芝人民医院,94.3616,29.6616,2025-03-26T1700,3,15,0,2,7,94,84,30,
临沧市,市环保局,100.0781,23.8982,2025-03-26T1700,28,30,0.3,8,9,149,125,47,
临沧市,市气象局,100.0894,23.8822,2025-03-26T1700,25,28,0.3,8,8,152,124,48,
临汾市,临钢医院,111.5531,36.0783,2025-03-26T1700,132,681,0.3,2,4,103,94,500,颗粒物(PM10)
临汾市,技工学校,111.5028,36.0714,2025-03-26T1700,116,563,0.4,5,5,101,92,463,颗粒物(PM10)
临汾市,市委,111.5018,36.0855,2025-03-26T1700,139,618,0.2,7,2,104,93,500,颗粒物(PM10)
临汾市,唐尧大酒店,111.505,36.1014,2025-03-26T1700,117,544,0.3,4,5,102,88,444,颗粒物(PM10)
临汾市,启星学校,111.4879,36.0530,2025-03-26T1700,140,608,0.2,2,2,99,92,500,颗粒物(PM10)
临夏回族自治州,滨河东路1号,103.2464,35.6123,2025-03-26T1700,200,1202,0.3,8,10,88,82,500,颗粒物(PM10)
临夏回族自治州,新华街21号,103.2093,35.5995,2025-03-26T1700,294,1084,0.3,9,14,90,81,500,颗粒物(PM10)
临沂市,沂河小区,118.3429,35.0532,2025-03-26T1700,39,80,0.6,7,12,177,156,72,臭氧1小时
临沂市,鲁南制药厂,118.295,35.0583,2025-03-26T1700,42,78,0.4,14,12,197,165,97,臭氧1小时
临沂市,新光毛纺厂,118.2794,34.9976,2025-03-26T1700,38,92,0.7,17,10,187,162,84,臭氧1小时
临沂市,河东保险公司,118.3956,35.0888,2025-03-26T1700,32,73,0.4,15,9,195,171,94,臭氧1小时
临沂市,十里堡居委,118.3564,35.0215,2025-03-26T1700,36,78,0.8,20,8,187,162,84,臭氧1小时
临沂市,南坊新区,118.3604,35.1084,2025-03-26T1700,34,80,0.6,12,10,186,160,83,臭氧1小时
临沂市,皇山花园小区,118.3920,35.0300,2025-03-26T1700,36,78,0.6,11,12,186,163,83,臭氧1小时
柳州市,柳东小学,109.4856,24.3895,2025-03-26T1700,34,,,13,10,130,118,,
柳州市,环保监测站,109.4157,24.3277,2025-03-26T1700,50,87,0.8,16,11,129,113,69,"颗粒物(PM10),细颗粒物(PM2.5)"
柳州市,河西水厂,109.389,24.341,2025-03-26T1700,33,92,0.6,15,8,140,119,71,颗粒物(PM10)
柳州市,市四中,109.4311,24.2921,2025-03-26T1700,39,87,0.2,13,10,141,122,69,颗粒物(PM10)
柳州市,市九中,109.4006,24.3631,2025-03-26T1700,28,104,0.7,11,9,134,115,77,颗粒物(PM10)
柳州市,古亭山,109.4958,24.3134,2025-03-26T1700,40,87,0.6,8,8,132,122,69,颗粒物(PM10)
柳州市,市二中,109.5422,24.3996,2025-03-26T1700,34,74,0.3,11,12,142,126,62,颗粒物(PM10)
六安市,监测大楼,116.5079,31.737,2025-03-26T1700,31,,0.6,29,7,157,153,50,
六安市,皖西学院,116.4738,31.7643,2025-03-26T1700,24,43,0.5,6,5,159,153,50,
六安市,朝阳厂,116.4996,31.7905,2025-03-26T1700,25,32,0.5,11,5,144,139,45,
六安市,开发区,116.5567,31.7886,2025-03-26T1700,25,39,0.5,12,5,159,154,50,
六盘水市,窑上,104.8,26.5892,2025-03-26T1700,31,,0.3,4,5,132,131,,
六盘水市,黄土坡,104.83,26.5917,2025-03-26T1700,8,26,0.3,7,9,135,134,43,
六盘水市,水钢,104.89,26.5939,2025-03-26T1700,20,134,,5,9,132,128,,
六盘水市,民中,104.8475,26.5894,2025-03-26T1700,7,18,0.2,4,7,131,129,41,
六盘水市,双水,104.9544,26.5506,2025-03-26T1700,9,31,0.4,7,8,134,132,42,
龙岩市,龙岩师专,117.0189,25.1181,2025-03-26T1700,,,,,,,,,
龙岩市,龙岩市监测站,117.0217,25.1033,2025-03-26T1700,66,83,0.4,,,146,,,
龙岩市,闽西职业技术学院,117.0258,25.0661,2025-03-26T1700,38,49,0.5,8,3,136,138,54,细颗粒物(PM2.5)
龙岩市,龙岩学院,117.0196,25.0306,2025-03-26T1700,37,54,0.6,6,3,150,155,53,细颗粒物(PM2.5)
陇南市,汉王镇固水子,105.0822,33.3261,2025-03-26T1700,,,,,,,,,
陇南市,滨江中学,104.9339,33.3826,2025-03-26T1700,103,446,0.4,6,6,105,112,333,颗粒物(PM10)
陇南市,市总工会,104.955,33.371,2025-03-26T1700,131,436,0.4,5,8,111,119,320,颗粒物(PM10)
娄底市,电视发射台,111.9589,27.8901,2025-03-26T1700,44,116,0.6,9,8,140,133,83,颗粒物(PM10)
娄底市,市监测站,111.9975,27.725,2025-03-26T1700,65,73,0.5,17,14,147,132,88,细颗粒物(PM2.5)
娄底市,市委党校,112.0194,27.7314,2025-03-26T1700,58,83,0.6,7,4,146,131,79,细颗粒物(PM2.5)
娄底市,涟钢,111.9561,27.7569,2025-03-26T1700,63,90,1.0,34,44,118,109,85,细颗粒物(PM2.5)
娄底市,市政府,111.9892,27.7044,2025-03-26T1700,60,79,0.3,4,10,148,133,82,细颗粒物(PM2.5)
泸州市,九狮山,105.4324,28.9634,2025-03-26T1700,,,,,,,,,
泸州市,小市上码头,105.4427,28.9063,2025-03-26T1700,36,46,0.4,18,11,220,170,110,臭氧1小时
泸州市,兰田宪桥,105.4241,28.8573,2025-03-26T1700,39,48,0.5,,,209,161,105,臭氧1小时
泸州市,市环监站,105.4379,28.8833,2025-03-26T1700,,,,,,,,,
泸州市,纳溪中医医院,105.3689,28.7783,2025-03-26T1700,31,84,0.6,20,8,215,166,108,臭氧1小时
吕梁市,环保局,111.1406,37.5211,2025-03-26T1700,119,510,0.2,3,1,102,88,410,颗粒物(PM10)
吕梁市,自来水公司,111.1297,37.5136,2025-03-26T1700,113,489,0.2,4,1,104,89,387,颗粒物(PM10)
吕梁市,马茂庄小学,111.1283,37.51,2025-03-26T1700,152,560,0.3,5,1,105,91,460,颗粒物(PM10)
洛阳市,市委党校,112.3931,34.6516,2025-03-26T1700,74,289,0.6,14,6,138,140,170,颗粒物(PM10)
洛阳市,河南林校,112.494,34.6886,2025-03-26T1700,73,366,0.7,8,7,150,145,223,颗粒物(PM10)
洛阳市,开发区管委会,112.3844,34.623,2025-03-26T1700,75,282,0.4,14,10,151,148,166,颗粒物(PM10)
洛阳市,市委新办公区,112.4267,34.6258,2025-03-26T1700,81,275,1.0,16,9,154,151,163,颗粒物(PM10)
洛阳市,伊滨,112.6005,34.6326,2025-03-26T1700,67,218,0.6,23,13,197,157,134,颗粒物(PM10)
洛阳市,中移产业园,112.4951,34.6332,2025-03-26T1700,83,316,0.6,14,10,142,138,183,颗粒物(PM10)
洛阳市,吉利监测站,112.5736,34.8993,2025-03-26T1700,98,221,0.6,21,14,179,153,136,颗粒物(PM10)
洛阳市,河科大西苑校区,112.3677,34.662,2025-03-26T1700,60,339,0.5,16,10,134,132,195,颗粒物(PM10)
洛阳市,英才小学,112.4388,34.6781,2025-03-26T1700,86,341,0.6,15,10,140,156,196,颗粒物(PM10)
洛阳市,春都路1号院,112.4600,34.6949,2025-03-26T1700,72,383,0.7,13,9,148,146,248,颗粒物(PM10)
漯河市,三五一五工厂,114.051,33.5699,2025-03-26T1700,53,90,0.5,7,6,160,148,73,细颗粒物(PM2.5)
漯河市,漯河大学,114.0055,33.5698,2025-03-26T1700,29,73,0.5,11,7,160,148,62,颗粒物(PM10)
漯河市,市水利局,114.0138,33.5828,2025-03-26T1700,39,92,0.3,12,5,160,152,71,颗粒物(PM10)
漯河市,市广电局,114.0261,33.5698,2025-03-26T1700,36,71,0.5,8,6,161,149,61,颗粒物(PM10)
漯河市,市图书馆,113.9749,33.5664,2025-03-26T1700,21,73,0.5,12,5,164,148,62,颗粒物(PM10)
漯河市,韶山路11号,114.0892,33.5882,2025-03-26T1700,44,82,0.5,13,4,165,157,66,颗粒物(PM10)
马鞍山市,湖东路四小,118.5092,31.6837,2025-03-26T1700,39,82,0.8,15,11,219,194,110,臭氧1小时
马鞍山市,开发区,118.5024,31.6449,2025-03-26T1700,54,85,0.8,22,8,210,187,105,臭氧1小时
马鞍山市,濮塘,118.6245,31.7241,2025-03-26T1700,57,85,0.9,15,13,243,199,122,臭氧1小时
马鞍山市,雨山,118.4918,31.6809,2025-03-26T1700,53,79,1.0,16,12,211,189,106,臭氧1小时
马鞍山市,慈湖高新区,118.5274,31.72227,2025-03-26T1700,53,91,0.7,23,9,210,179,105,臭氧1小时
茂名市,电白南海,111.0286,21.4688,2025-03-26T1700,39,56,0.5,,1,68,66,,
茂名市,茂石化七小,110.9294,21.6533,2025-03-26T1700,14,44,0.7,4,1,65,69,44,
茂名市,健康路,110.9107,21.6687,2025-03-26T1700,12,41,0.5,7,2,83,84,41,
茂名市,高岭,110.8592,21.6828,2025-03-26T1700,17,56,0.4,8,3,75,76,53,颗粒物(PM10)
茂名市,电白水东,111.01,21.5165,2025-03-26T1700,7,29,0.2,,2,66,65,,
眉山市,黑龙滩水库,104.0308,30.0478,2025-03-26T1700,14,29,0.6,2,6,196,169,95,臭氧1小时
眉山市,气象局,103.8416,30.0874,2025-03-26T1700,36,54,0.6,,8,216,,108,臭氧1小时
眉山市,市委党校,103.8578,30.0744,2025-03-26T1700,24,46,0.4,13,17,190,163,88,臭氧1小时
眉山市,区人社局,103.8291,30.0564,2025-03-26T1700,22,40,0.6,19,19,210,166,105,臭氧1小时
梅州市,梅江月梅,116.1231,24.3284,2025-03-26T1700,37,37,0.5,8,4,143,146,53,细颗粒物(PM2.5)
梅州市,梅县新城,116.0797,24.2719,2025-03-26T1700,34,55,0.6,16,6,139,136,53,颗粒物(PM10)
梅州市,环境监控中心,116.1248,24.2654,2025-03-26T1700,34,47,0.6,15,7,141,134,49,
梅州市,梅龙,116.1233,24.2991,2025-03-26T1700,35,51,0.5,10,7,140,134,51,颗粒物(PM10)
绵阳市,富乐山,104.7778,31.4741,2025-03-26T1700,30,43,0.4,16,6,172,148,65,臭氧1小时
绵阳市,高新区自来水公司,104.6697,31.4668,2025-03-26T1700,24,48,0.4,12,6,172,146,65,臭氧1小时
绵阳市,三水厂,104.7287,31.5075,2025-03-26T1700,30,58,0.4,10,9,182,149,78,臭氧1小时
绵阳市,西科大附属小学,104.69,31.5322,2025-03-26T1700,33,53,,10,8,173,165,,
绵阳市,安州区旅游局,104.5648,31.5343,2025-03-26T1700,22,48,0.4,12,12,163,136,54,臭氧1小时
绵阳市,绵阳市气象局,104.7651,31.4531,2025-03-26T1700,16,46,0.5,15,8,159,126,50,
牡丹江市,环保大楼,129.61,44.561,2025-03-26T1700,29,37,0.3,15,5,75,70,42,
牡丹江市,文化广场,129.6115,44.5782,2025-03-26T1700,27,39,0.5,26,10,65,71,39,
牡丹江市,第一医院,129.5904,44.5963,2025-03-26T1700,30,,0.1,18,10,76,78,43,
牡丹江市,机车工厂,129.6364,44.6075,2025-03-26T1700,31,74,0.5,17,28,70,80,62,颗粒物(PM10)
牡丹江市,第一中学,129.6386,44.5462,2025-03-26T1700,26,36,0.4,19,7,71,80,38,
内江市,市监测站,105.0703,29.61,2025-03-26T1700,37,,0.2,24,10,193,167,92,臭氧1小时
内江市,东兴区政府,105.0717,29.5947,2025-03-26T1700,27,37,0.5,14,,193,152,,
内江市,内江二中,105.0653,29.5817,2025-03-26T1700,31,42,0.4,19,13,198,157,98,臭氧1小时
内江市,内江日报社,105.0406,29.5822,2025-03-26T1700,33,45,0.5,22,10,206,166,103,臭氧1小时
那曲市,那曲监测站,92.0657,31.4846,2025-03-26T1700,3,14,0.4,5,6,97,81,31,
那曲市,那曲会议中心,92.0506,31.4797,2025-03-26T1700,,,,,,,,,
南昌市,省外办,115.8931,28.6843,2025-03-26T1700,58,85,0.9,20,10,168,154,79,细颗粒物(PM2.5)
南昌市,省林业公司,115.8886,28.7003,2025-03-26T1700,53,85,0.1,12,10,177,161,73,细颗粒物(PM2.5)
南昌市,林科所,115.8126,28.7442,2025-03-26T1700,56,85,0.4,17,6,204,187,102,臭氧1小时
南昌市,建工学校,115.8518,28.687,2025-03-26T1700,45,91,0.7,17,6,177,163,72,臭氧1小时
南昌市,象湖,115.8921,28.6424,2025-03-26T1700,56,83,0.8,13,10,195,182,94,臭氧1小时
南昌市,武术学校,115.7423,28.7996,2025-03-26T1700,49,81,0.8,9,15,181,189,77,臭氧1小时
南昌市,机电学校,115.9084,28.6062,2025-03-26T1700,56,103,0.8,14,9,176,168,77,"颗粒物(PM10),细颗粒物(PM2.5)"
南昌市,外国语学校,115.9721,28.7031,2025-03-26T1700,48,94,0.3,17,6,184,177,80,臭氧1小时
南昌市,南京东路235号,115.9316,28.68677,2025-03-26T1700,51,95,0.7,22,7,176,165,73,颗粒物(PM10)
南充市,西山风景区,106.056,30.8064,2025-03-26T1700,26,42,0.3,7,5,193,152,92,臭氧1小时
南充市,南充市委,106.0789,30.8023,2025-03-26T1700,50,66,0.6,18,6,193,147,92,臭氧1小时
南充市,南充炼油厂,106.1031,30.8217,2025-03-26T1700,29,55,0.5,11,6,180,145,75,臭氧1小时
南充市,嘉陵区环保局,106.0642,30.7636,2025-03-26T1700,27,46,0.3,15,7,173,137,67,臭氧1小时
南充市,梨树横街98号,106.1083,30.7884,2025-03-26T1700,27,49,0.4,16,8,186,144,83,臭氧1小时
南充市,清泉寺北路188号,106.1172,30.843,2025-03-26T1700,29,54,0.3,17,9,182,144,78,臭氧1小时
南京市,迈皋桥,118.8086,32.1065,2025-03-26T1700,48,79,0.9,20,7,207,183,104,臭氧1小时
南京市,草场门,118.7538,32.0551,2025-03-26T1700,44,78,1.2,22,16,186,164,83,臭氧1小时
南京市,山西路,118.7794,32.0745,2025-03-26T1700,41,92,0.9,26,8,156,154,71,颗粒物(PM10)
南京市,中华门,118.7752,32.0023,2025-03-26T1700,36,75,1.0,10,12,171,149,64,臭氧1小时
南京市,瑞金路,118.8109,32.0309,2025-03-26T1700,41,85,0.6,2,6,183,164,79,臭氧1小时
南京市,玄武湖,118.7997,32.0754,2025-03-26T1700,41,86,1.0,17,12,189,165,87,臭氧1小时
南京市,浦口,118.6414,32.0931,2025-03-26T1700,40,74,0.5,13,9,208,177,104,臭氧1小时
南京市,奥体中心,118.7356,31.9996,2025-03-26T1700,46,90,1.2,23,16,204,173,102,臭氧1小时
南京市,仙林大学城,118.9125,32.1028,2025-03-26T1700,44,80,0.9,18,13,190,168,88,臭氧1小时
南京市,江宁彩虹桥,118.8436,31.9198,2025-03-26T1700,41,78,0.5,10,3,189,169,87,臭氧1小时
南京市,溧水永阳,119.0138,31.6494,2025-03-26T1700,,,,,,,127,,
南京市,六合雄州,118.8554,32.3578,2025-03-26T1700,44,77,0.7,4,8,187,172,84,臭氧1小时
南京市,汶溪路181号,118.8708,31.3402,2025-03-26T1700,47,64,0.8,17,3,164,165,65,细颗粒物(PM2.5)
南宁市,二十一中,108.3103,22.7881,2025-03-26T1700,,,,,,,119,,
南宁市,北湖,108.3141,22.8528,2025-03-26T1700,29,52,0.5,17,12,138,99,51,颗粒物(PM10)
南宁市,市监测站,108.3206,22.8225,2025-03-26T1700,27,77,0.5,18,13,135,83,64,颗粒物(PM10)
南宁市,大自然花园,108.3829,22.8037,2025-03-26T1700,29,68,0.7,11,9,129,103,59,颗粒物(PM10)
南宁市,仙葫,108.4394,22.7904,2025-03-26T1700,18,49,0.3,8,5,108,93,49,
南宁市,区农职院,108.2397,22.8467,2025-03-26T1700,28,62,0.7,24,9,134,97,56,颗粒物(PM10)
南宁市,英华嘉园,108.3275,22.735,2025-03-26T1700,28,44,0.5,20,12,132,102,44,
南宁市,红星社区,108.4834,22.7618,2025-03-26T1700,24,36,0.6,9,10,112,99,36,
南宁市,乐贤路16号,108.2177,22.7774,2025-03-26T1700,28,57,0.6,13,10,82,63,54,颗粒物(PM10)
南平市,茫荡山,118.0966,26.6761,2025-03-26T1700,,,,,,,,,
南平市,南平市监测站,118.1681,26.6369,2025-03-26T1700,55,81,1.0,15,3,170,155,75,细颗粒物(PM2.5)
南平市,南平铝业有限公司,118.1825,26.6489,2025-03-26T1700,48,69,1.0,16,9,169,149,67,细颗粒物(PM2.5)
南平市,南平七中,118.1756,26.6272,2025-03-26T1700,49,70,1.0,19,7,160,146,68,细颗粒物(PM2.5)
南通市,狼山街道,120.9098,31.9663,2025-03-26T1700,47,85,0.7,39,12,233,196,117,臭氧1小时
南通市,虹桥,120.86,32.0005,2025-03-26T1700,55,81,0.8,56,10,216,189,108,臭氧1小时
南通市,城中,120.87,32.02,2025-03-26T1700,52,97,0.8,44,11,222,189,111,臭氧1小时
南通市,星湖花园,120.94,31.93,2025-03-26T1700,50,83,0.7,42,12,219,182,110,臭氧1小时
南通市,紫琅学院,120.81,32.0417,2025-03-26T1700,51,92,1.1,44,6,199,175,99,臭氧1小时
南通市,通州监测站,121.067,32.062,2025-03-26T1700,48,73,0.8,21,9,220,189,110,臭氧1小时
南通市,环境教育馆,120.9348,31.9883,2025-03-26T1700,51,78,0.5,38,13,253,212,127,臭氧1小时
南阳市,瓦房庄,112.5224,33.0122,2025-03-26T1700,29,61,0.5,8,4,164,147,56,颗粒物(PM10)
南阳市,汉画馆,112.5003,32.9735,2025-03-26T1700,32,64,0.5,14,7,156,144,57,颗粒物(PM10)
南阳市,气象站,112.5573,33.027,2025-03-26T1700,31,55,0.5,14,6,167,148,59,臭氧1小时
南阳市,理工学院,112.5481,32.9689,2025-03-26T1700,29,61,0.5,10,6,172,150,65,臭氧1小时
南阳市,卧龙区政府,112.5234,32.9922,2025-03-26T1700,31,51,0.4,12,6,168,150,60,臭氧1小时
宁波市,区环保大楼,121.8358,29.911,2025-03-26T1700,32,98,0.6,46,9,113,107,74,颗粒物(PM10)
宁波市,万里学院,121.56,29.82,2025-03-26T1700,45,90,0.6,29,13,153,149,70,颗粒物(PM10)
宁波市,龙赛医院,121.713,29.9572,2025-03-26T1700,43,89,0.7,55,10,108,113,70,颗粒物(PM10)
宁波市,钱湖水厂,121.633,29.7733,2025-03-26T1700,39,56,0.6,22,9,156,141,55,细颗粒物(PM2.5)
宁波市,太古小学,121.5856,29.8635,2025-03-26T1700,40,66,0.8,20,10,163,156,58,颗粒物(PM10)
宁波市,市环境监测中心,121.524,29.8674,2025-03-26T1700,51,77,1.0,33,10,193,162,92,臭氧1小时
宁波市,万里国际学校,121.6147,29.9017,2025-03-26T1700,39,65,0.6,18,10,179,170,74,臭氧1小时
宁波市,白沙活动中心,121.5594,29.8975,2025-03-26T1700,36,62,0.6,27,8,173,166,67,臭氧1小时
宁德市,金涵水库,119.5001,26.6946,2025-03-26T1700,,,,,,,,,
宁德市,宁德市监测站,119.5388,26.6612,2025-03-26T1700,40,68,0.7,27,7,165,153,59,颗粒物(PM10)
宁德市,宁德一中,119.5231,26.6562,2025-03-26T1700,42,87,0.5,21,7,164,156,69,颗粒物(PM10)
怒江傈僳族自治州,州监测站,98.8601,25.8567,2025-03-26T1700,13,27,0.3,10,6,120,99,38,
怒江傈僳族自治州,泸水一中,98.8546,25.8417,2025-03-26T1700,22,38,0.3,9,6,112,83,38,
攀枝花市,弄弄坪,101.6891,26.571,2025-03-26T1700,10,21,2.1,16,23,105,100,33,
攀枝花市,河门口,101.5769,26.5928,2025-03-26T1700,8,16,0.3,6,8,115,103,36,
攀枝花市,炳草岗,101.7169,26.585,2025-03-26T1700,3,18,0.3,22,14,105,106,33,
攀枝花市,仁和,101.7369,26.5008,2025-03-26T1700,6,10,0.3,8,6,122,122,39,
攀枝花市,四十中小,101.7227,26.567,2025-03-26T1700,20,36,0.1,11,13,117,111,37,
盘锦市,开发区,122.0303,41.1489,2025-03-26T1700,77,88,0.8,24,12,102,107,103,细颗粒物(PM2.5)
盘锦市,兴隆台,122.0485,41.0883,2025-03-26T1700,81,92,0.8,29,6,90,100,108,细颗粒物(PM2.5)
盘锦市,新生街道,121.8297,41.1028,2025-03-26T1700,72,72,0.8,21,7,105,112,97,细颗粒物(PM2.5)
平顶山市,新华旅馆,113.3257,33.742,2025-03-26T1700,43,99,0.5,18,6,171,149,75,颗粒物(PM10)
平顶山市,规划设计院,113.2919,33.737,2025-03-26T1700,54,83,0.5,18,7,186,154,83,臭氧1小时
平顶山市,平顶山工学院,113.182,33.774,2025-03-26T1700,41,112,0.6,4,12,187,159,84,臭氧1小时
平顶山市,规划局,113.3025,33.73,2025-03-26T1700,39,100,0.6,15,7,189,153,87,臭氧1小时
平顶山市,石龙区,112.8867,33.9116,2025-03-26T1700,52,216,0.3,13,10,188,168,133,颗粒物(PM10)
平凉市,聚贤嘉苑,106.6692,35.5461,2025-03-26T1700,60,275,0.2,5,9,114,108,163,颗粒物(PM10)
平凉市,博物馆,106.7021,35.5307,2025-03-26T1700,54,280,0.4,6,17,110,102,165,颗粒物(PM10)
萍乡市,武功山,114.0997,27.5002,2025-03-26T1700,47,60,0.6,7,18,126,127,65,细颗粒物(PM2.5)
萍乡市,中医院,113.8385,27.6434,2025-03-26T1700,52,72,0.9,9,10,144,134,72,细颗粒物(PM2.5)
萍乡市,市政府车库,113.8493,27.6253,2025-03-26T1700,38,62,0.6,8,6,144,144,56,颗粒物(PM10)
萍乡市,市环保局,113.8676,27.6435,2025-03-26T1700,54,61,0.7,11,7,139,137,74,细颗粒物(PM2.5)
萍乡市,安源区政府,113.866,27.6198,2025-03-26T1700,45,60,0.6,12,15,142,133,63,细颗粒物(PM2.5)
莆田市,荔城区仓后路,119.0141,25.4325,2025-03-26T1700,17,85,0.4,22,4,102,128,68,颗粒物(PM10)
莆田市,莆田市监测站,119.0015,25.4553,2025-03-26T1700,17,58,0.4,19,6,120,136,54,颗粒物(PM10)
莆田市,涵江区六中,119.1119,25.4561,2025-03-26T1700,12,60,0.3,16,5,110,128,55,颗粒物(PM10)
莆田市,秀屿区政府,119.1013,25.3215,2025-03-26T1700,6,39,0.4,11,5,111,119,39,
莆田市,东圳水库,118.981,25.4792,2025-03-26T1700,,,,,,,,,
濮阳市,环保局,115.0312,35.7636,2025-03-26T1700,52,133,0.8,22,7,119,110,92,颗粒物(PM10)
濮阳市,油田运输公司,115.0574,35.7609,2025-03-26T1700,52,143,1.0,19,7,119,105,97,颗粒物(PM10)
濮阳市,濮水河管理处,115,35.7668,2025-03-26T1700,52,160,0.6,26,8,118,102,105,颗粒物(PM10)
濮阳市,任丘路479号,115.0924,35.7686,2025-03-26T1700,,,,,,,89,,
普洱市,市环保局,100.98,22.7633,2025-03-26T1700,,,0.6,11,5,127,54,,
普洱市,普洱第二中学,100.9817,22.8322,2025-03-26T1700,30,,0.3,9,6,134,114,,
七台河市,新一中,131.0518,45.8751,2025-03-26T1700,308,381,1.1,40,27,118,105,358,细颗粒物(PM2.5)
七台河市,中波台,131.0577,45.7879,2025-03-26T1700,226,259,0.8,39,12,89,92,276,细颗粒物(PM2.5)
七台河市,人民广场,131.0176,45.7761,2025-03-26T1700,116,215,0.8,39,14,86,102,152,细颗粒物(PM2.5)
七台河市,新建矿广场,130.8781,45.8222,2025-03-26T1700,122,200,0.9,38,16,87,90,160,细颗粒物(PM2.5)
齐齐哈尔市,安居小区,123.9305,47.3636,2025-03-26T1700,,58,0.4,20,3,71,75,,
齐齐哈尔市,中心广场,123.9488,47.3386,2025-03-26T1700,34,53,0.6,21,5,60,70,52,颗粒物(PM10)
齐齐哈尔市,农牧车辆厂,123.9483,47.3227,2025-03-26T1700,27,36,0.3,16,6,74,78,39,
齐齐哈尔市,市环境监测站,123.945,47.2988,2025-03-26T1700,29,42,0.5,14,2,72,74,42,
齐齐哈尔市,富区青少年活动中心,123.6333,47.2075,2025-03-26T1700,36,,0.4,9,6,71,74,52,细颗粒物(PM2.5)
黔东南苗族侗族自治州,市环境监测站,107.9783,26.5747,2025-03-26T1700,32,40,0.3,8,3,152,137,48,
黔东南苗族侗族自治州,凯里学院,107.8908,26.5311,2025-03-26T1700,39,39,0.2,4,3,150,135,55,细颗粒物(PM2.5)
黔南布依族苗族自治州,小围寨,107.5228,26.2403,2025-03-26T1700,17,39,0.8,4,2,164,143,55,臭氧1小时
黔南布依族苗族自治州,沙坝,107.5175,26.2978,2025-03-26T1700,27,48,0.5,11,4,151,133,48,
黔西南布依族苗族自治州,场坝街,104.9022,25.0925,2025-03-26T1700,8,13,0.3,8,3,176,159,70,臭氧1小时
黔西南布依族苗族自治州,坪东大道,104.8811,25.0992,2025-03-26T1700,,,,,2,167,150,,
钦州市,市环保站,108.6236,21.9667,2025-03-26T1700,14,46,0.5,13,7,77,77,46,
钦州市,沙埠小学,108.6549,21.9481,2025-03-26T1700,18,61,0.6,10,7,77,78,56,颗粒物(PM10)
钦州市,港区一小,108.5989,21.7431,2025-03-26T1700,18,69,0.6,21,7,56,66,60,颗粒物(PM10)
钦州市,北职校,108.5959,21.9633,2025-03-26T1700,13,55,0.6,13,8,76,74,53,颗粒物(PM10)
秦皇岛市,第一关,119.7493,40.0116,2025-03-26T1700,52,184,0.5,,5,116,109,117,颗粒物(PM10)
秦皇岛市,监测站,119.5897,39.9499,2025-03-26T1700,47,155,0.5,26,4,103,104,103,颗粒物(PM10)
秦皇岛市,建设大厦,119.5251,39.9041,2025-03-26T1700,43,169,0.5,21,4,110,104,110,颗粒物(PM10)
秦皇岛市,文明里,119.610547,39.943889,2025-03-26T1700,41,167,0.4,39,4,94,102,109,颗粒物(PM10)
秦皇岛市,北戴河轮滑馆,119.5090,39.8253,2025-03-26T1700,50,159,0.4,11,6,116,106,105,颗粒物(PM10)
青岛市,仰口,120.6659,36.2403,2025-03-26T1700,41,139,0.6,17,3,114,105,95,颗粒物(PM10)
青岛市,市南区东部子站,120.4134,36.0658,2025-03-26T1700,39,92,0.5,14,9,152,133,71,颗粒物(PM10)
青岛市,四方区子站,120.3664,36.1032,2025-03-26T1700,46,95,0.8,31,7,167,154,73,颗粒物(PM10)
青岛市,市南区西部子站,120.2994,36.054,2025-03-26T1700,37,85,0.7,20,8,140,129,68,颗粒物(PM10)
青岛市,崂山区子站,120.4581,36.0858,2025-03-26T1700,34,90,0.6,13,9,155,144,70,颗粒物(PM10)
青岛市,城阳区子站,120.3999,36.3083,2025-03-26T1700,49,117,0.9,55,11,174,167,84,颗粒物(PM10)
青岛市,黄岛区4号,120.0405,35.8735,2025-03-26T1700,36,100,0.7,18,8,146,129,75,颗粒物(PM10)
青岛市,即墨2号,120.5014,36.4034,2025-03-26T1700,43,136,0.6,15,8,129,116,93,颗粒物(PM10)
青岛市,市北区南部,120.3503,36.0736,2025-03-26T1700,44,109,0.8,8,7,130,120,80,颗粒物(PM10)
青岛市,李沧区北部,120.3948,36.1805,2025-03-26T1700,53,112,0.8,33,9,166,158,81,颗粒物(PM10)
青岛市,珠江路669号,120.1969,35.9546,2025-03-26T1700,39,112,0.8,21,7,138,124,81,颗粒物(PM10)
清远市,环保大楼,113.0426,23.691,2025-03-26T1700,38,41,0.8,12,2,242,162,121,臭氧1小时
清远市,凤城街办,113.0208,23.7106,2025-03-26T1700,36,60,0.5,23,8,202,135,101,臭氧1小时
清远市,技师学院,113.0477,23.6344,2025-03-26T1700,32,66,0.3,22,7,224,171,112,臭氧1小时
清远市,清新太和,112.9903,23.7403,2025-03-26T1700,31,63,0.5,23,8,229,151,115,臭氧1小时
清远市,清城东城,113.076,23.7198,2025-03-26T1700,37,71,0.2,15,8,218,144,109,臭氧1小时
庆阳市,庆阳五中,107.6325,35.7357,2025-03-26T1700,187,564,0.4,6,1,100,95,464,颗粒物(PM10)
庆阳市,市环保局,107.6364,35.7067,2025-03-26T1700,179,518,0.5,8,3,102,97,418,颗粒物(PM10)
曲靖市,环境监测站,103.7897,25.5035,2025-03-26T1700,3,24,0.3,8,3,150,138,47,
曲靖市,烟厂办公区,103.8,25.5364,2025-03-26T1700,7,7,0.2,5,4,160,148,50,
曲靖市,南苑二区,103.7947,25.462,2025-03-26T1700,9,22,0.3,7,,149,136,,
曲靖市,曲靖师范学院,103.7444,25.5261,2025-03-26T1700,11,16,0.1,9,5,156,146,49,
衢州市,环保大楼,118.8692,28.9398,2025-03-26T1700,46,78,0.5,13,6,178,150,73,臭氧1小时
衢州市,实验学校,118.8709,28.9666,2025-03-26T1700,40,64,0.7,11,6,175,148,69,臭氧1小时
衢州市,衢州学院,118.8621,28.9808,2025-03-26T1700,50,65,0.6,10,4,175,138,69,"细颗粒物(PM2.5),臭氧1小时"
泉州市,涂山街,118.5819,24.9117,2025-03-26T1700,11,46,0.5,15,4,115,130,46,
泉州市,津头埔,118.5972,24.8978,2025-03-26T1700,12,47,0.6,19,3,104,124,47,
泉州市,万安,118.6663,24.9424,2025-03-26T1700,12,56,0.5,10,4,111,134,53,颗粒物(PM10)
泉州市,清源山,118.6117,24.9604,2025-03-26T1700,,,,,,,,,
泉州市,城华南路,118.6333,24.9264,2025-03-26T1700,11,28,0.3,15,3,100,125,32,
日喀则市,日喀则监测站,88.8876,29.2718,2025-03-26T1700,3,12,0.7,2,2,124,99,39,
日喀则市,林业技术推广中心,88.8781,29.2426,2025-03-26T1700,3,78,0.4,3,7,116,92,64,颗粒物(PM10)
日照市,监测站,119.471,35.4209,2025-03-26T1700,49,124,0.7,26,8,145,133,87,颗粒物(PM10)
日照市,市政府广场,119.523,35.4216,2025-03-26T1700,44,105,0.7,18,6,126,113,78,颗粒物(PM10)
日照市,港务局,119.5587,35.4044,2025-03-26T1700,48,105,0.6,15,7,135,114,78,颗粒物(PM10)
日照市,职业技术学院,119.5328,35.4625,2025-03-26T1700,48,114,0.8,22,6,143,127,82,颗粒物(PM10)
日照市,岚山环保分局,119.3266,35.1044,2025-03-26T1700,55,132,0.9,28,11,157,142,91,颗粒物(PM10)
三门峡市,市政府,111.1922,34.7752,2025-03-26T1700,89,244,0.5,10,5,146,137,147,颗粒物(PM10)
三门峡市,开发区,111.1587,34.7942,2025-03-26T1700,54,256,0.3,16,8,,131,153,颗粒物(PM10)
三门峡市,风景区,111.143,34.7955,2025-03-26T1700,53,272,0.5,9,11,130,123,161,颗粒物(PM10)
三门峡市,三门峡市第一小学,111.1911,34.7829,2025-03-26T1700,48,258,0.5,10,6,140,135,154,颗粒物(PM10)
三门峡市,富达温泉假日酒店,111.1,34.7167,2025-03-26T1700,100,260,0.7,30,13,136,128,155,颗粒物(PM10)
三明市,三钢,117.6211,26.2625,2025-03-26T1700,65,93,8.6,30,33,142,145,88,细颗粒物(PM2.5)
三明市,三明二中,117.635,26.2714,2025-03-26T1700,55,80,2.0,18,14,150,143,75,细颗粒物(PM2.5)
三明市,三元区政府,117.6028,26.2378,2025-03-26T1700,64,82,0.8,16,6,158,146,87,细颗粒物(PM2.5)
三明市,洋溪,117.7275,26.3108,2025-03-26T1700,,,,,,,,,
三亚市,河东子站,109.5078,18.2489,2025-03-26T1700,11,27,0.3,4,4,69,72,27,
三亚市,河西子站,109.4964,18.2681,2025-03-26T1700,11,21,0.3,3,3,70,73,22,
三亚市,君悦子站,109.7348,18.3443,2025-03-26T1700,10,16,0.2,4,,73,74,,
山南市,山南监测站,91.7608,29.2313,2025-03-26T1700,3,16,0.2,3,6,119,97,38,
山南市,山南人民医院,91.7706,29.2436,2025-03-26T1700,3,32,0.3,7,4,113,92,36,
汕头市,金平子站,116.6794,23.3667,2025-03-26T1700,19,44,0.5,12,5,91,100,44,
汕头市,龙湖子站,116.7244,23.3633,2025-03-26T1700,12,55,0.5,12,5,87,99,53,颗粒物(PM10)
汕头市,濠江子站,116.7258,23.2775,2025-03-26T1700,14,42,0.7,12,4,88,98,42,
汕头市,澄海子站,116.7519,23.4714,2025-03-26T1700,16,47,0.6,15,4,91,112,47,
汕头市,潮阳子站,116.6092,23.2539,2025-03-26T1700,11,36,0.2,8,6,85,102,36,
汕头市,潮南峡山,116.454,23.2684,2025-03-26T1700,17,34,0.5,2,8,88,104,34,
汕头市,潮南子站,116.4069,23.2533,2025-03-26T1700,10,33,0.5,9,8,84,98,33,
汕尾市,市环保局,115.3653,22.775,2025-03-26T1700,11,20,0.7,4,6,91,92,29,
汕尾市,市政府,115.3706,22.7898,2025-03-26T1700,12,16,0.5,6,5,80,88,25,
汕尾市,新城中学,115.3622,22.7925,2025-03-26T1700,10,28,0.5,4,8,90,95,29,
商洛市,监测站,109.9154,33.8715,2025-03-26T1700,124,425,0.4,10,5,133,117,307,颗粒物(PM10)
商洛市,商州区中学,109.9643,33.8471,2025-03-26T1700,119,575,0.6,8,4,132,116,475,颗粒物(PM10)
商丘市,环境监测站,115.6702,34.4285,2025-03-26T1700,78,141,0.5,10,10,208,180,104,"细颗粒物(PM2.5),臭氧1小时"
商丘市,粮食局,115.6458,34.4045,2025-03-26T1700,76,139,0.5,14,6,181,159,102,细颗粒物(PM2.5)
商丘市,睢阳区环保局,115.6293,34.3948,2025-03-26T1700,92,158,0.5,12,4,190,162,122,细颗粒物(PM2.5)
商丘市,梁园区档案局,115.6071,34.4465,2025-03-26T1700,95,173,0.7,19,4,178,162,125,细颗粒物(PM2.5)
上海市,普陀,121.4,31.238,2025-03-26T1700,51,92,0.8,38,13,229,185,115,臭氧1小时
上海市,十五厂,121.478,31.2036,2025-03-26T1700,59,91,1.0,30,11,227,185,114,臭氧1小时
上海市,虹口,121.467,31.3008,2025-03-26T1700,51,87,0.8,39,13,238,198,119,臭氧1小时
上海市,静安监测站,121.425,31.2261,2025-03-26T1700,48,94,0.6,44,12,228,187,114,臭氧1小时
上海市,浦东川沙,121.703,31.1907,2025-03-26T1700,50,92,0.7,38,10,231,206,116,臭氧1小时
上海市,浦东新区监测站,121.533,31.2284,2025-03-26T1700,52,74,0.8,34,10,256,211,128,臭氧1小时
上海市,浦东张江,121.577,31.2071,2025-03-26T1700,50,82,1.0,28,6,234,200,117,臭氧1小时
上海市,宝山庙行,121.4316,31.3322,2025-03-26T1700,49,93,,,11,228,198,114,臭氧1小时
上海市,崇明上实东滩,121.8791,31.4662,2025-03-26T1700,,,0.5,,5,145,158,,
上海市,嘉定南翔,121.3162,31.2838,2025-03-26T1700,52,92,0.8,55,12,209,178,105,臭氧1小时
上海市,金山新城,121.3359,30.7456,2025-03-26T1700,44,58,0.7,37,6,147,164,62,细颗粒物(PM2.5)
上海市,闵行浦江,121.4996,31.0739,2025-03-26T1700,50,78,1.0,33,8,222,205,111,臭氧1小时
上海市,青浦徐泾,121.2886,31.1663,2025-03-26T1700,53,87,0.8,48,10,230,197,115,臭氧1小时
上海市,松江图书馆,121.2186,31.0378,2025-03-26T1700,3,78,1.0,51,10,215,212,108,臭氧1小时
上海市,长宁仙霞,121.3902,31.2059,2025-03-26T1700,52,,1.0,50,15,236,192,118,臭氧1小时
上海市,浦东惠南,121.7965,31.0507,2025-03-26T1700,45,77,1.2,38,10,174,197,68,臭氧1小时
上海市,奉贤南桥新城,121.4891,30.925,2025-03-26T1700,54,67,1.0,44,9,181,180,77,臭氧1小时
上海市,冠生园路458号,121.4174,31.16637,2025-03-26T1700,59,89,1.2,45,16,210,170,105,臭氧1小时
上海市,宁武路151号,121.5419,31.2683,2025-03-26T1700,54,127,0.8,51,10,225,179,113,臭氧1小时
上饶市,百草园,118.005,28.4572,2025-03-26T1700,,,,,,,,,
上饶市,市监测站,117.9756,28.4436,2025-03-26T1700,46,71,0.8,13,5,166,152,64,细颗粒物(PM2.5)
上饶市,凤凰光学,117.9519,28.4628,2025-03-26T1700,45,68,1.0,16,8,154,145,63,细颗粒物(PM2.5)
上饶市,双创科技城,117.897,28.4315,2025-03-26T1700,45,69,0.8,18,10,161,157,63,细颗粒物(PM2.5)
上饶市,裕丰大道,118.1904,28.4448,2025-03-26T1700,47,60,0.8,12,4,151,149,65,细颗粒物(PM2.5)
韶关市,市八中,113.5824,24.7733,2025-03-26T1700,33,86,0.6,16,10,182,138,78,臭氧1小时
韶关市,园林处,113.5917,24.7972,2025-03-26T1700,44,54,,18,11,173,134,,
韶关市,韶关学院,113.6735,24.7791,2025-03-26T1700,42,69,0.7,15,20,168,144,60,"颗粒物(PM10),臭氧1小时"
韶关市,曲江监测站,113.5971,24.6863,2025-03-26T1700,41,68,0.7,23,13,183,140,79,臭氧1小时
韶关市,碧湖山庄,113.5556,24.8082,2025-03-26T1700,43,78,0.6,16,12,185,139,82,臭氧1小时
邵阳市,市水土所,111.5239,27.3033,2025-03-26T1700,,,,,,,,,
邵阳市,市化工厂,111.5283,27.2442,2025-03-26T1700,49,74,0.8,15,9,142,130,68,细颗粒物(PM2.5)
邵阳市,市环保局,111.4328,27.2272,2025-03-26T1700,50,110,,13,,143,122,,
邵阳市,北塔二期4-26地块,111.4460,27.2472,2025-03-26T1700,58,112,0.8,16,10,135,120,81,颗粒物(PM10)
邵阳市,邵水西路287号,111.4739,27.2282,2025-03-26T1700,47,78,0.8,10,11,153,136,65,细颗粒物(PM2.5)
绍兴市,城东开发委,120.6053,29.9928,2025-03-26T1700,59,67,0.5,11,8,183,155,80,细颗粒物(PM2.5)
绍兴市,树下王站,120.5483,30.0003,2025-03-26T1700,54,74,0.6,,8,197,184,,
绍兴市,绍兴中专,120.5683,29.9361,2025-03-26T1700,38,79,0.8,8,8,194,162,93,臭氧1小时
绍兴市,柯桥区政府,120.4906,30.0861,2025-03-26T1700,37,68,0.6,10,8,162,158,59,颗粒物(PM10)
绍兴市,重华小学,120.8752,30.0249,2025-03-26T1700,56,64,0.6,13,10,181,160,77,"细颗粒物(PM2.5),臭氧1小时"
绍兴市,上虞中学,120.8369,30.0137,2025-03-26T1700,53,58,0.6,12,8,183,181,79,臭氧1小时
绍兴市,柯桥妇保,120.4722,30.0415,2025-03-26T1700,45,79,0.4,10,7,177,173,72,臭氧1小时
绍兴市,袍江中学,120.6153,30.0764,2025-03-26T1700,,,,,,,114,,
深圳市,通心岭子站,114.1063,22.5545,2025-03-26T1700,14,30,0.4,11,6,86,90,30,
深圳市,洪湖,114.117,22.5625,2025-03-26T1700,12,28,0.4,10,5,90,96,29,
深圳市,华侨城,113.987,22.5417,2025-03-26T1700,11,22,0.3,13,6,75,80,24,
深圳市,南海子站,113.9181,22.5171,2025-03-26T1700,9,24,0.5,11,6,74,87,24,
深圳市,盐田,114.2458,22.5689,2025-03-26T1700,22,43,0.4,61,7,45,38,43,
深圳市,龙岗,114.2283,22.7244,2025-03-26T1700,18,44,0.5,19,6,103,103,44,
深圳市,南澳,114.494,22.5422,2025-03-26T1700,10,21,0.4,3,6,87,92,28,
深圳市,葵涌,114.41,22.6342,2025-03-26T1700,10,29,0.5,10,6,79,90,29,
深圳市,梅沙,114.297,22.5978,2025-03-26T1700,3,29,0.4,11,7,87,83,29,
深圳市,观澜,114.0678,22.738,2025-03-26T1700,18,44,0.6,15,6,89,89,44,
深圳市,莲花,114.0731,22.559,2025-03-26T1700,10,21,0.5,15,5,77,85,25,
深圳市,民治,114.0261,22.6198,2025-03-26T1700,11,25,0.6,17,7,76,82,25,
深圳市,横岗,114.1871,22.6451,2025-03-26T1700,17,38,0.5,16,6,87,94,38,
深圳市,坪山,114.3551,22.7151,2025-03-26T1700,12,28,0.5,10,6,92,92,29,
深圳市,西乡,113.8953,22.5861,2025-03-26T1700,9,38,0.5,19,7,66,81,38,
沈阳市,森林路,123.6836,41.9339,2025-03-26T1700,,,,,,,,,
沈阳市,浑南东路,123.505,41.7406,2025-03-26T1700,73,111,,28,,69,56,,
沈阳市,新秀街,123.4231,41.6989,2025-03-26T1700,78,115,1.2,42,22,65,56,104,细颗粒物(PM2.5)
沈阳市,东陵路,123.5903,41.8411,2025-03-26T1700,67,159,1.5,42,15,65,54,105,颗粒物(PM10)
沈阳市,陵东街,123.4264,41.8467,2025-03-26T1700,90,124,1.6,69,32,51,57,119,细颗粒物(PM2.5)
沈阳市,文化路,123.4114,41.7653,2025-03-26T1700,94,134,1.3,43,34,65,69,124,细颗粒物(PM2.5)
沈阳市,小河沿,123.4678,41.7867,2025-03-26T1700,83,118,1.3,49,20,66,68,110,细颗粒物(PM2.5)
沈阳市,太原街,123.4017,41.7972,2025-03-26T1700,119,131,1.3,55,34,61,70,156,细颗粒物(PM2.5)
沈阳市,京沈街,123.3783,41.9228,2025-03-26T1700,156,183,1.9,86,30,27,58,206,细颗粒物(PM2.5)
沈阳市,沈辽西路,123.2444,41.7347,2025-03-26T1700,110,144,1.4,45,15,78,67,144,细颗粒物(PM2.5)
沈阳市,裕农路,123.5953,41.9086,2025-03-26T1700,81,114,1.3,49,13,62,60,108,细颗粒物(PM2.5)
十堰市,武当山,111.0419,32.395,2025-03-26T1700,7,13,0.6,9,11,159,132,50,
十堰市,滨河新村,110.78,32.6494,2025-03-26T1700,33,35,0.5,11,9,137,128,48,
十堰市,刘家沟,110.7258,32.6389,2025-03-26T1700,22,39,0.4,10,10,145,136,46,
十堰市,铁二处,110.8839,32.5714,2025-03-26T1700,26,28,0.8,7,11,134,141,42,
十堰市,郧阳区金沙路,110.8054,32.8401,2025-03-26T1700,14,15,0.4,7,7,138,128,44,
石河子市,艾青诗歌馆,86.0497,44.2967,2025-03-26T1700,11,29,0.2,2,4,88,78,29,
石河子市,南区管委会,86.047,44.2331,2025-03-26T1700,11,30,0.3,7,7,90,80,30,
石河子市,世纪广场,86.0791,44.3017,2025-03-26T1700,3,23,0.3,2,6,89,79,28,
石家庄市,职工医院,114.4422,38.0444,2025-03-26T1700,37,126,0.5,28,4,91,88,88,颗粒物(PM10)
石家庄市,高新区,114.6063,38.0266,2025-03-26T1700,39,110,0.4,26,7,95,89,80,颗粒物(PM10)
石家庄市,西北水源,114.4898,38.1328,2025-03-26T1700,39,118,0.4,16,3,91,85,84,颗粒物(PM10)
石家庄市,西南高教,114.4586,38.0058,2025-03-26T1700,39,124,0.4,23,1,91,89,87,颗粒物(PM10)
石家庄市,世纪公园,114.5331,38.0178,2025-03-26T1700,36,103,0.4,19,9,88,77,77,颗粒物(PM10)
石家庄市,人民会堂,114.509,38.0457,2025-03-26T1700,54,114,0.4,22,2,96,88,82,颗粒物(PM10)
石家庄市,封龙山,114.3524,37.8911,2025-03-26T1700,39,126,0.6,22,17,94,91,88,颗粒物(PM10)
石家庄市,22中南校区,114.5481,38.0378,2025-03-26T1700,38,111,0.4,24,4,92,86,81,颗粒物(PM10)
石家庄市,鹿泉一中,114.289,38.0906,2025-03-26T1700,45,148,0.4,35,,94,91,,
石家庄市,藁城区实验学校,114.8506765,38.0322033,2025-03-26T1700,44,122,0.4,18,8,96,89,86,颗粒物(PM10)
石家庄市,井陉矿区区委大楼,114.0504658,38.0591645,2025-03-26T1700,36,161,0.5,36,7,89,82,106,颗粒物(PM10)
石家庄市,栾城区星河路,114.6549,37.9020,2025-03-26T1700,45,104,0.3,18,5,96,92,77,颗粒物(PM10)
石嘴山市,沙湖旅游区,106.3394,38.817,2025-03-26T1700,,,,,,,,,
石嘴山市,大武口朝阳西街,106.3668,39.0145,2025-03-26T1700,113,596,0.6,4,8,96,110,496,颗粒物(PM10)
石嘴山市,惠农南大街,106.7704,39.2282,2025-03-26T1700,,,,,,,91,,
石嘴山市,红果子镇惠新街,106.7099,39.1325,2025-03-26T1700,,824,,5,4,91,105,,
石嘴山市,妇女儿童医院,106.3495,38.9836,2025-03-26T1700,107,547,0.2,5,2,88,100,447,颗粒物(PM10)
石嘴山市,石大公路,106.7492,39.2069,2025-03-26T1700,157,768,0.3,1,2,94,105,500,颗粒物(PM10)
双鸭山市,双合村,131.1511,46.6937,2025-03-26T1700,12,,0.3,7,9,83,88,26,
双鸭山市,南小市,131.1652,46.6191,2025-03-26T1700,18,41,0.1,8,8,79,85,41,
双鸭山市,环保局,131.1524,46.6554,2025-03-26T1700,14,23,0.3,8,8,76,85,24,
双鸭山市,苗圃,131.12,46.5656,2025-03-26T1700,,,,,,,,,
朔州市,平朔,112.4397,39.3522,2025-03-26T1700,34,288,0.6,7,5,100,95,169,颗粒物(PM10)
朔州市,朔唯,112.4575,39.3617,2025-03-26T1700,40,300,0.5,6,10,91,14,175,颗粒物(PM10)
朔州市,区政府,112.4258,39.3197,2025-03-26T1700,30,237,0.6,5,3,96,89,144,颗粒物(PM10)
朔州市,市环保局,112.4072,39.3278,2025-03-26T1700,28,252,0.5,5,4,96,90,151,颗粒物(PM10)
朔州市,市二中,112.4272,39.3681,2025-03-26T1700,38,274,0.4,5,6,95,90,162,颗粒物(PM10)
朔州市,一水厂,112.2931,39.53,2025-03-26T1700,38,313,0.5,4,5,102,100,182,颗粒物(PM10)
四平市,一商场,124.4002,43.1713,2025-03-26T1700,83,148,1.0,40,,,63,110,细颗粒物(PM2.5)
四平市,境园,124.388,43.193,2025-03-26T1700,99,107,1.1,39,8,55,55,130,细颗粒物(PM2.5)
四平市,植物园,124.4036,43.1411,2025-03-26T1700,103,122,1.0,49,12,51,58,135,细颗粒物(PM2.5)
四平市,世纪城,124.3419,43.1666,2025-03-26T1700,83,119,1.2,38,6,51,54,110,细颗粒物(PM2.5)
松原市,江南,124.8006,45.1214,2025-03-26T1700,123,,0.6,23,,76,63,162,细颗粒物(PM2.5)
松原市,江北,124.7965,45.1722,2025-03-26T1700,135,,0.8,21,2,76,66,179,细颗粒物(PM2.5)
苏州市,上方山,120.561,31.2472,2025-03-26T1700,,,,,,,,,
苏州市,彩香,120.591,31.3019,2025-03-26T1700,57,102,0.9,24,6,223,180,112,臭氧1小时
苏州市,轧钢厂,120.596,31.3264,2025-03-26T1700,54,97,0.9,29,8,227,186,114,臭氧1小时
苏州市,吴中区,120.613,31.2703,2025-03-26T1700,56,102,0.6,33,11,224,185,112,臭氧1小时
苏州市,苏州新区,120.543,31.2994,2025-03-26T1700,66,112,0.8,28,8,234,194,117,臭氧1小时
苏州市,苏州工业园区,120.669,31.3097,2025-03-26T1700,39,99,0.8,31,10,236,187,118,臭氧1小时
苏州市,相城区,120.641,31.3708,2025-03-26T1700,61,118,,33,8,235,186,118,臭氧1小时
苏州市,方洲路,120.743,31.3188,2025-03-26T1700,53,89,0.9,33,10,254,201,127,臭氧1小时
苏州市,木渎中学,120.5031,31.2774,2025-03-26T1700,54,84,0.8,28,10,237,197,119,臭氧1小时
苏州市,越秀幼儿园,120.624,31.1733,2025-03-26T1700,59,90,0.9,32,12,250,192,125,臭氧1小时
苏州市,高铁新城,120.6505,31.416,2025-03-26T1700,61,109,0.8,41,,221,185,111,臭氧1小时
宿迁市,宿迁学院,118.293,33.9528,2025-03-26T1700,40,77,0.7,5,8,184,168,80,臭氧1小时
宿迁市,宿迁中学,118.2442,33.9592,2025-03-26T1700,39,68,,8,3,179,86,,
宿迁市,市供电局,118.283,33.965,2025-03-26T1700,36,74,0.8,10,4,184,167,80,臭氧1小时
宿迁市,宿豫区政府,118.3225,33.9447,2025-03-26T1700,42,83,0.7,7,7,179,158,74,臭氧1小时
宿州市,远航博物馆,116.9509,33.666,2025-03-26T1700,42,70,0.2,4,5,184,168,80,臭氧1小时
宿州市,社会福利中心,116.9708,33.591,2025-03-26T1700,41,66,0.4,10,7,164,155,58,"颗粒物(PM10),细颗粒物(PM2.5)"
宿州市,宿州学院,116.9884,33.6305,2025-03-26T1700,45,92,0.6,8,6,182,167,78,臭氧1小时
宿州市,皖北煤电集团,116.9648,33.6252,2025-03-26T1700,46,83,0.8,7,8,168,154,67,颗粒物(PM10)
绥化市,人和东街,126.9785,46.6365,2025-03-26T1700,13,28,0.7,14,3,74,78,28,
绥化市,党政办公中心,126.964,46.6528,2025-03-26T1700,16,50,,,,,79,,
随州市,市委党校,113.3583,31.7275,2025-03-26T1700,47,70,0.9,9,9,166,153,65,细颗粒物(PM2.5)
随州市,市林业局,113.3833,31.6908,2025-03-26T1700,49,57,0.9,9,9,178,167,73,臭氧1小时
随州市,市立交桥水厂,113.3983,31.7308,2025-03-26T1700,50,64,1.0,5,10,178,165,73,臭氧1小时
遂宁市,石溪浩,105.5453,30.5678,2025-03-26T1700,27,71,0.4,17,6,183,142,79,臭氧1小时
遂宁市,市监测站,105.5582,30.5232,2025-03-26T1700,3,41,0.0,6,4,204,66,102,臭氧1小时
遂宁市,行政中心,105.5861,30.5366,2025-03-26T1700,24,52,0.5,18,11,222,159,111,臭氧1小时
遂宁市,美宁食品公司,105.5918,30.4728,2025-03-26T1700,24,55,0.4,12,13,207,156,104,臭氧1小时
塔城地区,东门外小游园,82.9994,46.7432,2025-03-26T1700,11,,0.0,2,5,88,74,28,
台州市,黄岩环保大楼,121.273,28.6459,2025-03-26T1700,41,80,,16,8,182,146,,
台州市,台州环保大楼,121.419,28.6542,2025-03-26T1700,46,74,0.7,23,6,109,133,64,细颗粒物(PM2.5)
台州市,路桥田洋王,121.377,28.5773,2025-03-26T1700,50,78,0.7,13,8,164,162,69,细颗粒物(PM2.5)
台州市,台州科技职业学院,121.2568,28.6681,2025-03-26T1700,37,79,0.7,19,7,190,159,88,臭氧1小时
太原市,尖草坪,112.522,37.8873,2025-03-26T1700,82,300,0.4,9,7,102,99,175,颗粒物(PM10)
太原市,上兰,112.434,38.0108,2025-03-26T1700,74,283,0.3,15,6,103,102,167,颗粒物(PM10)
太原市,晋源,112.469,37.7124,2025-03-26T1700,77,268,0.3,11,7,106,103,159,颗粒物(PM10)
太原市,小店,112.5583,37.7394,2025-03-26T1700,83,272,0.2,11,4,109,113,161,颗粒物(PM10)
太原市,桃园,112.5369,37.8692,2025-03-26T1700,72,294,0.2,6,8,106,102,172,颗粒物(PM10)
太原市,坞城,112.57,37.8195,2025-03-26T1700,78,264,0.5,9,5,106,107,157,颗粒物(PM10)
太原市,南寨,112.549,37.9854,2025-03-26T1700,69,234,0.4,12,6,106,107,142,颗粒物(PM10)
太原市,金胜,112.4719,37.7831,2025-03-26T1700,77,369,0.3,6,6,106,105,228,颗粒物(PM10)
太原市,育英中学,112.5608,37.8807,2025-03-26T1700,64,251,0.4,9,8,104,103,151,颗粒物(PM10)
泰安市,监测站,117.1437,36.1937,2025-03-26T1700,46,151,0.7,34,15,139,153,101,颗粒物(PM10)
泰安市,人口学校,117.0885,36.2017,2025-03-26T1700,56,158,0.6,28,13,122,146,104,颗粒物(PM10)
泰安市,电力学校,117.1089,36.1758,2025-03-26T1700,63,173,0.5,27,12,127,139,112,颗粒物(PM10)
泰安市,国网新校,117.1812,36.2275,2025-03-26T1700,53,139,0.8,25,12,161,172,95,颗粒物(PM10)
泰安市,交通技校,117.0313,36.2018,2025-03-26T1700,63,164,0.6,33,11,125,146,107,颗粒物(PM10)
泰安市,山东第一医科大学,117.0829,36.13,2025-03-26T1700,72,158,0.3,25,13,139,148,104,颗粒物(PM10)
泰州市,公园路,119.905,32.4878,2025-03-26T1700,46,68,0.8,18,5,224,192,112,臭氧1小时
泰州市,莲花,119.9189,32.4625,2025-03-26T1700,41,73,0.8,20,13,233,199,117,臭氧1小时
泰州市,留学生创业园,119.888,32.4639,2025-03-26T1700,56,81,0.9,21,12,241,196,121,臭氧1小时
泰州市,王营,119.8767,32.3289,2025-03-26T1700,46,70,0.6,39,12,194,179,93,臭氧1小时
泰州市,姜堰区政府广场,120.1259,32.5099,2025-03-26T1700,51,74,0.8,25,18,224,187,112,臭氧1小时
泰州市,周山河街区,119.9192,32.4322,2025-03-26T1700,48,80,0.6,20,12,233,215,117,臭氧1小时
唐山市,物资局,118.1725,39.6334,2025-03-26T1700,,,,,,,84,,
唐山市,十二中,118.1705,39.6506,2025-03-26T1700,52,154,0.8,22,9,112,95,102,颗粒物(PM10)
唐山市,小山,118.1869,39.622,2025-03-26T1700,68,148,0.8,17,10,119,102,99,颗粒物(PM10)
唐山市,冀东油田职工医院,118.4359,39.2762,2025-03-26T1700,55,170,0.5,22,5,106,95,110,颗粒物(PM10)
唐山市,正泰大街热力站,118.09279,39.58089,2025-03-26T1700,58,158,1.3,24,9,100,88,104,颗粒物(PM10)
唐山市,丰润区政府,118.1562,39.8322,2025-03-26T1700,48,147,0.8,22,12,110,97,99,颗粒物(PM10)
唐山市,金山小学,118.43673,39.73809,2025-03-26T1700,57,197,0.7,16,7,102,94,124,颗粒物(PM10)
唐山市,政府服务中心,118.24498,39.66941,2025-03-26T1700,40,130,0.7,24,8,100,89,90,颗粒物(PM10)
唐山市,消防缸窑路中队,118.2059,39.6585,2025-03-26T1700,48,162,0.6,26,,118,108,106,颗粒物(PM10)
唐山市,路南电大,118.1436,39.6202,2025-03-26T1700,54,163,0.8,23,11,117,102,107,颗粒物(PM10)
唐山市,友谊北路34号,118.1309,39.6360,2025-03-26T1700,58,148,0.8,22,9,119,101,99,颗粒物(PM10)
天津市,勤俭道,117.1444,39.1661,2025-03-26T1700,60,156,0.9,32,9,99,86,103,颗粒物(PM10)
天津市,前进道,117.202,39.0927,2025-03-26T1700,55,155,1.0,32,8,98,87,103,颗粒物(PM10)
天津市,淮河道,117.1837,39.2133,2025-03-26T1700,58,150,0.9,28,9,103,91,100,颗粒物(PM10)
天津市,跃进路,117.3083,39.0884,2025-03-26T1700,61,163,0.9,33,10,98,85,107,颗粒物(PM10)
天津市,第四大街,117.707,39.0343,2025-03-26T1700,53,162,1.0,63,14,64,81,106,颗粒物(PM10)
天津市,永明路,117.457,38.8394,2025-03-26T1700,62,189,0.7,44,14,72,85,120,颗粒物(PM10)
天津市,汉北路,117.764,39.1587,2025-03-26T1700,52,182,0.8,39,11,85,89,116,颗粒物(PM10)
天津市,团泊洼,117.157,38.9194,2025-03-26T1700,,,,,,,,,
天津市,河西一经路,117.7918,39.2474,2025-03-26T1700,56,178,1.2,36,13,101,94,114,颗粒物(PM10)
天津市,津沽路,117.3747,38.9846,2025-03-26T1700,60,178,0.9,28,8,93,76,114,颗粒物(PM10)
天津市,宾水西道,117.1589,39.0845,2025-03-26T1700,51,141,0.7,29,7,109,96,96,颗粒物(PM10)
天津市,大理道,117.1941,39.1067,2025-03-26T1700,54,131,0.8,33,8,98,88,91,颗粒物(PM10)
天津市,中山北路,117.2101,39.1699,2025-03-26T1700,51,145,0.7,34,8,94,79,98,颗粒物(PM10)
天津市,西四道,117.3876,39.1488,2025-03-26T1700,82,144,1.0,24,11,106,90,109,细颗粒物(PM2.5)
天津市,雍阳西道,117.0365,39.3828,2025-03-26T1700,48,134,0.7,20,7,110,98,92,颗粒物(PM10)
天津市,辛老路,117.0296,39.0605,2025-03-26T1700,53,152,0.8,31,8,98,87,101,颗粒物(PM10)
天津市,地纬路,116.9638,38.9375,2025-03-26T1700,55,140,0.6,32,11,99,90,95,颗粒物(PM10)
天津市,北环路,117.4067,40.0583,2025-03-26T1700,56,121,0.8,21,9,102,91,86,颗粒物(PM10)
天津市,建设路,117.3045,39.7169,2025-03-26T1700,53,134,1.0,25,11,115,99,92,颗粒物(PM10)
天津市,滨水东路,117.8199,39.3521,2025-03-26T1700,64,153,0.9,27,11,110,99,102,颗粒物(PM10)
天津市,光华路,117.2437,39.1029,2025-03-26T1700,53,131,0.8,27,10,111,98,91,颗粒物(PM10)
天水市,麦积山,106.0055,34.343,2025-03-26T1700,,,,,,,,,
天水市,公园小学,105.7205,34.5786,2025-03-26T1700,78,302,0.4,7,9,148,126,176,颗粒物(PM10)
天水市,麦积国土局,105.8945,34.5538,2025-03-26T1700,106,359,0.5,11,9,131,111,213,颗粒物(PM10)
铁岭市,汇工街西,123.8139,42.3022,2025-03-26T1700,137,158,1.3,56,10,35,47,182,细颗粒物(PM2.5)
铁岭市,水上乐园,123.8649,42.2923,2025-03-26T1700,136,171,1.6,59,9,29,45,180,细颗粒物(PM2.5)
铁岭市,银州路东段,123.8486,42.2867,2025-03-26T1700,139,173,1.3,68,11,26,45,185,细颗粒物(PM2.5)
铁岭市,金沙江路北,123.7153,42.2217,2025-03-26T1700,142,154,1.3,63,8,28,47,189,细颗粒物(PM2.5)
通化市,光明,125.9358,41.7173,2025-03-26T1700,20,53,0.8,17,10,82,58,52,颗粒物(PM10)
通化市,铁路,125.9446,41.7325,2025-03-26T1700,20,58,0.5,21,8,76,51,54,颗粒物(PM10)
通辽市,艺术职业学校,122.2532,43.6801,2025-03-26T1700,73,126,0.6,37,55,68,74,98,细颗粒物(PM2.5)
通辽市,老干部活动中心,122.2584,43.6333,2025-03-26T1700,90,138,0.5,24,10,80,77,119,细颗粒物(PM2.5)
通辽市,东方明珠社区,122.2922,43.6189,2025-03-26T1700,111,,0.8,42,10,59,72,145,细颗粒物(PM2.5)
铜川市,党校,109.0656,35.0994,2025-03-26T1700,,,,,,,,,
铜川市,王益区政府,109.0697,35.0697,2025-03-26T1700,57,249,0.5,6,4,105,99,150,颗粒物(PM10)
铜川市,新区管委会,108.9344,34.9058,2025-03-26T1700,56,206,0.5,11,7,101,96,128,颗粒物(PM10)
铜川市,大唐三路,108.9497,34.8705,2025-03-26T1700,58,209,0.1,12,4,104,101,130,颗粒物(PM10)
铜陵市,市第四中学,117.8177,30.9412,2025-03-26T1700,46,80,0.7,16,14,171,139,65,颗粒物(PM10)
铜陵市,市公路局,117.8059,30.9273,2025-03-26T1700,52,93,1.5,17,7,167,137,72,"颗粒物(PM10),细颗粒物(PM2.5)"
铜陵市,市新民污水厂,117.7807,30.9413,2025-03-26T1700,37,96,0.8,29,14,153,127,73,颗粒物(PM10)
铜陵市,市第九中学,117.7439,30.8792,2025-03-26T1700,46,132,0.9,59,8,131,123,91,颗粒物(PM10)
铜陵市,车站新区,117.846,30.9413,2025-03-26T1700,42,94,1.0,16,14,170,146,72,颗粒物(PM10)
铜陵市,市职教基地,117.8483,30.97,2025-03-26T1700,42,69,0.7,14,15,174,150,68,臭氧1小时
铜仁市,铜仁卫校,109.1839,27.7344,2025-03-26T1700,19,29,0.4,16,12,151,111,48,
铜仁市,铜仁七中,109.1753,27.6944,2025-03-26T1700,22,,0.3,11,9,151,120,48,
吐鲁番市,市环保局,89.1904,42.9418,2025-03-26T1700,596,2785,1.4,12,2,67,79,500,"颗粒物(PM10),细颗粒物(PM2.5)"
吐鲁番市,地区环保局,89.1673,42.9559,2025-03-26T1700,592,2673,0.4,1,3,76,78,500,"颗粒物(PM10),细颗粒物(PM2.5)"
威海市,华夏技校,122.1214,37.4236,2025-03-26T1700,28,97,0.4,23,6,143,131,74,颗粒物(PM10)
威海市,山大分校,122.0508,37.5236,2025-03-26T1700,32,71,0.4,18,9,172,148,65,臭氧1小时
威海市,市监测站,122.1067,37.5072,2025-03-26T1700,42,105,0.5,17,2,150,138,78,颗粒物(PM10)
威海市,文登开发区,122.0693,37.2174,2025-03-26T1700,31,93,0.6,22,6,147,130,72,颗粒物(PM10)
威海市,临港区管委会,122.1379,37.3414,2025-03-26T1700,30,92,0.4,13,8,148,131,71,颗粒物(PM10)
潍坊市,环保局,119.1437,36.7023,2025-03-26T1700,49,168,0.5,35,12,150,126,109,颗粒物(PM10)
潍坊市,坊子邮政,119.1641,36.6523,2025-03-26T1700,46,171,0.7,29,11,145,124,111,颗粒物(PM10)
潍坊市,潍坊七中,119.0587,36.721,2025-03-26T1700,57,168,0.8,25,10,145,120,109,颗粒物(PM10)
潍坊市,高新实验学校,119.1977,36.6872,2025-03-26T1700,49,168,0.5,28,16,155,129,109,颗粒物(PM10)
潍坊市,潍坊学院,119.1755,36.7149,2025-03-26T1700,52,175,0.9,40,8,146,124,113,颗粒物(PM10)
潍坊市,寒亭区实验一小,119.2041,36.7699,2025-03-26T1700,51,151,0.5,25,11,154,126,101,颗粒物(PM10)
渭南市,农科所,109.5293,34.5101,2025-03-26T1700,,,,,,,,,
渭南市,体育馆,109.4636,34.493,2025-03-26T1700,90,437,0.5,14,5,129,107,322,颗粒物(PM10)
渭南市,高新一小,109.4259,34.5023,2025-03-26T1700,90,447,0.3,15,5,124,101,334,颗粒物(PM10)
渭南市,渭花路4号,109.5051,34.4921,2025-03-26T1700,96,432,0.3,13,6,122,106,315,颗粒物(PM10)
温州市,瓯海,120.634,28.0089,2025-03-26T1700,37,54,0.4,28,11,113,113,53,细颗粒物(PM2.5)
温州市,南浦,120.6748,27.9939,2025-03-26T1700,29,50,0.5,23,7,112,114,50,
温州市,龙湾,120.76,27.9747,2025-03-26T1700,14,31,0.4,15,5,103,94,33,
温州市,市站,120.6709,28.0167,2025-03-26T1700,24,64,0.6,23,6,108,118,57,颗粒物(PM10)
温州市,茶山,120.6985,27.9251,2025-03-26T1700,33,66,0.5,59,7,72,89,58,颗粒物(PM10)
文山壮族苗族自治州,州水务局,104.2533,23.3594,2025-03-26T1700,44,54,0.5,9,7,137,131,62,细颗粒物(PM2.5)
文山壮族苗族自治州,市便民服务中心,104.2319,23.3892,2025-03-26T1700,44,65,0.3,11,10,145,135,62,细颗粒物(PM2.5)
乌海市,市林业局,106.8174,39.6973,2025-03-26T1700,73,423,0.2,4,3,97,107,304,颗粒物(PM10)
乌海市,中海勃湾学校,106.7907,39.6667,2025-03-26T1700,85,604,0.5,3,8,98,108,500,颗粒物(PM10)
乌海市,海北新区,106.813,39.7274,2025-03-26T1700,64,501,0.3,4,11,98,107,401,颗粒物(PM10)
乌海市,聚英学校,106.8288,39.6778,2025-03-26T1700,100,608,0.4,2,10,94,104,500,颗粒物(PM10)
乌兰察布市,集宁新区,113.1306,40.9923,2025-03-26T1700,22,78,0.2,2,5,96,98,64,颗粒物(PM10)
乌兰察布市,光明街小学,113.1076,41.0385,2025-03-26T1700,36,108,0.3,7,9,87,93,79,颗粒物(PM10)
乌兰察布市,北京八中,113.1376,40.9509,2025-03-26T1700,38,132,0.3,3,12,99,100,91,颗粒物(PM10)
乌兰察布市,市委党校,113.1775,40.9779,2025-03-26T1700,25,118,0.3,2,8,101,102,84,颗粒物(PM10)
乌鲁木齐市,监测站,87.5801,43.8303,2025-03-26T1700,11,55,0.4,8,2,75,72,53,颗粒物(PM10)
乌鲁木齐市,收费所,87.6046,43.768,2025-03-26T1700,7,41,0.3,1,2,66,68,41,
乌鲁木齐市,新疆农科院农场,87.4754,43.9469,2025-03-26T1700,11,31,0.4,8,7,75,66,31,
乌鲁木齐市,铁路局,87.5525,43.8711,2025-03-26T1700,11,57,0.3,9,2,80,75,54,颗粒物(PM10)
乌鲁木齐市,三十一中学,87.6432,43.831,2025-03-26T1700,17,34,0.3,10,5,72,71,34,
乌鲁木齐市,米东区环保局,87.7216,44.1747,2025-03-26T1700,3,48,0.3,2,6,85,73,48,
乌鲁木齐市,培训基地,87.4651,43.4569,2025-03-26T1700,3,34,0.3,4,2,91,90,34,
乌鲁木齐市,达坂城区环保局,88.3118,43.3658,2025-03-26T1700,22,74,0.3,4,7,77,84,62,颗粒物(PM10)
乌鲁木齐市,红光山片区,87.6162,43.8801,2025-03-26T1700,12,45,0.2,8,2,76,68,45,
乌鲁木齐市,新师大温泉校区,87.7024,43.8004,2025-03-26T1700,14,65,0.2,3,1,78,78,58,颗粒物(PM10)
乌鲁木齐市,大绿谷,87.4921,43.8411,2025-03-26T1700,11,89,0.4,12,4,71,65,70,颗粒物(PM10)
无锡市,雪浪,120.269,31.4867,2025-03-26T1700,39,78,0.8,16,9,225,194,113,臭氧1小时
无锡市,黄巷,120.275,31.6219,2025-03-26T1700,44,86,0.9,20,7,207,174,104,臭氧1小时
无锡市,曹张,120.294,31.56,2025-03-26T1700,41,80,0.8,21,6,217,187,109,臭氧1小时
无锡市,漆塘,120.242,31.5031,2025-03-26T1700,46,83,0.7,19,8,210,184,105,臭氧1小时
无锡市,东亭,120.3489,31.5863,2025-03-26T1700,41,75,0.9,21,7,216,186,108,臭氧1小时
无锡市,旺庄,120.354,31.5475,2025-03-26T1700,46,75,0.8,20,5,208,183,104,臭氧1小时
无锡市,荣巷,120.245,31.5631,2025-03-26T1700,36,68,0.8,24,7,219,192,110,臭氧1小时
无锡市,堰桥,120.299,31.6817,2025-03-26T1700,39,73,0.8,18,8,215,185,108,臭氧1小时
无锡市,华庄,120.3142,31.4753,2025-03-26T1700,48,71,0.7,20,8,211,184,106,臭氧1小时
吴忠市,教育园区,106.1532,37.9648,2025-03-26T1700,122,629,0.1,2,3,97,98,500,颗粒物(PM10)
