area,positionname,longitude,latitude,timepoint,pm2_5,pm10,co,no2,so2,o3,o3_8h,aqi,primarypollutant
阿坝藏族羌族自治州,州农科所,102.1879,31.914,2025-01-21T1200,25,65,0.9,10,6,52,48,58,颗粒物(PM10)
阿坝藏族羌族自治州,马师校,102.2502,31.8896,2025-01-21T1200,14,,0.5,13,,44,34,,
阿坝藏族羌族自治州,马尔康中学西区,102.2165,31.9024,2025-01-21T1200,7,18,0.4,16,5,90,42,29,
阿克苏地区,电视台,80.292,41.1694,2025-01-21T1200,94,129,1.3,47,5,38,70,124,细颗粒物(PM2.5)
阿克苏地区,艺术中心,80.2613,41.1551,2025-01-21T1200,81,167,2.2,62,5,8,67,109,颗粒物(PM10)
阿拉善盟,西城区西花园,105.6467,38.8363,2025-01-21T1200,31,48,0.8,16,19,66,75,48,
阿拉善盟,蒙二幼,105.6985,38.8411,2025-01-21T1200,13,43,0.3,13,5,70,78,43,
阿拉善盟,环保局新楼,105.724,38.8516,2025-01-21T1200,14,26,,10,7,71,93,,
阿勒泰地区,市站,88.1264,47.8517,2025-01-21T1200,18,30,0.4,35,24,40,26,30,
阿里地区,阿里监测站,80.1161,32.5,2025-01-21T1200,3,9,0.6,8,9,76,89,24,
阿里地区,阿里藏医院,80.0903,32.5028,2025-01-21T1200,15,22,1.0,20,11,60,83,22,
安康市,香溪洞,109.0318,32.6537,2025-01-21T1200,57,68,0.9,21,11,45,56,78,细颗粒物(PM2.5)
安康市,汉滨区检察院,109.0072,32.6975,2025-01-21T1200,62,76,1.0,32,7,38,23,84,细颗粒物(PM2.5)
安康市,市邮政管理局,109.0325,32.6913,2025-01-21T1200,,,1.2,31,,,14,,
安庆市,环科院,117.0809,30.5177,2025-01-21T1200,114,149,1.3,76,13,57,58,149,细颗粒物(PM2.5)
安庆市,马山宾馆,117.0331,30.5119,2025-01-21T1200,137,160,1.6,100,14,27,48,182,细颗粒物(PM2.5)
安庆市,安庆大学,116.9896,30.6145,2025-01-21T1200,118,160,0.9,,,98,47,155,细颗粒物(PM2.5)
安庆市,市人大,117.0598,30.5351,2025-01-21T1200,117,159,1.2,62,18,79,41,153,细颗粒物(PM2.5)
安顺市,伍家关,105.9606,26.2611,2025-01-21T1200,,,,,,,103,,
安顺市,凤凰山,105.9408,26.2431,2025-01-21T1200,51,68,0.7,19,24,,108,,
安顺市,金钟山,105.9439,26.2564,2025-01-21T1200,48,63,0.9,15,20,124,109,67,细颗粒物(PM2.5)
安顺市,娄家坡,105.8983,26.2481,2025-01-21T1200,52,60,0.8,13,8,133,109,72,细颗粒物(PM2.5)
安阳市,棉研所,114.4839,36.0621,2025-01-21T1200,153,257,1.8,64,24,43,21,203,细颗粒物(PM2.5)
安阳市,红庙街,114.3551,36.1017,2025-01-21T1200,130,178,2.4,59,27,48,21,172,细颗粒物(PM2.5)
安阳市,银杏小区,114.361,36.0681,2025-01-21T1200,134,187,2.0,58,28,52,19,178,细颗粒物(PM2.5)
安阳市,信访局,114.3922,36.0878,2025-01-21T1200,125,203,1.5,62,22,50,20,165,细颗粒物(PM2.5)
安阳市,左辅环卫站,114.4705,36.0637,2025-01-21T1200,155,230,1.8,66,23,49,26,205,细颗粒物(PM2.5)
安阳市,安钢职工学校,114.2917,36.0949,2025-01-21T1200,134,217,2.0,65,31,52,21,178,细颗粒物(PM2.5)
鞍山市,深沟寺,123.044,41.1196,2025-01-21T1200,32,46,0.6,16,12,63,35,46,
鞍山市,太阳城,123.011,41.0931,2025-01-21T1200,19,37,0.6,14,4,68,39,37,
鞍山市,太平,123.0485,41.1442,2025-01-21T1200,18,37,,,13,65,29,,
鞍山市,铁西三道街,122.9642,41.0971,2025-01-21T1200,18,44,1.5,30,22,53,25,44,
鞍山市,明达新区,123.022,41.0821,2025-01-21T1200,18,37,0.4,13,11,72,43,37,
鞍山市,千山,123.1289,41.0228,2025-01-21T1200,,,,,,,48,,
鞍山市,兴盛南路290号,122.9446,41.0826,2025-01-21T1200,14,39,1.1,18,14,66,30,39,
巴彦淖尔市,附二中,107.4212,40.761,2025-01-21T1200,42,102,0.9,28,25,46,27,76,颗粒物(PM10)
巴彦淖尔市,市环保大楼,107.37,40.7372,2025-01-21T1200,36,89,0.9,29,19,50,34,70,颗粒物(PM10)
巴音郭楞蒙古自治州,孔雀公园,86.1472,41.7538,2025-01-21T1200,79,92,1.1,28,6,53,54,105,细颗粒物(PM2.5)
巴音郭楞蒙古自治州,棉纺厂,86.1972,41.7166,2025-01-21T1200,77,116,1.2,42,6,44,56,103,细颗粒物(PM2.5)
巴音郭楞蒙古自治州,经济开发区,86.2357,41.7173,2025-01-21T1200,54,87,0.9,23,5,70,81,74,细颗粒物(PM2.5)
巴中市,苏山坪,106.7677,31.8794,2025-01-21T1200,85,100,1.1,38,4,20,71,113,细颗粒物(PM2.5)
巴中市,丽阳花园,106.7656,31.8545,2025-01-21T1200,89,112,1.3,40,,,5,118,细颗粒物(PM2.5)
巴中市,圣泉水务公司,106.7418,31.8654,2025-01-21T1200,71,86,0.9,31,4,23,10,95,细颗粒物(PM2.5)
巴中市,市中心医院,106.7616,31.8344,2025-01-21T1200,101,108,1.1,38,4,10,4,133,细颗粒物(PM2.5)
白城市,洮北区环保局,122.7911,45.6077,2025-01-21T1200,94,,0.7,,8,50,53,124,细颗粒物(PM2.5)
白城市,市环保局,122.8738,45.5725,2025-01-21T1200,101,114,0.7,17,4,66,54,133,细颗粒物(PM2.5)
白山市,喜丰,126.4219,41.9171,2025-01-21T1200,59,102,1.3,44,19,42,28,80,细颗粒物(PM2.5)
白山市,环保局,126.4077,41.9419,2025-01-21T1200,70,92,1.5,37,15,35,22,94,细颗粒物(PM2.5)
白银市,第三小学,104.1724,36.5446,2025-01-21T1200,88,115,2.8,56,596,61,30,132,二氧化硫
白银市,动力公司,104.1465,36.5482,2025-01-21T1200,64,88,2.5,41,607,112,52,136,二氧化硫
百色市,市监测站,106.6103,23.9011,2025-01-21T1200,109,122,1.2,37,28,57,39,143,细颗粒物(PM2.5)
百色市,市中心血站,106.6538,23.8859,2025-01-21T1200,116,140,1.2,56,18,37,58,152,细颗粒物(PM2.5)
百色市,祈福高中,106.6085,23.8798,2025-01-21T1200,99,156,1.0,55,18,36,43,130,细颗粒物(PM2.5)
蚌埠市,工人疗养院,117.396,32.939,2025-01-21T1200,101,126,1.1,47,13,90,58,133,细颗粒物(PM2.5)
蚌埠市,百货大楼,117.3605,32.9427,2025-01-21T1200,94,131,1.1,48,14,84,45,124,细颗粒物(PM2.5)
蚌埠市,蚌埠学院,117.4185,32.8911,2025-01-21T1200,82,107,0.9,35,17,103,62,109,细颗粒物(PM2.5)
蚌埠市,淮上区政府,117.3533,32.9673,2025-01-21T1200,103,134,1.1,54,18,77,42,135,细颗粒物(PM2.5)
蚌埠市,高新区,117.3145,32.8977,2025-01-21T1200,99,127,1.0,43,15,94,56,130,细颗粒物(PM2.5)
蚌埠市,蚌埠田家炳中学,117.3092,32.9314,2025-01-21T1200,96,125,0.8,34,13,92,50,127,细颗粒物(PM2.5)
包头市,市环境监测站,109.8756,40.6532,2025-01-21T1200,60,91,2.7,60,60,33,19,82,细颗粒物(PM2.5)
包头市,包头八中,109.9991,40.5842,2025-01-21T1200,81,142,2.1,54,52,28,14,108,细颗粒物(PM2.5)
包头市,青山宾馆,109.8538,40.6821,2025-01-21T1200,34,57,1.1,32,23,45,26,54,颗粒物(PM10)
包头市,惠龙物流,109.8642,40.6288,2025-01-21T1200,53,101,2.5,54,58,40,16,76,颗粒物(PM10)
包头市,东河鸿龙湾,110.0377,40.5546,2025-01-21T1200,62,133,1.2,46,25,30,14,92,颗粒物(PM10)
包头市,滨河大厦,109.9154,40.5685,2025-01-21T1200,69,120,1.5,47,26,40,14,93,细颗粒物(PM2.5)
包头市,包头市委党校,109.9447,40.6261,2025-01-21T1200,84,126,3.3,63,72,31,12,112,细颗粒物(PM2.5)
包头市,昆区政府,109.8331,40.6576,2025-01-21T1200,58,77,2.0,64,31,28,38,79,细颗粒物(PM2.5)
宝鸡市,庙沟村,107.185,34.3063,2025-01-21T1200,78,,0.6,21,10,79,58,104,细颗粒物(PM2.5)
宝鸡市,竹园沟,107.0708,34.3017,2025-01-21T1200,62,76,0.6,27,9,69,36,84,细颗粒物(PM2.5)
宝鸡市,三陆医院,107.1906,34.3672,2025-01-21T1200,73,94,1.0,,9,41,37,,
宝鸡市,监测站,107.1431,34.3547,2025-01-21T1200,58,81,0.8,29,8,47,27,79,细颗粒物(PM2.5)
宝鸡市,技工学校,107.1186,34.3739,2025-01-21T1200,64,99,0.7,32,8,48,38,87,细颗粒物(PM2.5)
宝鸡市,陈仓区环保局家属楼,107.3906,34.3528,2025-01-21T1200,82,111,1.0,42,20,44,25,109,细颗粒物(PM2.5)
宝鸡市,文理学院,107.2058,34.3497,2025-01-21T1200,59,85,0.7,31,8,56,35,80,细颗粒物(PM2.5)
宝鸡市,三迪小学,107.2386,34.3622,2025-01-21T1200,65,84,0.9,45,9,46,31,88,细颗粒物(PM2.5)
保定市,游泳馆,115.493,38.8632,2025-01-21T1200,50,73,0.8,48,10,42,16,69,细颗粒物(PM2.5)
保定市,华电二区,115.5213,38.8959,2025-01-21T1200,58,77,0.4,41,7,37,13,79,细颗粒物(PM2.5)
保定市,接待中心,115.4713,38.9108,2025-01-21T1200,34,65,0.7,38,2,44,18,58,颗粒物(PM10)
保定市,地表水厂,115.4612,38.8416,2025-01-21T1200,34,83,0.4,39,3,53,26,67,颗粒物(PM10)
保定市,满城区生态环境分局,115.31981,38.95208,2025-01-21T1200,22,63,0.4,25,4,59,26,57,颗粒物(PM10)
保定市,清苑区第二中学,115.47694,38.76408,2025-01-21T1200,43,99,0.6,57,8,,16,,
保定市,徐水物探局,115.62909,39.02311,2025-01-21T1200,19,49,0.4,34,8,44,12,49,
保定市,双鹰农机,115.4202,38.8656,2025-01-21T1200,26,58,0.8,36,3,53,24,54,颗粒物(PM10)
保定市,植保所站,115.5150,38.8590,2025-01-21T1200,39,62,0.6,45,4,36,13,56,颗粒物(PM10)
保山市,市环境监测站,99.1678,25.1081,2025-01-21T1200,,,0.7,,,71,56,,
保山市,市环保局,99.1711,25.1328,2025-01-21T1200,16,52,0.4,15,6,71,64,51,颗粒物(PM10)
北海市,牛尾岭水库,109.2262,21.588,2025-01-21T1200,92,,0.6,,5,40,44,122,细颗粒物(PM2.5)
北海市,海滩公园,109.1436,21.4086,2025-01-21T1200,54,67,1.3,16,10,150,104,74,细颗粒物(PM2.5)
北海市,新市环保局,109.0981,21.4661,2025-01-21T1200,53,,1.1,18,15,129,105,73,细颗粒物(PM2.5)
北海市,北海工业园,109.1778,21.5233,2025-01-21T1200,,172,,,14,152,90,111,颗粒物(PM10)
北海市,龙潭自来水厂,109.1911,21.4415,2025-01-21T1200,73,,1.1,15,13,129,65,98,细颗粒物(PM2.5)
北京市,万寿西宫,116.3621,39.8784,2025-01-21T1200,12,24,0.3,19,6,63,45,24,
北京市,定陵,116.2202,40.2915,2025-01-21T1200,,,,,,,,,
北京市,东四,116.4174,39.9289,2025-01-21T1200,12,23,0.4,14,3,49,38,23,
北京市,天坛,116.4072,39.8863,2025-01-21T1200,12,23,0.3,20,3,61,44,23,
北京市,农展馆,116.462,39.9365,2025-01-21T1200,9,19,0.5,15,3,70,43,22,
北京市,官园,116.3392,39.9295,2025-01-21T1200,12,26,0.3,14,5,57,35,26,
北京市,海淀万柳,116.2878,39.9611,2025-01-21T1200,13,25,0.5,23,4,52,19,25,
北京市,顺义新城,116.6636,40.135,2025-01-21T1200,8,18,0.1,6,1,77,59,25,
北京市,怀柔镇,116.6275,40.3275,2025-01-21T1200,10,19,0.2,7,2,70,43,22,
北京市,昌平镇,116.2296,40.217,2025-01-21T1200,10,21,,8,,78,62,,
北京市,奥体中心,116.3966,39.9821,2025-01-21T1200,11,22,0.5,11,4,,32,,
北京市,延庆夏都,115.9718,40.4529,2025-01-21T1200,34,54,0.6,25,7,43,15,52,颗粒物(PM10)
北京市,平谷新城,117.0709,40.1465,2025-01-21T1200,3,7,0.3,10,3,69,32,22,
北京市,密云新城,116.8336,40.4095,2025-01-21T1200,8,14,0.2,3,1,67,60,21,
北京市,门头沟三家店,116.088,39.9726,2025-01-21T1200,16,31,0.3,14,5,57,29,31,
北京市,丰台云岗,116.1541,39.8204,2025-01-21T1200,11,24,0.2,14,4,63,31,24,
北京市,通州东关,116.6804,39.9081,2025-01-21T1200,8,18,0.1,13,2,61,22,20,
北京市,房山燕山,115.9577,39.7603,2025-01-21T1200,22,31,0.3,25,3,55,26,32,
北京市,大兴旧宫,116.4672,39.7733,2025-01-21T1200,8,16,0.3,10,2,49,35,16,
北京市,延庆石河营,115.986,40.4563,2025-01-21T1200,31,49,0.6,26,6,42,15,49,
北京市,怀柔新城,116.6151,40.3053,2025-01-21T1200,7,18,0.2,5,1,66,42,21,
北京市,丰台小屯,116.2545,39.8768,2025-01-21T1200,13,25,0.3,24,5,52,23,25,
北京市,密云镇,116.84,40.3844,2025-01-21T1200,7,14,0.2,5,6,69,63,22,
北京市,八角,116.1942,39.91583,2025-01-21T1200,16,33,0.3,20,2,51,20,33,
本溪市,大峪,123.8275,41.3064,2025-01-21T1200,52,86,1.2,35,17,50,16,72,细颗粒物(PM2.5)
本溪市,溪湖,123.7567,41.3325,2025-01-21T1200,16,44,0.7,18,12,62,19,44,
本溪市,彩屯,123.7169,41.3094,2025-01-21T1200,25,33,0.8,22,10,60,19,36,
本溪市,东明,123.7669,41.2864,2025-01-21T1200,50,88,1.1,,14,52,15,,
本溪市,新立屯,123.7992,41.2664,2025-01-21T1200,32,118,1.2,36,13,62,27,84,颗粒物(PM10)
本溪市,威宁,123.8142,41.3472,2025-01-21T1200,49,125,1.2,35,10,51,17,88,颗粒物(PM10)
毕节市,八中,105.2864,27.3125,2025-01-21T1200,101,128,1.1,30,16,60,38,133,细颗粒物(PM2.5)
毕节市,师专,105.31,27.2944,2025-01-21T1200,108,126,1.1,32,18,55,42,142,细颗粒物(PM2.5)
毕节市,长征村,105.3631,27.3533,2025-01-21T1200,97,111,1.0,20,28,78,62,128,细颗粒物(PM2.5)
滨州市,第二水厂,118.0018,37.3617,2025-01-21T1200,95,163,1.4,69,28,,10,125,细颗粒物(PM2.5)
滨州市,北中新校,117.9776,37.393,2025-01-21T1200,112,185,1.1,95,29,31,15,147,细颗粒物(PM2.5)
滨州市,中海酒店,117.9378,37.3956,2025-01-21T1200,127,178,1.2,74,33,42,25,168,细颗粒物(PM2.5)
滨州市,开发区一中,117.9378,37.3553,2025-01-21T1200,100,158,1.1,81,28,46,25,132,细颗粒物(PM2.5)
滨州市,金海六路,118.0917,37.694,2025-01-21T1200,102,156,1.1,70,37,47,13,134,细颗粒物(PM2.5)
滨州市,滨州市西街道办事处,117.9956,37.3753,2025-01-21T1200,122,173,0.9,71,24,,6,160,细颗粒物(PM2.5)
亳州市,污水处理厂,115.8072,33.8399,2025-01-21T1200,102,142,0.9,,10,81,42,134,细颗粒物(PM2.5)
亳州市,三国揽胜宫,115.7789,33.8518,2025-01-21T1200,120,198,1.1,44,9,82,49,158,细颗粒物(PM2.5)
亳州市,亳州学院,115.7633,33.8034,2025-01-21T1200,85,137,1.0,35,8,84,57,113,细颗粒物(PM2.5)
博尔塔拉蒙古自治州,市党校,82.0485,44.8556,2025-01-21T1200,92,139,1.6,28,8,45,53,122,细颗粒物(PM2.5)
博尔塔拉蒙古自治州,市环保局,82.0806,44.8969,2025-01-21T1200,71,126,1.7,41,7,47,58,95,细颗粒物(PM2.5)
沧州市,沧县城建局,116.8842,38.2991,2025-01-21T1200,105,155,1.5,76,31,33,16,138,细颗粒物(PM2.5)
沧州市,电视转播站,116.8584,38.3254,2025-01-21T1200,114,143,1.8,93,26,24,14,149,细颗粒物(PM2.5)
沧州市,市环保局,116.8709,38.3228,2025-01-21T1200,105,146,1.5,78,28,27,19,138,细颗粒物(PM2.5)
沧州市,河北水利电力学院,116.8136,38.3004,2025-01-21T1200,100,168,1.5,74,34,31,19,132,细颗粒物(PM2.5)
昌都市,昌都监测站,97.1806,31.1273,2025-01-21T1200,15,26,1.1,15,7,52,38,26,
昌都市,昌都会议中心,97.1714,31.1406,2025-01-21T1200,14,24,0.6,11,4,56,44,24,
昌吉回族自治州,天山天池,88.1236,43.8886,2025-01-21T1200,3,10,0.5,2,6,86,89,27,
昌吉回族自治州,新区政务中心,87.2717,44.0297,2025-01-21T1200,217,252,1.7,45,2,28,13,267,细颗粒物(PM2.5)
昌吉回族自治州,亚心广场,87.3095,44.0142,2025-01-21T1200,280,320,1.9,33,7,34,22,330,细颗粒物(PM2.5)
长春市,食品厂,125.3325,43.9166,2025-01-21T1200,31,57,0.5,21,10,56,29,54,颗粒物(PM10)
长春市,客车厂,125.2863,43.9027,2025-01-21T1200,35,54,0.6,19,10,59,39,52,颗粒物(PM10)
长春市,邮电学院,125.2841,43.8463,2025-01-21T1200,35,58,0.7,22,16,57,39,54,颗粒物(PM10)
长春市,劳动公园,125.3716,43.8772,2025-01-21T1200,25,77,0.5,18,13,,38,,
长春市,园林处,125.3297,43.8805,2025-01-21T1200,32,55,,,9,57,42,,
长春市,净月潭,125.4605,43.79,2025-01-21T1200,29,53,0.4,14,10,59,55,52,颗粒物(PM10)
长春市,甩湾子,125.7194,43.515,2025-01-21T1200,,,,,,,,,
长春市,经开区环卫处,125.3863,43.8447,2025-01-21T1200,29,63,0.8,19,13,57,36,57,颗粒物(PM10)
长春市,高新区管委会,125.245,43.7783,2025-01-21T1200,24,42,0.6,12,10,63,32,42,
长春市,岱山公园,125.1761,43.8325,2025-01-21T1200,34,44,0.5,12,8,62,37,49,
长沙市,经开区环保局,113.0833,28.2325,2025-01-21T1200,50,101,0.6,39,5,94,62,76,颗粒物(PM10)
长沙市,高开区环保局,112.8872,28.2189,2025-01-21T1200,66,106,0.9,38,6,103,26,89,细颗粒物(PM2.5)
长沙市,马坡岭,113.0792,28.2053,2025-01-21T1200,72,111,0.5,37,5,97,26,97,细颗粒物(PM2.5)
长沙市,湖南师范大学,112.9394,28.19,2025-01-21T1200,80,111,1.0,38,8,103,43,107,细颗粒物(PM2.5)
长沙市,雨花区环保局,113.0178,28.1322,2025-01-21T1200,72,105,0.8,30,,103,61,,
长沙市,伍家岭,112.9792,28.2597,2025-01-21T1200,65,112,0.7,39,6,102,23,88,细颗粒物(PM2.5)
长沙市,火车新站,113.0014,28.1944,2025-01-21T1200,73,116,0.8,46,5,90,25,98,细颗粒物(PM2.5)
长沙市,天心区环保局,112.9844,28.1178,2025-01-21T1200,81,101,1.1,29,4,116,67,108,细颗粒物(PM2.5)
长沙市,湖南中医药大学,112.8908,28.1308,2025-01-21T1200,61,124,0.9,40,9,94,20,87,颗粒物(PM10)
长沙市,沙坪,112.9581,28.3611,2025-01-21T1200,54,64,1.0,25,9,106,87,74,细颗粒物(PM2.5)
长治市,清华站,113.1147,36.1547,2025-01-21T1200,,,,79,38,,17,,
长治市,审计局,113.0886,36.2125,2025-01-21T1200,80,123,1.5,54,51,38,12,107,细颗粒物(PM2.5)
长治市,长治八中,113.0844,36.1856,2025-01-21T1200,91,132,1.6,58,42,28,11,120,细颗粒物(PM2.5)
长治市,德盛苑,113.1569,36.1911,2025-01-21T1200,73,122,1.7,61,42,36,50,98,细颗粒物(PM2.5)
长治市,向阳小学,113.06,36.0464,2025-01-21T1200,80,127,1.5,55,44,37,41,107,细颗粒物(PM2.5)
长治市,屯留一中,112.8792,36.3144,2025-01-21T1200,40,63,0.9,58,30,45,26,57,"颗粒物(PM10),细颗粒物(PM2.5)"
长治市,英华南巷50号,113.1131,36.19948,2025-01-21T1200,75,107,1.6,65,37,39,18,100,细颗粒物(PM2.5)
长治市,学府街1号,113.2367,36.3344,2025-01-21T1200,76,147,1.8,38,36,47,32,102,细颗粒物(PM2.5)
常德市,市二中,111.6975,28.9703,2025-01-21T1200,137,140,0.8,21,6,90,53,182,细颗粒物(PM2.5)
常德市,白鹤山,111.7158,29.1456,2025-01-21T1200,,,,,,,,,
常德市,武陵区永安,111.7153,29.0289,2025-01-21T1200,146,172,0.9,32,5,90,47,195,细颗粒物(PM2.5)
常德市,鼎城区玉霞,111.6892,28.9881,2025-01-21T1200,133,,1.0,19,14,97,30,176,细颗粒物(PM2.5)
常德市,武陵区长庚,111.6625,29.0531,2025-01-21T1200,142,178,0.8,32,5,88,54,189,细颗粒物(PM2.5)
常州市,市监测站,119.9633,31.762,2025-01-21T1200,127,185,0.9,46,17,136,38,168,细颗粒物(PM2.5)
常州市,武进监测站,119.9468,31.7069,2025-01-21T1200,124,174,0.9,30,14,143,45,163,细颗粒物(PM2.5)
常州市,安家,119.9255,31.9087,2025-01-21T1200,132,182,1.5,62,16,94,31,175,细颗粒物(PM2.5)
常州市,行政中心,119.9805,31.8174,2025-01-21T1200,124,160,1.4,44,21,111,32,163,细颗粒物(PM2.5)
常州市,经开区,120.0522,31.7748,2025-01-21T1200,118,182,1.0,40,18,132,35,155,细颗粒物(PM2.5)
常州市,钟楼,119.9025,31.7964,2025-01-21T1200,120,174,1.0,35,15,130,43,158,细颗粒物(PM2.5)
常州市,武进经发区,119.8598,31.7066,2025-01-21T1200,142,190,1.1,43,13,127,48,189,细颗粒物(PM2.5)
常州市,金坛城区,119.5826,31.7245,2025-01-21T1200,146,190,1.0,30,13,126,41,195,细颗粒物(PM2.5)
朝阳市,西梁,120.4318,41.5881,2025-01-21T1200,14,57,0.6,18,12,62,24,54,颗粒物(PM10)
朝阳市,河畔小区,120.4521,41.5646,2025-01-21T1200,16,57,0.6,15,8,61,23,54,颗粒物(PM10)
朝阳市,八里堡,120.4176,41.5648,2025-01-21T1200,17,47,0.7,18,10,65,30,47,
朝阳市,农业园区,120.3806,41.5969,2025-01-21T1200,3,18,0.5,4,,75,44,,
潮州市,西园路,116.6367,23.6719,2025-01-21T1200,24,61,0.6,19,5,101,57,56,颗粒物(PM10)
潮州市,市政府,116.6183,23.6608,2025-01-21T1200,26,76,0.5,18,4,,48,,
潮州市,金山,116.6461,23.6761,2025-01-21T1200,27,69,0.6,18,6,94,51,60,颗粒物(PM10)
郴州市,马头岭,113.0073,25.9061,2025-01-21T1200,43,86,0.9,40,33,78,64,68,颗粒物(PM10)
郴州市,市职中,113.0116,25.8226,2025-01-21T1200,58,78,0.8,24,47,86,32,79,细颗粒物(PM2.5)
郴州市,兴隆步行街,113.0161,25.8001,2025-01-21T1200,,,,,,,82,,
郴州市,市审计局,113.0383,25.8071,2025-01-21T1200,68,98,1.0,38,54,62,20,92,细颗粒物(PM2.5)
郴州市,市环保局,113.0348,25.7759,2025-01-21T1200,61,98,1.0,54,24,45,17,83,细颗粒物(PM2.5)
成都市,金泉两河,103.9728,30.7236,2025-01-21T1200,80,116,0.9,50,3,39,8,107,细颗粒物(PM2.5)
成都市,十里店,104.176,30.6872,2025-01-21T1200,88,122,0.9,67,2,18,18,117,细颗粒物(PM2.5)
成都市,三瓦窑,104.079,30.5706,2025-01-21T1200,86,112,0.9,59,1,40,29,114,细颗粒物(PM2.5)
成都市,沙河铺,104.1114,30.63,2025-01-21T1200,79,107,1.0,57,5,34,23,105,细颗粒物(PM2.5)
成都市,君平街,104.0786,30.6531,2025-01-21T1200,88,114,1.1,66,4,39,45,117,细颗粒物(PM2.5)
成都市,灵岩寺,103.613,31.0283,2025-01-21T1200,,,,,,,,,
成都市,大石西路,104.0239,30.65639,2025-01-21T1200,87,117,1.4,68,4,40,19,115,细颗粒物(PM2.5)
成都市,龙泉驿区区政府,104.2725,30.5589,2025-01-21T1200,88,117,1.0,42,4,62,66,117,细颗粒物(PM2.5)
成都市,金博路,104.0106,30.6931,2025-01-21T1200,86,110,1.0,55,2,36,8,114,细颗粒物(PM2.5)
成都市,华阳,104.0578,30.5225,2025-01-21T1200,88,112,0.7,36,1,56,21,117,细颗粒物(PM2.5)
成都市,青白江技师分院,104.3853,30.7453,2025-01-21T1200,85,112,0.7,15,,82,52,113,细颗粒物(PM2.5)
成都市,科学城,104.0789,30.4072,2025-01-21T1200,86,99,0.9,28,4,30,11,114,细颗粒物(PM2.5)
成都市,光华大道三段,103.8506,30.6947,2025-01-21T1200,84,100,0.8,36,2,59,14,112,细颗粒物(PM2.5)
成都市,鲸龙路1057号,104.2433,30.5353,2025-01-21T1200,96,128,1.0,51,2,51,16,127,细颗粒物(PM2.5)
承德市,铁路,117.9531,40.9081,2025-01-21T1200,7,31,0.3,14,9,58,16,31,
承德市,中国银行,117.9392,40.9763,2025-01-21T1200,,,,11,7,57,17,,
承德市,开发区,117.9503,40.928,2025-01-21T1200,31,,0.4,16,8,63,18,45,
承德市,文化中心,117.8051,40.9655,2025-01-21T1200,3,46,0.2,13,5,62,21,46,
承德市,离宫,117.9268,41.0026,2025-01-21T1200,14,15,0.3,5,6,63,28,20,
池州市,池州学院,117.47,30.6618,2025-01-21T1200,102,126,1.2,37,10,80,37,134,细颗粒物(PM2.5)
池州市,展览馆,117.4918,30.6617,2025-01-21T1200,104,134,1.3,49,11,62,30,137,细颗粒物(PM2.5)
池州市,第八中学,117.5627,30.695,2025-01-21T1200,84,111,,36,5,,67,112,细颗粒物(PM2.5)
池州市,第十二中学,117.5038,30.6243,2025-01-21T1200,96,121,1.3,35,7,87,30,127,细颗粒物(PM2.5)
赤峰市,松山一中,118.9233,42.2816,2025-01-21T1200,11,15,0.6,11,7,64,32,20,
赤峰市,哈达街,118.9576,42.2728,2025-01-21T1200,6,13,0.7,19,7,64,40,20,
赤峰市,天义路,118.8788,42.2554,2025-01-21T1200,12,30,0.3,11,7,59,34,30,
赤峰市,银河街,119.2658,42.0353,2025-01-21T1200,,,,16,,55,34,,
赤峰市,桥北物流园区,118.9359,42.3147,2025-01-21T1200,17,25,0.4,15,7,63,42,25,
崇左市,市环保局江州分局,107.3476,22.4136,2025-01-21T1200,86,130,1.1,27,12,107,43,114,细颗粒物(PM2.5)
崇左市,城南新区,107.3702,22.3707,2025-01-21T1200,96,106,1.1,31,11,116,56,127,细颗粒物(PM2.5)
滁州市,老年大学,118.3093,32.3153,2025-01-21T1200,125,157,1.2,95,13,65,18,165,细颗粒物(PM2.5)
滁州市,人大宾馆,118.3244,32.2786,2025-01-21T1200,128,149,1.1,82,20,77,23,169,细颗粒物(PM2.5)
滁州市,市政府原办公楼,118.3118,32.3038,2025-01-21T1200,112,139,0.9,,15,74,20,147,细颗粒物(PM2.5)
滁州市,图书馆,118.3267,32.2634,2025-01-21T1200,105,159,1.1,78,19,71,20,138,细颗粒物(PM2.5)
楚雄彝族自治州,州环境监测站,101.5482,25.0441,2025-01-21T1200,15,26,0.5,4,7,72,17,26,
楚雄彝族自治州,市经济开发区,101.538,25.0492,2025-01-21T1200,,,0.5,7,5,70,21,,
达州市,达州职业技术学院,107.5277,31.2827,2025-01-21T1200,86,120,0.7,21,11,39,10,114,细颗粒物(PM2.5)
达州市,市环境监测站,107.5086,31.2186,2025-01-21T1200,85,121,1.1,44,10,22,8,113,细颗粒物(PM2.5)
达州市,凤凰小区,107.4988,31.2132,2025-01-21T1200,90,119,1.0,41,13,26,11,119,细颗粒物(PM2.5)
达州市,达县机关宾馆,107.5082,31.1986,2025-01-21T1200,79,117,1.2,44,11,27,8,105,细颗粒物(PM2.5)
达州市,市政中心,107.4644,31.2124,2025-01-21T1200,97,148,1.5,64,10,,3,128,细颗粒物(PM2.5)
大理白族自治州,大理市环境监测站,100.1542,25.7054,2025-01-21T1200,17,22,0.5,7,7,74,73,25,
大理白族自治州,大理古城,100.2171,25.5811,2025-01-21T1200,3,21,0.7,7,6,81,66,26,
大连市,甘井子,121.612,38.9741,2025-01-21T1200,74,102,1.1,43,15,36,39,99,细颗粒物(PM2.5)
大连市,周水子,121.565,38.9511,2025-01-21T1200,85,97,0.9,37,18,48,45,113,细颗粒物(PM2.5)
大连市,星海三站,121.5637,38.8845,2025-01-21T1200,70,95,,35,,50,44,,
大连市,青泥洼桥,121.6302,38.9117,2025-01-21T1200,80,117,1.3,48,19,30,40,107,细颗粒物(PM2.5)
大连市,傅家庄,121.6251,38.8638,2025-01-21T1200,75,111,1.2,19,19,36,46,100,细颗粒物(PM2.5)
大连市,七贤岭,121.5213,38.8661,2025-01-21T1200,68,94,1.1,30,15,56,39,92,细颗粒物(PM2.5)
大连市,旅顺,121.2529,38.8061,2025-01-21T1200,69,85,1.1,24,11,59,47,93,细颗粒物(PM2.5)
大连市,金州,121.7485,39.1311,2025-01-21T1200,76,100,1.3,36,18,53,50,102,细颗粒物(PM2.5)
大连市,开发区,121.7811,39.0496,2025-01-21T1200,71,88,0.9,35,18,49,37,95,细颗粒物(PM2.5)
大连市,双D港,121.9762,39.0631,2025-01-21T1200,89,116,1.4,32,14,65,57,118,细颗粒物(PM2.5)
大庆市,大同区,124.81117,46.03138,2025-01-21T1200,140,152,1.2,49,,48,40,186,细颗粒物(PM2.5)
大庆市,龙凤区,125.129,46.533,2025-01-21T1200,64,92,0.9,35,13,66,60,87,细颗粒物(PM2.5)
大庆市,红岗区,124.902,46.408,2025-01-21T1200,78,93,0.9,37,10,58,42,104,细颗粒物(PM2.5)
大庆市,萨尔图区,125.153,46.586,2025-01-21T1200,95,127,0.8,29,7,76,68,125,细颗粒物(PM2.5)
大庆市,让胡路区,124.9042,46.6215,2025-01-21T1200,81,105,0.8,27,11,68,54,108,细颗粒物(PM2.5)
大庆市,萨区政府监测点,125.141,46.634,2025-01-21T1200,97,124,1.0,,10,72,63,128,细颗粒物(PM2.5)
大同市,果树场,113.3819,40.1097,2025-01-21T1200,,,,,,,,,
大同市,云冈宾馆,113.2994,40.0758,2025-01-21T1200,30,84,1.2,35,25,41,18,67,颗粒物(PM10)
大同市,大同大学,113.3444,40.0917,2025-01-21T1200,14,51,0.7,22,20,52,24,51,颗粒物(PM10)
大同市,安家小村,113.2661,40.1269,2025-01-21T1200,41,95,0.9,25,23,49,18,73,颗粒物(PM10)
大同市,教育学院,113.2711,40.0844,2025-01-21T1200,34,89,,34,21,38,14,,
大同市,大同市卫生学校,113.3397,40.0597,2025-01-21T1200,27,52,1.2,32,23,43,19,51,颗粒物(PM10)
大同市,云冈站,113.1367,40.1122,2025-01-21T1200,30,73,0.9,32,30,45,17,62,颗粒物(PM10)
大同市,图书馆,113.1186,40.2556,2025-01-21T1200,41,88,1.0,20,20,53,22,69,颗粒物(PM10)
大同市,区一中,113.5931,40.0461,2025-01-21T1200,33,64,0.8,35,19,40,34,57,颗粒物(PM10)
大同市,魏都大道141号,113.2798,40.0997,2025-01-21T1200,32,105,1.3,36,32,39,15,78,颗粒物(PM10)
大兴安岭地区,科技局,124.1069,50.4097,2025-01-21T1200,25,35,0.4,9,8,60,56,36,
大兴安岭地区,红旗社区,124.1164,50.4278,2025-01-21T1200,30,31,0.7,19,3,45,31,43,
丹东市,江湾东路,124.3303,40.0625,2025-01-21T1200,68,105,1.2,40,20,45,17,92,细颗粒物(PM2.5)
丹东市,临江后街,124.4256,40.1503,2025-01-21T1200,74,108,1.3,50,28,24,27,99,细颗粒物(PM2.5)
丹东市,元宝山,124.3933,40.1461,2025-01-21T1200,74,96,0.8,,,15,31,,
丹东市,民主桥,124.3633,40.1092,2025-01-21T1200,69,103,1.2,50,16,33,13,93,细颗粒物(PM2.5)
儋州市,第一中学子站,109.5726,19.5167,2025-01-21T1200,17,30,0.5,8,5,125,121,40,
儋州市,东坡学校子站,109.5567,19.5187,2025-01-21T1200,17,36,0.5,6,6,134,128,42,
德宏傣族景颇族自治州,德宏州监测站,98.5842,24.428,2025-01-21T1200,41,63,0.9,23,9,50,19,58,细颗粒物(PM2.5)
德宏傣族景颇族自治州,芒市人民政府综合楼,98.5881,24.4368,2025-01-21T1200,52,72,0.7,26,7,43,24,72,细颗粒物(PM2.5)
德阳市,东山公园,104.4239,31.1208,2025-01-21T1200,87,110,1.0,32,4,70,67,115,细颗粒物(PM2.5)
德阳市,西小区,104.3826,31.1317,2025-01-21T1200,109,156,1.2,47,4,48,25,143,细颗粒物(PM2.5)
德阳市,耐火材料厂,104.3553,31.1091,2025-01-21T1200,,,,49,7,,8,,
德阳市,市教育局,104.4019,31.1244,2025-01-21T1200,96,115,1.0,36,6,62,39,127,细颗粒物(PM2.5)
德州市,儿童乐园,116.3032,37.4674,2025-01-21T1200,141,217,1.7,71,35,50,40,188,细颗粒物(PM2.5)
德州市,监理站,116.2991,37.4451,2025-01-21T1200,,,,,41,46,37,,
德州市,九衢泉纯净水厂,116.2721,37.4379,2025-01-21T1200,134,193,1.4,62,43,53,25,178,细颗粒物(PM2.5)
德州市,开发区人民医院,116.3728,37.4403,2025-01-21T1200,129,185,1.4,68,23,48,39,170,细颗粒物(PM2.5)
德州市,太阳城中学,116.3572,37.4094,2025-01-21T1200,129,175,1.4,84,23,56,33,170,细颗粒物(PM2.5)
德州市,陵城艺术中心,116.5652,37.3319,2025-01-21T1200,127,173,1.3,57,28,59,37,168,细颗粒物(PM2.5)
迪庆藏族自治州,迪庆州站,99.7056,27.8317,2025-01-21T1200,32,42,0.8,19,9,80,52,46,
迪庆藏族自治州,质量技术监督局,99.7136,27.8094,2025-01-21T1200,,,0.6,18,8,,48,,
定西市,东关小学,104.6241,35.5734,2025-01-21T1200,55,86,2.3,34,43,38,8,75,细颗粒物(PM2.5)
定西市,供电公司,104.6194,35.5934,2025-01-21T1200,56,86,2.4,40,30,35,8,77,细颗粒物(PM2.5)
东莞市,莞城梨川,113.7547,23.0494,2025-01-21T1200,34,60,0.9,28,7,126,49,55,颗粒物(PM10)
东莞市,东城石井,113.7944,23.0128,2025-01-21T1200,38,62,0.5,31,8,128,47,56,颗粒物(PM10)
东莞市,南城西平,113.7383,22.9658,2025-01-21T1200,40,67,0.7,38,1,125,36,59,颗粒物(PM10)
东莞市,万江金泰,113.7338,23.0381,2025-01-21T1200,35,57,1.0,28,9,128,40,54,颗粒物(PM10)
东莞市,南城元岭,113.7533,23.0202,2025-01-21T1200,38,64,0.8,26,8,,41,,
东莞市,东城主山,113.7875,23.0457,2025-01-21T1200,29,52,0.7,25,9,113,48,51,颗粒物(PM10)
东营市,市环保局,118.6614,37.4309,2025-01-21T1200,92,132,1.3,58,32,60,17,122,细颗粒物(PM2.5)
东营市,开发区管委会,118.6904,37.4338,2025-01-21T1200,102,148,1.4,66,26,54,20,134,细颗粒物(PM2.5)
东营市,垦利区民丰路,118.5719,37.565,2025-01-21T1200,92,132,1.0,66,34,22,7,122,细颗粒物(PM2.5)
东营市,河口城区,118.5055,37.8612,2025-01-21T1200,76,144,1.3,61,11,37,19,102,细颗粒物(PM2.5)
东营市,胜利站,118.4978,37.4623,2025-01-21T1200,102,170,1.8,81,45,42,11,134,细颗粒物(PM2.5)
东营市,理想之城,118.35,37.26,2025-01-21T1200,80,136,1.4,72,40,52,15,107,细颗粒物(PM2.5)
鄂尔多斯市,综合楼,110.0023,39.8129,2025-01-21T1200,48,146,1.3,70,37,26,31,98,颗粒物(PM10)
鄂尔多斯市,巴音孟克林场办事处,109.9486,39.8261,2025-01-21T1200,41,100,0.9,62,,34,39,,
鄂尔多斯市,康泽苑,109.7736,39.5986,2025-01-21T1200,36,66,1.0,43,17,32,23,58,颗粒物(PM10)
鄂尔多斯市,华泰汽车城,109.8119,39.5989,2025-01-21T1200,29,78,1.0,40,11,23,13,64,颗粒物(PM10)
鄂尔多斯市,奥林花园,109.9734,39.7884,2025-01-21T1200,31,75,0.8,48,20,42,14,63,颗粒物(PM10)
鄂州市,市政府,114.8938,30.3994,2025-01-21T1200,91,162,1.3,47,15,114,89,120,细颗粒物(PM2.5)
鄂州市,赵家坝,114.8989,30.3714,2025-01-21T1200,81,112,1.5,,12,128,,108,细颗粒物(PM2.5)
鄂州市,精准医疗中心,114.8094,30.4089,2025-01-21T1200,90,134,2.6,40,28,111,76,119,细颗粒物(PM2.5)
恩施土家族苗族自治州,湖北民院,109.4978,30.2981,2025-01-21T1200,85,,1.1,52,8,30,9,113,细颗粒物(PM2.5)
恩施土家族苗族自治州,州电力总公司,109.4707,30.2798,2025-01-21T1200,100,112,1.3,,8,25,10,132,细颗粒物(PM2.5)
恩施土家族苗族自治州,龙凤新区,109.5061,30.3772,2025-01-21T1200,68,82,1.0,17,6,42,14,92,细颗粒物(PM2.5)
防城港市,沙万,108.3411,21.6158,2025-01-21T1200,,,,,,,118,,
防城港市,防城档案局,108.3514,21.7731,2025-01-21T1200,128,159,1.6,52,22,96,46,169,细颗粒物(PM2.5)
防城港市,大海花园,108.3506,21.6414,2025-01-21T1200,106,134,1.6,37,17,90,60,139,细颗粒物(PM2.5)
佛山市,湾梁,113.1294,23.0067,2025-01-21T1200,47,80,0.5,80,9,75,22,65,"颗粒物(PM10),细颗粒物(PM2.5)"
佛山市,华材职中,113.1083,23.0478,2025-01-21T1200,66,73,,79,10,84,16,,
佛山市,南海气象局,113.144,23.0453,2025-01-21T1200,53,74,0.7,52,9,82,19,73,细颗粒物(PM2.5)
佛山市,顺德苏岗,113.2881,22.8094,2025-01-21T1200,44,73,0.6,73,13,95,22,62,"颗粒物(PM10),细颗粒物(PM2.5)"
佛山市,高明孔堂,112.8383,22.8678,2025-01-21T1200,64,112,0.8,65,11,84,72,87,细颗粒物(PM2.5)
佛山市,三水监测站,112.8836,23.1588,2025-01-21T1200,69,92,0.9,74,12,49,15,93,细颗粒物(PM2.5)
佛山市,三水云东海,112.867,23.185,2025-01-21T1200,67,90,0.9,72,13,91,27,90,细颗粒物(PM2.5)
佛山市,容桂街道办,113.2544,22.7642,2025-01-21T1200,51,,0.6,81,10,78,31,,
福州市,鼓山,119.3903,26.0543,2025-01-21T1200,,,,,,,133,,
福州市,师大,119.2681,26.0504,2025-01-21T1200,79,79,0.8,22,7,155,96,105,细颗粒物(PM2.5)
福州市,五四北路,119.2984,26.1028,2025-01-21T1200,88,,0.8,25,4,152,99,117,细颗粒物(PM2.5)
福州市,杨桥西路,119.2648,26.0768,2025-01-21T1200,82,83,0.8,17,5,163,101,109,细颗粒物(PM2.5)
福州市,紫阳,119.317,26.0746,2025-01-21T1200,92,,,,7,118,85,122,细颗粒物(PM2.5)
福州市,九龙,119.5799,26.0936,2025-01-21T1200,84,,0.9,21,7,,109,112,细颗粒物(PM2.5)
福州市,吴航,119.5189,25.9664,2025-01-21T1200,69,98,0.9,20,6,160,78,93,细颗粒物(PM2.5)
抚顺市,望花区,123.7977,41.8491,2025-01-21T1200,33,83,0.9,23,9,56,19,67,颗粒物(PM10)
抚顺市,顺城区,123.9161,41.8822,2025-01-21T1200,38,126,0.9,42,,46,18,,
抚顺市,东洲区,124.0436,41.8611,2025-01-21T1200,36,105,0.8,29,15,,24,,
抚顺市,新抚区,123.9247,41.8642,2025-01-21T1200,49,116,1.1,41,10,48,19,83,颗粒物(PM10)
抚顺市,大伙房水库,124.0972,41.8961,2025-01-21T1200,63,73,1.0,24,11,60,26,85,细颗粒物(PM2.5)
抚顺市,沈抚新城,123.7086,41.8391,2025-01-21T1200,30,78,0.8,29,8,51,20,64,颗粒物(PM10)
抚州市,桐源党溪,116.2127,28.0814,2025-01-21T1200,66,88,0.9,19,41,80,32,89,细颗粒物(PM2.5)
抚州市,市站,116.3544,27.9831,2025-01-21T1200,49,82,1.0,35,17,82,38,68,细颗粒物(PM2.5)
抚州市,血防站,116.3565,27.963,2025-01-21T1200,44,77,1.2,23,8,96,40,64,颗粒物(PM10)
抚州市,采茶剧团,116.3564,28.0007,2025-01-21T1200,50,87,1.8,22,9,91,22,69,"颗粒物(PM10),细颗粒物(PM2.5)"
抚州市,医学分院,116.385,27.9647,2025-01-21T1200,,,,,,,37,,
阜新市,工业园区,121.6094,41.998,2025-01-21T1200,10,43,0.2,8,9,66,43,43,
阜新市,长青街,121.6697,42.0279,2025-01-21T1200,12,22,0.4,6,5,66,44,22,
阜新市,农业园区,121.6673,42.0705,2025-01-21T1200,7,27,0.1,4,9,66,60,27,
阜新市,东苑,121.6717,42.0224,2025-01-21T1200,9,34,0.2,7,4,64,47,34,
阜新市,玉龙新城,121.6506,42.0498,2025-01-21T1200,12,30,0.7,6,8,70,41,30,
阜阳市,市监测站,115.8277,32.8929,2025-01-21T1200,126,150,,42,14,72,47,166,细颗粒物(PM2.5)
阜阳市,开发区,115.8554,32.8605,2025-01-21T1200,130,195,1.1,47,17,86,59,172,细颗粒物(PM2.5)
阜阳市,阜阳职业技术学院,115.784,32.8892,2025-01-21T1200,135,157,1.0,51,11,63,79,179,细颗粒物(PM2.5)
阜阳市,市规划展馆,115.7901,32.8613,2025-01-21T1200,116,171,1.1,41,12,82,72,152,细颗粒物(PM2.5)
阜阳市,枣园社区,115.836,32.9183,2025-01-21T1200,121,166,1.1,39,9,78,50,159,细颗粒物(PM2.5)
甘南藏族自治州,州政府,102.9099,34.9841,2025-01-21T1200,32,45,0.6,28,29,35,15,46,
甘南藏族自治州,甘肃民族师范学院,102.8914,34.9617,2025-01-21T1200,27,55,0.5,38,45,32,20,53,颗粒物(PM10)
甘孜藏族自治州,水桥子,101.9603,30.0475,2025-01-21T1200,3,21,0.6,11,3,59,30,21,
甘孜藏族自治州,州环保局,101.9533,29.9972,2025-01-21T1200,3,22,0.4,7,4,73,58,23,
赣江新区,桑海产业园,115.8347,28.932,2025-01-21T1200,67,100,0.8,34,19,105,32,90,细颗粒物(PM2.5)
赣州市,通天岩,114.9017,25.9149,2025-01-21T1200,42,64,,18,10,,44,,
赣州市,地委,114.9367,25.8664,2025-01-21T1200,37,62,1.3,27,3,112,50,56,颗粒物(PM10)
赣州市,气象台,114.9461,25.8481,2025-01-21T1200,38,74,0.9,41,12,104,46,62,颗粒物(PM10)
赣州市,市图书馆,114.9322,25.8333,2025-01-21T1200,46,73,1.1,41,8,95,36,64,细颗粒物(PM2.5)
赣州市,华坚鞋城,114.8905,25.8471,2025-01-21T1200,43,74,0.5,29,12,102,41,62,颗粒物(PM10)
赣州市,赣县区卫计委,115.0093,25.8613,2025-01-21T1200,53,84,0.8,35,7,87,,73,细颗粒物(PM2.5)
固原市,马园,106.2319,36.1417,2025-01-21T1200,69,115,1.1,36,12,56,21,93,细颗粒物(PM2.5)
固原市,监测站,106.2792,36.0022,2025-01-21T1200,29,48,0.7,24,11,80,45,48,
固原市,新区,106.2375,36.0211,2025-01-21T1200,32,46,0.6,26,9,72,34,46,
固原市,原州区十五小,106.2177,35.9959,2025-01-21T1200,34,58,0.8,26,,80,68,,
广安市,小平旧居,106.6308,30.5278,2025-01-21T1200,,,,,,,,,
广安市,市委,106.6303,30.4576,2025-01-21T1200,104,145,1.2,36,5,24,37,137,细颗粒物(PM2.5)
广安市,友谊中学,106.6271,30.4663,2025-01-21T1200,109,134,1.3,41,5,15,27,143,细颗粒物(PM2.5)
广安市,广电花园,106.6388,30.4551,2025-01-21T1200,101,125,1.2,37,3,24,26,133,细颗粒物(PM2.5)
广安市,北辰小学,106.6351,30.4865,2025-01-21T1200,100,124,1.3,32,6,30,24,132,细颗粒物(PM2.5)
广元市,黑石坡,105.8945,32.4535,2025-01-21T1200,62,107,0.8,25,2,21,32,84,细颗粒物(PM2.5)
广元市,老城,105.821,32.4444,2025-01-21T1200,73,103,1.0,39,1,17,3,98,细颗粒物(PM2.5)
广元市,监测站,105.8628,32.4287,2025-01-21T1200,72,83,1.0,39,8,28,12,97,细颗粒物(PM2.5)
广元市,经开区,105.8047,32.4166,2025-01-21T1200,118,143,1.6,43,11,12,5,155,细颗粒物(PM2.5)
广州市,广雅中学,113.2347,23.1423,2025-01-21T1200,81,118,1.1,80,11,90,22,108,细颗粒物(PM2.5)
广州市,市五中,113.2612,23.105,2025-01-21T1200,72,112,1.0,75,9,96,21,97,细颗粒物(PM2.5)
广州市,广东商学院,113.3478,23.0916,2025-01-21T1200,49,81,0.8,51,9,100,24,68,细颗粒物(PM2.5)
广州市,市八十六中,113.4332,23.1047,2025-01-21T1200,47,82,1.0,66,12,97,25,66,颗粒物(PM10)
广州市,番禺中学,113.3505,22.9483,2025-01-21T1200,54,98,0.8,50,8,116,32,74,"颗粒物(PM10),细颗粒物(PM2.5)"
广州市,花都师范,113.2146,23.3916,2025-01-21T1200,,,0.7,,9,84,27,,
广州市,市监测站,113.2597,23.1331,2025-01-21T1200,53,104,0.8,64,12,,16,,
广州市,九龙镇镇龙,113.5618,23.312,2025-01-21T1200,38,60,0.6,32,4,109,31,55,颗粒物(PM10)
广州市,麓湖,113.2765,23.1544,2025-01-21T1200,41,69,0.9,45,6,121,32,60,颗粒物(PM10)
广州市,帽峰山森林公园,113.443,23.3035,2025-01-21T1200,39,51,0.5,33,9,119,81,55,细颗粒物(PM2.5)
广州市,体育西,113.3221,23.1322,2025-01-21T1200,49,74,0.8,84,10,101,32,68,细颗粒物(PM2.5)
广州市,从化街口,113.5717,23.5491,2025-01-21T1200,47,70,0.8,32,8,99,26,65,细颗粒物(PM2.5)
广州市,白云竹料,113.3472,23.3692,2025-01-21T1200,82,132,0.8,58,12,103,33,109,细颗粒物(PM2.5)
广州市,白云嘉禾,113.2981,23.237,2025-01-21T1200,79,148,1.4,83,12,82,20,105,细颗粒物(PM2.5)
广州市,黄埔科学城,113.4256,23.1716,2025-01-21T1200,46,74,1.0,55,11,104,37,64,细颗粒物(PM2.5)
广州市,番禺大学城,113.3942,23.0483,2025-01-21T1200,37,79,1.0,45,,116,28,,
广州市,南沙黄阁,113.4922,22.8168,2025-01-21T1200,31,48,0.7,41,6,119,40,48,
广州市,南沙街,113.5342,22.7896,2025-01-21T1200,30,35,0.7,40,6,123,59,43,
广州市,花都梯面,113.2902,23.5544,2025-01-21T1200,43,71,0.7,30,8,123,34,61,颗粒物(PM10)
广州市,从化良口,113.7858,23.7478,2025-01-21T1200,22,27,0.5,11,6,101,50,32,
广州市,增城荔城,113.8051,23.2614,2025-01-21T1200,34,46,0.7,19,6,114,64,49,
贵港市,德智高中,109.568,23.1478,2025-01-21T1200,,,,,,,,,
贵港市,江南子站,109.6047,23.0666,2025-01-21T1200,76,117,1.0,24,16,129,51,102,细颗粒物(PM2.5)
贵港市,贵城子站,109.6014,23.0948,2025-01-21T1200,91,114,1.5,40,32,116,71,120,细颗粒物(PM2.5)
贵港市,荷城子站,109.5669,23.1065,2025-01-21T1200,70,112,1.0,35,22,118,61,94,细颗粒物(PM2.5)
贵港市,新世纪学校,109.5886,23.1172,2025-01-21T1200,71,122,1.0,,,135,70,,
贵阳市,马鞍山,106.6899,26.5998,2025-01-21T1200,51,80,1.0,,14,101,33,,
贵阳市,鉴湖路,106.6243,26.6266,2025-01-21T1200,56,80,0.7,21,15,110,65,77,细颗粒物(PM2.5)
贵阳市,燕子冲,106.7487,26.6343,2025-01-21T1200,58,75,0.8,28,17,110,45,79,细颗粒物(PM2.5)
贵阳市,碧云窝,106.6555,26.4365,2025-01-21T1200,44,78,0.6,15,16,130,52,64,颗粒物(PM10)
贵阳市,红边门,106.7109,26.6027,2025-01-21T1200,66,83,1.1,41,20,92,41,89,细颗粒物(PM2.5)
贵阳市,新华路,106.7164,26.5699,2025-01-21T1200,48,73,1.0,27,66,116,47,67,细颗粒物(PM2.5)
贵阳市,太慈桥,106.674,26.5424,2025-01-21T1200,46,78,0.6,21,18,121,34,64,"颗粒物(PM10),细颗粒物(PM2.5)"
贵阳市,桐木岭,106.805,26.3003,2025-01-21T1200,,,,,,,70,,
贵阳市,花果园大街66号,106.6882,26.5695,2025-01-21T1200,58,80,1.0,48,15,98,37,79,细颗粒物(PM2.5)
贵阳市,漓江路57号,106.6873,26.5169,2025-01-21T1200,51,75,0.6,17,18,111,32,70,细颗粒物(PM2.5)
桂林市,电子科大尧山校区,110.4144,25.3167,2025-01-21T1200,45,60,0.7,12,9,120,66,63,细颗粒物(PM2.5)
桂林市,监测站,110.2819,25.2697,2025-01-21T1200,78,106,1.5,47,13,65,60,104,细颗粒物(PM2.5)
桂林市,龙隐路小学,110.3089,25.2708,2025-01-21T1200,66,91,1.2,29,14,98,69,89,细颗粒物(PM2.5)
桂林市,八中,110.2869,25.2178,2025-01-21T1200,,,,35,12,,51,,
桂林市,创业大厦,110.1764,25.2381,2025-01-21T1200,80,110,1.1,63,21,34,25,107,细颗粒物(PM2.5)
桂林市,旅游学院,110.296,25.1253,2025-01-21T1200,70,90,1.2,33,12,79,37,94,细颗粒物(PM2.5)
果洛藏族自治州,玛沁县大武镇,100.2561,34.4714,2025-01-21T1200,18,61,0.7,14,23,49,34,56,颗粒物(PM10)
哈尔滨市,岭北,126.5422,45.755,2025-01-21T1200,166,172,1.0,70,27,39,27,216,细颗粒物(PM2.5)
哈尔滨市,松北商大,126.561,45.8167,2025-01-21T1200,116,141,1.2,42,20,54,35,152,细颗粒物(PM2.5)
哈尔滨市,阿城会宁,126.979,45.5419,2025-01-21T1200,206,268,2.4,63,31,29,14,256,细颗粒物(PM2.5)
哈尔滨市,南岗学府路,126.599,45.7222,2025-01-21T1200,108,156,1.2,63,18,41,18,142,细颗粒物(PM2.5)
哈尔滨市,太平宏伟公园,126.689,45.7733,2025-01-21T1200,147,227,1.1,64,16,33,14,196,细颗粒物(PM2.5)
哈尔滨市,道外承德广场,126.635,45.7667,2025-01-21T1200,197,265,1.3,86,18,15,10,247,细颗粒物(PM2.5)
哈尔滨市,香坊红旗大街,126.685,45.7319,2025-01-21T1200,182,263,1.8,78,18,25,19,232,细颗粒物(PM2.5)
哈尔滨市,动力和平路,126.6411,45.7258,2025-01-21T1200,130,180,1.5,62,25,28,10,172,细颗粒物(PM2.5)
哈尔滨市,道里建国路,126.593,45.7478,2025-01-21T1200,162,230,1.6,94,38,16,9,212,细颗粒物(PM2.5)
哈尔滨市,平房东轻厂,126.615,45.61,2025-01-21T1200,112,146,0.8,32,12,63,21,147,细颗粒物(PM2.5)
哈尔滨市,呼兰师专,126.595,45.9855,2025-01-21T1200,100,116,0.9,35,11,54,47,132,细颗粒物(PM2.5)
哈尔滨市,省农科院,126.6206,45.6842,2025-01-21T1200,143,198,1.3,57,23,41,15,190,细颗粒物(PM2.5)
哈密市,地区监测站,93.5128,42.8172,2025-01-21T1200,29,80,0.4,22,14,53,36,65,颗粒物(PM10)
哈密市,哈密师范学校,93.4961,42.8328,2025-01-21T1200,30,74,0.3,23,7,52,27,62,颗粒物(PM10)
海北藏族自治州,海晏县西海镇,100.9048,36.9639,2025-01-21T1200,17,55,0.7,8,29,76,54,53,颗粒物(PM10)
海东市,平安区公安北苑,102.0738,36.5056,2025-01-21T1200,65,77,2.6,56,41,35,24,88,细颗粒物(PM2.5)
海口市,东寨港,110.576,19.9507,2025-01-21T1200,22,27,0.3,6,13,123,73,39,
海口市,海南大学,110.3232,20.0574,2025-01-21T1200,20,30,0.5,13,6,154,122,49,
海口市,秀英海南医院,110.283,20.0053,2025-01-21T1200,19,38,0.4,14,,150,111,,
海口市,海南师范大学,110.338,19.9969,2025-01-21T1200,18,31,0.4,11,6,156,124,49,
海口市,龙华路环保局宿舍,110.33,20.0356,2025-01-21T1200,21,35,0.5,15,,,122,,
海口市,桂林洋子站,110.5111,19.9736,2025-01-21T1200,14,22,0.3,7,6,147,111,46,
海南藏族自治州,共和县恰卜恰镇,100.6188,36.2866,2025-01-21T1200,38,,0.5,7,,,27,,
海西蒙古族藏族自治州,德令哈市,97.3731,37.3753,2025-01-21T1200,9,23,0.5,2,17,61,53,23,
邯郸市,东污水处理厂,114.5302,36.6116,2025-01-21T1200,88,128,1.4,42,17,45,14,117,细颗粒物(PM2.5)
邯郸市,矿院,114.4918,36.5713,2025-01-21T1200,,,,,13,43,13,,
邯郸市,丛台公园,114.484,36.6133,2025-01-21T1200,86,132,1.2,47,14,44,16,114,细颗粒物(PM2.5)
邯郸市,香泉濮院小区,114.7895,36.5593,2025-01-21T1200,157,250,1.7,65,20,43,54,207,细颗粒物(PM2.5)
邯郸市,永年区实验高中,114.50634,36.77178,2025-01-21T1200,96,166,1.1,41,,,8,127,细颗粒物(PM2.5)
邯郸市,峰峰矿区临水派出所,114.20016,36.44293,2025-01-21T1200,79,139,1.4,33,30,60,37,105,细颗粒物(PM2.5)
汉中市,汉川机床厂子校,106.9893,33.1842,2025-01-21T1200,76,95,1.5,31,9,43,45,102,细颗粒物(PM2.5)
汉中市,市监测站,107.0154,33.0706,2025-01-21T1200,110,127,2.4,55,8,27,13,144,细颗粒物(PM2.5)
汉中市,鑫源开发区,107.0089,33.1138,2025-01-21T1200,118,143,1.6,43,10,35,15,155,细颗粒物(PM2.5)
汉中市,南郑大河坎水厂,107.007,33.0323,2025-01-21T1200,104,128,2.1,,,34,26,137,细颗粒物(PM2.5)
杭州市,滨江,120.2072,30.2111,2025-01-21T1200,103,140,0.9,65,8,59,35,135,细颗粒物(PM2.5)
杭州市,西溪,120.0633,30.2747,2025-01-21T1200,126,145,1.0,52,8,76,26,166,细颗粒物(PM2.5)
杭州市,下沙,120.3461,30.3153,2025-01-21T1200,135,168,1.2,117,12,,5,179,细颗粒物(PM2.5)
杭州市,卧龙桥,120.1269,30.2456,2025-01-21T1200,105,124,0.9,,,96,44,138,细颗粒物(PM2.5)
杭州市,浙江农大,120.1903,30.2692,2025-01-21T1200,116,149,1.0,53,11,76,32,152,细颗粒物(PM2.5)
杭州市,和睦小学,120.1197,30.3119,2025-01-21T1200,106,139,1.1,52,10,94,29,139,细颗粒物(PM2.5)
杭州市,临平镇,120.3019,30.4183,2025-01-21T1200,141,191,1.2,121,10,39,14,188,细颗粒物(PM2.5)
杭州市,城厢镇,120.2697,30.1819,2025-01-21T1200,125,171,1.3,56,9,84,34,165,细颗粒物(PM2.5)
杭州市,云栖,120.0883,30.1808,2025-01-21T1200,101,134,0.9,37,9,119,50,133,细颗粒物(PM2.5)
杭州市,镇二中,119.9464,30.0494,2025-01-21T1200,122,126,1.1,51,10,77,36,160,细颗粒物(PM2.5)
杭州市,市府大楼,119.7183,30.2367,2025-01-21T1200,94,101,1.1,30,11,,60,124,细颗粒物(PM2.5)
杭州市,消防大队,120.1556,30.2864,2025-01-21T1200,,,,,,,94,,
合肥市,明珠广场,117.1959,31.7848,2025-01-21T1200,88,107,1.0,41,15,107,43,117,细颗粒物(PM2.5)
合肥市,三里街,117.3072,31.8764,2025-01-21T1200,97,144,0.8,73,13,,20,128,细颗粒物(PM2.5)
合肥市,琥珀山庄,117.2588,31.8707,2025-01-21T1200,,,0.8,52,15,,43,,
合肥市,董铺水库,117.1604,31.9052,2025-01-21T1200,85,136,0.9,54,11,92,37,113,细颗粒物(PM2.5)
合肥市,长江中路,117.25,31.8571,2025-01-21T1200,96,124,1.1,50,14,93,59,127,细颗粒物(PM2.5)
合肥市,庐阳区,117.266,31.9436,2025-01-21T1200,100,149,0.9,66,13,80,26,132,细颗粒物(PM2.5)
合肥市,瑶海区,117.336,31.8586,2025-01-21T1200,99,146,0.8,77,14,82,33,130,细颗粒物(PM2.5)
合肥市,包河区,117.3027,31.7964,2025-01-21T1200,85,119,0.9,45,12,103,32,113,细颗粒物(PM2.5)
合肥市,滨湖新区,117.2776,31.7385,2025-01-21T1200,73,114,0.8,30,18,111,66,98,细颗粒物(PM2.5)
合肥市,高新区,117.1318,31.8403,2025-01-21T1200,82,112,1.1,47,13,102,71,109,细颗粒物(PM2.5)
合肥市,高教基地,117.3803,31.9147,2025-01-21T1200,89,132,0.9,69,17,,16,118,细颗粒物(PM2.5)
和田地区,地区环保局,79.924,37.0877,2025-01-21T1200,74,123,0.6,21,33,53,44,99,细颗粒物(PM2.5)
和田地区,市环保局,79.9131,37.113,2025-01-21T1200,55,145,1.7,46,19,38,29,98,颗粒物(PM10)
河池市,东仁乐园,108.2011,24.715,2025-01-21T1200,67,123,0.9,34,11,75,34,90,细颗粒物(PM2.5)
河池市,市环保站,108.0497,24.6947,2025-01-21T1200,68,99,1.0,31,13,67,31,92,细颗粒物(PM2.5)
河池市,市疾控中心,108.0983,24.6989,2025-01-21T1200,56,95,1.0,35,10,66,23,77,细颗粒物(PM2.5)
河源市,源西,114.6778,23.7569,2025-01-21T1200,25,44,0.6,21,6,81,41,44,
河源市,东埔,114.6944,23.7586,2025-01-21T1200,28,62,0.4,26,6,,35,,
河源市,老城,114.6892,23.7233,2025-01-21T1200,31,49,0.6,21,5,87,42,49,
菏泽市,气象局,115.4208,35.2464,2025-01-21T1200,140,193,1.1,50,14,76,64,186,细颗粒物(PM2.5)
菏泽市,定陶老年大学,115.5564,35.0891,2025-01-21T1200,129,180,0.8,45,17,81,52,170,细颗粒物(PM2.5)
菏泽市,永昌路1号,115.4797,35.24401,2025-01-21T1200,163,226,1.0,60,16,75,55,213,细颗粒物(PM2.5)
菏泽市,长城路999号,115.4715,35.2800,2025-01-21T1200,156,221,1.4,65,13,57,63,206,细颗粒物(PM2.5)
贺州市,环保小区,111.5264,24.4172,2025-01-21T1200,70,90,1.0,25,10,95,36,94,细颗粒物(PM2.5)
贺州市,政协大楼,111.5608,24.4078,2025-01-21T1200,44,60,0.9,24,5,82,32,62,细颗粒物(PM2.5)
贺州市,西湾,111.4744,24.4553,2025-01-21T1200,85,112,0.9,31,9,73,31,113,细颗粒物(PM2.5)
鹤壁市,市监测站,114.17,35.9019,2025-01-21T1200,107,180,1.8,38,32,59,37,140,细颗粒物(PM2.5)
鹤壁市,市交警支队,114.2956,35.7511,2025-01-21T1200,158,225,2.4,,28,47,16,208,细颗粒物(PM2.5)
鹤壁市,迎宾馆,114.2878,35.7306,2025-01-21T1200,124,209,2.0,57,25,50,19,163,细颗粒物(PM2.5)
鹤壁市,大新区,114.2617,35.6822,2025-01-21T1200,124,207,2.0,59,35,55,16,163,细颗粒物(PM2.5)
鹤壁市,南山宾馆,114.1572,35.9603,2025-01-21T1200,121,165,1.9,42,38,69,62,159,细颗粒物(PM2.5)
鹤岗市,哈啤分公司,130.2537,47.3416,2025-01-21T1200,17,27,0.5,8,18,54,42,27,
鹤岗市,斯达机电,130.2684,47.3086,2025-01-21T1200,32,92,,11,20,55,43,,
鹤岗市,东山纸板厂,130.3114,47.3388,2025-01-21T1200,30,,0.1,12,18,55,30,43,
鹤岗市,五号水库,130.1097,47.3382,2025-01-21T1200,12,32,0.3,6,11,77,61,32,
黑河市,交通局,127.4833,50.2524,2025-01-21T1200,18,31,0.6,16,,44,31,,
黑河市,环保局,127.5144,50.2341,2025-01-21T1200,24,29,0.5,15,9,44,31,35,
黑河市,大黑河岛,127.5291,50.2472,2025-01-21T1200,17,29,,11,3,6,6,,
衡水市,电机北厂,115.6838,37.7541,2025-01-21T1200,120,191,1.0,46,19,48,39,158,细颗粒物(PM2.5)
衡水市,市监测站,115.6303,37.7316,2025-01-21T1200,,,1.1,,,43,33,,
衡水市,市城管局,115.6683,37.7217,2025-01-21T1200,122,174,1.1,56,20,48,36,160,细颗粒物(PM2.5)
衡水市,地表水厂,115.5989,37.5491,2025-01-21T1200,136,155,1.2,60,18,39,18,180,细颗粒物(PM2.5)
衡阳市,原169医院,112.5003,26.9167,2025-01-21T1200,79,109,1.8,51,438,57,33,105,细颗粒物(PM2.5)
衡阳市,衡阳化工总厂,112.6194,26.9258,2025-01-21T1200,104,145,1.5,32,15,107,38,137,细颗粒物(PM2.5)
衡阳市,珠晖区环保局,112.6211,26.8956,2025-01-21T1200,109,155,1.8,45,17,94,28,143,细颗粒物(PM2.5)
衡阳市,市委党校,112.6197,26.8733,2025-01-21T1200,96,151,1.5,40,20,94,32,127,细颗粒物(PM2.5)
衡阳市,市监测站,112.6006,26.8919,2025-01-21T1200,87,162,1.7,41,18,100,35,115,细颗粒物(PM2.5)
衡阳市,真空机电公司,112.5664,26.9056,2025-01-21T1200,,,3.1,63,20,70,38,,
衡阳市,师范学院,112.6703,26.882,2025-01-21T1200,108,122,0.9,26,13,105,30,142,细颗粒物(PM2.5)
红河哈尼族彝族自治州,污水处理厂,103.3772,23.3993,2025-01-21T1200,73,77,0.7,11,6,114,95,98,细颗粒物(PM2.5)
红河哈尼族彝族自治州,监测站,103.3861,23.35,2025-01-21T1200,64,80,0.7,10,7,120,98,87,细颗粒物(PM2.5)
红河哈尼族彝族自治州,州图书馆,103.3758,23.368,2025-01-21T1200,68,84,0.6,10,8,,88,,
呼和浩特市,呼市一监,111.6507,40.7517,2025-01-21T1200,15,36,0.6,22,8,62,22,36,
呼和浩特市,小召,111.6572,40.8033,2025-01-21T1200,14,24,0.7,39,9,58,27,24,
呼和浩特市,如意水处理厂,111.7516,40.8369,2025-01-21T1200,17,38,0.7,38,11,46,14,38,
呼和浩特市,二十九中,111.7276,40.8062,2025-01-21T1200,26,44,0.8,,,36,17,,
呼和浩特市,工大金川校区,111.5512,40.7866,2025-01-21T1200,20,68,0.7,45,7,46,13,59,颗粒物(PM10)
呼和浩特市,化肥厂生活区,111.717,40.7612,2025-01-21T1200,15,37,0.5,23,8,67,32,37,
呼和浩特市,红旗小学,111.5968,40.8178,2025-01-21T1200,13,27,0.6,,5,54,11,,
呼和浩特市,海东办,111.6518,40.8389,2025-01-21T1200,11,24,0.6,26,3,48,14,24,
呼伦贝尔市,区环保局,119.7594,49.2261,2025-01-21T1200,21,,0.5,17,8,63,66,30,
呼伦贝尔市,国华电力东,119.7512,49.1577,2025-01-21T1200,33,52,,10,5,66,54,,
湖州市,城西水厂,120.0751,30.8669,2025-01-21T1200,169,206,1.0,66,,,24,219,细颗粒物(PM2.5)
湖州市,仁皇山新区,120.0875,30.8955,2025-01-21T1200,165,206,1.1,80,12,86,40,215,细颗粒物(PM2.5)
湖州市,吴兴区站,120.1844,30.8596,2025-01-21T1200,166,197,0.8,49,9,90,39,216,细颗粒物(PM2.5)
湖州市,南浔区站,120.4148,30.8538,2025-01-21T1200,125,144,0.7,38,12,123,54,165,细颗粒物(PM2.5)
葫芦岛市,龙港区,120.9092,40.7136,2025-01-21T1200,15,,0.5,,26,68,52,,
葫芦岛市,化工街,120.8392,40.7514,2025-01-21T1200,7,31,0.5,11,2,68,47,31,
葫芦岛市,新区,120.8341,40.7073,2025-01-21T1200,8,28,0.4,17,10,68,49,28,
葫芦岛市,东城区,120.8695,40.7677,2025-01-21T1200,10,44,0,10,12,72,55,44,
怀化市,林科所,109.5981,27.5721,2025-01-21T1200,73,84,2.0,52,17,33,27,98,细颗粒物(PM2.5)
怀化市,河西地税局,109.9453,27.5444,2025-01-21T1200,93,110,1.1,48,8,31,17,123,细颗粒物(PM2.5)
怀化市,市四医院,109.9781,27.5342,2025-01-21T1200,105,136,2.0,40,12,46,21,138,细颗粒物(PM2.5)
怀化市,监测楼,109.9972,27.5578,2025-01-21T1200,96,130,1.3,39,17,40,14,127,细颗粒物(PM2.5)
怀化市,市委党校,110.0394,27.583,2025-01-21T1200,89,124,1.4,39,15,41,12,118,细颗粒物(PM2.5)
淮安市,钵池山,119.036,33.5981,2025-01-21T1200,157,178,1.5,57,17,81,47,207,细颗粒物(PM2.5)
淮安市,北京南路,119.007,33.575,2025-01-21T1200,157,188,1.5,57,18,76,46,207,细颗粒物(PM2.5)
淮安市,市监测站,118.989,33.6067,2025-01-21T1200,151,173,1.4,59,17,82,55,201,细颗粒物(PM2.5)
淮安市,楚州区监测站,119.135,33.5039,2025-01-21T1200,174,215,1.6,64,18,84,33,224,细颗粒物(PM2.5)
淮安市,淮阴区监测站,119.0186,33.6297,2025-01-21T1200,151,200,1.5,56,16,88,50,201,细颗粒物(PM2.5)
淮安市,新华书店,118.8755,33.2894,2025-01-21T1200,161,178,1.4,53,15,80,32,211,细颗粒物(PM2.5)
淮北市,监测站,116.8004,33.975,2025-01-21T1200,84,115,0.8,31,15,79,58,112,细颗粒物(PM2.5)
淮北市,烈山区政府,116.8091,33.9007,2025-01-21T1200,74,96,1.0,41,17,86,61,99,细颗粒物(PM2.5)
淮北市,杜集区检察院,116.8873,33.9836,2025-01-21T1200,82,98,0.9,25,11,90,61,109,细颗粒物(PM2.5)
淮北市,市博物馆,116.7923,33.9535,2025-01-21T1200,99,117,1.0,34,17,82,55,130,细颗粒物(PM2.5)
淮南市,潘集区政府,116.8305,32.7727,2025-01-21T1200,95,123,0.9,35,19,99,41,125,细颗粒物(PM2.5)
淮南市,谢家集区政府,116.8569,32.5951,2025-01-21T1200,91,106,0.9,39,13,94,56,120,细颗粒物(PM2.5)
淮南市,八公山区政府,116.8281,32.633,2025-01-21T1200,90,122,0.8,32,14,103,68,119,细颗粒物(PM2.5)
淮南市,焦岗湖风景区管理处,116.6325,32.6201,2025-01-21T1200,,,,,,,,,
淮南市,经济技术开发区消防队,117.0566,32.6531,2025-01-21T1200,90,122,0.8,28,12,98,65,119,细颗粒物(PM2.5)
淮南市,山南新区,117.0108,32.5893,2025-01-21T1200,110,141,1.0,,13,96,63,144,细颗粒物(PM2.5)
淮南市,国庆中路369号,117.0031,32.6445,2025-01-21T1200,73,130,0.8,38,15,98,66,98,细颗粒物(PM2.5)
黄冈市,职工中心,114.9028,30.4742,2025-01-21T1200,79,104,0.5,29,11,108,94,105,细颗粒物(PM2.5)
黄冈市,红卫路,114.8858,30.4519,2025-01-21T1200,,,0.9,30,10,107,93,,
黄冈市,市林业局,114.9136,30.4445,2025-01-21T1200,82,104,0.8,26,12,110,94,109,细颗粒物(PM2.5)
黄南藏族自治州,同仁县隆务镇,102.0199,35.5102,2025-01-21T1200,17,29,0.6,7,10,66,55,29,
黄山市,延安路89号,118.2903,29.6963,2025-01-21T1200,33,72,0.5,20,6,84,31,61,颗粒物(PM10)
黄山市,黄山东路89号,118.327,29.7178,2025-01-21T1200,,,,,,,62,,
黄山市,黄山区政府5号楼,118.1371,30.2756,2025-01-21T1200,37,50,0.7,10,9,98,52,53,细颗粒物(PM2.5)
黄石市,沈家营,115.0601,30.2313,2025-01-21T1200,77,138,1.3,51,19,98,64,103,细颗粒物(PM2.5)
黄石市,铁山,114.8988,30.2019,2025-01-21T1200,86,88,0.7,22,18,144,116,114,细颗粒物(PM2.5)
黄石市,团城山,115.0307,30.2092,2025-01-21T1200,86,117,1.2,49,14,101,77,114,细颗粒物(PM2.5)
黄石市,笔架山北路,115.0235,30.1578,2025-01-21T1200,,,,22,15,,89,,
黄石市,磁湖东路29号,115.0780,30.21118,2025-01-21T1200,91,129,1.7,57,31,94,52,120,细颗粒物(PM2.5)
惠州市,河南岸金山湖子站,114.4183,23.0528,2025-01-21T1200,48,70,0.6,23,10,100,47,67,细颗粒物(PM2.5)
惠州市,下埔横江三路子站,114.4053,23.0822,2025-01-21T1200,46,77,0.6,24,9,104,46,64,"颗粒物(PM10),细颗粒物(PM2.5)"
惠州市,江北云山西路子站,114.4103,23.1142,2025-01-21T1200,46,75,0.9,32,9,93,53,64,细颗粒物(PM2.5)
惠州市,惠阳区承修路船湖子站,114.4645,22.7833,2025-01-21T1200,24,51,0.5,19,9,116,56,51,颗粒物(PM10)
惠州市,大亚湾管委会子站,114.5317,22.7422,2025-01-21T1200,18,33,0.6,15,11,128,54,40,
惠州市,惠阳秋长,114.4338,22.8134,2025-01-21T1200,26,53,0.6,18,17,144,60,52,颗粒物(PM10)
惠州市,大亚湾霞涌,114.6517,22.775,2025-01-21T1200,25,50,0.4,11,7,124,89,50,
鸡西市,环保局,130.9762,45.3001,2025-01-21T1200,104,136,0.9,32,11,45,20,137,细颗粒物(PM2.5)
鸡西市,第一中学,130.9429,45.3039,2025-01-21T1200,127,163,1.1,52,16,26,14,168,细颗粒物(PM2.5)
鸡西市,欧美日汽修厂,131.0207,45.3073,2025-01-21T1200,90,120,,25,12,58,32,119,细颗粒物(PM2.5)
鸡西市,市政设施管理处,130.9967,45.3106,2025-01-21T1200,81,141,0.7,23,12,,28,108,细颗粒物(PM2.5)
吉安市,红声器材厂,114.9754,27.0803,2025-01-21T1200,45,72,0.8,23,12,91,50,63,细颗粒物(PM2.5)
吉安市,市森林工业局,114.9658,27.0999,2025-01-21T1200,55,91,0.8,,14,81,62,,
吉安市,市环境监测站,114.99,27.1312,2025-01-21T1200,64,96,0.8,35,16,92,51,87,细颗粒物(PM2.5)
吉安市,青原区法院,115.0093,27.0968,2025-01-21T1200,60,90,0.7,41,14,98,46,82,细颗粒物(PM2.5)
吉林市,哈达湾,126.54,43.8622,2025-01-21T1200,37,64,0.9,23,12,73,51,57,颗粒物(PM10)
吉林市,东局子,126.5844,43.8358,2025-01-21T1200,43,59,0.7,18,11,73,54,60,细颗粒物(PM2.5)
吉林市,电力学院,126.5052,43.8245,2025-01-21T1200,43,,0.9,22,12,67,24,60,细颗粒物(PM2.5)
吉林市,江北,126.6133,43.8972,2025-01-21T1200,54,80,1.0,40,17,61,49,74,细颗粒物(PM2.5)
吉林市,江南公园,126.555,43.8306,2025-01-21T1200,42,49,0.6,23,11,66,41,59,细颗粒物(PM2.5)
吉林市,丰满,126.7061,43.7133,2025-01-21T1200,,,,,,,,,
吉林市,九站,126.4739,43.953,2025-01-21T1200,27,39,0.8,15,8,68,28,39,
济南市,科干所,116.9862,36.6114,2025-01-21T1200,88,136,0.9,38,18,104,105,117,细颗粒物(PM2.5)
济南市,农科所,116.9376,36.665,2025-01-21T1200,90,173,1.1,85,22,52,75,119,细颗粒物(PM2.5)
济南市,开发区,117.1265,36.6734,2025-01-21T1200,95,154,1.2,85,18,59,95,125,细颗粒物(PM2.5)
济南市,省种子仓库,117.0624,36.6868,2025-01-21T1200,102,200,1.6,106,26,19,12,134,细颗粒物(PM2.5)
济南市,机床二厂,116.9489,36.6447,2025-01-21T1200,103,166,1.5,86,27,53,79,135,细颗粒物(PM2.5)
济南市,市监测站,117.0495,36.663,2025-01-21T1200,95,166,1.5,102,24,38,90,125,细颗粒物(PM2.5)
济南市,长清党校,116.7675,36.5484,2025-01-21T1200,90,129,1.0,38,14,110,98,119,细颗粒物(PM2.5)
济南市,技术学院,117.6795,36.229,2025-01-21T1200,119,151,2.1,76,34,52,16,156,细颗粒物(PM2.5)
济南市,东山小学,117.532,36.6868,2025-01-21T1200,93,142,1.2,54,,70,60,123,细颗粒物(PM2.5)
济南市,泰兴公司,117.7161,36.2049,2025-01-21T1200,102,156,2.0,64,34,56,16,134,细颗粒物(PM2.5)
济南市,莱芜战役纪念馆,117.6867,36.2171,2025-01-21T1200,122,180,2.2,91,32,38,17,160,细颗粒物(PM2.5)
济南市,济阳区政府,117.1673,36.9782,2025-01-21T1200,120,186,,,,,32,158,细颗粒物(PM2.5)
济南市,锦屏中学,117.1171,36.63,2025-01-21T1200,,,,,,,80,,
济南市,济南四建,116.9814,36.6819,2025-01-21T1200,88,136,1.0,98,27,41,71,117,细颗粒物(PM2.5)
济宁市,火炬城,116.6251,35.4302,2025-01-21T1200,88,120,1.1,35,21,86,71,117,细颗粒物(PM2.5)
济宁市,电化厂,116.5491,35.4042,2025-01-21T1200,107,165,1.1,42,21,88,69,140,细颗粒物(PM2.5)
济宁市,北湖一中,116.5814,35.3707,2025-01-21T1200,105,135,1.6,46,19,89,58,138,细颗粒物(PM2.5)
济宁市,服务中心,116.8249,35.5593,2025-01-21T1200,,,1.5,,,56,16,,
济宁市,市第七中学,116.5907,35.4054,2025-01-21T1200,112,117,1.4,37,16,87,61,147,细颗粒物(PM2.5)
佳木斯市,佳纺,130.2751,46.8028,2025-01-21T1200,67,82,0.8,18,8,58,32,90,细颗粒物(PM2.5)
佳木斯市,发电厂,130.3995,46.8307,2025-01-21T1200,59,,0.9,13,8,60,45,80,细颗粒物(PM2.5)
佳木斯市,环保局,130.3258,46.7975,2025-01-21T1200,137,140,1.0,25,10,43,15,182,细颗粒物(PM2.5)
佳木斯市,十一中,130.3648,46.8032,2025-01-21T1200,59,,0.8,23,8,51,39,80,细颗粒物(PM2.5)
佳木斯市,四丰,130.3794,46.7588,2025-01-21T1200,130,152,1.3,40,1,33,31,172,细颗粒物(PM2.5)
嘉兴市,清河小学,120.7436,30.778,2025-01-21T1200,136,156,1.2,41,11,118,41,180,细颗粒物(PM2.5)
嘉兴市,嘉兴学院,120.726,30.7478,2025-01-21T1200,140,178,1.2,32,15,125,47,186,细颗粒物(PM2.5)
嘉兴市,南湖区残联,120.7846,30.7525,2025-01-21T1200,145,196,1.2,39,19,130,53,193,细颗粒物(PM2.5)
嘉兴市,秀洲住建,120.6916,30.7739,2025-01-21T1200,144,177,0.9,39,14,126,44,192,细颗粒物(PM2.5)
嘉峪关市,气象局,98.2908,39.7711,2025-01-21T1200,39,110,1.2,24,73,53,57,80,颗粒物(PM10)
嘉峪关市,酒钢宾馆,98.2672,39.7978,2025-01-21T1200,46,144,2.2,39,111,37,43,97,颗粒物(PM10)
嘉峪关市,雄关区,98.2643,39.7724,2025-01-21T1200,29,84,1.4,38,24,48,52,67,颗粒物(PM10)
江门市,北街,113.1064,22.6058,2025-01-21T1200,39,76,0.7,42,4,117,42,63,颗粒物(PM10)
江门市,西区,113.0731,22.5835,2025-01-21T1200,44,85,0.6,44,7,119,43,68,颗粒物(PM10)
江门市,圭峰西,113.0219,22.5311,2025-01-21T1200,51,,0.5,,8,130,83,,
江门市,东湖,113.0828,22.5947,2025-01-21T1200,56,62,0.5,37,6,125,44,77,细颗粒物(PM2.5)
江门市,江海富民,113.1075,22.5647,2025-01-21T1200,52,93,0.7,46,6,122,43,72,"颗粒物(PM10),细颗粒物(PM2.5)"
江门市,新会银湖,113.05,22.4667,2025-01-21T1200,51,58,0.6,34,8,132,39,70,细颗粒物(PM2.5)
焦作市,市环保局,113.227,35.2125,2025-01-21T1200,129,198,1.5,63,28,45,21,170,细颗粒物(PM2.5)
焦作市,影视城,113.1992,35.2590,2025-01-21T1200,48,71,0.9,31,17,83,88,67,细颗粒物(PM2.5)
焦作市,太极体育中心,113.2725,35.2067,2025-01-21T1200,125,189,1.6,66,38,47,11,165,细颗粒物(PM2.5)
焦作市,马村街道办,113.3137,35.2641,2025-01-21T1200,126,165,1.4,42,22,67,37,166,细颗粒物(PM2.5)
焦作市,焦作技师学院,113.2465,35.2373,2025-01-21T1200,117,198,1.7,50,32,55,31,153,细颗粒物(PM2.5)
焦作市,中站许衡医院,113.1656,35.2539,2025-01-21T1200,80,124,1.7,51,26,56,67,107,细颗粒物(PM2.5)
焦作市,原李万街道办,113.2449,35.1803,2025-01-21T1200,,,,71,,41,10,,
揭阳市,新兴,116.3701,23.5345,2025-01-21T1200,32,75,0.6,17,7,112,46,63,颗粒物(PM10)
揭阳市,西马,116.3264,23.5443,2025-01-21T1200,29,64,0.7,20,8,116,46,57,颗粒物(PM10)
揭阳市,东兴,116.3611,23.5626,2025-01-21T1200,28,70,0.6,16,9,114,45,60,颗粒物(PM10)
揭阳市,渔湖,116.4151,23.5294,2025-01-21T1200,46,72,0.4,15,11,118,37,64,细颗粒物(PM2.5)
揭阳市,曲溪,116.403,23.5699,2025-01-21T1200,,,0.7,,4,124,60,,
金昌市,天庆家园,102.1692,38.5167,2025-01-21T1200,30,82,0.9,11,33,81,50,66,颗粒物(PM10)
金昌市,金川区人防中心,102.1647,38.5371,2025-01-21T1200,29,72,0.4,13,38,84,61,61,颗粒物(PM10)
金昌市,长春路96号,102.1930,38.5319,2025-01-21T1200,24,39,0.5,12,20,89,69,39,
金华市,十五中,119.647,29.077,2025-01-21T1200,74,104,0.6,33,6,123,57,99,细颗粒物(PM2.5)
金华市,监测站,119.686,29.1029,2025-01-21T1200,83,112,0.7,37,7,109,37,110,细颗粒物(PM2.5)
金华市,气象局,119.656,29.1131,2025-01-21T1200,88,118,0.8,36,7,109,33,117,细颗粒物(PM2.5)
锦州市,南山,121.1115,41.0879,2025-01-21T1200,8,28,0.7,9,20,76,57,28,
锦州市,开发区,121.0533,40.8434,2025-01-21T1200,,,,,,,,,
锦州市,百股街道,121.1836,41.1119,2025-01-21T1200,14,35,0.3,12,9,72,49,35,
锦州市,天安街道,121.1178,41.1222,2025-01-21T1200,13,44,,10,9,62,48,,
锦州市,北湖公园,121.1303,41.1386,2025-01-21T1200,9,32,0.4,6,3,78,64,32,
晋城市,自来水公司,112.85,35.5051,2025-01-21T1200,88,115,3.7,66,38,28,12,117,细颗粒物(PM2.5)
晋城市,白云商贸,112.8318,35.4936,2025-01-21T1200,75,121,3.0,65,32,32,22,100,细颗粒物(PM2.5)
晋城市,市环保局,112.8508,35.4887,2025-01-21T1200,85,128,3.3,67,36,,11,113,细颗粒物(PM2.5)
晋城市,技术学院,112.8676,35.4897,2025-01-21T1200,83,114,3.0,70,34,34,14,110,细颗粒物(PM2.5)
晋城市,白马寺,112.8453,35.546,2025-01-21T1200,77,118,3.5,54,46,20,29,103,细颗粒物(PM2.5)
晋城市,泽州一中,112.8271,35.4828,2025-01-21T1200,70,104,2.5,58,30,33,22,94,细颗粒物(PM2.5)
晋中市,南都小区,112.7249,37.7067,2025-01-21T1200,55,131,1.5,64,40,28,14,91,颗粒物(PM10)
晋中市,榆次区政府,112.6991,37.6982,2025-01-21T1200,69,127,1.4,57,36,31,20,93,细颗粒物(PM2.5)
晋中市,榆次三中,112.7195,37.6828,2025-01-21T1200,68,141,1.5,56,35,33,23,96,颗粒物(PM10)
晋中市,榆次一中,112.7478,37.6954,2025-01-21T1200,68,127,1.2,47,25,45,31,92,细颗粒物(PM2.5)
荆门市,竹园小学,112.2014,31.0481,2025-01-21T1200,135,200,1.1,39,19,126,62,179,细颗粒物(PM2.5)
荆门市,掇刀,112.1969,30.9891,2025-01-21T1200,143,207,0.9,46,26,122,66,190,细颗粒物(PM2.5)
荆门市,石化一小,112.2213,31.0386,2025-01-21T1200,144,218,1.0,56,26,110,38,192,细颗粒物(PM2.5)
荆门市,西山林语,112.1849,31.0362,2025-01-21T1200,131,166,0.6,42,10,129,124,173,细颗粒物(PM2.5)
荆门市,龙泉中学南校,112.1632,31.0138,2025-01-21T1200,150,194,1.1,41,22,119,118,200,细颗粒物(PM2.5)
荆州市,市图书馆,112.2494,30.3197,2025-01-21T1200,199,,1.3,59,14,105,27,249,细颗粒物(PM2.5)
荆州市,市委党校,112.2008,30.3544,2025-01-21T1200,210,,1.1,73,13,63,22,260,细颗粒物(PM2.5)
荆州市,管委会,112.2747,30.3122,2025-01-21T1200,218,,1.3,91,19,96,42,268,细颗粒物(PM2.5)
荆州市,学苑路,112.1655,30.3364,2025-01-21T1200,181,184,1.4,52,17,98,38,231,细颗粒物(PM2.5)
景德镇市,王港中学,117.3102,29.3867,2025-01-21T1200,,,,,,,,,
景德镇市,老干部活动中心,117.2117,29.2933,2025-01-21T1200,31,36,0.5,17,5,89,36,45,
景德镇市,兽医站,117.1894,29.2789,2025-01-21T1200,29,47,0.9,17,4,96,48,47,
景德镇市,台达陶瓷,117.1547,29.2617,2025-01-21T1200,30,47,0.5,16,7,100,58,47,
景德镇市,陶研所,117.2461,29.2956,2025-01-21T1200,,,0.6,19,14,88,34,,
九江市,十里,115.9872,29.6815,2025-01-21T1200,87,122,1.2,59,16,73,24,115,细颗粒物(PM2.5)
九江市,茅山头,115.9584,29.7046,2025-01-21T1200,88,119,1.3,61,12,74,27,117,细颗粒物(PM2.5)
九江市,西园,115.9877,29.7295,2025-01-21T1200,98,124,1.1,87,31,58,18,129,细颗粒物(PM2.5)
九江市,综合工业园,115.9114,29.6038,2025-01-21T1200,102,129,1.0,65,17,73,40,134,细颗粒物(PM2.5)
九江市,石化总厂,116.0721,29.7535,2025-01-21T1200,102,114,1.7,62,32,62,39,134,细颗粒物(PM2.5)
九江市,庐山气象台,115.9773,29.5698,2025-01-21T1200,19,23,1.3,7,8,120,104,38,
九江市,外国语学校,116.0254,29.6994,2025-01-21T1200,95,140,0.9,39,27,87,56,125,细颗粒物(PM2.5)
九江市,莲花大道8号,116.0102,29.6594,2025-01-21T1200,92,126,0.6,80,17,65,56,122,细颗粒物(PM2.5)
酒泉市,仓门街子站,98.5061,39.7443,2025-01-21T1200,49,156,1.0,26,115,52,32,103,颗粒物(PM10)
酒泉市,玉门东路5号,98.4958,39.7339,2025-01-21T1200,48,166,1.3,36,88,39,26,108,颗粒物(PM10)
喀什地区,巡警大队,76.0072,39.4467,2025-01-21T1200,60,145,2.0,67,13,39,16,98,颗粒物(PM10)
喀什地区,吾办,75.9755,39.4694,2025-01-21T1200,79,,1.7,68,4,28,11,105,细颗粒物(PM2.5)
喀什地区,老干局,75.9483,39.4689,2025-01-21T1200,80,174,3.1,72,7,22,10,112,颗粒物(PM10)
开封市,肿瘤医院,114.3389,34.7781,2025-01-21T1200,145,225,1.2,47,9,79,50,193,细颗粒物(PM2.5)
开封市,世纪星幼儿园,114.2885,34.7965,2025-01-21T1200,200,215,1.0,52,14,68,66,250,细颗粒物(PM2.5)
开封市,龙亭公园,114.3438,34.8106,2025-01-21T1200,,,,58,11,,52,,
开封市,汴京公园,114.3644,34.7964,2025-01-21T1200,190,251,1.2,57,11,78,40,240,细颗粒物(PM2.5)
开封市,技师学院,114.2485,34.8306,2025-01-21T1200,135,218,1.5,55,13,70,75,179,细颗粒物(PM2.5)
开封市,祥符区生态环境局,114.4644,34.7556,2025-01-21T1200,192,231,1.1,35,12,86,46,242,细颗粒物(PM2.5)
克拉玛依市,长征新村,84.895,45.6094,2025-01-21T1200,67,111,0.9,32,10,82,70,90,细颗粒物(PM2.5)
克拉玛依市,南林小区,84.8988,45.5893,2025-01-21T1200,85,124,1.1,25,7,58,67,113,细颗粒物(PM2.5)
克拉玛依市,独山子区,84.905,44.3396,2025-01-21T1200,145,,0.9,46,6,69,74,193,细颗粒物(PM2.5)
克拉玛依市,乌尔禾区商贸楼,85.6979,46.098,2025-01-21T1200,108,128,1.1,28,6,75,74,142,细颗粒物(PM2.5)
克拉玛依市,白碱滩区新站,85.1045,45.6899,2025-01-21T1200,100,133,1.4,40,6,46,64,132,细颗粒物(PM2.5)
克孜勒苏柯尔克孜自治州,市人民政府,76.1454,39.7142,2025-01-21T1200,55,92,1.3,19,4,47,59,75,细颗粒物(PM2.5)
克孜勒苏柯尔克孜自治州,克州文化中心,76.1658,39.7157,2025-01-21T1200,53,82,1.0,33,10,55,69,73,细颗粒物(PM2.5)
昆明市,呈贡新区,102.8204,24.8886,2025-01-21T1200,17,36,0.4,8,4,72,27,36,
昆明市,西山森林公园,102.6251,24.9608,2025-01-21T1200,,,,,,,,,
昆明市,龙泉镇,102.7252,25.0902,2025-01-21T1200,15,,0.7,13,8,69,17,22,
昆明市,东风东路,102.7266,25.0375,2025-01-21T1200,21,25,0.5,15,6,65,42,30,
昆明市,金鼎山,102.6742,25.0669,2025-01-21T1200,11,28,0.5,14,11,68,40,28,
昆明市,碧鸡广场,102.6644,25.0401,2025-01-21T1200,18,24,0.4,11,8,69,38,26,
昆明市,官渡区博物馆,102.7494,25.0119,2025-01-21T1200,20,25,0.4,9,7,73,40,29,
昆明市,青年创业园,102.8017,24.8336,2025-01-21T1200,23,31,0.5,7,6,73,30,33,
昆明市,昆明学院,102.7997,24.9786,2025-01-21T1200,18,27,0.3,9,8,76,33,27,
昆明市,晋宁区生态环境分局,102.5967,24.6736,2025-01-21T1200,19,,0.6,12,4,69,35,28,
昆明市,云天化总部,102.6678,24.9856,2025-01-21T1200,18,24,0.6,10,7,74,31,26,
拉萨市,八廓街,91.1319,29.6514,2025-01-21T1200,15,24,0.5,11,5,69,59,24,
拉萨市,市环保局,91.1221,29.6747,2025-01-21T1200,13,30,0.9,19,5,66,27,30,
拉萨市,区监测站,91.0874,29.6475,2025-01-21T1200,10,26,0.5,12,6,72,54,26,
拉萨市,西藏大学,91.1774,29.6541,2025-01-21T1200,7,37,0.4,5,5,74,68,37,
拉萨市,区辐射站,90.9798,29.6588,2025-01-21T1200,,,,29,,61,56,,
拉萨市,拉萨火车站,91.0834,29.6292,2025-01-21T1200,18,39,1.1,39,5,50,45,39,
来宾市,来宾技工学校,109.2203,23.7256,2025-01-21T1200,184,201,1.7,43,23,79,23,234,细颗粒物(PM2.5)
来宾市,兴宾区政府,109.1781,23.7297,2025-01-21T1200,140,168,1.6,42,18,94,60,186,细颗粒物(PM2.5)
来宾市,中南小学,109.2416,23.7461,2025-01-21T1200,172,248,1.8,38,29,87,22,222,细颗粒物(PM2.5)
兰州市,榆中兰大校区,104.1373,35.9454,2025-01-21T1200,,,,,,,,,
兰州市,生物制品所,103.8412,36.0726,2025-01-21T1200,,,,,,,,,
兰州市,铁路设计院,103.831,36.0464,2025-01-21T1200,83,143,3.2,,26,10,4,110,细颗粒物(PM2.5)
兰州市,百合公园,103.7439,36.0842,2025-01-21T1200,75,117,2.1,83,41,30,11,100,细颗粒物(PM2.5)
兰州市,和平,103.9611,35.998,2025-01-21T1200,86,130,2.7,58,47,40,26,114,细颗粒物(PM2.5)
兰州市,庄浪东路808号,103.6293,36.0938,2025-01-21T1200,70,120,1.8,83,37,39,15,94,细颗粒物(PM2.5)
兰州市,安宁西路88号,103.7251,36.1043,2025-01-21T1200,84,115,1.6,52,70,,5,112,细颗粒物(PM2.5)
兰州新区,新区管委会,103.6633,36.533,2025-01-21T1200,36,64,0.8,24,34,66,38,57,颗粒物(PM10)
兰州新区,舟曲中学,103.6975,36.4789,2025-01-21T1200,42,79,,,,,29,,
廊坊市,药材公司,116.6708,39.5111,2025-01-21T1200,,,1.1,40,15,49,21,,
廊坊市,开发区,116.7214,39.5589,2025-01-21T1200,56,94,0.9,41,13,52,20,77,细颗粒物(PM2.5)
廊坊市,北华航天学院,116.7244,39.5269,2025-01-21T1200,59,96,0.7,29,14,47,16,80,细颗粒物(PM2.5)
廊坊市,河北工业大学,116.7022,39.5453,2025-01-21T1200,62,86,1.0,39,16,46,18,84,细颗粒物(PM2.5)
乐山市,花湖湾,103.7723,29.5462,2025-01-21T1200,101,114,0.9,32,5,33,77,133,细颗粒物(PM2.5)
乐山市,牛耳桥,103.7627,29.5844,2025-01-21T1200,116,126,0.7,34,6,37,38,152,细颗粒物(PM2.5)
乐山市,市第三水厂,103.7508,29.6006,2025-01-21T1200,98,120,0.9,29,5,49,30,129,细颗粒物(PM2.5)
乐山市,市监测站,103.7571,29.5664,2025-01-21T1200,80,104,0.8,42,6,27,44,107,细颗粒物(PM2.5)
乐山市,理工大学,103.7311,29.5628,2025-01-21T1200,101,114,1.0,43,9,22,46,133,细颗粒物(PM2.5)
丽江市,西南郊,100.2143,26.8576,2025-01-21T1200,36,43,0.8,13,5,86,82,52,细颗粒物(PM2.5)
丽江市,丽江古城,100.2497,26.8802,2025-01-21T1200,29,40,1.0,12,9,84,72,42,
丽江市,市中心,100.2203,26.8906,2025-01-21T1200,27,27,0.6,10,8,82,66,39,
丽水市,监测站大楼,119.914,28.4514,2025-01-21T1200,57,66,0.5,34,7,66,39,78,细颗粒物(PM2.5)
丽水市,莲都小学,119.93,28.4586,2025-01-21T1200,56,86,0.7,30,8,77,48,77,细颗粒物(PM2.5)
丽水市,余庄前,119.879,28.4231,2025-01-21T1200,67,78,0.6,32,6,95,33,90,细颗粒物(PM2.5)
连云港市,市环境监测站,119.176,34.5885,2025-01-21T1200,110,141,1.1,31,14,88,65,144,细颗粒物(PM2.5)
连云港市,德源药业,119.3581,34.6972,2025-01-21T1200,112,149,0.8,30,13,110,78,147,细颗粒物(PM2.5)
连云港市,新城一中,119.178,34.844,2025-01-21T1200,93,114,0.8,72,14,47,26,123,细颗粒物(PM2.5)
连云港市,胡沟管理处,119.3608,34.7519,2025-01-21T1200,56,78,0.8,46,7,33,18,77,细颗粒物(PM2.5)
连云港市,矿山设计院,119.1478,34.5911,2025-01-21T1200,114,153,1.1,35,13,82,56,149,细颗粒物(PM2.5)
连云港市,工贸学校,119.2413,34.6539,2025-01-21T1200,118,148,1.2,30,18,104,96,155,细颗粒物(PM2.5)
连云港市,连云街道,119.4172,34.7341,2025-01-21T1200,66,112,1.1,66,11,19,6,89,细颗粒物(PM2.5)
凉山彝族自治州,青龙寺,102.3431,27.8099,2025-01-21T1200,24,51,1.2,13,16,67,45,51,颗粒物(PM10)
凉山彝族自治州,邛海宾馆,102.2721,27.8415,2025-01-21T1200,43,56,,13,13,62,45,,
凉山彝族自治州,西昌市政府,102.2625,27.898,2025-01-21T1200,46,59,1.2,29,13,52,53,64,细颗粒物(PM2.5)
凉山彝族自治州,凉山州政府,102.2685,27.8851,2025-01-21T1200,42,58,0.9,19,14,61,41,59,细颗粒物(PM2.5)
凉山彝族自治州,长安,102.237,27.8914,2025-01-21T1200,45,65,1.3,36,16,43,27,63,细颗粒物(PM2.5)
辽阳市,宏伟区,123.2,41.1953,2025-01-21T1200,48,60,0.5,15,9,66,30,67,细颗粒物(PM2.5)
辽阳市,新华园,123.1683,41.2495,2025-01-21T1200,36,58,0.7,27,18,56,22,54,颗粒物(PM10)
辽阳市,滨河路,123.2354,41.2639,2025-01-21T1200,35,43,0.6,22,11,61,25,50,
辽阳市,铁西工业园,123.149,41.2991,2025-01-21T1200,35,64,0.6,18,10,61,18,57,颗粒物(PM10)
辽源市,环保局,125.1358,42.8845,2025-01-21T1200,84,101,,10,10,70,24,112,细颗粒物(PM2.5)
辽源市,银鹰制药,125.0764,42.9078,2025-01-21T1200,46,62,0.7,8,8,67,22,64,细颗粒物(PM2.5)
聊城市,区政府,115.9848,36.4372,2025-01-21T1200,139,189,1.3,39,23,77,63,185,细颗粒物(PM2.5)
聊城市,聊大东校,116.0072,36.4343,2025-01-21T1200,143,200,1.3,42,18,74,62,190,细颗粒物(PM2.5)
聊城市,监控中心,115.9819,36.4978,2025-01-21T1200,139,188,1.3,43,24,77,62,185,细颗粒物(PM2.5)
聊城市,九州社区,116.0445,36.4361,2025-01-21T1200,124,165,1.1,42,21,78,61,163,细颗粒物(PM2.5)
聊城市,星美广场,116.0567,36.4608,2025-01-21T1200,128,180,1.0,41,22,74,58,169,细颗粒物(PM2.5)
林芝市,林芝监测站,94.3681,29.6376,2025-01-21T1200,9,20,0.2,7,6,59,50,20,
林芝市,林芝人民医院,94.3616,29.6616,2025-01-21T1200,7,14,0.1,4,6,50,44,16,
临沧市,市环保局,100.0781,23.8982,2025-01-21T1200,14,40,0.6,17,10,69,35,40,
临沧市,市气象局,100.0894,23.8822,2025-01-21T1200,30,50,0.6,17,9,66,35,50,
临汾市,临钢医院,111.5531,36.0783,2025-01-21T1200,68,122,1.9,54,32,23,19,92,细颗粒物(PM2.5)
临汾市,技工学校,111.5028,36.0714,2025-01-21T1200,53,112,2.1,56,31,21,8,81,颗粒物(PM10)
临汾市,市委,111.5018,36.0855,2025-01-21T1200,66,127,1.6,58,28,17,9,89,"颗粒物(PM10),细颗粒物(PM2.5)"
临汾市,唐尧大酒店,111.505,36.1014,2025-01-21T1200,68,128,1.8,60,30,17,8,92,细颗粒物(PM2.5)
临汾市,启星学校,111.4879,36.0530,2025-01-21T1200,57,104,2.2,57,26,19,6,78,细颗粒物(PM2.5)
临夏回族自治州,环保局,103.2069,35.5993,2025-01-21T1200,48,120,1.9,46,22,41,14,85,颗粒物(PM10)
临夏回族自治州,建设大厦,103.2417,35.6057,2025-01-21T1200,34,111,1.6,32,24,53,31,81,颗粒物(PM10)
临沂市,沂河小区,118.3429,35.0532,2025-01-21T1200,142,185,1.2,53,30,62,24,189,细颗粒物(PM2.5)
临沂市,鲁南制药厂,118.295,35.0583,2025-01-21T1200,139,171,1.1,50,37,70,23,185,细颗粒物(PM2.5)
临沂市,新光毛纺厂,118.2794,34.9976,2025-01-21T1200,144,175,1.2,43,,66,24,192,细颗粒物(PM2.5)
临沂市,河东保险公司,118.3956,35.0888,2025-01-21T1200,136,195,,62,39,57,16,180,细颗粒物(PM2.5)
临沂市,十里堡居委,118.3564,35.0215,2025-01-21T1200,132,168,1.4,50,31,62,24,175,细颗粒物(PM2.5)
临沂市,南坊新区,118.3604,35.1084,2025-01-21T1200,132,178,1.2,61,26,59,21,175,细颗粒物(PM2.5)
临沂市,皇山花园小区,118.3920,35.0300,2025-01-21T1200,122,171,1.3,60,41,58,20,160,细颗粒物(PM2.5)
柳州市,柳东小学,109.4856,24.3895,2025-01-21T1200,,,,24,16,73,78,,
柳州市,环保监测站,109.4157,24.3277,2025-01-21T1200,95,109,1.2,32,16,74,35,125,细颗粒物(PM2.5)
柳州市,河西水厂,109.389,24.341,2025-01-21T1200,91,168,1.1,46,21,58,25,120,细颗粒物(PM2.5)
柳州市,市四中,109.4311,24.2921,2025-01-21T1200,73,116,1.5,33,13,76,31,98,细颗粒物(PM2.5)
柳州市,市九中,109.4006,24.3631,2025-01-21T1200,98,107,1.0,32,14,75,37,129,细颗粒物(PM2.5)
柳州市,古亭山,109.4958,24.3134,2025-01-21T1200,71,87,1.2,36,22,86,32,95,细颗粒物(PM2.5)
柳州市,市二中,109.5422,24.3996,2025-01-21T1200,88,99,1.1,35,14,64,22,117,细颗粒物(PM2.5)
六安市,监测大楼,116.5079,31.737,2025-01-21T1200,97,115,1.0,38,11,88,72,128,细颗粒物(PM2.5)
六安市,皖西学院,116.4738,31.7643,2025-01-21T1200,95,119,1.0,37,10,100,77,125,细颗粒物(PM2.5)
六安市,朝阳厂,116.4996,31.7905,2025-01-21T1200,94,114,0.9,40,8,94,78,124,细颗粒物(PM2.5)
六安市,开发区,116.5567,31.7886,2025-01-21T1200,97,140,1.3,41,12,94,54,128,细颗粒物(PM2.5)
六盘水市,窑上,104.8,26.5892,2025-01-21T1200,,,,,,,67,,
六盘水市,黄土坡,104.83,26.5917,2025-01-21T1200,50,69,0.8,19,8,88,90,69,细颗粒物(PM2.5)
六盘水市,水钢,104.89,26.5939,2025-01-21T1200,60,80,0.7,18,6,93,100,82,细颗粒物(PM2.5)
六盘水市,民中,104.8475,26.5894,2025-01-21T1200,53,57,0.8,19,8,86,89,73,细颗粒物(PM2.5)
六盘水市,双水,104.9544,26.5506,2025-01-21T1200,58,73,0.7,,,91,101,,
龙岩市,龙岩师专,117.0189,25.1181,2025-01-21T1200,,,,,,,,,
龙岩市,龙岩市监测站,117.0217,25.1033,2025-01-21T1200,25,42,0.4,14,4,113,51,42,
龙岩市,闽西职业技术学院,117.0258,25.0661,2025-01-21T1200,23,67,0.8,16,4,99,42,59,颗粒物(PM10)
龙岩市,龙岩学院,117.0196,25.0306,2025-01-21T1200,28,54,0.6,22,6,95,45,52,颗粒物(PM10)
陇南市,汉王镇固水子,105.0822,33.3261,2025-01-21T1200,,,,,,,,,
陇南市,滨江中学,104.9339,33.3826,2025-01-21T1200,37,66,1.1,31,22,41,22,58,颗粒物(PM10)
陇南市,市总工会,104.955,33.371,2025-01-21T1200,48,59,0.9,31,22,47,49,67,细颗粒物(PM2.5)
娄底市,电视发射台,111.9589,27.8901,2025-01-21T1200,64,64,0.9,23,12,114,100,87,细颗粒物(PM2.5)
娄底市,市监测站,111.9975,27.725,2025-01-21T1200,,,1.4,44,,77,30,,
娄底市,市委党校,112.0194,27.7314,2025-01-21T1200,101,144,1.4,45,36,74,26,133,细颗粒物(PM2.5)
娄底市,涟钢,111.9561,27.7569,2025-01-21T1200,108,166,1.5,45,36,95,42,142,细颗粒物(PM2.5)
娄底市,市政府,111.9892,27.7044,2025-01-21T1200,110,130,1.3,43,22,73,30,144,细颗粒物(PM2.5)
泸州市,九狮山,105.4324,28.9634,2025-01-21T1200,,,,,,,,,
泸州市,小市上码头,105.4427,28.9063,2025-01-21T1200,120,151,1.3,44,8,38,53,158,细颗粒物(PM2.5)
泸州市,兰田宪桥,105.4241,28.8573,2025-01-21T1200,130,156,1.2,40,8,37,38,172,细颗粒物(PM2.5)
泸州市,市环监站,105.4379,28.8833,2025-01-21T1200,123,144,1.0,41,9,30,40,162,细颗粒物(PM2.5)
泸州市,纳溪区环保局,105.3617,28.7703,2025-01-21T1200,147,152,1.4,43,6,14,5,196,细颗粒物(PM2.5)
吕梁市,环保局,111.1406,37.5211,2025-01-21T1200,22,63,0.5,21,8,52,13,57,颗粒物(PM10)
吕梁市,自来水公司,111.1297,37.5136,2025-01-21T1200,28,,0.7,28,14,44,12,,
吕梁市,马茂庄小学,111.1283,37.51,2025-01-21T1200,20,72,0.6,29,14,46,14,61,颗粒物(PM10)
洛阳市,市委党校,112.3931,34.6516,2025-01-21T1200,102,158,1.6,64,13,21,12,134,细颗粒物(PM2.5)
洛阳市,河南林校,112.494,34.6886,2025-01-21T1200,141,146,1.4,62,10,18,9,188,细颗粒物(PM2.5)
洛阳市,开发区管委会,112.3844,34.623,2025-01-21T1200,132,156,1.1,56,15,34,26,175,细颗粒物(PM2.5)
洛阳市,市委新办公区,112.4267,34.6258,2025-01-21T1200,98,131,0.9,,14,38,27,129,细颗粒物(PM2.5)
洛阳市,伊滨,112.6005,34.6326,2025-01-21T1200,123,,1.0,56,8,28,15,162,细颗粒物(PM2.5)
洛阳市,中移产业园,112.4951,34.6332,2025-01-21T1200,86,111,1.0,40,11,36,28,114,细颗粒物(PM2.5)
洛阳市,吉利监测站,112.5736,34.8993,2025-01-21T1200,70,98,0.9,47,12,39,41,94,细颗粒物(PM2.5)
洛阳市,河科大西苑校区,112.3677,34.662,2025-01-21T1200,144,215,1.8,81,22,18,10,192,细颗粒物(PM2.5)
洛阳市,英才小学,112.4388,34.6781,2025-01-21T1200,119,183,1.6,76,21,11,2,156,细颗粒物(PM2.5)
洛阳市,春都路1号院,112.4600,34.6949,2025-01-21T1200,125,205,1.9,96,19,18,12,165,细颗粒物(PM2.5)
漯河市,三五一五工厂,114.051,33.5699,2025-01-21T1200,179,,1.2,66,,76,60,229,细颗粒物(PM2.5)
漯河市,漯河大学,114.0055,33.5698,2025-01-21T1200,139,174,1.0,55,12,102,67,185,细颗粒物(PM2.5)
漯河市,市水利局,114.0138,33.5828,2025-01-21T1200,175,224,1.2,53,12,71,68,225,细颗粒物(PM2.5)
漯河市,市广电局,114.0261,33.5698,2025-01-21T1200,142,183,1.0,54,15,93,66,189,细颗粒物(PM2.5)
漯河市,市图书馆,113.9749,33.5664,2025-01-21T1200,151,192,1.0,63,11,94,71,201,细颗粒物(PM2.5)
漯河市,召陵区卫健委,114.0967,33.5906,2025-01-21T1200,183,224,1.0,63,10,64,64,233,细颗粒物(PM2.5)
马鞍山市,湖东路四小,118.5092,31.6837,2025-01-21T1200,74,138,0.9,43,9,120,62,99,细颗粒物(PM2.5)
马鞍山市,开发区,118.5024,31.6449,2025-01-21T1200,112,151,1.1,39,13,117,61,147,细颗粒物(PM2.5)
马鞍山市,濮塘,118.6245,31.7241,2025-01-21T1200,115,123,0.8,44,13,116,74,150,细颗粒物(PM2.5)
马鞍山市,雨山,118.4918,31.6809,2025-01-21T1200,98,114,1.1,38,11,120,66,129,细颗粒物(PM2.5)
马鞍山市,慈湖高新区,118.5274,31.72227,2025-01-21T1200,106,131,1.0,38,12,115,52,139,细颗粒物(PM2.5)
茂名市,电白南海,111.0286,21.4688,2025-01-21T1200,19,61,0.7,18,,125,94,,
茂名市,茂石化七小,110.9294,21.6533,2025-01-21T1200,29,66,0.5,15,12,149,113,58,颗粒物(PM10)
茂名市,健康路,110.9107,21.6687,2025-01-21T1200,36,61,0.8,19,10,152,115,56,颗粒物(PM10)
茂名市,高岭,110.8592,21.6828,2025-01-21T1200,29,70,0.6,19,8,146,77,60,颗粒物(PM10)
茂名市,电白水东,111.01,21.5165,2025-01-21T1200,29,63,0.7,20,13,124,114,57,颗粒物(PM10)
眉山市,黑龙滩水库,104.0308,30.0478,2025-01-21T1200,68,106,0.6,5,5,91,83,92,细颗粒物(PM2.5)
眉山市,气象局,103.8416,30.0874,2025-01-21T1200,,,1.2,52,,16,7,,
眉山市,市委党校,103.8578,30.0744,2025-01-21T1200,100,119,0.9,41,7,43,12,132,细颗粒物(PM2.5)
眉山市,区人社局,103.8291,30.0564,2025-01-21T1200,102,,1.0,55,8,36,12,134,细颗粒物(PM2.5)
梅州市,梅江月梅,116.1231,24.3284,2025-01-21T1200,20,42,0.8,9,8,119,44,42,
梅州市,梅县新城,116.0797,24.2719,2025-01-21T1200,28,52,0.7,25,5,,25,,
梅州市,环境监控中心,116.1248,24.2654,2025-01-21T1200,36,55,0.4,19,7,100,36,53,颗粒物(PM10)
梅州市,梅龙,116.1233,24.2991,2025-01-21T1200,26,36,0.6,22,6,89,48,38,
绵阳市,富乐山,104.7778,31.4741,2025-01-21T1200,82,101,1.2,25,3,44,40,109,细颗粒物(PM2.5)
绵阳市,高新区自来水公司,104.6697,31.4668,2025-01-21T1200,90,127,0.9,48,4,19,11,119,细颗粒物(PM2.5)
绵阳市,三水厂,104.7287,31.5075,2025-01-21T1200,120,153,1.4,38,4,21,5,158,细颗粒物(PM2.5)
绵阳市,西科大附属小学,104.69,31.5322,2025-01-21T1200,99,130,1.4,42,5,15,8,130,细颗粒物(PM2.5)
绵阳市,安州区旅游局,104.5648,31.5343,2025-01-21T1200,97,113,1.1,22,7,48,26,128,细颗粒物(PM2.5)
绵阳市,绵阳市气象局,104.7651,31.4531,2025-01-21T1200,78,,0.8,36,5,34,38,104,细颗粒物(PM2.5)
牡丹江市,环保大楼,129.61,44.561,2025-01-21T1200,71,109,1.0,49,15,37,17,95,细颗粒物(PM2.5)
牡丹江市,文化广场,129.6115,44.5782,2025-01-21T1200,100,162,2.0,66,20,,16,132,细颗粒物(PM2.5)
牡丹江市,第一医院,129.5904,44.5963,2025-01-21T1200,110,162,1.4,72,20,19,26,144,细颗粒物(PM2.5)
牡丹江市,机车工厂,129.6364,44.6075,2025-01-21T1200,57,93,1.0,31,24,51,27,78,细颗粒物(PM2.5)
牡丹江市,第一中学,129.6386,44.5462,2025-01-21T1200,82,111,1.2,46,18,31,20,109,细颗粒物(PM2.5)
内江市,市监测站,105.0703,29.61,2025-01-21T1200,110,,1.2,37,6,25,32,144,细颗粒物(PM2.5)
内江市,东兴区政府,105.0717,29.5947,2025-01-21T1200,99,,1.2,46,5,20,45,130,细颗粒物(PM2.5)
内江市,内江二中,105.0653,29.5817,2025-01-21T1200,116,121,1.3,50,9,16,18,152,细颗粒物(PM2.5)
内江市,内江日报社,105.0406,29.5822,2025-01-21T1200,,,1.2,41,10,,23,,
那曲市,那曲监测站,92.0657,31.4846,2025-01-21T1200,84,102,1.1,21,13,64,32,112,细颗粒物(PM2.5)
那曲市,那曲会议中心,92.0506,31.4797,2025-01-21T1200,33,58,1.0,15,5,71,42,54,颗粒物(PM10)
南昌市,省外办,115.8931,28.6843,2025-01-21T1200,80,114,1.5,40,17,91,46,107,细颗粒物(PM2.5)
南昌市,省林业公司,115.8886,28.7003,2025-01-21T1200,90,129,1.0,48,15,88,37,119,细颗粒物(PM2.5)
南昌市,林科所,115.8126,28.7442,2025-01-21T1200,75,105,0.7,,15,,56,,
南昌市,建工学校,115.8518,28.687,2025-01-21T1200,75,112,1.4,53,17,99,47,100,细颗粒物(PM2.5)
南昌市,象湖,115.8921,28.6424,2025-01-21T1200,83,111,1.1,29,12,,49,110,细颗粒物(PM2.5)
南昌市,武术学校,115.7423,28.7996,2025-01-21T1200,30,85,0.7,31,7,104,38,68,颗粒物(PM10)
南昌市,机电学校,115.9084,28.6062,2025-01-21T1200,75,113,0.8,29,15,103,42,100,细颗粒物(PM2.5)
南昌市,外国语学校,115.9721,28.7031,2025-01-21T1200,83,103,0.6,23,12,108,60,110,细颗粒物(PM2.5)
南昌市,南京东路235号,115.9316,28.68677,2025-01-21T1200,74,125,0.9,40,15,99,58,99,细颗粒物(PM2.5)
南充市,西山风景区,106.056,30.8064,2025-01-21T1200,87,,1.1,23,1,37,66,115,细颗粒物(PM2.5)
南充市,南充市委,106.0789,30.8023,2025-01-21T1200,102,118,0.9,34,4,28,16,134,细颗粒物(PM2.5)
南充市,南充炼油厂,106.1031,30.8217,2025-01-21T1200,95,113,0.9,29,4,34,15,125,细颗粒物(PM2.5)
南充市,嘉陵区环保局,106.0642,30.7636,2025-01-21T1200,92,122,1.1,44,4,28,21,122,细颗粒物(PM2.5)
南充市,市环境监测站,106.1087,30.8388,2025-01-21T1200,94,121,0.8,20,5,,26,124,细颗粒物(PM2.5)
南充市,梨树横街98号,106.1083,30.7884,2025-01-21T1200,94,128,0.9,33,8,21,9,124,细颗粒物(PM2.5)
南京市,迈皋桥,118.8086,32.1065,2025-01-21T1200,102,148,1.2,,16,97,29,134,细颗粒物(PM2.5)
南京市,草场门,118.7538,32.0551,2025-01-21T1200,105,132,1.0,63,12,81,23,138,细颗粒物(PM2.5)
南京市,山西路,118.7794,32.0745,2025-01-21T1200,122,153,1.0,96,12,75,34,160,细颗粒物(PM2.5)
南京市,中华门,118.7752,32.0023,2025-01-21T1200,117,158,1.2,80,16,71,27,153,细颗粒物(PM2.5)
南京市,瑞金路,118.8109,32.0309,2025-01-21T1200,129,175,1.2,68,4,80,24,170,细颗粒物(PM2.5)
南京市,玄武湖,118.7997,32.0754,2025-01-21T1200,132,197,,,11,67,14,175,细颗粒物(PM2.5)
南京市,浦口,118.6414,32.0931,2025-01-21T1200,112,169,1.3,80,15,61,43,147,细颗粒物(PM2.5)
南京市,奥体中心,118.7356,31.9996,2025-01-21T1200,117,173,1.2,97,13,71,26,153,细颗粒物(PM2.5)
南京市,仙林大学城,118.9125,32.1028,2025-01-21T1200,100,136,1.1,46,12,103,33,132,细颗粒物(PM2.5)
南京市,江宁彩虹桥,118.8436,31.9198,2025-01-21T1200,114,209,1.2,61,8,90,32,149,细颗粒物(PM2.5)
南京市,溧水永阳,119.0138,31.6494,2025-01-21T1200,140,,1.0,47,6,101,26,186,细颗粒物(PM2.5)
南京市,高淳老职中,118.879,31.3302,2025-01-21T1200,125,,,,10,,59,165,细颗粒物(PM2.5)
南京市,六合雄州,118.8554,32.3578,2025-01-21T1200,144,194,1.1,71,11,71,18,192,细颗粒物(PM2.5)
南宁市,二十一中,108.3103,22.7881,2025-01-21T1200,86,106,1.0,31,10,142,44,114,细颗粒物(PM2.5)
南宁市,北湖,108.3141,22.8528,2025-01-21T1200,89,108,1.1,41,14,115,32,118,细颗粒物(PM2.5)
南宁市,市监测站,108.3206,22.8225,2025-01-21T1200,82,115,1.2,34,17,134,59,109,细颗粒物(PM2.5)
南宁市,大自然花园,108.3829,22.8037,2025-01-21T1200,86,106,1.2,29,12,139,71,114,细颗粒物(PM2.5)
南宁市,仙葫,108.4394,22.7904,2025-01-21T1200,100,115,0.9,30,11,123,38,132,细颗粒物(PM2.5)
南宁市,区农职院,108.2397,22.8467,2025-01-21T1200,85,131,1.0,46,14,102,45,113,细颗粒物(PM2.5)
南宁市,英华嘉园,108.3275,22.735,2025-01-21T1200,,154,1.0,,13,135,42,102,颗粒物(PM10)
南宁市,红星社区,108.4834,22.7618,2025-01-21T1200,98,147,1.2,47,16,108,31,129,细颗粒物(PM2.5)
南宁市,乐贤路16号,108.2177,22.7774,2025-01-21T1200,90,115,1.0,39,10,114,28,119,细颗粒物(PM2.5)
南平市,茫荡山,118.0966,26.6761,2025-01-21T1200,,,,,,,,,
南平市,南平市监测站,118.1681,26.6369,2025-01-21T1200,48,67,0.6,16,9,124,48,67,细颗粒物(PM2.5)
南平市,南平铝业有限公司,118.1825,26.6489,2025-01-21T1200,49,61,0.5,,8,118,43,,
南平市,南平七中,118.1756,26.6272,2025-01-21T1200,43,69,0.7,18,8,131,48,60,"颗粒物(PM10),细颗粒物(PM2.5)"
南通市,狼山街道,120.9098,31.9663,2025-01-21T1200,118,159,1.4,94,17,37,18,155,细颗粒物(PM2.5)
南通市,虹桥,120.86,32.0005,2025-01-21T1200,114,142,1.4,87,17,44,43,149,细颗粒物(PM2.5)
南通市,城中,120.87,32.02,2025-01-21T1200,121,168,1.4,88,20,60,49,159,细颗粒物(PM2.5)
南通市,星湖花园,120.94,31.93,2025-01-21T1200,117,156,1.3,99,,31,28,153,细颗粒物(PM2.5)
南通市,紫琅学院,120.81,32.0417,2025-01-21T1200,95,133,1.3,102,15,22,35,125,细颗粒物(PM2.5)
南通市,通州监测站,121.067,32.062,2025-01-21T1200,100,122,1.1,35,11,115,77,132,细颗粒物(PM2.5)
南通市,环境教育馆,120.9348,31.9883,2025-01-21T1200,105,132,,73,18,60,23,138,细颗粒物(PM2.5)
南阳市,瓦房庄,112.5224,33.0122,2025-01-21T1200,98,132,1.1,32,10,83,26,129,细颗粒物(PM2.5)
南阳市,汉画馆,112.5003,32.9735,2025-01-21T1200,95,129,1.1,38,8,76,18,125,细颗粒物(PM2.5)
南阳市,气象站,112.5573,33.027,2025-01-21T1200,97,139,0.9,29,10,91,57,128,细颗粒物(PM2.5)
南阳市,理工学院,112.5481,32.9689,2025-01-21T1200,106,132,0.8,39,11,87,29,139,细颗粒物(PM2.5)
南阳市,卧龙区政府,112.5234,32.9922,2025-01-21T1200,95,127,1.0,37,9,83,22,125,细颗粒物(PM2.5)
宁波市,区环保大楼,121.8358,29.911,2025-01-21T1200,99,146,1.2,36,13,128,48,130,细颗粒物(PM2.5)
宁波市,万里学院,121.56,29.82,2025-01-21T1200,125,159,1.2,43,10,129,38,165,细颗粒物(PM2.5)
宁波市,龙赛医院,121.713,29.9572,2025-01-21T1200,138,184,1.0,66,15,99,39,183,细颗粒物(PM2.5)
宁波市,钱湖水厂,121.633,29.7733,2025-01-21T1200,121,147,1.1,38,9,115,60,159,细颗粒物(PM2.5)
宁波市,太古小学,121.5856,29.8635,2025-01-21T1200,124,160,1.1,39,13,122,36,163,细颗粒物(PM2.5)
宁波市,市环境监测中心,121.524,29.8674,2025-01-21T1200,118,172,1.2,47,12,114,45,155,细颗粒物(PM2.5)
宁波市,万里国际学校,121.6147,29.9017,2025-01-21T1200,113,146,0.9,40,12,125,30,148,细颗粒物(PM2.5)
宁波市,白沙活动中心,121.5594,29.8975,2025-01-21T1200,124,154,1.0,35,12,134,42,163,细颗粒物(PM2.5)
宁德市,金涵水库,119.5001,26.6946,2025-01-21T1200,,,,,,,,,
宁德市,宁德市监测站,119.5388,26.6612,2025-01-21T1200,75,96,0.6,15,7,120,92,100,细颗粒物(PM2.5)
宁德市,宁德一中,119.5231,26.6562,2025-01-21T1200,79,82,0.7,29,6,125,100,105,细颗粒物(PM2.5)
怒江傈僳族自治州,州监测站,98.8601,25.8567,2025-01-21T1200,40,,0.5,17,4,52,37,,
怒江傈僳族自治州,泸水一中,98.8546,25.8417,2025-01-21T1200,35,35,0.4,13,8,44,25,50,
攀枝花市,弄弄坪,101.6891,26.571,2025-01-21T1200,67,107,4.1,64,89,30,13,90,细颗粒物(PM2.5)
攀枝花市,河门口,101.5769,26.5928,2025-01-21T1200,38,55,1.0,23,12,61,30,54,细颗粒物(PM2.5)
攀枝花市,炳草岗,101.7169,26.585,2025-01-21T1200,60,110,2.6,60,41,28,8,82,细颗粒物(PM2.5)
攀枝花市,仁和,101.7369,26.5008,2025-01-21T1200,56,82,4.5,47,86,58,18,77,细颗粒物(PM2.5)
攀枝花市,四十中小,101.7227,26.567,2025-01-21T1200,68,109,2.6,67,37,,33,,
盘锦市,开发区,122.0303,41.1489,2025-01-21T1200,,,,,,,46,,
盘锦市,兴隆台,122.0485,41.0883,2025-01-21T1200,13,20,0.5,20,10,63,51,20,
盘锦市,新生街道,121.8297,41.1028,2025-01-21T1200,12,32,0.5,12,9,73,36,32,
平顶山市,新华旅馆,113.3257,33.742,2025-01-21T1200,168,283,1.2,108,10,24,12,218,细颗粒物(PM2.5)
平顶山市,规划设计院,113.2919,33.737,2025-01-21T1200,191,309,1.4,89,11,35,17,241,细颗粒物(PM2.5)
平顶山市,平顶山工学院,113.182,33.774,2025-01-21T1200,112,194,0.9,37,13,59,48,147,细颗粒物(PM2.5)
平顶山市,规划局,113.3025,33.73,2025-01-21T1200,190,261,1.0,95,12,35,15,240,细颗粒物(PM2.5)
平顶山市,石龙区,112.8867,33.9116,2025-01-21T1200,115,170,1.0,30,16,78,70,150,细颗粒物(PM2.5)
平凉市,聚贤嘉苑,106.6692,35.5461,2025-01-21T1200,34,65,0.7,18,15,97,46,58,颗粒物(PM10)
平凉市,博物馆,106.7021,35.5307,2025-01-21T1200,42,70,0.8,36,18,87,48,60,颗粒物(PM10)
萍乡市,武功山,114.0997,27.5002,2025-01-21T1200,29,40,0.9,12,11,118,64,42,
萍乡市,中医院,113.8385,27.6434,2025-01-21T1200,68,122,1.1,26,15,114,60,92,细颗粒物(PM2.5)
萍乡市,市政府车库,113.8493,27.6253,2025-01-21T1200,101,108,1.7,30,21,105,50,133,细颗粒物(PM2.5)
萍乡市,市环保局,113.8676,27.6435,2025-01-21T1200,98,130,1.1,34,16,98,63,129,细颗粒物(PM2.5)
萍乡市,安源区政府,113.866,27.6198,2025-01-21T1200,69,146,2.3,30,23,104,48,98,颗粒物(PM10)
莆田市,荔城区仓后路,119.0141,25.4325,2025-01-21T1200,49,63,0.7,,4,137,133,,
莆田市,莆田市监测站,119.0015,25.4553,2025-01-21T1200,53,73,0.4,19,6,152,137,73,细颗粒物(PM2.5)
莆田市,涵江区六中,119.1119,25.4561,2025-01-21T1200,51,71,0.5,18,6,152,129,70,细颗粒物(PM2.5)
莆田市,秀屿区政府,119.1013,25.3215,2025-01-21T1200,68,71,0.6,20,4,162,142,92,细颗粒物(PM2.5)
莆田市,东圳水库,118.981,25.4792,2025-01-21T1200,,,,,,,,,
濮阳市,环保局,115.0312,35.7636,2025-01-21T1200,123,128,1.1,53,11,64,54,162,细颗粒物(PM2.5)
濮阳市,油田运输公司,115.0574,35.7609,2025-01-21T1200,137,168,1.1,49,12,59,44,182,细颗粒物(PM2.5)
濮阳市,濮水河管理处,115,35.7668,2025-01-21T1200,112,184,1.3,54,10,,48,147,细颗粒物(PM2.5)
濮阳市,任丘路479号,115.0924,35.7686,2025-01-21T1200,110,177,1.3,48,14,66,45,144,细颗粒物(PM2.5)
普洱市,市环保局,100.98,22.7633,2025-01-21T1200,11,40,0.6,6,4,76,29,40,
普洱市,普洱第二中学,100.9817,22.8322,2025-01-21T1200,3,56,0.6,8,5,72,20,53,颗粒物(PM10)
七台河市,新一中,131.0518,45.8751,2025-01-21T1200,48,86,1.8,20,18,78,68,68,颗粒物(PM10)
七台河市,中波台,131.0577,45.7879,2025-01-21T1200,53,62,1.0,22,9,65,58,73,细颗粒物(PM2.5)
七台河市,人民广场,131.0176,45.7761,2025-01-21T1200,63,101,1.0,24,9,66,56,85,细颗粒物(PM2.5)
七台河市,新建矿广场,130.8781,45.8222,2025-01-21T1200,85,124,0.9,56,17,28,22,113,细颗粒物(PM2.5)
齐齐哈尔市,安居小区,123.9305,47.3636,2025-01-21T1200,44,45,0.5,17,16,68,58,62,细颗粒物(PM2.5)
齐齐哈尔市,中心广场,123.9488,47.3386,2025-01-21T1200,48,58,0.7,22,7,62,54,67,细颗粒物(PM2.5)
齐齐哈尔市,农牧车辆厂,123.9483,47.3227,2025-01-21T1200,43,51,0.4,21,11,62,57,60,细颗粒物(PM2.5)
齐齐哈尔市,市环境监测站,123.945,47.2988,2025-01-21T1200,53,65,0.9,22,10,,64,,
齐齐哈尔市,富区青少年活动中心,123.6333,47.2075,2025-01-21T1200,56,65,0.6,11,12,72,62,77,细颗粒物(PM2.5)
黔东南苗族侗族自治州,市环境监测站,107.9783,26.5747,2025-01-21T1200,90,116,1.5,43,14,26,24,119,细颗粒物(PM2.5)
黔东南苗族侗族自治州,凯里学院,107.8908,26.5311,2025-01-21T1200,54,66,1.1,16,9,56,24,74,细颗粒物(PM2.5)
黔南布依族苗族自治州,小围寨,107.5228,26.2403,2025-01-21T1200,66,107,1.0,43,19,22,30,89,细颗粒物(PM2.5)
黔南布依族苗族自治州,沙坝,107.5175,26.2978,2025-01-21T1200,68,100,1.2,37,24,16,26,92,细颗粒物(PM2.5)
黔西南布依族苗族自治州,场坝街,104.9022,25.0925,2025-01-21T1200,45,72,0.5,14,6,112,110,63,细颗粒物(PM2.5)
黔西南布依族苗族自治州,坪东大道,104.8811,25.0992,2025-01-21T1200,69,78,0.5,15,6,105,106,93,细颗粒物(PM2.5)
钦州市,市环保站,108.6236,21.9667,2025-01-21T1200,100,144,1.1,38,22,133,69,132,细颗粒物(PM2.5)
钦州市,沙埠小学,108.6549,21.9481,2025-01-21T1200,66,,1.1,,13,140,64,,
钦州市,港区一小,108.5989,21.7431,2025-01-21T1200,55,122,1.0,35,17,138,64,86,颗粒物(PM10)
钦州市,北职校,108.5959,21.9633,2025-01-21T1200,125,200,1.2,46,18,123,54,165,细颗粒物(PM2.5)
秦皇岛市,北戴河环保局,119.5134,39.8207,2025-01-21T1200,17,47,0.1,20,6,50,28,47,
秦皇岛市,第一关,119.7493,40.0116,2025-01-21T1200,20,28,0.3,17,6,65,31,29,
秦皇岛市,监测站,119.5897,39.9499,2025-01-21T1200,23,49,0.5,28,7,56,21,49,
秦皇岛市,建设大厦,119.5251,39.9041,2025-01-21T1200,29,55,0.5,,7,53,16,,
秦皇岛市,文明里,119.610547,39.943889,2025-01-21T1200,19,70,0.1,29,10,45,21,60,颗粒物(PM10)
青岛市,仰口,120.6659,36.2403,2025-01-21T1200,,,0.8,22,5,68,71,,
青岛市,市南区东部子站,120.4134,36.0658,2025-01-21T1200,36,80,0.8,34,12,38,31,65,颗粒物(PM10)
青岛市,四方区子站,120.3664,36.1032,2025-01-21T1200,56,80,1.2,39,15,74,59,77,细颗粒物(PM2.5)
青岛市,市南区西部子站,120.2994,36.054,2025-01-21T1200,42,78,1.0,52,12,57,59,64,颗粒物(PM10)
青岛市,崂山区子站,120.4581,36.0858,2025-01-21T1200,,,0.8,31,,64,51,,
青岛市,黄岛区子站,120.1983,35.9608,2025-01-21T1200,56,85,1.1,38,13,69,68,77,细颗粒物(PM2.5)
青岛市,城阳区子站,120.3999,36.3083,2025-01-21T1200,73,134,1.4,53,18,80,58,98,细颗粒物(PM2.5)
青岛市,黄岛区4号,120.0405,35.8735,2025-01-21T1200,48,85,1.4,54,18,60,44,68,颗粒物(PM10)
青岛市,即墨2号,120.5014,36.4034,2025-01-21T1200,126,134,1.5,53,21,77,59,166,细颗粒物(PM2.5)
青岛市,市北区南部,120.3503,36.0736,2025-01-21T1200,44,66,0.9,,9,55,55,,
青岛市,李沧区北部,120.3948,36.1805,2025-01-21T1200,70,110,1.2,45,21,78,61,94,细颗粒物(PM2.5)
清远市,环保大楼,113.0426,23.691,2025-01-21T1200,53,66,0.9,31,10,96,57,73,细颗粒物(PM2.5)
清远市,凤城街办,113.0208,23.7106,2025-01-21T1200,54,75,0.9,30,12,93,55,74,细颗粒物(PM2.5)
清远市,技师学院,113.0477,23.6344,2025-01-21T1200,42,72,1.0,26,12,113,40,61,颗粒物(PM10)
清远市,清新太和,112.9903,23.7403,2025-01-21T1200,50,75,0.8,28,14,113,67,69,细颗粒物(PM2.5)
清远市,清城东城,113.076,23.7198,2025-01-21T1200,49,79,1.1,21,16,113,52,68,细颗粒物(PM2.5)
庆阳市,庆阳五中,107.6325,35.7357,2025-01-21T1200,65,87,0.9,27,12,90,72,88,细颗粒物(PM2.5)
庆阳市,市环保局,107.6364,35.7067,2025-01-21T1200,52,76,0.7,29,15,92,86,72,细颗粒物(PM2.5)
曲靖市,环境监测站,103.7897,25.5035,2025-01-21T1200,48,71,1.0,27,11,39,48,67,细颗粒物(PM2.5)
曲靖市,烟厂办公区,103.8,25.5364,2025-01-21T1200,46,80,0.6,25,7,41,51,65,颗粒物(PM10)
曲靖市,南苑二区,103.7947,25.462,2025-01-21T1200,54,71,0.9,21,10,48,50,74,细颗粒物(PM2.5)
曲靖市,曲靖师范学院,103.7444,25.5261,2025-01-21T1200,23,33,0.2,11,5,65,52,33,
衢州市,环保大楼,118.8692,28.9398,2025-01-21T1200,106,155,0.7,44,8,106,35,139,细颗粒物(PM2.5)
衢州市,实验学校,118.8709,28.9666,2025-01-21T1200,105,131,0.5,32,7,116,38,138,细颗粒物(PM2.5)
衢州市,衢州学院,118.8621,28.9808,2025-01-21T1200,99,135,0.5,31,7,123,38,130,细颗粒物(PM2.5)
泉州市,涂山街,118.5819,24.9117,2025-01-21T1200,45,67,0.6,14,6,155,104,63,细颗粒物(PM2.5)
泉州市,津头埔,118.5972,24.8978,2025-01-21T1200,47,68,0.7,16,4,150,100,65,细颗粒物(PM2.5)
泉州市,万安,118.6663,24.9424,2025-01-21T1200,45,66,0.6,20,5,164,143,63,细颗粒物(PM2.5)
泉州市,清源山,118.6117,24.9604,2025-01-21T1200,,,,,,,,,
泉州市,城华南路,118.6333,24.9264,2025-01-21T1200,40,69,0.8,,5,,133,,
日喀则市,日喀则监测站,88.8876,29.2718,2025-01-21T1200,22,47,0.7,18,2,68,60,47,
日喀则市,林业技术推广中心,88.8781,29.2426,2025-01-21T1200,24,40,1.0,18,9,63,87,40,
日照市,监测站,119.471,35.4209,2025-01-21T1200,87,139,1.2,53,19,68,14,115,细颗粒物(PM2.5)
日照市,市政府广场,119.523,35.4216,2025-01-21T1200,88,132,1.2,53,15,70,25,117,细颗粒物(PM2.5)
日照市,港务局,119.5587,35.4044,2025-01-21T1200,89,141,1.4,66,24,,14,118,细颗粒物(PM2.5)
日照市,职业技术学院,119.5328,35.4625,2025-01-21T1200,88,141,1.3,49,16,82,25,117,细颗粒物(PM2.5)
日照市,岚山环保分局,119.3266,35.1044,2025-01-21T1200,99,144,1.3,47,15,96,49,130,细颗粒物(PM2.5)
三门峡市,市政府,111.1922,34.7752,2025-01-21T1200,67,80,1.1,50,14,43,19,90,细颗粒物(PM2.5)
三门峡市,开发区,111.1587,34.7942,2025-01-21T1200,72,109,1.1,29,11,65,50,97,细颗粒物(PM2.5)
三门峡市,风景区,111.143,34.7955,2025-01-21T1200,62,92,1.2,30,17,63,51,84,细颗粒物(PM2.5)
三门峡市,三门峡市第一小学,111.1911,34.7829,2025-01-21T1200,67,80,0.9,25,11,69,65,90,细颗粒物(PM2.5)
三门峡市,富达温泉假日酒店,111.1,34.7167,2025-01-21T1200,86,121,1.5,92,18,10,41,114,细颗粒物(PM2.5)
三明市,三钢,117.6211,26.2625,2025-01-21T1200,26,47,0.5,19,5,101,40,47,
三明市,三明二中,117.635,26.2714,2025-01-21T1200,23,47,0.6,18,5,95,38,47,
三明市,三元区政府,117.6028,26.2378,2025-01-21T1200,24,41,0.5,21,7,87,33,41,
三明市,洋溪,117.7275,26.3108,2025-01-21T1200,,,,,,,,,
三亚市,河东子站,109.5078,18.2489,2025-01-21T1200,23,40,0.4,6,1,138,139,44,
三亚市,河西子站,109.4964,18.2681,2025-01-21T1200,20,34,,8,3,134,131,,
三亚市,君悦子站,109.7348,18.3443,2025-01-21T1200,18,31,0.6,9,4,130,84,41,
山南市,山南监测站,91.7608,29.2313,2025-01-21T1200,23,46,0.5,13,5,65,47,46,
山南市,山南人民医院,91.7706,29.2436,2025-01-21T1200,3,6,0.8,,4,,45,,
汕头市,金平子站,116.6794,23.3667,2025-01-21T1200,37,60,1.0,18,6,143,101,55,颗粒物(PM10)
汕头市,龙湖子站,116.7244,23.3633,2025-01-21T1200,29,51,0.7,,4,138,111,,
汕头市,濠江子站,116.7258,23.2775,2025-01-21T1200,47,58,0.8,12,4,144,127,65,细颗粒物(PM2.5)
汕头市,澄海子站,116.7519,23.4714,2025-01-21T1200,36,46,0.8,16,9,139,88,52,细颗粒物(PM2.5)
汕头市,潮阳子站,116.6092,23.2539,2025-01-21T1200,28,50,0.6,14,8,134,114,50,
汕头市,潮南峡山,116.454,23.2684,2025-01-21T1200,39,63,0.8,18,10,128,95,57,颗粒物(PM10)
汕头市,潮南子站,116.4069,23.2533,2025-01-21T1200,39,67,0.7,26,9,125,101,59,颗粒物(PM10)
汕尾市,市环保局,115.3653,22.775,2025-01-21T1200,25,33,0.7,11,9,114,90,36,
汕尾市,市政府,115.3706,22.7898,2025-01-21T1200,26,47,0.5,10,11,112,80,47,
汕尾市,新城中学,115.3622,22.7925,2025-01-21T1200,22,46,0.4,8,9,112,85,46,
商洛市,监测站,109.9154,33.8715,2025-01-21T1200,30,48,0.7,18,4,68,40,48,
商洛市,商州区中学,109.9643,33.8471,2025-01-21T1200,34,86,0.8,27,6,62,24,68,颗粒物(PM10)
商丘市,环境监测站,115.6702,34.4285,2025-01-21T1200,129,159,0.6,39,8,78,48,170,细颗粒物(PM2.5)
商丘市,粮食局,115.6458,34.4045,2025-01-21T1200,121,132,0.9,40,10,85,63,159,细颗粒物(PM2.5)
商丘市,睢阳区环保局,115.6293,34.3948,2025-01-21T1200,138,160,1.1,39,7,78,56,183,细颗粒物(PM2.5)
商丘市,梁园区档案局,115.6071,34.4465,2025-01-21T1200,126,128,0.7,,9,91,73,166,细颗粒物(PM2.5)
上海市,普陀,121.4,31.238,2025-01-21T1200,100,144,1.1,53,11,92,54,132,细颗粒物(PM2.5)
上海市,十五厂,121.478,31.2036,2025-01-21T1200,100,158,1.0,48,13,101,43,132,细颗粒物(PM2.5)
上海市,虹口,121.467,31.3008,2025-01-21T1200,98,136,1.1,56,13,98,49,129,细颗粒物(PM2.5)
上海市,静安监测站,121.425,31.2261,2025-01-21T1200,103,151,0.9,51,14,101,60,135,细颗粒物(PM2.5)
上海市,浦东川沙,121.703,31.1907,2025-01-21T1200,72,125,0.9,56,14,90,23,97,细颗粒物(PM2.5)
上海市,浦东新区监测站,121.533,31.2284,2025-01-21T1200,85,138,1.0,55,12,99,45,113,细颗粒物(PM2.5)
上海市,浦东张江,121.577,31.2071,2025-01-21T1200,107,132,1.2,45,10,94,36,140,细颗粒物(PM2.5)
上海市,宝山庙行,121.4316,31.3322,2025-01-21T1200,96,142,1.2,47,13,103,48,127,细颗粒物(PM2.5)
上海市,崇明上实东滩,121.8791,31.4662,2025-01-21T1200,61,78,0.8,18,12,134,60,83,细颗粒物(PM2.5)
上海市,嘉定南翔,121.3162,31.2838,2025-01-21T1200,108,166,1.0,54,12,96,29,142,细颗粒物(PM2.5)
上海市,金山新城,121.3359,30.7456,2025-01-21T1200,117,145,1.0,38,10,122,57,153,细颗粒物(PM2.5)
上海市,闵行浦江,121.4996,31.0739,2025-01-21T1200,104,151,0.6,60,10,85,26,137,细颗粒物(PM2.5)
上海市,青浦徐泾,121.2886,31.1663,2025-01-21T1200,111,166,0.9,52,16,95,35,145,细颗粒物(PM2.5)
上海市,松江图书馆,121.2186,31.0378,2025-01-21T1200,116,160,1.2,45,13,105,33,152,细颗粒物(PM2.5)
上海市,长宁仙霞,121.3902,31.2059,2025-01-21T1200,101,166,1.0,52,14,106,58,133,细颗粒物(PM2.5)
上海市,浦东惠南,121.7965,31.0507,2025-01-21T1200,76,116,0.8,33,11,112,30,102,细颗粒物(PM2.5)
上海市,奉贤南桥新城,121.4891,30.925,2025-01-21T1200,107,138,1.1,33,12,112,42,140,细颗粒物(PM2.5)
上海市,冠生园路458号,121.4174,31.16637,2025-01-21T1200,104,143,0.7,48,9,68,22,137,细颗粒物(PM2.5)
上海市,宁武路151号,121.5419,31.2683,2025-01-21T1200,90,144,0.7,50,9,95,29,119,细颗粒物(PM2.5)
上饶市,百草园,118.005,28.4572,2025-01-21T1200,51,90,0.9,20,10,106,63,70,"颗粒物(PM10),细颗粒物(PM2.5)"
上饶市,市监测站,117.9756,28.4436,2025-01-21T1200,54,103,0.9,23,11,113,54,77,颗粒物(PM10)
上饶市,凤凰光学,117.9519,28.4628,2025-01-21T1200,50,95,1.0,22,14,115,63,73,颗粒物(PM10)
上饶市,双创科技城,117.897,28.4315,2025-01-21T1200,58,86,1.0,29,15,117,71,79,细颗粒物(PM2.5)
上饶市,裕丰大道,118.1904,28.4448,2025-01-21T1200,59,83,,22,8,115,68,,
韶关市,市八中,113.5824,24.7733,2025-01-21T1200,40,64,0.5,13,14,93,33,57,"颗粒物(PM10),细颗粒物(PM2.5)"
韶关市,园林处,113.5917,24.7972,2025-01-21T1200,42,49,0.5,21,14,91,34,59,细颗粒物(PM2.5)
韶关市,韶关学院,113.6735,24.7791,2025-01-21T1200,44,57,1.3,25,15,78,27,62,细颗粒物(PM2.5)
韶关市,曲江监测站,113.5971,24.6863,2025-01-21T1200,51,81,,32,22,73,34,,
韶关市,碧湖山庄,113.5556,24.8082,2025-01-21T1200,52,95,0.8,19,17,82,38,73,颗粒物(PM10)
邵阳市,市水土所,111.5239,27.3033,2025-01-21T1200,,,,,,,,,
邵阳市,市化工厂,111.5283,27.2442,2025-01-21T1200,111,151,1.1,48,12,57,17,145,细颗粒物(PM2.5)
邵阳市,市环保局,111.4328,27.2272,2025-01-21T1200,87,121,1.0,31,17,71,21,115,细颗粒物(PM2.5)
邵阳市,邵阳卫生学校,111.4399,27.2495,2025-01-21T1200,107,137,0.8,27,16,84,31,140,细颗粒物(PM2.5)
邵阳市,邵阳市第二中学图书馆,111.4684,27.2316,2025-01-21T1200,115,133,0.8,35,14,77,19,150,细颗粒物(PM2.5)
绍兴市,城东开发委,120.6053,29.9928,2025-01-21T1200,111,161,1.0,34,9,112,66,145,细颗粒物(PM2.5)
绍兴市,树下王站,120.5483,30.0003,2025-01-21T1200,122,151,0.9,45,9,107,52,160,细颗粒物(PM2.5)
绍兴市,绍兴中专,120.5683,29.9361,2025-01-21T1200,107,148,1.0,37,11,116,48,140,细颗粒物(PM2.5)
绍兴市,柯桥区政府,120.4906,30.0861,2025-01-21T1200,126,188,0.9,45,11,111,51,166,细颗粒物(PM2.5)
绍兴市,重华小学,120.8752,30.0249,2025-01-21T1200,86,,0.8,29,13,109,74,114,细颗粒物(PM2.5)
绍兴市,上虞中学,120.8369,30.0137,2025-01-21T1200,91,91,,,,113,53,120,细颗粒物(PM2.5)
绍兴市,柯桥妇保,120.4722,30.0415,2025-01-21T1200,122,170,1.1,41,10,104,51,160,细颗粒物(PM2.5)
绍兴市,袍江中学,120.6153,30.0764,2025-01-21T1200,116,173,1.1,34,7,119,51,152,细颗粒物(PM2.5)
深圳市,通心岭子站,114.1063,22.5545,2025-01-21T1200,18,30,0.5,12,7,133,96,42,
深圳市,洪湖,114.117,22.5625,2025-01-21T1200,15,30,0.4,12,6,125,70,40,
深圳市,华侨城,113.987,22.5417,2025-01-21T1200,16,29,0.5,15,6,133,89,42,
深圳市,南海子站,113.9181,22.5171,2025-01-21T1200,15,43,0.6,22,7,128,107,43,
深圳市,盐田,114.2458,22.5689,2025-01-21T1200,17,41,0.6,26,8,113,87,41,
深圳市,龙岗,114.2283,22.7244,2025-01-21T1200,28,44,0.5,23,8,124,76,44,
深圳市,南澳,114.494,22.5422,2025-01-21T1200,12,26,0.5,7,9,131,126,41,
深圳市,葵涌,114.41,22.6342,2025-01-21T1200,16,27,0.5,13,,121,79,,
深圳市,梅沙,114.297,22.5978,2025-01-21T1200,17,36,0.5,14,9,139,117,44,
深圳市,观澜,114.0678,22.738,2025-01-21T1200,24,47,0.7,20,6,126,48,47,
深圳市,莲花,114.0731,22.559,2025-01-21T1200,17,31,0.4,12,4,126,84,40,
深圳市,民治,114.0261,22.6198,2025-01-21T1200,24,42,0.6,36,7,101,76,42,
深圳市,横岗,114.1871,22.6451,2025-01-21T1200,25,39,0.6,33,8,104,86,39,
深圳市,坪山,114.3551,22.7151,2025-01-21T1200,19,32,0.6,15,6,131,65,41,
深圳市,西乡,113.8953,22.5861,2025-01-21T1200,22,47,0.5,35,8,108,78,47,
沈阳市,森林路,123.6836,41.9339,2025-01-21T1200,,,,,,,,,
沈阳市,浑南东路,123.505,41.7406,2025-01-21T1200,32,57,0.8,25,11,55,20,54,颗粒物(PM10)
沈阳市,新秀街,123.4231,41.6989,2025-01-21T1200,27,41,0.7,18,17,52,20,41,
沈阳市,东陵路,123.5903,41.8411,2025-01-21T1200,22,33,0.7,26,10,55,18,33,
沈阳市,陵东街,123.4264,41.8467,2025-01-21T1200,21,42,0.7,16,10,60,22,42,
沈阳市,文化路,123.4114,41.7653,2025-01-21T1200,21,37,0.5,24,16,62,32,37,
沈阳市,小河沿,123.4678,41.7867,2025-01-21T1200,24,42,0.8,23,12,58,27,42,
沈阳市,太原街,123.4017,41.7972,2025-01-21T1200,34,,0.6,21,11,60,27,49,
沈阳市,京沈街,123.3783,41.9228,2025-01-21T1200,14,26,0.7,10,11,62,29,26,
沈阳市,沈辽西路,123.2444,41.7347,2025-01-21T1200,25,36,0.7,23,13,59,26,36,
沈阳市,裕农路,123.5953,41.9086,2025-01-21T1200,30,,0.6,23,9,57,19,43,
十堰市,武当山,111.0419,32.395,2025-01-21T1200,41,56,0.9,16,14,149,122,58,细颗粒物(PM2.5)
十堰市,滨河新村,110.78,32.6494,2025-01-21T1200,70,78,0.8,33,8,61,35,94,细颗粒物(PM2.5)
十堰市,刘家沟,110.7258,32.6389,2025-01-21T1200,81,114,0.9,36,10,61,41,108,细颗粒物(PM2.5)
十堰市,铁二处,110.8839,32.5714,2025-01-21T1200,100,111,1.0,48,9,55,24,132,细颗粒物(PM2.5)
十堰市,郧阳区金沙路,110.8054,32.8401,2025-01-21T1200,45,52,0.8,30,4,60,56,63,细颗粒物(PM2.5)
石河子市,艾青诗歌馆,86.0497,44.2967,2025-01-21T1200,85,117,1.4,40,9,48,52,113,细颗粒物(PM2.5)
石河子市,南区管委会,86.047,44.2331,2025-01-21T1200,81,138,1.2,28,7,80,75,108,细颗粒物(PM2.5)
石河子市,世纪广场,86.0791,44.3017,2025-01-21T1200,90,146,1.8,56,9,40,38,119,细颗粒物(PM2.5)
石家庄市,职工医院,114.4422,38.0444,2025-01-21T1200,63,103,1.0,44,9,38,12,85,细颗粒物(PM2.5)
石家庄市,高新区,114.6063,38.0266,2025-01-21T1200,71,145,1.2,61,9,37,14,98,颗粒物(PM10)
石家庄市,西北水源,114.4898,38.1328,2025-01-21T1200,73,94,1.0,39,9,41,11,98,细颗粒物(PM2.5)
石家庄市,西南高教,114.4586,38.0058,2025-01-21T1200,90,127,0.8,49,9,43,15,119,细颗粒物(PM2.5)
石家庄市,世纪公园,114.5331,38.0178,2025-01-21T1200,83,136,,51,12,,10,110,细颗粒物(PM2.5)
石家庄市,人民会堂,114.509,38.0457,2025-01-21T1200,65,107,1.0,45,9,38,14,88,细颗粒物(PM2.5)
石家庄市,封龙山,114.3524,37.8911,2025-01-21T1200,40,98,1.0,42,17,64,77,74,颗粒物(PM10)
石家庄市,22中南校区,114.5481,38.0378,2025-01-21T1200,53,131,1.1,51,11,39,15,91,颗粒物(PM10)
石家庄市,鹿泉一中,114.289,38.0906,2025-01-21T1200,69,105,0.8,42,9,57,23,93,细颗粒物(PM2.5)
石家庄市,藁城区实验学校,114.8506765,38.0322033,2025-01-21T1200,77,153,1.1,57,10,,5,103,细颗粒物(PM2.5)
石家庄市,井陉矿区区委大楼,114.0504658,38.0591645,2025-01-21T1200,77,143,0.8,57,15,46,14,103,细颗粒物(PM2.5)
石家庄市,栾城区星河路,114.6549,37.9020,2025-01-21T1200,98,153,1.3,52,34,42,16,129,细颗粒物(PM2.5)
石嘴山市,沙湖旅游区,106.3394,38.817,2025-01-21T1200,,,,,,,,,
石嘴山市,大武口朝阳西街,106.3668,39.0145,2025-01-21T1200,69,164,2.8,47,156,28,17,107,颗粒物(PM10)
石嘴山市,惠农南大街,106.7704,39.2282,2025-01-21T1200,79,219,5.3,72,85,17,10,135,颗粒物(PM10)
石嘴山市,红果子镇惠新街,106.7099,39.1325,2025-01-21T1200,60,127,2.3,50,44,16,8,89,颗粒物(PM10)
石嘴山市,妇女儿童医院,106.3495,38.9836,2025-01-21T1200,70,116,3.1,53,162,28,14,94,细颗粒物(PM2.5)
石嘴山市,石大公路,106.7492,39.2069,2025-01-21T1200,104,158,4.1,64,50,,18,137,细颗粒物(PM2.5)
双鸭山市,双合村,131.1511,46.6937,2025-01-21T1200,146,155,1.0,,,46,19,195,细颗粒物(PM2.5)
双鸭山市,南小市,131.1652,46.6191,2025-01-21T1200,183,224,1.4,55,37,29,24,233,细颗粒物(PM2.5)
双鸭山市,环保局,131.1524,46.6554,2025-01-21T1200,123,141,1.0,40,16,35,14,162,细颗粒物(PM2.5)
双鸭山市,苗圃,131.12,46.5656,2025-01-21T1200,174,,2.3,62,56,58,61,224,细颗粒物(PM2.5)
朔州市,平朔,112.4397,39.3522,2025-01-21T1200,70,190,1.4,63,56,20,9,120,颗粒物(PM10)
朔州市,朔唯,112.4575,39.3617,2025-01-21T1200,62,181,0.9,68,67,22,12,116,颗粒物(PM10)
朔州市,区政府,112.4258,39.3197,2025-01-21T1200,72,148,1.3,54,59,32,21,99,颗粒物(PM10)
朔州市,市环保局,112.4072,39.3278,2025-01-21T1200,70,141,1.2,49,52,34,20,96,颗粒物(PM10)
朔州市,市二中,112.4272,39.3681,2025-01-21T1200,66,170,1.4,69,59,18,8,110,颗粒物(PM10)
朔州市,一水厂,112.2931,39.53,2025-01-21T1200,53,112,0.8,52,34,34,15,81,颗粒物(PM10)
四平市,一商场,124.4002,43.1713,2025-01-21T1200,36,,0.2,13,8,62,39,52,细颗粒物(PM2.5)
四平市,境园,124.388,43.193,2025-01-21T1200,18,48,0.3,10,7,65,31,48,
四平市,植物园,124.4036,43.1411,2025-01-21T1200,57,69,0.4,12,8,63,28,78,细颗粒物(PM2.5)
四平市,世纪城,124.3419,43.1666,2025-01-21T1200,31,33,0.2,7,6,67,36,45,
松原市,江南,124.8006,45.1214,2025-01-21T1200,173,,1.1,43,9,55,35,223,细颗粒物(PM2.5)
松原市,江北,124.7965,45.1722,2025-01-21T1200,172,,1.2,29,5,62,40,222,细颗粒物(PM2.5)
苏州市,上方山,120.561,31.2472,2025-01-21T1200,,,,,,,,,
苏州市,彩香,120.591,31.3019,2025-01-21T1200,156,182,1.1,34,19,124,53,206,细颗粒物(PM2.5)
苏州市,轧钢厂,120.596,31.3264,2025-01-21T1200,147,196,1.3,38,18,122,41,196,细颗粒物(PM2.5)
苏州市,吴中区,120.613,31.2703,2025-01-21T1200,144,185,1.2,39,20,120,38,192,细颗粒物(PM2.5)
苏州市,苏州新区,120.543,31.2994,2025-01-21T1200,149,204,1.2,49,17,123,57,199,细颗粒物(PM2.5)
苏州市,苏州工业园区,120.669,31.3097,2025-01-21T1200,146,179,1.2,38,14,96,35,195,细颗粒物(PM2.5)
苏州市,相城区,120.641,31.3708,2025-01-21T1200,132,183,1.2,48,14,111,39,175,细颗粒物(PM2.5)
苏州市,方洲路,120.743,31.3188,2025-01-21T1200,133,164,1.2,43,12,119,51,176,细颗粒物(PM2.5)
苏州市,木渎中学,120.5031,31.2774,2025-01-21T1200,137,174,1.2,64,18,116,48,182,细颗粒物(PM2.5)
苏州市,越秀幼儿园,120.624,31.1733,2025-01-21T1200,,,,,,,40,,
苏州市,高铁新城,120.6505,31.416,2025-01-21T1200,145,196,1.3,44,15,117,36,193,细颗粒物(PM2.5)
宿迁市,宿迁学院,118.293,33.9528,2025-01-21T1200,163,179,1.4,47,11,72,24,213,细颗粒物(PM2.5)
宿迁市,宿迁中学,118.2442,33.9592,2025-01-21T1200,135,170,1.2,45,12,79,55,179,细颗粒物(PM2.5)
宿迁市,市供电局,118.283,33.965,2025-01-21T1200,152,171,1.5,52,,74,47,202,细颗粒物(PM2.5)
宿迁市,宿豫区政府,118.3225,33.9447,2025-01-21T1200,156,186,1.2,42,13,70,25,206,细颗粒物(PM2.5)
宿州市,远航博物馆,116.9509,33.666,2025-01-21T1200,135,174,0.9,51,11,63,31,179,细颗粒物(PM2.5)
宿州市,社会福利中心,116.9708,33.591,2025-01-21T1200,97,135,0.9,43,16,70,30,128,细颗粒物(PM2.5)
宿州市,宿州学院,116.9884,33.6305,2025-01-21T1200,138,186,1.1,51,17,79,29,183,细颗粒物(PM2.5)
宿州市,皖北煤电集团,116.9648,33.6252,2025-01-21T1200,134,173,1.2,51,15,88,32,178,细颗粒物(PM2.5)
绥化市,人和东街,126.9785,46.6365,2025-01-21T1200,126,162,1.3,64,9,39,26,166,细颗粒物(PM2.5)
绥化市,党政办公中心,126.964,46.6528,2025-01-21T1200,127,166,1.2,54,8,40,24,168,细颗粒物(PM2.5)
随州市,市委党校,113.3583,31.7275,2025-01-21T1200,118,159,1.2,48,23,94,24,155,细颗粒物(PM2.5)
随州市,市林业局,113.3833,31.6908,2025-01-21T1200,118,144,1.6,42,31,90,30,155,细颗粒物(PM2.5)
随州市,市立交桥水厂,113.3983,31.7308,2025-01-21T1200,101,135,1.5,34,20,106,43,133,细颗粒物(PM2.5)
遂宁市,石溪浩,105.5453,30.5678,2025-01-21T1200,77,122,0.9,32,3,20,7,103,细颗粒物(PM2.5)
遂宁市,市监测站,105.5582,30.5232,2025-01-21T1200,81,103,0.6,32,6,33,10,108,细颗粒物(PM2.5)
遂宁市,行政中心,105.5861,30.5366,2025-01-21T1200,73,101,0.6,29,8,30,11,98,细颗粒物(PM2.5)
遂宁市,美宁食品公司,105.5918,30.4728,2025-01-21T1200,77,115,0.8,39,8,17,8,103,细颗粒物(PM2.5)
塔城地区,东门外小游园,82.9994,46.7432,2025-01-21T1200,26,51,0.6,25,3,44,39,51,颗粒物(PM10)
台州市,黄岩环保大楼,121.273,28.6459,2025-01-21T1200,109,137,1.0,36,7,131,85,143,细颗粒物(PM2.5)
台州市,台州环保大楼,121.419,28.6542,2025-01-21T1200,109,146,0.7,40,10,130,61,143,细颗粒物(PM2.5)
台州市,路桥田洋王,121.377,28.5773,2025-01-21T1200,123,145,0.9,31,8,139,69,162,细颗粒物(PM2.5)
台州市,台州科技职业学院,121.2568,28.6681,2025-01-21T1200,97,151,0.7,22,10,137,72,128,细颗粒物(PM2.5)
太原市,尖草坪,112.522,37.8873,2025-01-21T1200,31,57,0.6,31,29,47,20,54,颗粒物(PM10)
太原市,上兰,112.434,38.0108,2025-01-21T1200,24,37,0.4,20,41,54,43,37,
太原市,晋源,112.469,37.7124,2025-01-21T1200,31,93,1.2,45,40,42,12,72,颗粒物(PM10)
太原市,小店,112.5583,37.7394,2025-01-21T1200,43,80,2.1,60,36,37,10,65,颗粒物(PM10)
太原市,桃园,112.5369,37.8692,2025-01-21T1200,40,90,1.7,57,47,30,16,70,颗粒物(PM10)
太原市,坞城,112.57,37.8195,2025-01-21T1200,36,62,1.8,47,32,42,19,56,颗粒物(PM10)
太原市,南寨,112.549,37.9854,2025-01-21T1200,33,58,0.6,40,17,45,17,54,颗粒物(PM10)
太原市,金胜,112.4719,37.7831,2025-01-21T1200,32,60,0.9,40,41,48,28,55,颗粒物(PM10)
太原市,育英中学,112.5608,37.8807,2025-01-21T1200,39,72,,,34,50,27,,
泰安市,监测站,117.1437,36.1937,2025-01-21T1200,115,163,1.4,34,27,82,27,150,细颗粒物(PM2.5)
泰安市,人口学校,117.0885,36.2017,2025-01-21T1200,109,171,1.5,49,24,74,38,143,细颗粒物(PM2.5)
泰安市,电力学校,117.1089,36.1758,2025-01-21T1200,120,166,1.6,49,27,73,18,158,细颗粒物(PM2.5)
泰安市,国网新校,117.1812,36.2275,2025-01-21T1200,95,134,1.5,46,35,89,53,125,细颗粒物(PM2.5)
泰安市,交通技校,117.0313,36.2018,2025-01-21T1200,113,154,1.5,52,22,68,30,148,细颗粒物(PM2.5)
泰安市,山东第一医科大学,117.0829,36.13,2025-01-21T1200,123,180,2.1,56,33,69,26,162,细颗粒物(PM2.5)
泰州市,公园路,119.905,32.4878,2025-01-21T1200,136,161,1.4,56,20,90,40,180,细颗粒物(PM2.5)
泰州市,莲花,119.9189,32.4625,2025-01-21T1200,146,178,1.4,56,18,91,36,195,细颗粒物(PM2.5)
泰州市,留学生创业园,119.888,32.4639,2025-01-21T1200,151,190,,55,16,98,46,201,细颗粒物(PM2.5)
泰州市,王营,119.8767,32.3289,2025-01-21T1200,139,161,1.3,56,12,94,26,185,细颗粒物(PM2.5)
泰州市,姜堰区政府广场,120.1259,32.5099,2025-01-21T1200,119,164,1.3,50,22,106,51,156,细颗粒物(PM2.5)
泰州市,周山河街区,119.9192,32.4322,2025-01-21T1200,138,198,1.3,55,18,86,35,183,细颗粒物(PM2.5)
唐山市,雷达站,118.131,39.6363,2025-01-21T1200,58,120,,48,,,10,,
唐山市,物资局,118.1725,39.6334,2025-01-21T1200,71,123,2.6,52,28,41,16,95,细颗粒物(PM2.5)
唐山市,十二中,118.1705,39.6506,2025-01-21T1200,57,104,2.1,52,30,50,15,78,细颗粒物(PM2.5)
唐山市,小山,118.1869,39.622,2025-01-21T1200,60,122,2.6,55,28,46,20,86,颗粒物(PM10)
唐山市,冀东油田职工医院,118.4359,39.2762,2025-01-21T1200,3,37,0.3,18,8,62,22,37,
唐山市,正泰大街热力站,118.09279,39.58089,2025-01-21T1200,55,96,1.6,38,19,52,21,75,细颗粒物(PM2.5)
唐山市,丰润区政府,118.1562,39.8322,2025-01-21T1200,15,20,0.4,14,7,75,40,24,
唐山市,金山小学,118.43673,39.73809,2025-01-21T1200,55,124,1.9,43,28,42,9,87,颗粒物(PM10)
唐山市,政府服务中心,118.24498,39.66941,2025-01-21T1200,58,102,1.9,,34,54,18,,
唐山市,消防缸窑路中队,118.2059,39.6585,2025-01-21T1200,57,105,1.9,43,38,58,21,78,"颗粒物(PM10),细颗粒物(PM2.5)"
唐山市,路南电大,118.1436,39.6202,2025-01-21T1200,70,133,2.5,54,25,45,20,94,细颗粒物(PM2.5)
天津市,勤俭道,117.1444,39.1661,2025-01-21T1200,63,86,1.2,40,15,33,11,85,细颗粒物(PM2.5)
天津市,前进道,117.202,39.0927,2025-01-21T1200,57,91,1.2,41,12,38,11,78,细颗粒物(PM2.5)
天津市,淮河道,117.1837,39.2133,2025-01-21T1200,54,92,1.3,36,17,42,13,74,细颗粒物(PM2.5)
天津市,跃进路,117.307,39.0877,2025-01-21T1200,,,,,,,,,
天津市,第四大街,117.707,39.0343,2025-01-21T1200,39,65,0.8,28,10,42,12,58,颗粒物(PM10)
天津市,永明路,117.457,38.8394,2025-01-21T1200,30,54,0.5,18,10,52,12,52,颗粒物(PM10)
天津市,汉北路,117.764,39.1587,2025-01-21T1200,56,95,0.9,30,14,40,15,77,细颗粒物(PM2.5)
天津市,团泊洼,117.157,38.9194,2025-01-21T1200,,,,,,,,,
天津市,河西一经路,117.7918,39.2474,2025-01-21T1200,45,90,1.1,28,16,,12,,
天津市,津沽路,117.3747,38.9846,2025-01-21T1200,57,,1.2,35,9,42,13,,
天津市,宾水西道,117.1589,39.0845,2025-01-21T1200,61,81,1.4,45,12,33,9,83,细颗粒物(PM2.5)
天津市,大理道,117.1941,39.1067,2025-01-21T1200,54,86,0.8,40,11,43,13,74,细颗粒物(PM2.5)
天津市,中山北路,117.2101,39.1699,2025-01-21T1200,49,83,1.1,44,12,38,15,68,细颗粒物(PM2.5)
天津市,西四道,117.3876,39.1488,2025-01-21T1200,45,81,1.0,30,15,47,12,66,颗粒物(PM10)
天津市,雍阳西道,117.0365,39.3828,2025-01-21T1200,57,94,1.4,,,48,15,,
天津市,辛老路,117.0296,39.0605,2025-01-21T1200,73,130,1.7,55,18,34,14,98,细颗粒物(PM2.5)
天津市,地纬路,116.9638,38.9375,2025-01-21T1200,92,130,1.5,58,20,28,8,122,细颗粒物(PM2.5)
天津市,北环路,117.4067,40.0583,2025-01-21T1200,18,31,0.9,21,11,72,41,31,
天津市,建设路,117.3045,39.7169,2025-01-21T1200,69,103,1.4,46,18,37,14,93,细颗粒物(PM2.5)
天津市,滨水东路,117.8199,39.3521,2025-01-21T1200,,,,,,,24,,
天津市,光华路,117.2437,39.1029,2025-01-21T1200,50,,1.0,30,11,39,7,69,细颗粒物(PM2.5)
天水市,麦积山,106.0055,34.343,2025-01-21T1200,,,,,,,,,
天水市,公园小学,105.7205,34.5786,2025-01-21T1200,44,63,1.7,47,20,28,14,62,细颗粒物(PM2.5)
天水市,麦积国土局,105.8945,34.5538,2025-01-21T1200,53,89,1.3,40,30,34,17,73,细颗粒物(PM2.5)
铁岭市,汇工街西,123.8139,42.3022,2025-01-21T1200,35,62,0.8,21,19,56,18,56,颗粒物(PM10)
铁岭市,水上乐园,123.8649,42.2923,2025-01-21T1200,31,52,0.6,23,20,59,29,51,颗粒物(PM10)
铁岭市,银州路东段,123.8486,42.2867,2025-01-21T1200,36,58,0.7,24,9,56,24,54,颗粒物(PM10)
铁岭市,金沙江路北,123.7153,42.2217,2025-01-21T1200,38,63,0.8,,9,60,23,,
通化市,光明,125.9358,41.7173,2025-01-21T1200,82,134,1.4,46,25,34,12,109,细颗粒物(PM2.5)
通化市,铁路,125.9446,41.7325,2025-01-21T1200,85,129,,60,23,22,9,113,细颗粒物(PM2.5)
通辽市,艺术职业学校,122.2532,43.6801,2025-01-21T1200,12,25,0.1,8,10,61,50,25,
通辽市,老干部活动中心,122.2584,43.6333,2025-01-21T1200,10,29,0.2,8,7,64,51,29,
通辽市,东方明珠社区,122.2922,43.6189,2025-01-21T1200,19,36,0.3,8,10,,54,,
铜川市,党校,109.0656,35.0994,2025-01-21T1200,,,,,,,,,
铜川市,王益区政府,109.0697,35.0697,2025-01-21T1200,55,79,1.4,67,12,42,26,75,细颗粒物(PM2.5)
铜川市,新区管委会,108.9344,34.9058,2025-01-21T1200,71,100,1.1,37,25,70,62,95,细颗粒物(PM2.5)
铜川市,旺旺集团,108.9543,34.8732,2025-01-21T1200,88,117,1.2,36,17,80,68,117,细颗粒物(PM2.5)
铜陵市,市第四中学,117.8177,30.9412,2025-01-21T1200,96,163,0.9,41,14,84,29,127,细颗粒物(PM2.5)
铜陵市,市公路局,117.8059,30.9273,2025-01-21T1200,68,89,0.9,41,16,88,26,92,细颗粒物(PM2.5)
铜陵市,市新民污水厂,117.7807,30.9413,2025-01-21T1200,88,147,1.2,94,19,43,12,117,细颗粒物(PM2.5)
铜陵市,市第九中学,117.7439,30.8792,2025-01-21T1200,110,159,1.1,96,27,33,12,144,细颗粒物(PM2.5)
铜陵市,车站新区,117.846,30.9413,2025-01-21T1200,88,122,0.9,42,11,85,30,117,细颗粒物(PM2.5)
铜陵市,市职教基地,117.8483,30.97,2025-01-21T1200,87,108,1.6,47,14,58,24,115,细颗粒物(PM2.5)
铜仁市,铜仁卫校,109.1839,27.7344,2025-01-21T1200,69,102,1.2,38,2,34,11,93,细颗粒物(PM2.5)
铜仁市,铜仁七中,109.1753,27.6944,2025-01-21T1200,74,74,1.0,33,4,49,16,99,细颗粒物(PM2.5)
吐鲁番市,市环保局,89.1904,42.9418,2025-01-21T1200,76,147,1.8,41,7,51,26,102,细颗粒物(PM2.5)
吐鲁番市,地区环保局,89.1673,42.9559,2025-01-21T1200,112,179,2.4,58,6,24,20,147,细颗粒物(PM2.5)
威海市,华夏技校,122.1214,37.4236,2025-01-21T1200,61,83,0.9,31,13,81,71,83,细颗粒物(PM2.5)
威海市,山大分校,122.0508,37.5236,2025-01-21T1200,56,76,1.0,32,10,84,74,77,细颗粒物(PM2.5)
威海市,市监测站,122.1067,37.5072,2025-01-21T1200,66,100,1.2,32,12,74,57,89,细颗粒物(PM2.5)
威海市,文登开发区,122.0693,37.2174,2025-01-21T1200,44,96,0.8,27,8,,46,,
威海市,临港区管委会,122.1379,37.3414,2025-01-21T1200,52,85,0.7,35,10,68,60,72,细颗粒物(PM2.5)
潍坊市,环保局,119.1437,36.7023,2025-01-21T1200,114,153,1.6,86,19,41,22,149,细颗粒物(PM2.5)
潍坊市,坊子邮政,119.1641,36.6523,2025-01-21T1200,117,161,,73,,53,22,153,细颗粒物(PM2.5)
潍坊市,潍坊七中,119.0587,36.721,2025-01-21T1200,124,175,1.6,68,,53,26,163,细颗粒物(PM2.5)
潍坊市,高新实验学校,119.1977,36.6872,2025-01-21T1200,106,158,1.3,62,21,63,24,139,细颗粒物(PM2.5)
潍坊市,潍坊学院,119.1755,36.7149,2025-01-21T1200,92,153,1.7,76,23,49,30,122,细颗粒物(PM2.5)
潍坊市,寒亭区实验一小,119.2041,36.7699,2025-01-21T1200,129,188,2.0,98,28,45,27,170,细颗粒物(PM2.5)
渭南市,农科所,109.5293,34.5101,2025-01-21T1200,,,,,,,,,
渭南市,体育馆,109.4636,34.493,2025-01-21T1200,164,219,2.2,70,24,28,13,214,细颗粒物(PM2.5)
渭南市,高新一小,109.4259,34.5023,2025-01-21T1200,151,190,1.9,59,13,35,14,201,细颗粒物(PM2.5)
渭南市,渭花路4号,109.5051,34.4921,2025-01-21T1200,138,195,2.0,73,16,36,23,183,细颗粒物(PM2.5)
温州市,瓯海,120.634,28.0089,2025-01-21T1200,93,123,0.7,37,13,110,49,123,细颗粒物(PM2.5)
温州市,南浦,120.6748,27.9939,2025-01-21T1200,97,124,0.8,36,13,118,62,128,细颗粒物(PM2.5)
温州市,龙湾,120.76,27.9747,2025-01-21T1200,87,117,0.8,37,10,117,48,115,细颗粒物(PM2.5)
温州市,市站,120.6709,28.0167,2025-01-21T1200,90,123,0.8,40,13,103,61,119,细颗粒物(PM2.5)
温州市,茶山,120.6985,27.9251,2025-01-21T1200,88,113,0.7,43,11,,69,117,细颗粒物(PM2.5)
文山壮族苗族自治州,州水务局,104.2533,23.3594,2025-01-21T1200,54,92,0.8,15,3,114,96,74,细颗粒物(PM2.5)
文山壮族苗族自治州,市便民服务中心,104.2319,23.3892,2025-01-21T1200,63,91,0.8,12,4,108,91,85,细颗粒物(PM2.5)
乌海市,市林业局,106.8174,39.6973,2025-01-21T1200,74,129,1.4,47,21,22,9,99,细颗粒物(PM2.5)
乌海市,中海勃湾学校,106.7907,39.6667,2025-01-21T1200,44,100,1.1,39,22,30,12,75,颗粒物(PM10)
乌海市,海北新区,106.813,39.7274,2025-01-21T1200,50,103,1.2,39,18,26,8,77,颗粒物(PM10)
乌海市,聚英学校,106.8288,39.6778,2025-01-21T1200,56,122,1.5,49,30,26,14,86,颗粒物(PM10)
乌兰察布市,集宁新区,113.1306,40.9923,2025-01-21T1200,15,29,0.6,27,8,53,37,29,
乌兰察布市,光明街小学,113.1076,41.0385,2025-01-21T1200,19,36,0.5,20,11,69,30,36,
乌兰察布市,北京八中,113.1376,40.9509,2025-01-21T1200,14,34,0.2,22,18,58,20,34,
