area,positionname,longitude,latitude,timepoint,pm2_5,pm10,co,no2,so2,o3,o3_8h,aqi,primarypollutant
阿坝藏族羌族自治州,州农科所,102.1879,31.914,2025-05-05T1100,14,34,0.6,3,10,74,49,34,
阿坝藏族羌族自治州,马师校,102.2502,31.8896,2025-05-05T1100,9,16,0.5,5,6,75,39,24,
阿坝藏族羌族自治州,马尔康中学西区,102.2165,31.9024,2025-05-05T1100,13,30,0.2,2,5,82,49,30,
阿克苏地区,电视台,80.292,41.1694,2025-05-05T1100,127,448,0.6,18,8,45,48,335,颗粒物(PM10)
阿克苏地区,艺术中心,80.2613,41.1551,2025-05-05T1100,169,490,0.5,23,3,35,42,388,颗粒物(PM10)
阿拉善盟,西城区西花园,105.6467,38.8363,2025-05-05T1100,178,678,0.6,7,5,132,105,500,颗粒物(PM10)
阿拉善盟,蒙二幼,105.6985,38.8411,2025-05-05T1100,124,665,0.4,8,8,111,90,500,颗粒物(PM10)
阿拉善盟,环保局新楼,105.724,38.8516,2025-05-05T1100,129,578,0.4,3,7,116,95,478,颗粒物(PM10)
阿勒泰地区,市站,88.1264,47.8517,2025-05-05T1100,8,26,0.2,12,3,67,67,26,
阿里地区,阿里监测站,80.1161,32.5,2025-05-05T1100,12,15,0.4,6,6,103,110,33,
阿里地区,阿里藏医院,80.0903,32.5028,2025-05-05T1100,15,34,0.4,14,9,97,115,34,
安康市,香溪洞,109.0318,32.6537,2025-05-05T1100,12,34,0.7,5,7,104,94,34,
安康市,汉滨区检察院,109.0072,32.6975,2025-05-05T1100,16,33,0.3,6,8,102,66,33,
安康市,市邮政管理局,109.0325,32.6913,2025-05-05T1100,12,32,0.6,4,6,104,71,33,
安庆市,环科院,117.0809,30.5177,2025-05-05T1100,26,,0.8,13,1,83,86,38,
安庆市,马山宾馆,117.0331,30.5119,2025-05-05T1100,26,,0.7,6,4,94,86,38,
安庆市,安庆大学,116.9896,30.6145,2025-05-05T1100,23,24,0.5,9,3,114,90,36,
安庆市,市人大,117.0598,30.5351,2025-05-05T1100,26,,0.5,11,7,100,91,38,
安顺市,凤凰山,105.9408,26.2431,2025-05-05T1100,22,30,0.5,6,5,97,73,32,
安顺市,金钟山,105.9439,26.2564,2025-05-05T1100,24,33,0.3,6,4,96,72,35,
安顺市,娄家坡,105.8983,26.2481,2025-05-05T1100,28,,0.7,7,7,95,74,40,
安阳市,红庙街,114.3551,36.1017,2025-05-05T1100,39,234,0.5,4,6,93,99,142,颗粒物(PM10)
安阳市,银杏小区,114.361,36.0681,2025-05-05T1100,33,106,0.6,12,6,94,107,78,颗粒物(PM10)
安阳市,信访局,114.3922,36.0878,2025-05-05T1100,41,126,0.6,4,6,101,107,88,颗粒物(PM10)
安阳市,左辅环卫站,114.4705,36.0637,2025-05-05T1100,30,91,0.8,13,6,103,106,71,颗粒物(PM10)
安阳市,安钢职工学校,114.2917,36.0949,2025-05-05T1100,35,149,0.7,12,11,89,93,100,颗粒物(PM10)
鞍山市,深沟寺,123.044,41.1196,2025-05-05T1100,9,22,0.5,7,6,103,80,33,
鞍山市,太阳城,123.011,41.0931,2025-05-05T1100,9,16,0.5,7,6,91,70,29,
鞍山市,太平,123.0485,41.1442,2025-05-05T1100,9,28,0.6,9,9,91,70,29,
鞍山市,铁西三道街,122.9642,41.0971,2025-05-05T1100,10,35,0.6,16,5,93,66,35,
鞍山市,明达新区,123.022,41.0821,2025-05-05T1100,7,19,0.2,5,6,102,76,32,
鞍山市,兴盛南路290号,122.9446,41.0826,2025-05-05T1100,12,32,0.6,15,7,94,64,32,
巴彦淖尔市,附二中,107.4212,40.761,2025-05-05T1100,22,207,0.6,4,7,111,94,129,颗粒物(PM10)
巴彦淖尔市,市环保大楼,107.37,40.7372,2025-05-05T1100,45,204,0.4,5,4,115,101,127,颗粒物(PM10)
巴音郭楞蒙古自治州,孔雀公园,86.1472,41.7538,2025-05-05T1100,145,566,0.3,13,7,50,21,466,颗粒物(PM10)
巴音郭楞蒙古自治州,棉纺厂,86.1972,41.7166,2025-05-05T1100,173,871,0.3,14,4,56,46,500,颗粒物(PM10)
巴音郭楞蒙古自治州,经济开发区,86.2357,41.7173,2025-05-05T1100,139,621,0.3,8,8,64,48,500,颗粒物(PM10)
巴中市,苏山坪,106.7677,31.8794,2025-05-05T1100,8,16,0.1,7,3,105,100,33,
巴中市,市五中,106.7768,31.8526,2025-05-05T1100,6,21,0.4,7,6,102,73,32,
巴中市,圣泉水务公司,106.7418,31.8654,2025-05-05T1100,6,17,0.3,5,7,102,81,32,
巴中市,市中心医院,106.7616,31.8344,2025-05-05T1100,14,18,0.3,6,4,100,76,32,
白城市,洮北区环保局,122.7911,45.6077,2025-05-05T1100,3,16,0.4,5,1,85,64,27,
白城市,市环保局,122.8738,45.5725,2025-05-05T1100,8,14,0.3,1,3,87,75,28,
白山市,喜丰,126.4219,41.9171,2025-05-05T1100,15,53,0.6,28,9,53,19,52,颗粒物(PM10)
白山市,环保局,126.4077,41.9419,2025-05-05T1100,16,37,0.4,21,9,55,24,37,
白银市,第三小学,104.1724,36.5446,2025-05-05T1100,70,,0.8,12,56,58,60,94,细颗粒物(PM2.5)
白银市,动力公司,104.1465,36.5482,2025-05-05T1100,63,75,0.9,13,90,65,52,85,细颗粒物(PM2.5)
百色市,市监测站,106.6103,23.9011,2025-05-05T1100,25,52,0.6,13,10,97,49,51,颗粒物(PM10)
百色市,市中心血站,106.6538,23.8859,2025-05-05T1100,37,68,0.8,11,14,102,52,59,颗粒物(PM10)
百色市,祈福高中,106.6085,23.8798,2025-05-05T1100,25,51,0.9,12,12,92,36,51,颗粒物(PM10)
蚌埠市,工人疗养院,117.396,32.939,2025-05-05T1100,33,53,0.8,14,4,91,86,52,颗粒物(PM10)
蚌埠市,百货大楼,117.3605,32.9427,2025-05-05T1100,36,46,0.6,15,6,90,88,52,细颗粒物(PM2.5)
蚌埠市,蚌埠学院,117.4185,32.8911,2025-05-05T1100,35,,0.7,12,4,83,81,50,
蚌埠市,淮上区政府,117.3533,32.9673,2025-05-05T1100,36,36,0.5,13,5,94,87,52,细颗粒物(PM2.5)
蚌埠市,高新区,117.3145,32.8977,2025-05-05T1100,42,48,0.6,19,6,91,88,59,细颗粒物(PM2.5)
蚌埠市,蚌埠田家炳中学,117.3092,32.9314,2025-05-05T1100,30,54,0.5,16,5,100,98,52,颗粒物(PM10)
包头市,市环境监测站,109.8756,40.6532,2025-05-05T1100,20,41,0.4,14,7,86,89,41,
包头市,包头八中,109.9991,40.5842,2025-05-05T1100,22,47,0.7,19,10,86,90,47,
包头市,青山宾馆,109.8538,40.6821,2025-05-05T1100,,,0.4,7,,92,94,,
包头市,惠龙物流,109.8642,40.6288,2025-05-05T1100,18,44,0.6,18,10,82,92,44,
包头市,东河鸿龙湾,110.0377,40.5546,2025-05-05T1100,15,37,0.5,9,7,93,90,37,
包头市,滨河大厦,109.9154,40.5685,2025-05-05T1100,12,45,0.5,12,11,84,86,45,
包头市,包头市委党校,109.9447,40.6261,2025-05-05T1100,23,51,0.5,10,7,89,92,51,颗粒物(PM10)
包头市,昆区政府,109.8331,40.6576,2025-05-05T1100,11,42,0.6,19,7,86,92,42,
宝鸡市,庙沟村,107.185,34.3063,2025-05-05T1100,29,100,0.4,1,7,77,80,75,颗粒物(PM10)
宝鸡市,竹园沟,107.0708,34.3017,2025-05-05T1100,38,130,0.3,4,8,68,64,90,颗粒物(PM10)
宝鸡市,三陆医院,107.1906,34.3672,2025-05-05T1100,26,75,0.3,8,5,82,59,63,颗粒物(PM10)
宝鸡市,监测站,107.1431,34.3547,2025-05-05T1100,22,,,8,4,68,55,,
宝鸡市,技工学校,107.1186,34.3739,2025-05-05T1100,21,88,0.4,5,6,84,84,69,颗粒物(PM10)
宝鸡市,陈仓区环保局家属楼,107.3906,34.3528,2025-05-05T1100,24,86,0.4,9,8,83,81,68,颗粒物(PM10)
宝鸡市,文理学院,107.2058,34.3497,2025-05-05T1100,35,69,0.3,7,6,81,65,60,颗粒物(PM10)
宝鸡市,三迪小学,107.2386,34.3622,2025-05-05T1100,27,72,0.4,7,6,80,67,61,颗粒物(PM10)
保定市,游泳馆,115.493,38.8632,2025-05-05T1100,56,76,0.4,24,9,77,70,77,细颗粒物(PM2.5)
保定市,华电二区,115.5213,38.8959,2025-05-05T1100,36,49,0.5,21,5,72,78,52,细颗粒物(PM2.5)
保定市,接待中心,115.4713,38.9108,2025-05-05T1100,50,64,0.6,24,3,56,66,69,细颗粒物(PM2.5)
保定市,地表水厂,115.4612,38.8416,2025-05-05T1100,37,52,0.5,18,5,88,61,53,细颗粒物(PM2.5)
保定市,满城区生态环境分局,115.31981,38.95208,2025-05-05T1100,34,46,0.4,11,4,99,80,49,
保定市,清苑区第二中学,115.47694,38.76408,2025-05-05T1100,29,75,0.6,8,10,92,65,63,颗粒物(PM10)
保定市,徐水物探局,115.62909,39.02311,2025-05-05T1100,51,76,0.5,23,3,62,53,70,细颗粒物(PM2.5)
保定市,双鹰农机,115.4202,38.8656,2025-05-05T1100,49,79,0.4,17,5,72,63,68,细颗粒物(PM2.5)
保定市,植保所站,115.5150,38.8590,2025-05-05T1100,36,59,0.6,19,1,73,74,55,颗粒物(PM10)
保山市,市环境监测站,99.1678,25.1081,2025-05-05T1100,30,34,0.5,12,4,88,47,43,
保山市,市环保局,99.1711,25.1328,2025-05-05T1100,7,33,0.5,,6,89,57,,
北海市,海滩公园,109.1436,21.4086,2025-05-05T1100,10,33,0.7,6,5,74,61,33,
北海市,新市环保局,109.0981,21.4661,2025-05-05T1100,12,23,0.4,,3,63,58,,
北海市,北海工业园,109.1778,21.5233,2025-05-05T1100,17,44,0.4,6,8,74,36,44,
北海市,龙潭自来水厂,109.1911,21.4415,2025-05-05T1100,24,26,0.4,5,7,83,52,35,
北京市,万寿西宫,116.3621,39.8784,2025-05-05T1100,33,41,0.7,9,6,112,79,48,
北京市,东四,116.4174,39.9289,2025-05-05T1100,34,44,0.6,14,3,107,84,49,
北京市,天坛,116.4072,39.8863,2025-05-05T1100,32,39,0.7,12,2,101,66,46,
北京市,农展馆,116.462,39.9365,2025-05-05T1100,30,39,1.0,12,2,104,72,43,
北京市,官园,116.3392,39.9295,2025-05-05T1100,33,44,0.5,17,5,91,77,48,
北京市,海淀万柳,116.2878,39.9611,2025-05-05T1100,33,44,0.4,15,5,76,58,48,
北京市,顺义新城,116.6636,40.135,2025-05-05T1100,47,55,0.6,11,7,98,83,65,细颗粒物(PM2.5)
北京市,怀柔镇,116.6275,40.3275,2025-05-05T1100,34,53,0.5,16,2,77,88,52,颗粒物(PM10)
北京市,昌平镇,116.2296,40.217,2025-05-05T1100,37,43,0.3,9,2,81,71,53,细颗粒物(PM2.5)
北京市,奥体中心,116.3966,39.9821,2025-05-05T1100,35,43,0.5,19,3,95,74,50,
北京市,延庆夏都,115.9718,40.4529,2025-05-05T1100,18,26,0.4,13,3,67,76,26,
北京市,密云新城,116.8336,40.4095,2025-05-05T1100,38,55,0.5,12,2,89,71,54,细颗粒物(PM2.5)
北京市,丰台云岗,116.1541,39.8204,2025-05-05T1100,25,40,0.4,11,3,104,59,40,
北京市,通州东关,116.6804,39.9081,2025-05-05T1100,48,58,0.9,7,6,109,90,67,细颗粒物(PM2.5)
北京市,房山燕山,115.9577,39.7603,2025-05-05T1100,35,52,0.3,17,1,98,70,51,颗粒物(PM10)
北京市,大兴旧宫,116.4672,39.7733,2025-05-05T1100,45,60,0.6,16,3,97,69,63,细颗粒物(PM2.5)
北京市,延庆石河营,115.986,40.4563,2025-05-05T1100,18,23,0.4,7,2,66,61,26,
北京市,怀柔新城,116.6151,40.3053,2025-05-05T1100,48,53,0.6,14,3,74,84,67,细颗粒物(PM2.5)
北京市,丰台小屯,116.2545,39.8768,2025-05-05T1100,29,43,0.4,13,2,95,59,43,
北京市,密云镇,116.84,40.3844,2025-05-05T1100,40,51,0.6,11,6,89,74,57,细颗粒物(PM2.5)
北京市,八角北路9号,116.1942,39.9158,2025-05-05T1100,31,45,0.3,15,3,94,64,45,
北京市,洳河巡河路,117.0790,40.1518,2025-05-05T1100,43,50,0.5,7,3,105,94,60,细颗粒物(PM2.5)
本溪市,大峪,123.8275,41.3064,2025-05-05T1100,24,50,0.7,21,8,72,28,50,
本溪市,溪湖,123.7567,41.3325,2025-05-05T1100,12,38,0.7,17,5,87,27,38,
本溪市,彩屯,123.7169,41.3094,2025-05-05T1100,28,56,1.5,,,81,21,,
本溪市,东明,123.7669,41.2864,2025-05-05T1100,15,30,0.6,11,8,101,42,32,
本溪市,新立屯,123.7992,41.2664,2025-05-05T1100,9,27,0.4,13,6,103,63,33,
本溪市,威宁,123.8142,41.3472,2025-05-05T1100,34,74,0.8,28,8,55,31,62,颗粒物(PM10)
毕节市,八中,105.2864,27.3125,2025-05-05T1100,6,11,0.6,7,6,75,112,24,
毕节市,师专,105.31,27.2944,2025-05-05T1100,3,55,0.6,,,78,114,,
毕节市,工业大道,105.3688,27.3598,2025-05-05T1100,6,10,0.6,10,6,82,103,26,
滨州市,第二水厂,118.0018,37.3617,2025-05-05T1100,27,46,0.7,9,10,130,106,46,
滨州市,北中新校,117.9776,37.393,2025-05-05T1100,24,48,0.2,12,9,140,108,48,
滨州市,中海酒店,117.9378,37.3956,2025-05-05T1100,39,,0.7,10,11,139,107,55,细颗粒物(PM2.5)
滨州市,开发区一中,117.9378,37.3553,2025-05-05T1100,22,46,0.6,16,9,133,106,46,
滨州市,金海六路,118.0917,37.694,2025-05-05T1100,31,37,0.2,10,11,136,98,45,
滨州市,滨州市西街道办事处,117.9956,37.3753,2025-05-05T1100,29,34,0.3,10,8,147,119,46,
亳州市,污水处理厂,115.8072,33.8399,2025-05-05T1100,25,54,0.6,11,3,140,100,52,颗粒物(PM10)
亳州市,三国揽胜宫,115.7789,33.8518,2025-05-05T1100,25,54,0.6,8,6,142,110,52,颗粒物(PM10)
亳州市,亳州学院,115.7633,33.8034,2025-05-05T1100,27,49,0.8,11,4,137,114,49,
博尔塔拉蒙古自治州,市党校,82.0485,44.8556,2025-05-05T1100,3,26,0.7,3,5,50,52,26,
博尔塔拉蒙古自治州,市环保局,82.0806,44.8969,2025-05-05T1100,11,48,0.7,21,2,53,38,48,
沧州市,沧县城建局,116.8842,38.2991,2025-05-05T1100,24,24,0.4,12,3,108,102,35,
沧州市,电视转播站,116.8584,38.3254,2025-05-05T1100,34,36,0.2,14,3,106,91,49,
沧州市,市环保局,116.8709,38.3228,2025-05-05T1100,26,47,0.3,12,3,111,104,47,
沧州市,河北水利电力学院,116.8136,38.3004,2025-05-05T1100,23,31,0.3,9,4,118,105,37,
昌都市,昌都监测站,97.1806,31.1273,2025-05-05T1100,13,28,0.2,4,4,95,77,30,
昌都市,昌都会议中心,97.1714,31.1406,2025-05-05T1100,14,27,0.2,3,3,102,81,32,
昌吉回族自治州,天山天池,88.1236,43.8886,2025-05-05T1100,3,39,0.5,4,6,72,59,39,
昌吉回族自治州,新区政务中心,87.2717,44.0297,2025-05-05T1100,7,38,0.6,28,7,53,33,38,
昌吉回族自治州,亚心广场,87.3095,44.0142,2025-05-05T1100,12,48,0.5,34,9,48,30,48,
长春市,食品厂,125.3325,43.9166,2025-05-05T1100,13,38,0.3,16,5,79,58,38,
长春市,客车厂,125.2863,43.9027,2025-05-05T1100,12,39,0.3,13,5,81,58,39,
长春市,邮电学院,125.2841,43.8463,2025-05-05T1100,14,23,0.5,9,6,87,64,28,
长春市,劳动公园,125.3716,43.8772,2025-05-05T1100,16,35,0.3,11,7,82,63,35,
长春市,园林处,125.3297,43.8805,2025-05-05T1100,15,42,0.3,12,7,80,60,42,
长春市,净月潭,125.4605,43.79,2025-05-05T1100,20,39,0.3,10,7,81,59,39,
长春市,经开区环卫处,125.3863,43.8447,2025-05-05T1100,10,37,0.4,10,6,81,63,37,
长春市,高新区管委会,125.245,43.7783,2025-05-05T1100,33,40,0.3,12,7,87,64,48,
长春市,岱山公园,125.1761,43.8325,2025-05-05T1100,20,34,0.3,8,5,83,59,34,
长沙市,经开区环保局,113.0833,28.2325,2025-05-05T1100,19,27,0.6,12,4,98,106,31,
长沙市,高开区环保局,112.8872,28.2189,2025-05-05T1100,18,27,0.6,4,5,101,110,32,
长沙市,马坡岭,113.0792,28.2053,2025-05-05T1100,14,25,0.4,12,3,105,108,33,
长沙市,湖南师范大学,112.9394,28.19,2025-05-05T1100,10,32,0.5,6,3,107,110,34,
长沙市,雨花区环保局,113.0178,28.1322,2025-05-05T1100,20,,,,4,104,113,,
长沙市,伍家岭,112.9792,28.2597,2025-05-05T1100,15,21,0.5,8,2,102,105,32,
长沙市,火车新站,113.0014,28.1944,2025-05-05T1100,12,21,0.5,13,6,100,104,32,
长沙市,天心区环保局,112.9844,28.1178,2025-05-05T1100,13,25,0.8,9,3,109,112,35,
长沙市,湖南中医药大学,112.8908,28.1308,2025-05-05T1100,23,,0.5,13,2,88,106,33,
长沙市,沙坪,112.9581,28.3611,2025-05-05T1100,12,35,0.6,7,5,91,97,35,
长治市,清华站,113.1147,36.1547,2025-05-05T1100,68,150,0.5,10,6,94,70,100,颗粒物(PM10)
长治市,审计局,113.0886,36.2125,2025-05-05T1100,58,144,0.3,15,8,93,82,97,颗粒物(PM10)
长治市,长治八中,113.0844,36.1856,2025-05-05T1100,52,189,0.4,13,8,90,78,120,颗粒物(PM10)
长治市,德盛苑,113.1569,36.1911,2025-05-05T1100,75,199,0.3,11,5,90,78,125,颗粒物(PM10)
长治市,向阳小学,113.06,36.0464,2025-05-05T1100,,,0.2,10,11,97,79,,
长治市,屯留一中,112.8792,36.3144,2025-05-05T1100,32,131,0.1,6,8,87,71,91,颗粒物(PM10)
长治市,英华南巷50号,113.1131,36.19948,2025-05-05T1100,66,186,0.4,9,5,93,78,118,颗粒物(PM10)
长治市,学府街1号,113.2367,36.3344,2025-05-05T1100,48,138,0.4,14,5,88,64,94,颗粒物(PM10)
常德市,市二中,111.6975,28.9703,2025-05-05T1100,32,52,0.9,10,8,104,91,51,颗粒物(PM10)
常德市,武陵区永安,111.7153,29.0289,2025-05-05T1100,26,50,0.7,8,9,102,89,50,
常德市,鼎城区玉霞,111.6892,28.9881,2025-05-05T1100,29,48,0.7,6,6,106,93,48,
常德市,武陵区长庚,111.6625,29.0531,2025-05-05T1100,29,49,0.9,8,11,105,84,49,
常州市,市监测站,119.9633,31.762,2025-05-05T1100,14,43,0.9,30,8,58,79,43,
常州市,武进监测站,119.9468,31.7069,2025-05-05T1100,7,44,0.9,28,12,72,81,44,
常州市,安家,119.9255,31.9087,2025-05-05T1100,17,62,0.4,33,9,42,67,56,颗粒物(PM10)
常州市,行政中心,119.9805,31.8174,2025-05-05T1100,9,64,0.6,29,16,58,74,57,颗粒物(PM10)
常州市,经开区,120.0522,31.7748,2025-05-05T1100,11,28,0.6,32,9,58,76,28,
常州市,钟楼,119.9025,31.7964,2025-05-05T1100,9,31,0.6,21,6,69,83,31,
常州市,武进经发区,119.8598,31.7066,2025-05-05T1100,13,33,1.1,25,8,62,77,33,
常州市,金坛城区,119.5826,31.7245,2025-05-05T1100,17,52,0.6,24,7,64,78,51,颗粒物(PM10)
朝阳市,西梁,120.4318,41.5881,2025-05-05T1100,31,,0.7,22,10,65,68,45,
朝阳市,河畔小区,120.4521,41.5646,2025-05-05T1100,37,,0.5,,8,69,82,,
朝阳市,八里堡,120.4176,41.5648,2025-05-05T1100,20,29,0.5,18,7,70,71,29,
朝阳市,农业园区,120.3806,41.5969,2025-05-05T1100,46,,0.9,23,7,72,54,64,细颗粒物(PM2.5)
潮州市,西园路,116.6367,23.6719,2025-05-05T1100,28,41,0.6,8,4,83,82,41,
潮州市,市政府,116.6183,23.6608,2025-05-05T1100,26,50,0.8,12,5,82,82,50,
潮州市,金山,116.6461,23.6761,2025-05-05T1100,27,34,0.7,10,6,74,72,39,
郴州市,马头岭,113.0073,25.9061,2025-05-05T1100,10,14,0.6,9,6,59,43,19,
郴州市,市职中,113.0116,25.8226,2025-05-05T1100,16,22,0.8,10,3,57,54,23,
郴州市,市审计局,113.0383,25.8071,2025-05-05T1100,13,15,0.7,9,2,57,57,19,
郴州市,市环保局,113.0348,25.7759,2025-05-05T1100,7,18,0.7,11,3,57,58,18,
郴州市,好美居路49号,113.0138,25.8011,2025-05-05T1100,11,14,0.8,11,7,58,54,19,
成都市,金泉两河,103.9728,30.7236,2025-05-05T1100,3,15,0.7,9,3,83,56,26,
成都市,十里店,104.176,30.6872,2025-05-05T1100,3,9,0.4,12,4,96,75,30,
成都市,三瓦窑,104.079,30.5706,2025-05-05T1100,,,0.5,,,76,68,,
成都市,沙河铺,104.1114,30.63,2025-05-05T1100,3,22,0.5,16,7,68,52,22,
成都市,君平街,104.0786,30.6531,2025-05-05T1100,3,7,,,8,66,55,,
成都市,大石西路,104.0239,30.65639,2025-05-05T1100,3,12,0.3,18,6,85,60,27,
成都市,龙泉驿区区政府,104.2725,30.5589,2025-05-05T1100,3,9,0.4,13,4,95,75,30,
成都市,金博路,104.0106,30.6931,2025-05-05T1100,3,7,0.3,11,7,75,51,24,
成都市,华阳,104.0578,30.5225,2025-05-05T1100,14,19,0.6,15,6,73,54,23,
成都市,青白江技师分院,104.3853,30.7453,2025-05-05T1100,3,12,0.2,16,2,96,67,30,
成都市,科学城,104.0789,30.4072,2025-05-05T1100,8,10,0.5,11,4,75,69,24,
成都市,光华大道三段,103.8506,30.6947,2025-05-05T1100,3,6,0.5,11,1,99,67,31,
成都市,鲸龙路1057号,104.2433,30.5353,2025-05-05T1100,9,16,0.4,,5,84,68,,
承德市,铁路,117.9531,40.9081,2025-05-05T1100,12,19,0.5,13,1,100,101,32,
承德市,中国银行,117.9392,40.9763,2025-05-05T1100,20,25,0.6,8,3,102,98,32,
承德市,开发区,117.9503,40.928,2025-05-05T1100,25,,0.6,12,5,105,105,36,
承德市,文化中心,117.8051,40.9655,2025-05-05T1100,26,47,0.8,14,6,92,110,47,
承德市,离宫,117.9268,41.0026,2025-05-05T1100,56,,0.6,10,,83,70,,
池州市,池州学院,117.47,30.6618,2025-05-05T1100,22,25,1.0,18,5,77,68,32,
池州市,展览馆,117.4918,30.6617,2025-05-05T1100,20,26,1.0,17,5,76,66,29,
池州市,第八中学,117.5627,30.695,2025-05-05T1100,15,22,0.9,16,5,67,65,22,
池州市,第十二中学,117.5038,30.6243,2025-05-05T1100,14,16,1.0,15,3,76,66,24,
赤峰市,松山一中,118.9233,42.2816,2025-05-05T1100,12,15,0.8,23,12,103,81,33,
赤峰市,哈达街,118.9576,42.2728,2025-05-05T1100,12,17,0.6,18,11,104,83,33,
赤峰市,天义路,118.8788,42.2554,2025-05-05T1100,12,32,0.5,21,7,105,86,33,
赤峰市,银河街,119.2658,42.0353,2025-05-05T1100,27,30,0.6,12,13,97,84,39,
赤峰市,桥北物流园区,118.9359,42.3147,2025-05-05T1100,10,23,0.7,18,7,98,81,31,
崇左市,市环保局江州分局,107.3476,22.4136,2025-05-05T1100,25,41,0.5,5,8,110,57,41,
崇左市,石景林东路7号,107.3750,22.3736,2025-05-05T1100,22,47,0.5,6,5,120,64,47,
滁州市,老年大学,118.3093,32.3153,2025-05-05T1100,32,,0.4,12,2,73,86,46,
滁州市,人大宾馆,118.3244,32.2786,2025-05-05T1100,34,,0.4,17,8,77,91,49,
滁州市,市政府原办公楼,118.3118,32.3038,2025-05-05T1100,27,,0.4,13,4,73,90,39,
滁州市,图书馆,118.3267,32.2634,2025-05-05T1100,28,32,0.5,12,8,72,85,40,
楚雄彝族自治州,州环境监测站,101.5482,25.0441,2025-05-05T1100,13,23,0.4,9,6,107,62,34,
楚雄彝族自治州,市经济开发区,101.538,25.0492,2025-05-05T1100,12,18,0.6,9,8,103,59,33,
达州市,达州职业技术学院,107.5277,31.2827,2025-05-05T1100,18,72,0.6,15,8,75,32,61,颗粒物(PM10)
达州市,市环境监测站,107.5086,31.2186,2025-05-05T1100,19,58,0.4,29,8,67,31,54,颗粒物(PM10)
达州市,凤凰小区,107.4988,31.2132,2025-05-05T1100,22,68,0.4,23,10,73,39,59,颗粒物(PM10)
达州市,达县机关宾馆,107.5082,31.1986,2025-05-05T1100,24,58,0.3,21,7,74,22,54,颗粒物(PM10)
达州市,市政中心,107.4644,31.2124,2025-05-05T1100,14,59,0.4,17,5,80,27,55,颗粒物(PM10)
大理白族自治州,大理市环境监测站,100.1542,25.7054,2025-05-05T1100,19,,0.4,6,7,86,80,28,
大理白族自治州,大理古城,100.2171,25.5811,2025-05-05T1100,,,0.4,,8,99,67,,
大连市,甘井子,121.612,38.9741,2025-05-05T1100,20,44,0.4,34,6,81,87,44,
大连市,周水子,121.565,38.9511,2025-05-05T1100,17,38,0.3,22,6,88,86,38,
大连市,星海三站,121.5637,38.8845,2025-05-05T1100,14,30,0.3,15,4,97,96,31,
大连市,青泥洼桥,121.6302,38.9117,2025-05-05T1100,13,24,0.3,15,7,98,97,31,
大连市,傅家庄,121.6251,38.8638,2025-05-05T1100,11,29,0.2,15,6,102,100,32,
大连市,七贤岭,121.5213,38.8661,2025-05-05T1100,16,31,0.5,19,6,96,93,31,
大连市,旅顺,121.2529,38.8061,2025-05-05T1100,14,,,27,5,71,72,,
大连市,金州,121.7485,39.1311,2025-05-05T1100,14,24,0.3,14,7,109,107,35,
大连市,开发区,121.7811,39.0496,2025-05-05T1100,20,51,0.5,30,5,79,85,51,颗粒物(PM10)
大连市,双D港,121.9762,39.0631,2025-05-05T1100,22,34,0.4,13,7,101,108,34,
大庆市,大同区,124.81117,46.03138,2025-05-05T1100,15,23,0.3,1,3,76,52,24,
大庆市,龙凤区,125.129,46.533,2025-05-05T1100,9,20,0.3,5,4,80,62,25,
大庆市,红岗区,124.902,46.408,2025-05-05T1100,17,,,2,,82,57,,
大庆市,萨尔图区,125.153,46.586,2025-05-05T1100,7,19,0.3,4,5,73,57,23,
大庆市,让胡路区,124.9042,46.6215,2025-05-05T1100,9,13,0.3,2,6,79,62,25,
大庆市,萨区政府监测点,125.141,46.634,2025-05-05T1100,3,21,0.3,1,5,82,62,26,
大同市,云冈宾馆,113.2994,40.0758,2025-05-05T1100,63,205,0.6,24,10,59,56,128,颗粒物(PM10)
大同市,大同大学,113.3444,40.0917,2025-05-05T1100,,,0.5,26,,55,53,,
大同市,安家小村,113.2661,40.1269,2025-05-05T1100,72,281,0.2,15,20,73,43,166,颗粒物(PM10)
大同市,教育学院,113.2711,40.0844,2025-05-05T1100,100,241,0.4,23,12,59,48,146,颗粒物(PM10)
大同市,大同市卫生学校,113.3397,40.0597,2025-05-05T1100,56,219,0.7,26,8,46,51,135,颗粒物(PM10)
大同市,云冈站,113.1367,40.1122,2025-05-05T1100,90,281,0.2,10,10,71,49,166,颗粒物(PM10)
大同市,图书馆,113.1186,40.2556,2025-05-05T1100,79,214,0.3,9,10,80,53,132,颗粒物(PM10)
大同市,区一中,113.5931,40.0461,2025-05-05T1100,31,205,0.5,20,15,59,62,128,颗粒物(PM10)
大同市,魏都大道141号,113.2798,40.0997,2025-05-05T1100,71,269,0.7,16,15,73,53,160,颗粒物(PM10)
大兴安岭地区,科技局,124.1069,50.4097,2025-05-05T1100,10,13,0.3,2,4,80,75,25,
大兴安岭地区,红旗社区,124.1164,50.4278,2025-05-05T1100,3,7,0.3,2,4,80,75,25,
丹东市,江湾东路,124.3303,40.0625,2025-05-05T1100,31,70,0.8,17,11,82,55,60,颗粒物(PM10)
丹东市,临江后街,124.4256,40.1503,2025-05-05T1100,25,54,3.8,,13,78,49,,
丹东市,元宝山,124.3933,40.1461,2025-05-05T1100,21,44,0.6,15,12,76,50,44,
丹东市,民主桥,124.3633,40.1092,2025-05-05T1100,28,59,0.9,18,11,80,50,55,颗粒物(PM10)
儋州市,第一中学子站,109.5726,19.5167,2025-05-05T1100,9,12,0.5,2,5,45,34,15,
儋州市,东坡学校子站,109.5567,19.5187,2025-05-05T1100,10,24,0.5,1,4,48,34,24,
德宏傣族景颇族自治州,德宏州监测站,98.5842,24.428,2025-05-05T1100,18,35,0.6,8,8,59,27,35,
德宏傣族景颇族自治州,芒市人民政府综合楼,98.5881,24.4368,2025-05-05T1100,27,41,0.6,13,6,63,26,41,
德阳市,东山公园,104.4239,31.1208,2025-05-05T1100,13,29,0.8,18,4,67,59,29,
德阳市,西小区,104.3826,31.1317,2025-05-05T1100,13,39,0.7,30,6,67,63,39,
德阳市,耐火材料厂,104.3553,31.1091,2025-05-05T1100,12,35,0.5,11,5,92,59,35,
德阳市,市教育局,104.4019,31.1244,2025-05-05T1100,10,38,0.6,20,5,74,70,38,
德州市,儿童乐园,116.3032,37.4674,2025-05-05T1100,27,48,0.4,8,20,127,102,48,
德州市,监理站,116.2991,37.4451,2025-05-05T1100,27,36,0.4,5,8,131,104,41,
德州市,九衢泉纯净水厂,116.2721,37.4379,2025-05-05T1100,29,34,0.8,,8,116,84,,
德州市,开发区人民医院,116.3728,37.4403,2025-05-05T1100,27,73,0.6,11,15,115,92,62,颗粒物(PM10)
德州市,太阳城中学,116.3572,37.4094,2025-05-05T1100,22,39,1.2,8,6,132,94,42,
德州市,陵城艺术中心,116.5652,37.3319,2025-05-05T1100,,,0.6,12,,130,109,,
迪庆藏族自治州,迪庆州站,99.7056,27.8317,2025-05-05T1100,19,21,0.3,9,4,77,47,28,
迪庆藏族自治州,质量技术监督局,99.7136,27.8094,2025-05-05T1100,6,25,0.7,14,4,71,52,25,
定西市,将台街,104.6092,35.5962,2025-05-05T1100,20,43,0.3,12,5,74,52,43,
定西市,正龙路62号,104.6159,35.5701,2025-05-05T1100,14,35,0.3,6,10,68,53,35,
东莞市,莞城梨川,113.7547,23.0494,2025-05-05T1100,13,18,,7,5,54,49,,
东莞市,东城石井,113.7944,23.0128,2025-05-05T1100,12,20,0.5,,3,57,46,,
东莞市,南城西平,113.7383,22.9658,2025-05-05T1100,10,17,0.4,10,3,69,56,22,
东莞市,万江金泰,113.7338,23.0381,2025-05-05T1100,11,20,0.6,6,5,58,40,20,
东莞市,南城元岭,113.7533,23.0202,2025-05-05T1100,10,20,0.6,10,2,67,50,21,
东营市,市环保局,118.6614,37.4309,2025-05-05T1100,22,36,0.5,22,10,105,110,36,
东营市,开发区管委会,118.6904,37.4338,2025-05-05T1100,17,58,0.5,20,19,101,112,54,颗粒物(PM10)
东营市,垦利区民丰路,118.5719,37.565,2025-05-05T1100,17,39,0.7,23,6,114,112,39,
东营市,河口城区,118.5055,37.8612,2025-05-05T1100,24,44,0.9,21,9,146,103,46,
东营市,胜利站,118.4978,37.4623,2025-05-05T1100,14,54,0.8,22,11,108,104,52,颗粒物(PM10)
东营市,理想之城,118.35,37.26,2025-05-05T1100,24,44,0.6,16,8,114,109,44,
鄂尔多斯市,综合楼,110.0023,39.8129,2025-05-05T1100,31,63,0.4,15,4,90,77,57,颗粒物(PM10)
鄂尔多斯市,巴音孟克林场办事处,109.9486,39.8261,2025-05-05T1100,34,75,0.4,11,6,96,82,63,颗粒物(PM10)
鄂尔多斯市,康泽苑,109.7736,39.5986,2025-05-05T1100,46,122,0.2,7,10,99,78,86,颗粒物(PM10)
鄂尔多斯市,华泰汽车城,109.8119,39.5989,2025-05-05T1100,51,124,0.3,7,6,94,74,87,颗粒物(PM10)
鄂尔多斯市,奥林花园,109.9734,39.7884,2025-05-05T1100,34,78,0.6,13,5,90,69,64,颗粒物(PM10)
鄂州市,市政府,114.8938,30.3994,2025-05-05T1100,32,116,,12,6,126,114,,
鄂州市,赵家坝,114.8989,30.3714,2025-05-05T1100,24,36,0.7,7,4,140,128,44,
鄂州市,精准医疗中心,114.8094,30.4089,2025-05-05T1100,34,40,0.6,13,5,139,133,49,
恩施土家族苗族自治州,湖北民院,109.4978,30.2981,2025-05-05T1100,24,31,0.6,4,6,67,28,35,
恩施土家族苗族自治州,州电力总公司,109.4707,30.2798,2025-05-05T1100,32,42,0.5,21,5,56,22,46,
恩施土家族苗族自治州,龙凤新区,109.5061,30.3772,2025-05-05T1100,21,24,0.6,5,6,70,40,30,
佛山市,湾梁,113.1294,23.0067,2025-05-05T1100,17,29,0.6,12,7,67,43,29,
佛山市,华材职中,113.1083,23.0478,2025-05-05T1100,14,27,0.4,12,8,65,46,27,
佛山市,南海气象局,113.144,23.0453,2025-05-05T1100,11,38,0.5,13,2,61,41,38,
佛山市,顺德苏岗,113.2881,22.8094,2025-05-05T1100,12,38,0.5,13,6,55,48,38,
佛山市,高明孔堂,112.8383,22.8678,2025-05-05T1100,13,23,0.5,6,5,52,41,23,
佛山市,三水监测站,112.8836,23.1588,2025-05-05T1100,28,31,0.4,25,3,36,25,40,
佛山市,三水云东海,112.867,23.185,2025-05-05T1100,16,48,0.5,22,1,44,33,48,
佛山市,容桂街道办,113.2544,22.7642,2025-05-05T1100,19,31,0.7,16,5,58,44,31,
福州市,师大,119.2681,26.0504,2025-05-05T1100,22,44,0.5,18,4,81,75,44,
福州市,五四北路,119.2984,26.1028,2025-05-05T1100,24,54,0.5,19,3,81,81,52,颗粒物(PM10)
福州市,杨桥西路,119.2648,26.0768,2025-05-05T1100,23,49,0.4,,3,86,72,,
福州市,紫阳,119.317,26.0746,2025-05-05T1100,25,66,0.4,42,6,59,89,58,颗粒物(PM10)
福州市,九龙,119.5799,26.0936,2025-05-05T1100,36,43,0.4,14,6,94,70,52,细颗粒物(PM2.5)
福州市,吴航,119.5189,25.9664,2025-05-05T1100,25,41,0.8,12,4,101,67,41,
抚顺市,望花区,123.7977,41.8491,2025-05-05T1100,21,80,0.8,23,12,89,35,65,颗粒物(PM10)
抚顺市,顺城区,123.9161,41.8822,2025-05-05T1100,22,63,0.7,34,9,72,42,57,颗粒物(PM10)
抚顺市,东洲区,124.0436,41.8611,2025-05-05T1100,16,46,0.5,22,8,71,47,46,
抚顺市,新抚区,123.9247,41.8642,2025-05-05T1100,33,68,0.7,31,10,58,32,59,颗粒物(PM10)
抚顺市,大伙房水库,124.0972,41.8961,2025-05-05T1100,16,25,0.5,8,8,76,57,25,
抚顺市,沈抚新城,123.7086,41.8391,2025-05-05T1100,19,79,0.7,22,12,88,31,65,颗粒物(PM10)
抚州市,桐源党溪,116.2127,28.0814,2025-05-05T1100,14,24,0.6,3,4,53,37,24,
抚州市,市站,116.3544,27.9831,2025-05-05T1100,12,20,0.7,3,1,57,40,20,
抚州市,血防站,116.3565,27.963,2025-05-05T1100,11,19,0.0,5,3,58,42,19,
抚州市,采茶剧团,116.3564,28.0007,2025-05-05T1100,9,21,1.0,2,3,42,29,21,
抚州市,医学分院,116.385,27.9647,2025-05-05T1100,8,,1.2,1,4,52,39,17,
阜新市,工业园区,121.6094,41.998,2025-05-05T1100,12,20,0.5,18,12,89,60,28,
阜新市,长青街,121.6697,42.0279,2025-05-05T1100,20,23,0.5,18,10,78,68,29,
阜新市,农业园区,121.6673,42.0705,2025-05-05T1100,27,38,0.6,14,12,77,64,39,
阜新市,东苑,121.6717,42.0224,2025-05-05T1100,33,39,0.5,20,12,88,81,48,
阜新市,玉龙新城,121.6506,42.0498,2025-05-05T1100,22,32,0.7,23,10,71,45,32,
阜阳市,市监测站,115.8277,32.8929,2025-05-05T1100,32,59,0.5,12,9,128,96,55,颗粒物(PM10)
阜阳市,开发区,115.8554,32.8605,2025-05-05T1100,32,72,0.3,15,8,136,97,61,颗粒物(PM10)
阜阳市,阜阳职业技术学院,115.784,32.8892,2025-05-05T1100,23,63,0.5,9,6,141,108,57,颗粒物(PM10)
阜阳市,市规划展馆,115.7901,32.8613,2025-05-05T1100,39,62,0.4,8,8,139,111,56,颗粒物(PM10)
阜阳市,枣园社区,115.836,32.9183,2025-05-05T1100,37,73,0.7,8,5,130,92,62,颗粒物(PM10)
甘南藏族自治州,州政府,102.9099,34.9841,2025-05-05T1100,40,87,0.5,20,11,53,27,69,颗粒物(PM10)
甘南藏族自治州,甘肃民族师范学院,102.8914,34.9617,2025-05-05T1100,26,81,0.5,22,8,60,20,66,颗粒物(PM10)
甘孜藏族自治州,水桥子,101.9603,30.0475,2025-05-05T1100,8,,0.4,17,4,76,86,24,
甘孜藏族自治州,州环保局,101.9533,29.9972,2025-05-05T1100,3,6,0.1,9,1,96,87,30,
赣江新区,桑海产业园,115.8347,28.932,2025-05-05T1100,3,9,0.3,2,4,126,89,40,
赣州市,地委,114.9367,25.8664,2025-05-05T1100,12,33,1.0,10,3,65,55,33,
赣州市,气象台,114.9461,25.8481,2025-05-05T1100,7,21,0.4,16,8,63,55,21,
赣州市,市图书馆,114.9322,25.8333,2025-05-05T1100,6,16,0.5,11,4,59,48,19,
赣州市,华坚鞋城,114.8905,25.8471,2025-05-05T1100,3,14,0.5,16,5,58,50,19,
赣州市,赣县区卫计委,115.0093,25.8613,2025-05-05T1100,3,6,1.4,5,3,64,53,20,
固原市,马园,106.2319,36.1417,2025-05-05T1100,95,328,0.4,3,5,109,98,189,颗粒物(PM10)
固原市,监测站,106.2792,36.0022,2025-05-05T1100,111,356,0.3,5,5,101,88,209,颗粒物(PM10)
固原市,新区,106.2375,36.0211,2025-05-05T1100,53,297,0.3,6,5,96,85,174,颗粒物(PM10)
固原市,原州区十五小,106.2177,35.9959,2025-05-05T1100,79,314,0.1,6,8,101,98,182,颗粒物(PM10)
广安市,市委,106.6303,30.4576,2025-05-05T1100,13,40,0.3,6,4,83,74,40,
广安市,友谊中学,106.6271,30.4663,2025-05-05T1100,9,28,0.6,12,3,85,77,28,
广安市,广电花园,106.6388,30.4551,2025-05-05T1100,3,32,0.3,8,6,80,76,32,
广安市,北辰小学,106.6351,30.4865,2025-05-05T1100,9,35,0.3,9,7,82,69,35,
广元市,黑石坡,105.8945,32.4535,2025-05-05T1100,3,27,0.3,9,2,73,70,27,
广元市,老城,105.821,32.4444,2025-05-05T1100,3,14,0.4,5,3,85,82,27,
广元市,监测站,105.8628,32.4287,2025-05-05T1100,3,13,0.3,5,2,88,76,28,
广元市,经开区,105.8047,32.4166,2025-05-05T1100,11,25,0.5,8,4,83,83,26,
广州市,广雅中学,113.2347,23.1423,2025-05-05T1100,12,31,0.5,12,3,65,49,31,
广州市,市五中,113.2612,23.105,2025-05-05T1100,16,28,0.8,7,1,62,46,28,
广州市,广东商学院,113.3478,23.0916,2025-05-05T1100,12,22,0.6,13,4,59,46,22,
广州市,市八十六中,113.4332,23.1047,2025-05-05T1100,13,25,0.6,33,2,37,37,25,
广州市,番禺中学,113.3505,22.9483,2025-05-05T1100,14,27,0.7,14,6,63,52,27,
广州市,花都师范,113.2146,23.3916,2025-05-05T1100,20,31,0.6,14,4,56,36,31,
广州市,市监测站,113.2597,23.1331,2025-05-05T1100,17,28,0.3,14,4,64,47,28,
广州市,九龙镇镇龙,113.5618,23.312,2025-05-05T1100,17,27,0.4,21,6,48,22,27,
广州市,麓湖,113.2765,23.1544,2025-05-05T1100,17,27,0.5,12,4,62,46,27,
广州市,帽峰山森林公园,113.443,23.3035,2025-05-05T1100,3,23,0.5,13,6,54,36,23,
广州市,体育西,113.3221,23.1322,2025-05-05T1100,22,30,0.4,15,4,56,43,32,
广州市,从化街口,113.5717,23.5491,2025-05-05T1100,22,38,0.5,14,6,56,37,38,
广州市,白云竹料,113.3472,23.3692,2025-05-05T1100,16,26,0.6,12,3,63,43,26,
广州市,白云嘉禾,113.2981,23.237,2025-05-05T1100,16,27,0.7,18,5,60,38,27,
广州市,黄埔科学城,113.4256,23.1716,2025-05-05T1100,16,29,0.5,16,2,43,30,29,
广州市,番禺大学城,113.3942,23.0483,2025-05-05T1100,14,20,0.6,14,6,64,51,20,
广州市,南沙黄阁,113.4922,22.8168,2025-05-05T1100,10,27,0.7,8,5,55,50,27,
广州市,南沙街,113.5342,22.7896,2025-05-05T1100,10,22,0.6,11,5,55,52,22,
广州市,花都梯面,113.2902,23.5544,2025-05-05T1100,14,26,0.6,22,4,41,29,26,
广州市,从化良口,113.7858,23.7478,2025-05-05T1100,16,21,0.7,6,6,45,19,23,
广州市,增城荔城,113.8051,23.2614,2025-05-05T1100,17,31,0.2,13,8,70,44,31,
贵港市,江南子站,109.6047,23.0666,2025-05-05T1100,16,27,0.5,5,4,61,40,27,
贵港市,荷城子站,109.5669,23.1065,2025-05-05T1100,14,28,0.1,10,5,58,42,28,
贵港市,新世纪学校,109.5886,23.1172,2025-05-05T1100,18,29,0.9,10,8,64,47,29,
贵港市,中山路155-3号,109.5933,23.0951,2025-05-05T1100,21,38,,7,,62,44,,
贵阳市,马鞍山,106.6899,26.5998,2025-05-05T1100,7,34,0.7,6,3,56,28,34,
贵阳市,鉴湖路,106.6243,26.6266,2025-05-05T1100,22,36,0.5,9,6,79,51,36,
贵阳市,燕子冲,106.7487,26.6343,2025-05-05T1100,31,34,0.4,12,1,59,41,45,
贵阳市,碧云窝,106.6555,26.4365,2025-05-05T1100,27,53,0.5,12,5,72,48,52,颗粒物(PM10)
贵阳市,红边门,106.7109,26.6027,2025-05-05T1100,34,39,0.3,6,3,64,42,49,
贵阳市,新华路,106.7164,26.5699,2025-05-05T1100,29,36,0.6,9,9,62,48,42,
贵阳市,太慈桥,106.674,26.5424,2025-05-05T1100,29,31,0.3,13,5,68,32,42,
贵阳市,花果园大街66号,106.6882,26.5695,2025-05-05T1100,28,39,0.4,11,4,67,40,40,
贵阳市,漓江路57号,106.6873,26.5169,2025-05-05T1100,29,34,0.4,11,8,58,41,42,
桂林市,龙隐路小学,110.3089,25.2708,2025-05-05T1100,29,56,0.9,18,25,12,14,53,颗粒物(PM10)
桂林市,八中,110.2869,25.2178,2025-05-05T1100,26,48,0.9,21,2,32,20,48,
桂林市,旅游学院,110.296,25.1253,2025-05-05T1100,22,29,0.6,6,12,61,24,32,
桂林市,环湖路276号,110.1835,25.2444,2025-05-05T1100,39,61,0.5,24,25,18,16,56,颗粒物(PM10)
桂林市,信义路13号,110.2803,25.2773,2025-05-05T1100,31,68,0.7,23,18,16,14,59,颗粒物(PM10)
果洛藏族自治州,玛沁县大武镇,100.2561,34.4714,2025-05-05T1100,15,45,0.6,9,33,94,63,45,
哈尔滨市,岭北,126.5422,45.755,2025-05-05T1100,8,13,0.6,7,11,92,64,29,
哈尔滨市,松北商大,126.561,45.8167,2025-05-05T1100,7,20,0.4,4,6,82,50,26,
哈尔滨市,阿城会宁,126.979,45.5419,2025-05-05T1100,7,11,0.4,6,6,89,63,28,
哈尔滨市,南岗学府路,126.599,45.7222,2025-05-05T1100,3,16,0.3,,,81,50,,
哈尔滨市,太平宏伟公园,126.689,45.7733,2025-05-05T1100,10,27,0.4,8,4,86,60,27,
哈尔滨市,道外承德广场,126.635,45.7667,2025-05-05T1100,12,16,0.3,8,6,83,51,26,
哈尔滨市,香坊红旗大街,126.685,45.7319,2025-05-05T1100,12,22,0.4,7,8,88,55,28,
哈尔滨市,动力和平路,126.6411,45.7258,2025-05-05T1100,14,46,0.3,8,6,80,54,46,
哈尔滨市,道里建国路,126.593,45.7478,2025-05-05T1100,10,13,0.5,7,3,85,53,27,
哈尔滨市,平房东轻厂,126.615,45.61,2025-05-05T1100,14,31,0.2,8,8,94,61,31,
哈尔滨市,呼兰师专,126.595,45.9855,2025-05-05T1100,10,32,0.2,10,7,75,52,32,
哈尔滨市,省农科院,126.6206,45.6842,2025-05-05T1100,12,27,0.5,6,5,80,45,27,
哈密市,地区监测站,93.5128,42.8172,2025-05-05T1100,40,114,0.5,9,3,84,75,82,颗粒物(PM10)
哈密市,哈密师范学校,93.4961,42.8328,2025-05-05T1100,23,97,0.3,11,4,77,75,74,颗粒物(PM10)
海北藏族自治州,海晏县西海镇,100.9048,36.9639,2025-05-05T1100,11,30,0.2,1,8,114,105,36,
海东市,平安区公安北苑,102.0738,36.5056,2025-05-05T1100,41,68,0.7,20,8,49,49,59,颗粒物(PM10)
海口市,东寨港,110.576,19.9507,2025-05-05T1100,10,15,0.5,3,3,46,21,15,
海口市,海南大学,110.3232,20.0574,2025-05-05T1100,8,18,0.4,6,2,50,29,18,
海口市,秀英海南医院,110.283,20.0053,2025-05-05T1100,11,25,0.2,6,4,54,28,25,
海口市,海南师范大学,110.338,19.9969,2025-05-05T1100,9,18,0.4,6,3,54,26,18,
海口市,龙华路环保局宿舍,110.33,20.0356,2025-05-05T1100,9,19,0.3,7,4,53,29,19,
海口市,桂林洋子站,110.5111,19.9736,2025-05-05T1100,8,14,0.2,6,4,54,30,17,
海南藏族自治州,共和县恰卜恰镇,100.6188,36.2866,2025-05-05T1100,34,109,0.2,2,8,118,77,80,颗粒物(PM10)
海西蒙古族藏族自治州,德令哈市,97.3731,37.3753,2025-05-05T1100,17,59,0.5,8,17,109,86,55,颗粒物(PM10)
邯郸市,东污水处理厂,114.5302,36.6116,2025-05-05T1100,17,76,0.4,14,4,90,96,63,颗粒物(PM10)
邯郸市,矿院,114.4918,36.5713,2025-05-05T1100,,54,0.5,9,4,86,89,,
邯郸市,丛台公园,114.484,36.6133,2025-05-05T1100,18,94,0.4,11,8,93,104,72,颗粒物(PM10)
邯郸市,香泉濮院小区,114.7895,36.5593,2025-05-05T1100,16,79,0.5,7,4,92,94,65,颗粒物(PM10)
邯郸市,永年区实验高中,114.50634,36.77178,2025-05-05T1100,37,127,0.6,17,8,79,86,89,颗粒物(PM10)
邯郸市,峰峰矿区临水派出所,114.20016,36.44293,2025-05-05T1100,60,203,0.6,3,7,82,84,127,颗粒物(PM10)
汉中市,汉川机床厂子校,106.9893,33.1842,2025-05-05T1100,24,24,0.5,4,7,90,78,35,
汉中市,市监测站,107.0154,33.0706,2025-05-05T1100,17,35,0.6,4,8,97,80,35,
汉中市,鑫源开发区,107.0089,33.1138,2025-05-05T1100,13,30,0.4,6,6,88,74,30,
汉中市,南郑大河坎水厂,107.007,33.0323,2025-05-05T1100,16,24,0.6,7,,92,67,,
杭州市,滨江,120.2072,30.2111,2025-05-05T1100,20,35,0.8,34,5,,46,,
杭州市,西溪,120.0633,30.2747,2025-05-05T1100,36,44,0.5,,,34,36,,
杭州市,下沙,120.3417,30.3150,2025-05-05T1100,30,51,0.5,56,9,36,45,51,颗粒物(PM10)
杭州市,卧龙桥,120.1269,30.2456,2025-05-05T1100,27,39,0.8,24,6,29,32,39,
杭州市,浙江农大,120.1903,30.2692,2025-05-05T1100,21,32,0.4,40,9,27,36,32,
杭州市,和睦小学,120.1197,30.3119,2025-05-05T1100,26,38,0.4,33,7,35,45,38,
杭州市,临平镇,120.3019,30.4183,2025-05-05T1100,19,40,0.5,24,5,56,48,40,
杭州市,城厢镇,120.2753,30.1839,2025-05-05T1100,26,44,0.7,22,7,61,44,44,
杭州市,云栖,120.0883,30.1808,2025-05-05T1100,17,21,0.7,22,5,46,24,25,
杭州市,镇二中,119.9464,30.0494,2025-05-05T1100,27,30,0.8,35,3,44,45,39,
杭州市,市府大楼,119.7183,30.2367,2025-05-05T1100,28,50,0.6,19,7,48,64,50,
杭州市,消防大队,120.1556,30.2864,2025-05-05T1100,29,47,0.6,36,4,34,44,47,
合肥市,明珠广场,117.1959,31.7848,2025-05-05T1100,29,39,0.5,20,5,104,101,42,
合肥市,三里街,117.3072,31.8764,2025-05-05T1100,24,44,0.5,16,4,97,89,44,
合肥市,琥珀山庄,117.2588,31.8707,2025-05-05T1100,35,53,0.6,19,3,96,97,52,颗粒物(PM10)
合肥市,董铺水库,117.1604,31.9052,2025-05-05T1100,22,39,0.4,10,3,110,95,39,
合肥市,长江中路,117.25,31.8571,2025-05-05T1100,29,46,0.6,14,7,104,100,46,
合肥市,庐阳区,117.266,31.9436,2025-05-05T1100,36,61,,,6,107,101,,
合肥市,瑶海区,117.3453,31.8616,2025-05-05T1100,27,44,0.4,18,6,97,92,44,
合肥市,包河区,117.3027,31.7964,2025-05-05T1100,31,41,0.5,20,6,96,93,45,
合肥市,滨湖新区,117.2776,31.7385,2025-05-05T1100,34,36,0.7,20,7,98,100,49,
合肥市,高新区,117.1318,31.8403,2025-05-05T1100,25,41,0.6,16,2,115,100,41,
合肥市,高教基地,117.3803,31.9147,2025-05-05T1100,33,44,0.4,27,6,103,88,48,
和田地区,地区环保局,79.924,37.0877,2025-05-05T1100,316,832,0.3,10,3,44,48,500,颗粒物(PM10)
和田地区,市环保局,79.9131,37.113,2025-05-05T1100,255,867,0.1,16,3,42,33,500,颗粒物(PM10)
河池市,市环保站,108.0497,24.6947,2025-05-05T1100,21,42,0.6,8,8,84,77,42,
河池市,市疾控中心,108.0983,24.6989,2025-05-05T1100,24,31,0.7,11,10,81,72,35,
河源市,源西,114.6778,23.7569,2025-05-05T1100,24,36,0.7,9,4,59,61,36,
河源市,东埔,114.6944,23.7586,2025-05-05T1100,24,26,0.5,14,4,63,54,35,
河源市,老城,114.6892,23.7233,2025-05-05T1100,28,35,0.5,12,4,62,50,40,
菏泽市,气象局,115.4208,35.2464,2025-05-05T1100,57,91,0.5,13,21,139,112,78,细颗粒物(PM2.5)
菏泽市,定陶老年大学,115.5564,35.0891,2025-05-05T1100,29,61,0.6,13,6,128,112,56,颗粒物(PM10)
菏泽市,永昌路1号,115.4797,35.24401,2025-05-05T1100,59,107,0.5,14,20,136,108,80,细颗粒物(PM2.5)
菏泽市,长城路999号,115.4715,35.2800,2025-05-05T1100,45,80,0.4,16,23,132,100,65,颗粒物(PM10)
贺州市,环保小区,111.5264,24.4172,2025-05-05T1100,16,32,0.9,17,4,50,39,32,
贺州市,政协大楼,111.5608,24.4078,2025-05-05T1100,20,50,0.7,8,7,59,40,50,
贺州市,西湾,111.4744,24.4553,2025-05-05T1100,19,32,0.6,8,8,62,37,32,
鹤壁市,市监测站,114.17,35.9019,2025-05-05T1100,35,121,0.6,13,1,89,82,86,颗粒物(PM10)
鹤壁市,市交警支队,114.2956,35.7511,2025-05-05T1100,40,140,0.8,,,88,97,,
鹤壁市,迎宾馆,114.2878,35.7306,2025-05-05T1100,35,115,0.5,12,1,93,102,83,颗粒物(PM10)
鹤壁市,大新区,114.2617,35.6822,2025-05-05T1100,21,54,0.5,15,8,90,88,52,颗粒物(PM10)
鹤壁市,南山宾馆,114.1572,35.9603,2025-05-05T1100,47,196,0.6,12,8,89,88,123,颗粒物(PM10)
鹤岗市,哈啤分公司,130.2537,47.3416,2025-05-05T1100,8,8,0.2,,,75,63,,
鹤岗市,斯达机电,130.2684,47.3086,2025-05-05T1100,6,8,0.1,2,11,76,66,24,
鹤岗市,东山纸板厂,130.3114,47.3388,2025-05-05T1100,10,16,0.1,3,11,75,67,24,
黑河市,交通局,127.4833,50.2524,2025-05-05T1100,11,16,0.3,5,7,78,73,25,
黑河市,环保局,127.5144,50.2341,2025-05-05T1100,13,,0.2,4,4,85,80,27,
黑河市,大黑河岛,127.5291,50.2472,2025-05-05T1100,4,,0.2,13,2,36,30,,
衡水市,电机北厂,115.6838,37.7541,2025-05-05T1100,32,66,0.4,12,6,92,97,58,颗粒物(PM10)
衡水市,市监测站,115.6303,37.7316,2025-05-05T1100,20,58,0.4,13,9,92,87,54,颗粒物(PM10)
衡水市,市城管局,115.6683,37.7217,2025-05-05T1100,23,44,0.4,13,,88,97,,
衡水市,地表水厂,115.5989,37.5491,2025-05-05T1100,17,68,0.4,17,8,96,88,59,颗粒物(PM10)
衡阳市,原169医院,112.5003,26.9167,2025-05-05T1100,25,,0.4,4,2,119,84,38,
衡阳市,衡阳化工总厂,112.6194,26.9258,2025-05-05T1100,16,26,0.6,9,5,101,73,32,
衡阳市,珠晖区环保局,112.6211,26.8956,2025-05-05T1100,,21,0.7,9,6,114,81,,
衡阳市,市委党校,112.6197,26.8733,2025-05-05T1100,,26,0.6,10,3,96,79,,
衡阳市,市监测站,112.6006,26.8919,2025-05-05T1100,19,26,0.7,8,8,106,75,34,
衡阳市,真空机电公司,112.5664,26.9056,2025-05-05T1100,25,,0.6,3,5,108,73,36,
衡阳市,师范学院,112.6703,26.882,2025-05-05T1100,9,21,0.8,9,6,100,82,32,
红河哈尼族彝族自治州,污水处理厂,103.3772,23.3993,2025-05-05T1100,21,22,0.4,4,17,103,68,33,
红河哈尼族彝族自治州,监测站,103.3861,23.35,2025-05-05T1100,13,22,0.4,4,6,98,76,31,
红河哈尼族彝族自治州,州图书馆,103.3758,23.368,2025-05-05T1100,10,14,0.2,5,3,86,64,27,
呼和浩特市,呼市一监,111.6507,40.7517,2025-05-05T1100,20,51,,9,,92,37,,
呼和浩特市,小召,111.6572,40.8033,2025-05-05T1100,35,88,0.8,16,10,87,39,69,颗粒物(PM10)
呼和浩特市,如意水处理厂,111.7516,40.8369,2025-05-05T1100,50,168,0.4,16,5,86,34,109,颗粒物(PM10)
呼和浩特市,二十九中,111.7276,40.8062,2025-05-05T1100,49,123,0.5,9,3,94,38,87,颗粒物(PM10)
呼和浩特市,工大金川校区,111.5512,40.7866,2025-05-05T1100,29,90,0.4,17,6,93,40,70,颗粒物(PM10)
呼和浩特市,化肥厂生活区,111.717,40.7612,2025-05-05T1100,31,115,0.4,19,9,92,36,83,颗粒物(PM10)
呼和浩特市,红旗小学,111.5968,40.8178,2025-05-05T1100,36,78,0.4,24,4,86,31,64,颗粒物(PM10)
呼和浩特市,海东办,111.6518,40.8389,2025-05-05T1100,48,105,0.5,,12,69,40,,
呼伦贝尔市,区环保局,119.7594,49.2261,2025-05-05T1100,22,27,0.4,12,4,84,59,32,
呼伦贝尔市,国华电力东,119.7512,49.1577,2025-05-05T1100,10,18,0.3,6,4,93,55,30,
湖州市,城西水厂,120.0751,30.8669,2025-05-05T1100,31,47,0.5,31,6,51,61,47,
湖州市,仁皇山新区,120.0830,30.8929,2025-05-05T1100,30,46,0.8,30,4,55,61,46,
湖州市,吴兴区站,120.1844,30.8596,2025-05-05T1100,32,44,0.4,25,6,57,68,46,
湖州市,南浔区站,120.4148,30.8538,2025-05-05T1100,24,35,0.5,16,4,74,75,35,
葫芦岛市,龙港区,120.9049,40.7211,2025-05-05T1100,10,27,0.4,10,9,100,73,32,
葫芦岛市,化工街,120.8392,40.7514,2025-05-05T1100,12,17,0.4,17,8,92,71,29,
葫芦岛市,新区,120.8341,40.7073,2025-05-05T1100,13,21,0.6,15,7,90,77,29,
葫芦岛市,东城区,120.8695,40.7677,2025-05-05T1100,9,28,0.5,,,90,64,,
怀化市,林科所,109.5981,27.5721,2025-05-05T1100,22,37,0.8,7,5,70,58,37,
怀化市,河西地税局,109.9453,27.5444,2025-05-05T1100,24,32,0.5,8,5,66,58,35,
怀化市,市四医院,109.9781,27.5342,2025-05-05T1100,25,33,0.8,6,11,78,84,36,
怀化市,监测楼,109.9972,27.5578,2025-05-05T1100,29,43,0.3,5,2,79,81,43,
怀化市,市委党校,110.0394,27.583,2025-05-05T1100,25,39,0.6,5,8,76,68,39,
淮安市,钵池山,119.036,33.5981,2025-05-05T1100,19,19,0.4,12,,86,80,,
淮安市,北京南路,119.007,33.575,2025-05-05T1100,18,22,0.6,8,8,88,79,28,
淮安市,市监测站,118.989,33.6067,2025-05-05T1100,22,22,0.5,11,8,86,76,32,
淮安市,楚州区监测站,119.135,33.5039,2025-05-05T1100,18,37,0.4,6,7,88,77,37,
淮安市,新华书店,118.8755,33.2894,2025-05-05T1100,44,,0.6,16,10,75,68,62,细颗粒物(PM2.5)
淮安市,承德北路606号,119.0288,33.6319,2025-05-05T1100,16,19,0.4,7,6,88,77,28,
淮北市,监测站,116.8004,33.975,2025-05-05T1100,70,,0.8,15,8,119,105,94,细颗粒物(PM2.5)
淮北市,烈山区政府,116.8091,33.9007,2025-05-05T1100,27,40,0.8,14,6,100,94,40,
淮北市,杜集区检察院,116.8873,33.9836,2025-05-05T1100,33,44,0.7,13,7,115,99,48,
淮北市,市博物馆,116.7923,33.9535,2025-05-05T1100,44,,0.7,14,7,115,104,62,细颗粒物(PM2.5)
淮南市,潘集区政府,116.8305,32.7727,2025-05-05T1100,33,52,0.4,17,3,98,93,51,颗粒物(PM10)
淮南市,谢家集区政府,116.8569,32.5951,2025-05-05T1100,42,,0.4,17,4,104,96,59,细颗粒物(PM2.5)
淮南市,八公山区政府,116.8281,32.633,2025-05-05T1100,43,57,0.5,11,6,111,96,60,细颗粒物(PM2.5)
淮南市,经济技术开发区消防队,117.0566,32.6531,2025-05-05T1100,40,42,0.5,17,7,92,92,57,细颗粒物(PM2.5)
淮南市,山南新区,117.0108,32.5893,2025-05-05T1100,41,52,0.6,19,8,107,101,58,细颗粒物(PM2.5)
淮南市,国庆中路369号,117.0031,32.6445,2025-05-05T1100,49,56,0.5,15,8,85,96,68,细颗粒物(PM2.5)
黄冈市,红卫路,114.8858,30.4519,2025-05-05T1100,38,49,0.6,3,5,140,132,54,细颗粒物(PM2.5)
黄冈市,市林业局,114.9136,30.4445,2025-05-05T1100,34,47,0.7,7,6,138,126,49,
黄南藏族自治州,同仁县隆务镇,102.0199,35.5102,2025-05-05T1100,32,81,0.2,13,4,84,71,66,颗粒物(PM10)
黄山市,延安路89号,118.2903,29.6963,2025-05-05T1100,3,7,0.5,6,4,70,76,22,
黄山市,黄山区政府5号楼,118.1371,30.2756,2025-05-05T1100,3,18,0.8,8,4,66,69,21,
黄山市,滨江东路7-2号,118.3354,29.7203,2025-05-05T1100,6,17,0.5,9,4,67,75,21,
黄石市,沈家营,115.0601,30.2313,2025-05-05T1100,28,36,0.6,7,7,147,126,46,
黄石市,铁山,114.8988,30.2019,2025-05-05T1100,33,48,0.2,4,4,137,120,48,
黄石市,团城山,115.0307,30.2092,2025-05-05T1100,15,36,0.5,8,7,135,116,43,
黄石市,笔架山北路,115.0235,30.1578,2025-05-05T1100,20,28,0.8,4,7,141,123,45,
黄石市,磁湖东路29号,115.0780,30.21118,2025-05-05T1100,30,34,0.5,7,6,144,126,45,
惠州市,河南岸金山湖子站,114.4183,23.0528,2025-05-05T1100,16,33,0.5,8,8,75,64,33,
惠州市,下埔横江三路子站,114.4053,23.0822,2025-05-05T1100,13,25,0.5,9,8,80,71,25,
惠州市,江北云山西路子站,114.4103,23.1142,2025-05-05T1100,15,26,0.5,6,10,87,74,28,
惠州市,惠阳区承修路船湖子站,114.4645,22.7833,2025-05-05T1100,16,32,0.3,7,8,83,74,32,
惠州市,大亚湾管委会子站,114.5317,22.7422,2025-05-05T1100,19,32,0.5,,9,84,75,,
惠州市,惠阳秋长,114.4338,22.8134,2025-05-05T1100,16,31,0.5,6,8,89,79,31,
惠州市,大亚湾霞涌,114.6517,22.775,2025-05-05T1100,16,33,0.4,7,9,81,78,33,
鸡西市,环保局,130.9762,45.3001,2025-05-05T1100,9,12,0.4,4,5,92,75,29,
鸡西市,第一中学,130.9429,45.3039,2025-05-05T1100,,,0.3,,,88,74,,
鸡西市,欧美日汽修厂,131.0207,45.3073,2025-05-05T1100,3,15,0.4,6,4,87,66,28,
鸡西市,市政设施管理处,130.9967,45.3106,2025-05-05T1100,6,20,0.3,3,6,88,66,28,
吉安市,红声器材厂,114.9754,27.0803,2025-05-05T1100,11,26,0.6,3,10,66,51,26,
吉安市,市森林工业局,114.9658,27.0999,2025-05-05T1100,13,22,0.6,4,8,63,55,22,
吉安市,市环境监测站,114.99,27.1312,2025-05-05T1100,6,17,0.6,2,8,61,53,20,
吉安市,青原区法院,115.0093,27.0968,2025-05-05T1100,14,20,0.5,6,12,58,53,20,
吉林市,哈达湾,126.54,43.8622,2025-05-05T1100,21,36,0.4,10,7,89,77,36,
吉林市,东局子,126.5844,43.8358,2025-05-05T1100,24,38,0.3,10,6,93,80,38,
吉林市,电力学院,126.5052,43.8245,2025-05-05T1100,19,29,0.3,6,6,97,82,31,
吉林市,江北,126.6133,43.8972,2025-05-05T1100,16,41,0.2,14,10,90,78,41,
吉林市,江南公园,126.555,43.8306,2025-05-05T1100,31,34,0.3,8,6,,76,,
吉林市,九站,126.4739,43.953,2025-05-05T1100,19,45,0.4,10,9,85,71,45,
济南市,科干所,116.9862,36.6114,2025-05-05T1100,,,,10,5,138,109,,
济南市,农科所,116.9376,36.665,2025-05-05T1100,34,39,0.4,13,8,133,88,49,
济南市,开发区,117.1265,36.6734,2025-05-05T1100,3,6,0.6,,,127,110,,
济南市,省种子仓库,117.0624,36.6868,2025-05-05T1100,27,29,0.5,10,5,141,100,45,
济南市,机床二厂,116.9489,36.6447,2025-05-05T1100,29,63,0.5,15,10,129,94,57,颗粒物(PM10)
济南市,市监测站,117.0495,36.663,2025-05-05T1100,29,42,0.5,13,9,138,104,44,
济南市,长清党校,116.7675,36.5484,2025-05-05T1100,27,46,0.7,16,8,129,109,46,
济南市,技术学院,117.6795,36.229,2025-05-05T1100,27,36,0.8,18,13,113,95,39,
济南市,东山小学,117.532,36.6868,2025-05-05T1100,27,59,0.6,10,11,131,106,55,颗粒物(PM10)
济南市,泰兴公司,117.7161,36.2049,2025-05-05T1100,24,41,0.5,17,8,111,95,41,
济南市,莱芜战役纪念馆,117.6867,36.2171,2025-05-05T1100,22,46,0.9,20,9,112,92,46,
济南市,济阳区政府,117.1673,36.9782,2025-05-05T1100,29,54,0.5,13,6,144,101,52,颗粒物(PM10)
济南市,锦屏中学,117.1171,36.63,2025-05-05T1100,20,34,0.6,11,6,136,111,43,
济南市,济南四建,116.9814,36.6819,2025-05-05T1100,27,44,0.5,11,6,140,99,44,
济宁市,火炬城,116.6251,35.4302,2025-05-05T1100,36,41,0.4,6,7,117,95,52,细颗粒物(PM2.5)
济宁市,电化厂,116.5491,35.4042,2025-05-05T1100,24,41,0.6,6,3,114,98,41,
济宁市,北湖一中,116.5814,35.3707,2025-05-05T1100,27,35,0.4,8,4,114,94,39,
济宁市,服务中心,116.8249,35.5593,2025-05-05T1100,17,37,0.4,14,3,118,91,37,
济宁市,市第七中学,116.5907,35.4054,2025-05-05T1100,22,44,0.4,8,5,119,68,44,
佳木斯市,佳纺,130.2751,46.8028,2025-05-05T1100,9,24,0.3,4,4,78,63,25,
佳木斯市,发电厂,130.3995,46.8307,2025-05-05T1100,14,16,0.2,3,4,80,68,25,
佳木斯市,环保局,130.3258,46.7975,2025-05-05T1100,10,10,0.0,4,6,84,68,27,
佳木斯市,十一中,130.3648,46.8032,2025-05-05T1100,10,19,0.3,4,4,81,68,26,
佳木斯市,四丰,130.3794,46.7588,2025-05-05T1100,8,10,0.2,5,1,72,66,23,
嘉兴市,清河小学,120.7436,30.778,2025-05-05T1100,12,35,0.9,16,5,83,84,35,
嘉兴市,嘉兴学院,120.726,30.7478,2025-05-05T1100,23,34,0.7,13,5,83,87,34,
嘉兴市,南湖区残联,120.7846,30.7525,2025-05-05T1100,17,,0.6,9,5,96,91,30,
嘉兴市,秀洲住建,120.6916,30.7739,2025-05-05T1100,10,59,0.6,11,6,80,95,55,颗粒物(PM10)
嘉峪关市,气象局,98.2908,39.7711,2025-05-05T1100,58,215,0.9,7,10,92,104,133,颗粒物(PM10)
嘉峪关市,酒钢宾馆,98.2672,39.7978,2025-05-05T1100,75,217,0.3,8,8,93,109,134,颗粒物(PM10)
嘉峪关市,雄关区,98.2643,39.7724,2025-05-05T1100,26,159,0.7,10,8,92,106,105,颗粒物(PM10)
江门市,北街,113.1064,22.6058,2025-05-05T1100,10,27,0.3,8,3,48,41,27,
江门市,西区,113.0731,22.5835,2025-05-05T1100,12,31,0.4,7,6,53,46,31,
江门市,圭峰西,113.0219,22.5311,2025-05-05T1100,12,20,0.4,13,3,46,42,20,
江门市,东湖,113.0828,22.5947,2025-05-05T1100,12,20,,8,12,53,48,,
江门市,江海富民,113.1075,22.5647,2025-05-05T1100,11,31,0.4,4,8,55,46,31,
江门市,新会银湖,113.05,22.4667,2025-05-05T1100,10,20,0.4,7,2,48,45,20,
焦作市,太极体育中心,113.2725,35.2067,2025-05-05T1100,27,134,0,8,6,88,85,92,颗粒物(PM10)
焦作市,马村街道办,113.3137,35.2641,2025-05-05T1100,44,197,0.2,12,8,98,96,124,颗粒物(PM10)
焦作市,焦作技师学院,113.2465,35.2373,2025-05-05T1100,34,166,0.3,10,9,98,94,108,颗粒物(PM10)
焦作市,中站许衡医院,113.1656,35.2539,2025-05-05T1100,27,139,0.4,8,8,99,94,95,颗粒物(PM10)
焦作市,原李万街道办,113.2449,35.1803,2025-05-05T1100,31,139,0.3,12,11,98,97,95,颗粒物(PM10)
焦作市,新安路1731号,113.2340,35.2190,2025-05-05T1100,34,131,0.6,10,8,96,96,91,颗粒物(PM10)
揭阳市,新兴,116.3701,23.5345,2025-05-05T1100,31,58,0.7,11,5,85,81,54,颗粒物(PM10)
揭阳市,西马,116.3264,23.5443,2025-05-05T1100,6,54,0.9,11,8,82,82,52,颗粒物(PM10)
揭阳市,东兴,116.3611,23.5626,2025-05-05T1100,29,56,0.7,7,5,79,76,53,颗粒物(PM10)
揭阳市,渔湖,116.4151,23.5294,2025-05-05T1100,27,86,0.7,21,4,78,86,68,颗粒物(PM10)
揭阳市,曲溪,116.403,23.5699,2025-05-05T1100,24,55,0.6,13,18,88,86,53,颗粒物(PM10)
金昌市,天庆家园,102.1692,38.5167,2025-05-05T1100,26,149,0.6,2,8,107,112,100,颗粒物(PM10)
金昌市,金川区人防中心,102.1647,38.5371,2025-05-05T1100,26,374,0.5,4,4,107,113,235,颗粒物(PM10)
金昌市,长春路96号,102.1930,38.5319,2025-05-05T1100,26,194,0.4,1,5,98,104,122,颗粒物(PM10)
金华市,十五中,119.647,29.077,2025-05-05T1100,24,43,0.5,23,3,72,92,43,
金华市,监测站,119.686,29.1029,2025-05-05T1100,24,39,0.4,19,4,72,89,39,
金华市,气象局,119.656,29.1131,2025-05-05T1100,22,34,0.6,18,2,76,86,34,
锦州市,南山,121.1115,41.0879,2025-05-05T1100,26,30,0.7,26,11,72,66,38,
锦州市,开发区,121.0604,40.8428,2025-05-05T1100,10,21,0.5,13,6,94,70,30,
锦州市,百股街道,121.1836,41.1119,2025-05-05T1100,9,27,0.5,18,12,82,59,27,
锦州市,天安街道,121.1178,41.1222,2025-05-05T1100,30,48,0.7,34,9,49,60,48,
锦州市,北湖公园,121.1303,41.1386,2025-05-05T1100,28,39,0.7,31,11,51,64,40,
晋城市,自来水公司,112.85,35.5051,2025-05-05T1100,36,166,0.5,11,7,101,98,108,颗粒物(PM10)
晋城市,白云商贸,112.8318,35.4936,2025-05-05T1100,56,191,0.5,12,6,107,104,121,颗粒物(PM10)
晋城市,市环保局,112.8508,35.4887,2025-05-05T1100,51,213,0.3,7,5,99,94,132,颗粒物(PM10)
晋城市,技术学院,112.8676,35.4897,2025-05-05T1100,,243,0.5,8,5,95,91,147,颗粒物(PM10)
晋城市,泽州一中,112.8271,35.4828,2025-05-05T1100,58,180,0.4,10,4,102,100,115,颗粒物(PM10)
晋中市,南都小区,112.7249,37.7067,2025-05-05T1100,23,142,0.6,14,11,82,64,96,颗粒物(PM10)
晋中市,榆次区政府,112.6991,37.6982,2025-05-05T1100,22,185,0.7,17,13,82,57,118,颗粒物(PM10)
晋中市,榆次三中,112.7195,37.6828,2025-05-05T1100,36,232,1.1,15,8,75,63,141,颗粒物(PM10)
晋中市,迎宾街26号,112.7478,37.6954,2025-05-05T1100,29,202,0.3,15,7,82,61,126,颗粒物(PM10)
荆门市,竹园小学,112.2014,31.0481,2025-05-05T1100,21,106,0.1,9,4,103,67,78,颗粒物(PM10)
荆门市,掇刀,112.1969,30.9891,2025-05-05T1100,21,91,0.2,9,2,99,71,71,颗粒物(PM10)
荆门市,石化一小,112.2213,31.0386,2025-05-05T1100,22,78,0.1,7,6,99,61,64,颗粒物(PM10)
荆门市,西山林语,112.1849,31.0362,2025-05-05T1100,18,72,0.3,3,7,99,62,61,颗粒物(PM10)
荆门市,龙泉中学南校,112.1632,31.0138,2025-05-05T1100,24,72,0.4,2,1,101,78,61,颗粒物(PM10)
荆州市,市图书馆,112.2494,30.3197,2025-05-05T1100,22,68,0.6,10,6,96,86,59,颗粒物(PM10)
荆州市,市委党校,112.2008,30.3544,2025-05-05T1100,18,76,0.6,10,8,90,77,63,颗粒物(PM10)
荆州市,管委会,112.2747,30.3122,2025-05-05T1100,27,62,0.7,9,8,95,77,56,颗粒物(PM10)
荆州市,学苑路85号,112.1722,30.3366,2025-05-05T1100,32,54,0.5,11,4,95,78,52,颗粒物(PM10)
景德镇市,老干部活动中心,117.2117,29.2933,2025-05-05T1100,13,24,0.6,9,7,82,92,26,
景德镇市,兽医站,117.1894,29.2789,2025-05-05T1100,23,45,0.6,12,6,68,88,45,
景德镇市,台达陶瓷,117.1547,29.2617,2025-05-05T1100,27,54,1.0,24,9,67,90,52,颗粒物(PM10)
景德镇市,陶研所,117.2461,29.2956,2025-05-05T1100,18,34,0.6,16,9,65,96,34,
九江市,十里,115.9872,29.6815,2025-05-05T1100,13,16,,,2,91,78,,
九江市,茅山头,115.9584,29.7046,2025-05-05T1100,10,21,0.4,8,9,104,88,33,
九江市,西园,115.9877,29.7295,2025-05-05T1100,12,,,33,7,97,86,,
九江市,综合工业园,115.9114,29.6038,2025-05-05T1100,7,20,0.7,19,8,98,90,31,
九江市,石化总厂,116.0721,29.7535,2025-05-05T1100,19,,0.8,14,9,91,85,29,
九江市,庐山气象台,115.9773,29.5698,2025-05-05T1100,3,9,0.6,4,6,95,85,30,
九江市,外国语学校,116.0254,29.6994,2025-05-05T1100,14,,0.7,15,6,86,78,27,
九江市,莲花大道8号,116.0102,29.6594,2025-05-05T1100,13,14,0.6,3,4,94,74,30,
酒泉市,北大街108号,98.5099,39.7506,2025-05-05T1100,32,185,0.1,3,9,96,103,118,颗粒物(PM10)
喀什地区,巡警大队,76.0072,39.4467,2025-05-05T1100,95,375,0.7,34,7,43,24,236,颗粒物(PM10)
喀什地区,吾办,75.9755,39.4694,2025-05-05T1100,181,351,0.5,31,5,42,27,231,细颗粒物(PM2.5)
喀什地区,老干局,75.9483,39.4689,2025-05-05T1100,100,356,0.3,28,8,33,32,209,颗粒物(PM10)
开封市,肿瘤医院,114.3389,34.7781,2025-05-05T1100,18,74,0.2,3,8,97,84,62,颗粒物(PM10)
开封市,世纪星幼儿园,114.2885,34.7965,2025-05-05T1100,25,104,,14,5,102,90,,
开封市,龙亭公园,114.3438,34.8106,2025-05-05T1100,24,72,0.6,9,3,98,85,61,颗粒物(PM10)
开封市,汴京公园,114.3644,34.7964,2025-05-05T1100,16,89,0.5,9,4,104,91,70,颗粒物(PM10)
开封市,技师学院,114.2485,34.8306,2025-05-05T1100,21,78,0.6,10,5,93,72,64,颗粒物(PM10)
开封市,祥符区生态环境局,114.4644,34.7556,2025-05-05T1100,,,,,,102,86,,
克拉玛依市,长征新村,84.895,45.6094,2025-05-05T1100,10,36,0.2,8,7,73,66,36,
克拉玛依市,南林小区,84.8988,45.5893,2025-05-05T1100,14,34,0.1,3,5,72,47,34,
克拉玛依市,独山子区,84.905,44.3396,2025-05-05T1100,3,49,0.5,16,10,148,77,49,
克拉玛依市,乌尔禾区商贸楼,85.6979,46.098,2025-05-05T1100,10,18,0.2,4,7,84,77,27,
克拉玛依市,白碱滩区新站,85.1045,45.6899,2025-05-05T1100,3,13,0.1,3,10,81,75,26,
克孜勒苏柯尔克孜自治州,市人民政府,76.1454,39.7142,2025-05-05T1100,114,374,0.3,10,4,74,73,235,颗粒物(PM10)
克孜勒苏柯尔克孜自治州,克州文化中心,76.1658,39.7157,2025-05-05T1100,115,370,0.3,12,7,73,69,229,颗粒物(PM10)
昆明市,呈贡新区,102.8204,24.8886,2025-05-05T1100,12,17,0.5,6,6,108,79,34,
昆明市,龙泉镇,102.7252,25.0902,2025-05-05T1100,17,,0.3,11,10,100,35,32,
昆明市,东风东路,102.7266,25.0375,2025-05-05T1100,25,26,,,11,109,75,,
昆明市,金鼎山,102.6742,25.0669,2025-05-05T1100,15,32,0.5,13,6,101,58,32,
昆明市,碧鸡广场,102.6644,25.0401,2025-05-05T1100,,,0.6,,,96,57,,
昆明市,官渡区博物馆,102.7494,25.0119,2025-05-05T1100,15,15,0.4,9,9,112,61,35,
昆明市,青年创业园,102.8017,24.8336,2025-05-05T1100,17,20,0.3,6,10,113,70,36,
昆明市,昆明学院,102.7997,24.9786,2025-05-05T1100,19,33,0.5,9,9,108,61,34,
昆明市,晋宁区生态环境分局,102.5967,24.6736,2025-05-05T1100,12,12,0.3,5,7,101,76,32,
昆明市,云天化总部,102.6678,24.9856,2025-05-05T1100,14,22,0.6,10,13,104,60,33,
拉萨市,八廓街,91.1319,29.6514,2025-05-05T1100,12,22,0.4,15,7,107,116,34,
拉萨市,市环保局,91.1221,29.6747,2025-05-05T1100,9,16,0.5,12,4,108,112,34,
拉萨市,区监测站,91.0874,29.6475,2025-05-05T1100,7,12,0.4,11,6,106,120,34,
拉萨市,西藏大学,91.1774,29.6541,2025-05-05T1100,6,11,0.5,11,,109,118,,
拉萨市,区辐射站,90.9798,29.6588,2025-05-05T1100,10,14,0.3,17,9,103,120,33,
拉萨市,拉萨火车站,91.0834,29.6292,2025-05-05T1100,7,11,0.5,12,4,102,118,32,
来宾市,来宾技工学校,109.2203,23.7256,2025-05-05T1100,19,38,0.6,6,7,87,66,38,
来宾市,兴宾区政府,109.1781,23.7297,2025-05-05T1100,22,32,0.5,5,5,80,60,32,
来宾市,中南小学,109.2416,23.7461,2025-05-05T1100,35,39,0.5,5,7,86,65,50,
兰州市,铁路设计院,103.831,36.0464,2025-05-05T1100,33,50,0.8,30,10,64,42,50,
兰州市,百合公园,103.7439,36.0842,2025-05-05T1100,24,49,0.4,12,6,97,52,49,
兰州市,和平,103.9611,35.998,2025-05-05T1100,42,61,0.7,11,12,81,58,59,细颗粒物(PM2.5)
兰州市,庄浪东路808号,103.6293,36.0938,2025-05-05T1100,32,53,0.3,14,8,88,50,52,颗粒物(PM10)
兰州市,安宁西路88号,103.7251,36.1043,2025-05-05T1100,44,60,0.3,15,5,115,56,62,细颗粒物(PM2.5)
兰州市,北滨河东路1号,103.8470,36.0676,2025-05-05T1100,27,60,0.9,27,13,70,42,55,颗粒物(PM10)
兰州新区,新区管委会,103.6633,36.533,2025-05-05T1100,61,64,0.5,9,14,72,44,83,细颗粒物(PM2.5)
兰州新区,舟曲中学,103.6975,36.4789,2025-05-05T1100,49,54,0.4,8,5,87,64,68,细颗粒物(PM2.5)
廊坊市,药材公司,116.6708,39.5111,2025-05-05T1100,51,55,0.6,15,4,103,101,70,细颗粒物(PM2.5)
廊坊市,开发区,116.7214,39.5589,2025-05-05T1100,50,74,0.7,17,4,100,88,69,细颗粒物(PM2.5)
廊坊市,北华航天学院,116.7244,39.5269,2025-05-05T1100,72,140,0.7,17,,95,88,,
廊坊市,河北工业大学,116.7022,39.5453,2025-05-05T1100,62,70,0.7,22,7,96,96,84,细颗粒物(PM2.5)
乐山市,花湖湾,103.7723,29.5462,2025-05-05T1100,14,22,0.7,15,6,48,83,22,
乐山市,牛耳桥,103.7627,29.5844,2025-05-05T1100,13,18,0.4,14,7,60,81,19,
乐山市,市第三水厂,103.7508,29.6006,2025-05-05T1100,8,15,0.9,12,5,59,78,19,
乐山市,市监测站,103.7571,29.5664,2025-05-05T1100,10,17,0.9,14,6,57,79,18,
乐山市,理工大学,103.7311,29.5628,2025-05-05T1100,11,19,0.7,12,6,65,85,21,
丽江市,丽江古城,100.2497,26.8802,2025-05-05T1100,9,12,0.4,9,9,87,81,28,
丽江市,市中心,100.2203,26.8906,2025-05-05T1100,11,17,0.3,4,6,76,66,24,
丽水市,监测站大楼,119.914,28.4514,2025-05-05T1100,15,20,0.4,19,3,65,91,22,
丽水市,莲都小学,119.93,28.4586,2025-05-05T1100,22,33,0.5,18,4,65,94,33,
丽水市,余庄前,119.879,28.4231,2025-05-05T1100,28,44,0.3,21,4,56,78,44,
连云港市,市环境监测站,119.176,34.5885,2025-05-05T1100,17,19,0.4,8,5,106,100,34,
连云港市,德源药业,119.3581,34.6972,2025-05-05T1100,12,12,0.4,5,8,105,89,33,
连云港市,新城一中,119.178,34.844,2025-05-05T1100,8,26,0.4,7,6,106,91,34,
连云港市,胡沟管理处,119.3608,34.7519,2025-05-05T1100,3,17,0.5,24,14,91,89,29,
连云港市,矿山设计院,119.1478,34.5911,2025-05-05T1100,12,27,0.5,13,7,106,100,34,
连云港市,工贸学校,119.2413,34.6539,2025-05-05T1100,11,14,0.4,9,7,102,95,32,
连云港市,连云街道,119.4172,34.7341,2025-05-05T1100,11,26,0.4,12,6,109,104,35,
凉山彝族自治州,青龙寺,102.3431,27.8099,2025-05-05T1100,6,29,0.7,10,6,61,34,29,
凉山彝族自治州,邛海宾馆,102.2721,27.8415,2025-05-05T1100,10,23,0.7,12,10,76,38,24,
凉山彝族自治州,西昌市政府,102.2625,27.898,2025-05-05T1100,8,24,0.7,8,11,81,52,26,
凉山彝族自治州,凉山州政府,102.2685,27.8851,2025-05-05T1100,9,18,0.6,15,6,74,51,24,
凉山彝族自治州,凯乐南路30号,102.2342,27.8859,2025-05-05T1100,6,22,0.9,12,15,73,47,23,
辽阳市,宏伟区,123.2,41.1953,2025-05-05T1100,3,24,0.4,7,7,102,87,32,
辽阳市,新华园,123.1683,41.2495,2025-05-05T1100,10,29,0.4,9,3,90,68,29,
辽阳市,滨河路,123.2354,41.2639,2025-05-05T1100,10,26,0.3,14,15,89,72,28,
辽阳市,铁西工业园,123.149,41.2991,2025-05-05T1100,15,40,0.4,15,10,85,62,40,
辽源市,环保局,125.1358,42.8845,2025-05-05T1100,16,52,0.5,12,12,104,70,51,颗粒物(PM10)
辽源市,银鹰制药,125.0764,42.9078,2025-05-05T1100,11,24,0.6,12,10,110,66,35,
聊城市,区政府,115.9848,36.4372,2025-05-05T1100,27,63,,9,7,128,109,,
聊城市,聊大东校,116.0072,36.4343,2025-05-05T1100,42,66,0.5,7,8,128,106,59,细颗粒物(PM2.5)
聊城市,监控中心,115.9819,36.4978,2025-05-05T1100,29,45,0.5,10,9,129,106,45,
聊城市,九州社区,116.0445,36.4361,2025-05-05T1100,25,53,0.7,9,6,138,114,52,颗粒物(PM10)
聊城市,星美广场,116.0567,36.4608,2025-05-05T1100,19,57,0.6,17,10,135,106,54,颗粒物(PM10)
林芝市,林芝监测站,94.3681,29.6376,2025-05-05T1100,3,7,0.2,4,5,71,77,23,
林芝市,林芝人民医院,94.3616,29.6616,2025-05-05T1100,3,15,0.3,2,6,75,69,24,
临沧市,市环保局,100.0781,23.8982,2025-05-05T1100,3,27,0.6,,,56,25,,
临沧市,市气象局,100.0894,23.8822,2025-05-05T1100,19,25,0.7,16,8,69,37,28,
临汾市,临钢医院,111.5531,36.0783,2025-05-05T1100,25,79,1.2,13,14,83,62,65,颗粒物(PM10)
临汾市,技工学校,111.5028,36.0714,2025-05-05T1100,18,68,1.0,10,15,84,65,59,颗粒物(PM10)
临汾市,市委,111.5018,36.0855,2025-05-05T1100,26,65,1.2,10,17,84,69,58,颗粒物(PM10)
临汾市,唐尧大酒店,111.505,36.1014,2025-05-05T1100,25,87,1.0,12,13,81,68,69,颗粒物(PM10)
临汾市,启星学校,111.4879,36.0530,2025-05-05T1100,29,76,1.0,10,16,83,58,63,颗粒物(PM10)
临夏回族自治州,滨河东路1号,103.2464,35.6123,2025-05-05T1100,24,70,0.4,4,5,60,37,60,颗粒物(PM10)
临夏回族自治州,新华街21号,103.2093,35.5995,2025-05-05T1100,30,51,0.4,16,4,54,42,51,颗粒物(PM10)
临沂市,沂河小区,118.3429,35.0532,2025-05-05T1100,20,27,0.2,6,8,109,91,35,
临沂市,鲁南制药厂,118.295,35.0583,2025-05-05T1100,24,,0.4,13,,113,88,,
临沂市,新光毛纺厂,118.2794,34.9976,2025-05-05T1100,26,,0.3,13,6,113,94,38,
临沂市,河东保险公司,118.3956,35.0888,2025-05-05T1100,16,19,0.3,6,5,115,92,36,
临沂市,十里堡居委,118.3564,35.0215,2025-05-05T1100,12,19,0.3,15,3,106,83,34,
临沂市,南坊新区,118.3604,35.1084,2025-05-05T1100,14,17,0.3,10,6,112,93,35,
临沂市,皇山花园小区,118.3920,35.0300,2025-05-05T1100,18,22,0.3,12,7,109,86,35,
柳州市,柳东小学,109.4856,24.3895,2025-05-05T1100,21,32,0.7,6,10,80,64,32,
柳州市,环保监测站,109.4157,24.3277,2025-05-05T1100,29,34,0.4,9,9,74,60,42,
柳州市,河西水厂,109.389,24.341,2025-05-05T1100,25,36,0.6,5,4,66,52,36,
柳州市,市四中,109.4311,24.2921,2025-05-05T1100,20,39,0.7,7,8,74,59,39,
柳州市,市九中,109.4006,24.3631,2025-05-05T1100,17,39,0.6,6,8,84,66,39,
柳州市,古亭山,109.4958,24.3134,2025-05-05T1100,18,37,0.7,6,6,72,60,37,
柳州市,市二中,109.5422,24.3996,2025-05-05T1100,22,33,0.5,7,10,74,58,33,
六安市,监测大楼,116.5079,31.737,2025-05-05T1100,14,33,0.4,9,5,119,96,38,
六安市,皖西学院,116.4738,31.7643,2025-05-05T1100,24,33,0.4,10,5,125,101,40,
六安市,朝阳厂,116.4996,31.7905,2025-05-05T1100,20,39,0.3,13,4,114,87,39,
六盘水市,黄土坡,104.83,26.5917,2025-05-05T1100,25,39,0.5,10,9,112,114,39,
六盘水市,水钢,104.89,26.5939,2025-05-05T1100,28,46,0.4,10,8,107,106,46,
六盘水市,民中,104.8475,26.5894,2025-05-05T1100,,,,11,8,104,110,,
六盘水市,双水,104.9544,26.5506,2025-05-05T1100,25,56,0.4,11,9,107,112,53,颗粒物(PM10)
龙岩市,龙岩市监测站,117.0217,25.1033,2025-05-05T1100,14,20,0.5,9,3,65,66,21,
龙岩市,闽西职业技术学院,117.0258,25.0661,2025-05-05T1100,11,23,0.5,5,4,64,58,23,
龙岩市,龙岩学院,117.0196,25.0306,2025-05-05T1100,11,20,0.5,4,12,69,55,22,
陇南市,滨江中学,104.9339,33.3826,2025-05-05T1100,14,36,0.3,4,9,66,60,36,
陇南市,市总工会,104.955,33.371,2025-05-05T1100,8,27,0.3,5,7,74,60,27,
娄底市,电视发射台,111.9589,27.8901,2025-05-05T1100,15,26,0.5,4,6,114,90,36,
娄底市,市监测站,111.9975,27.725,2025-05-05T1100,6,40,0.8,10,6,118,96,40,
娄底市,市委党校,112.0194,27.7314,2025-05-05T1100,16,34,0.5,7,4,116,94,37,
娄底市,涟钢,111.9561,27.7569,2025-05-05T1100,3,17,0.5,5,12,112,85,35,
娄底市,市政府,111.9892,27.7044,2025-05-05T1100,10,31,0.4,7,5,121,96,38,
泸州市,小市上码头,105.4427,28.9063,2025-05-05T1100,12,37,0.4,11,7,75,76,37,
泸州市,兰田宪桥,105.4241,28.8573,2025-05-05T1100,19,37,0.3,4,7,76,74,37,
泸州市,纳溪中医医院,105.3689,28.7783,2025-05-05T1100,18,33,0.3,10,8,76,72,33,
吕梁市,环保局,111.1406,37.5211,2025-05-05T1100,54,138,,35,,43,32,,
吕梁市,自来水公司,111.1297,37.5136,2025-05-05T1100,46,124,1.0,30,4,45,34,87,颗粒物(PM10)
吕梁市,马茂庄小学,111.1283,37.51,2025-05-05T1100,45,143,1.0,38,6,40,28,97,颗粒物(PM10)
洛阳市,市委党校,112.3931,34.6516,2025-05-05T1100,33,128,0.4,3,5,91,84,89,颗粒物(PM10)
洛阳市,河南林校,112.494,34.6886,2025-05-05T1100,32,173,0.3,7,7,99,90,112,颗粒物(PM10)
洛阳市,开发区管委会,112.3844,34.623,2025-05-05T1100,37,108,0.3,8,6,98,90,79,颗粒物(PM10)
洛阳市,市委新办公区,112.4267,34.6258,2025-05-05T1100,34,123,0.2,6,4,99,90,87,颗粒物(PM10)
洛阳市,伊滨,112.6005,34.6326,2025-05-05T1100,42,149,0.4,8,5,102,96,100,颗粒物(PM10)
洛阳市,中移产业园,112.4951,34.6332,2025-05-05T1100,36,117,0.3,6,6,103,96,84,颗粒物(PM10)
洛阳市,吉利监测站,112.5736,34.8993,2025-05-05T1100,40,138,0.3,6,7,102,96,94,颗粒物(PM10)
洛阳市,河科大西苑校区,112.3677,34.662,2025-05-05T1100,29,152,0.4,7,6,104,94,101,颗粒物(PM10)
洛阳市,英才小学,112.4388,34.6781,2025-05-05T1100,32,138,0.5,10,5,104,88,94,颗粒物(PM10)
洛阳市,春都路1号院,112.4600,34.6949,2025-05-05T1100,31,156,0.4,6,5,106,95,103,颗粒物(PM10)
漯河市,三五一五工厂,114.051,33.5699,2025-05-05T1100,23,81,0.5,6,8,106,85,66,颗粒物(PM10)
漯河市,漯河大学,114.0055,33.5698,2025-05-05T1100,19,93,0.3,5,7,107,81,72,颗粒物(PM10)
漯河市,市水利局,114.0138,33.5828,2025-05-05T1100,,102,0.7,6,7,102,76,,
漯河市,市广电局,114.0261,33.5698,2025-05-05T1100,15,90,0.3,5,6,104,82,70,颗粒物(PM10)
漯河市,市图书馆,113.9749,33.5664,2025-05-05T1100,18,94,0.4,9,4,104,76,72,颗粒物(PM10)
漯河市,韶山路11号,114.0892,33.5882,2025-05-05T1100,13,81,0.5,,8,104,79,,
马鞍山市,湖东路四小,118.5092,31.6837,2025-05-05T1100,22,27,0.7,15,8,89,83,32,
马鞍山市,开发区,118.5024,31.6449,2025-05-05T1100,38,,0.6,16,6,88,79,54,细颗粒物(PM2.5)
马鞍山市,濮塘,118.6245,31.7241,2025-05-05T1100,16,30,0.7,8,7,86,79,30,
马鞍山市,雨山,118.4918,31.6809,2025-05-05T1100,24,61,,16,,91,82,,
马鞍山市,慈湖高新区,118.5274,31.72227,2025-05-05T1100,20,42,0.7,15,8,89,75,42,
茂名市,电白南海,111.0286,21.4688,2025-05-05T1100,19,29,0.9,6,1,,52,,
茂名市,茂石化七小,110.9294,21.6533,2025-05-05T1100,14,34,0.8,4,2,34,29,34,
茂名市,健康路,110.9107,21.6687,2025-05-05T1100,9,19,0.7,2,1,39,33,19,
茂名市,高岭,110.8592,21.6828,2025-05-05T1100,9,46,0.6,5,3,34,28,46,
茂名市,电白水东,111.01,21.5165,2025-05-05T1100,3,19,0.7,8,3,38,34,19,
眉山市,黑龙滩水库,104.0308,30.0478,2025-05-05T1100,7,8,0.3,3,2,80,72,25,
眉山市,气象局,103.8416,30.0874,2025-05-05T1100,7,24,0.3,16,18,79,76,25,
眉山市,市委党校,103.8578,30.0744,2025-05-05T1100,3,14,0.4,17,9,70,72,22,
眉山市,区人社局,103.8291,30.0564,2025-05-05T1100,3,18,0.4,18,9,69,74,22,
梅州市,梅江月梅,116.1231,24.3284,2025-05-05T1100,15,21,0.7,4,4,64,50,22,
梅州市,梅县新城,116.0797,24.2719,2025-05-05T1100,15,15,0.6,4,5,70,46,22,
梅州市,环境监控中心,116.1248,24.2654,2025-05-05T1100,18,32,,6,7,63,31,,
梅州市,梅龙,116.1233,24.2991,2025-05-05T1100,9,14,0.7,2,6,68,51,22,
绵阳市,富乐山,104.7778,31.4741,2025-05-05T1100,16,26,0.5,17,7,68,50,26,
绵阳市,高新区自来水公司,104.6697,31.4668,2025-05-05T1100,29,59,0.5,13,3,58,60,55,颗粒物(PM10)
绵阳市,三水厂,104.7287,31.5075,2025-05-05T1100,28,46,0.6,14,7,62,62,46,
绵阳市,西科大附属小学,104.69,31.5322,2025-05-05T1100,36,65,0.5,11,7,60,57,58,颗粒物(PM10)
绵阳市,安州区旅游局,104.5648,31.5343,2025-05-05T1100,24,35,,,8,38,61,,
绵阳市,绵阳市气象局,104.7651,31.4531,2025-05-05T1100,24,34,0.5,17,1,58,65,35,
牡丹江市,环保大楼,129.61,44.561,2025-05-05T1100,10,10,0.2,7,6,84,61,27,
牡丹江市,文化广场,129.6115,44.5782,2025-05-05T1100,9,12,0.4,10,9,82,61,26,
牡丹江市,第一医院,129.5904,44.5963,2025-05-05T1100,10,15,0.3,6,6,87,61,28,
牡丹江市,机车工厂,129.6364,44.6075,2025-05-05T1100,8,18,0.4,7,5,83,52,26,
牡丹江市,第一中学,129.6386,44.5462,2025-05-05T1100,6,18,0.5,8,7,90,65,29,
内江市,市监测站,105.0703,29.61,2025-05-05T1100,15,22,0.7,9,13,88,88,28,
内江市,东兴区政府,105.0717,29.5947,2025-05-05T1100,3,22,0.4,14,16,88,89,28,
内江市,内江二中,105.0653,29.5817,2025-05-05T1100,15,20,0.5,16,9,82,84,26,
内江市,内江日报社,105.0406,29.5822,2025-05-05T1100,17,25,0.6,8,13,84,84,27,
那曲市,那曲监测站,92.0657,31.4846,2025-05-05T1100,37,44,0.5,18,7,91,88,53,细颗粒物(PM2.5)
那曲市,那曲市委宣传部,92.0515,31.4787,2025-05-05T1100,28,36,0.3,7,6,95,92,40,
南昌市,省外办,115.8931,28.6843,2025-05-05T1100,9,14,0.7,13,5,107,58,34,
南昌市,省林业公司,115.8886,28.7003,2025-05-05T1100,12,,0.7,6,7,110,64,35,
南昌市,林科所,115.8126,28.7442,2025-05-05T1100,,,0.3,,,98,54,,
南昌市,建工学校,115.8518,28.687,2025-05-05T1100,31,,0.6,9,3,95,62,45,
南昌市,象湖,115.8921,28.6424,2025-05-05T1100,7,10,0.7,8,7,97,65,31,
南昌市,武术学校,115.7423,28.7996,2025-05-05T1100,3,21,0.5,1,,116,58,,
南昌市,机电学校,115.9084,28.6062,2025-05-05T1100,12,13,0.6,14,3,93,64,30,
南昌市,外国语学校,115.9721,28.7031,2025-05-05T1100,13,15,0.4,8,7,113,68,36,
南昌市,南京东路235号,115.9316,28.68677,2025-05-05T1100,6,24,0.8,9,9,118,70,37,
南充市,南充市委,106.0789,30.8023,2025-05-05T1100,9,23,0.3,8,4,91,81,29,
南充市,南充炼油厂,106.1031,30.8217,2025-05-05T1100,14,39,0.4,11,4,78,80,39,
南充市,梨树横街98号,106.1083,30.7884,2025-05-05T1100,13,23,0.2,12,3,83,81,26,
南充市,清泉寺北路188号,106.1172,30.843,2025-05-05T1100,3,30,0,9,4,80,78,30,
南充市,同庆路1号,106.067,30.7616,2025-05-05T1100,,,,,3,75,78,,
南京市,迈皋桥,118.8086,32.1065,2025-05-05T1100,22,30,0.6,28,4,67,64,32,
南京市,草场门,118.7538,32.0551,2025-05-05T1100,22,58,0.3,27,3,71,68,54,颗粒物(PM10)
南京市,山西路,118.7794,32.0745,2025-05-05T1100,17,,0.4,30,3,75,74,,
南京市,中华门,118.7752,32.0023,2025-05-05T1100,17,51,0.5,21,6,80,62,51,颗粒物(PM10)
南京市,瑞金路,118.8109,32.0309,2025-05-05T1100,19,46,0.3,22,6,78,64,46,
南京市,玄武湖,118.7997,32.0754,2025-05-05T1100,22,47,0.6,16,6,58,64,47,
南京市,浦口,118.6414,32.0931,2025-05-05T1100,19,38,0.7,24,7,76,75,38,
南京市,奥体中心,118.7356,31.9996,2025-05-05T1100,24,45,0.4,21,4,83,75,45,
南京市,仙林大学城,118.9125,32.1028,2025-05-05T1100,22,39,0.5,20,,73,64,,
南京市,江宁彩虹桥,118.8436,31.9198,2025-05-05T1100,17,38,0.4,19,3,83,71,38,
南京市,六合雄州,118.8554,32.3578,2025-05-05T1100,28,48,0.5,26,6,73,72,48,
南京市,汶溪路181号,118.8708,31.3402,2025-05-05T1100,14,,0.4,22,3,73,73,,
南京市,中山西路1号,119.019,31.6512,2025-05-05T1100,12,22,0.7,18,3,84,74,27,
南宁市,二十一中,108.3103,22.7881,2025-05-05T1100,20,37,0.6,5,2,94,67,37,
南宁市,北湖,108.3141,22.8528,2025-05-05T1100,26,,0.7,6,5,102,73,38,
南宁市,市监测站,108.3206,22.8225,2025-05-05T1100,24,48,0.4,5,5,88,63,48,
南宁市,大自然花园,108.3829,22.8037,2025-05-05T1100,20,33,0.5,3,5,101,70,33,
南宁市,仙葫,108.4394,22.7904,2025-05-05T1100,22,35,0.6,4,5,90,65,35,
南宁市,区农职院,108.2397,22.8467,2025-05-05T1100,26,42,0.5,8,4,94,66,42,
南宁市,英华嘉园,108.3275,22.735,2025-05-05T1100,28,34,0.4,8,6,100,64,40,
南宁市,红星社区,108.4834,22.7618,2025-05-05T1100,23,34,0.5,2,8,110,73,35,
南宁市,乐贤路16号,108.2177,22.7774,2025-05-05T1100,27,39,0.5,5,5,93,48,39,
南平市,南平市监测站,118.1681,26.6369,2025-05-05T1100,14,21,0.7,9,4,76,79,24,
南平市,南平铝业有限公司,118.1825,26.6489,2025-05-05T1100,15,21,0.6,4,4,75,76,24,
南平市,南平七中,118.1756,26.6272,2025-05-05T1100,14,42,0.6,7,4,74,80,42,
南通市,狼山街道,120.9098,31.9663,2025-05-05T1100,9,12,0.5,25,3,60,72,19,
南通市,虹桥,120.86,32.0005,2025-05-05T1100,9,15,0.7,25,3,65,74,21,
南通市,城中,120.87,32.02,2025-05-05T1100,8,13,0.6,26,1,63,75,20,
南通市,星湖花园,120.94,31.93,2025-05-05T1100,8,9,0.6,25,2,58,70,19,
南通市,紫琅学院,120.81,32.0417,2025-05-05T1100,3,6,0.7,22,3,55,67,18,
南通市,通州监测站,121.067,32.062,2025-05-05T1100,7,9,0.5,13,4,70,81,22,
南通市,环境教育馆,120.9348,31.9883,2025-05-05T1100,8,14,0.2,24,2,54,72,17,
南阳市,瓦房庄,112.5224,33.0122,2025-05-05T1100,70,279,0.4,6,5,110,84,165,颗粒物(PM10)
南阳市,汉画馆,112.5003,32.9735,2025-05-05T1100,72,277,0.2,4,4,105,74,164,颗粒物(PM10)
南阳市,气象站,112.5573,33.027,2025-05-05T1100,107,342,0.1,3,5,109,81,196,颗粒物(PM10)
南阳市,理工学院,112.5481,32.9689,2025-05-05T1100,61,205,0.3,5,3,109,78,128,颗粒物(PM10)
南阳市,卧龙区政府,112.5234,32.9922,2025-05-05T1100,67,263,0.4,8,4,110,83,157,颗粒物(PM10)
宁波市,区环保大楼,121.8358,29.911,2025-05-05T1100,3,17,0.5,19,7,60,98,19,
宁波市,万里学院,121.56,29.82,2025-05-05T1100,10,17,0.5,24,5,77,97,25,
宁波市,龙赛医院,121.713,29.9572,2025-05-05T1100,11,17,,24,5,67,100,,
宁波市,钱湖水厂,121.633,29.7733,2025-05-05T1100,7,12,0.4,14,8,82,88,26,
宁波市,太古小学,121.5856,29.8635,2025-05-05T1100,11,24,0.8,26,6,68,90,24,
宁波市,市环境监测中心,121.524,29.8674,2025-05-05T1100,6,15,0.7,36,,66,90,,
宁波市,万里国际学校,121.6147,29.9017,2025-05-05T1100,10,20,0.6,23,8,76,101,24,
宁波市,白沙活动中心,121.5594,29.8975,2025-05-05T1100,6,16,0.5,23,7,71,91,23,
宁德市,宁德市监测站,119.5388,26.6612,2025-05-05T1100,23,42,,24,5,71,64,,
宁德市,宁德一中,119.5231,26.6562,2025-05-05T1100,20,35,,,2,74,66,,
怒江傈僳族自治州,州监测站,98.8601,25.8567,2025-05-05T1100,13,32,0.3,5,6,54,34,32,
怒江傈僳族自治州,泸水一中,98.8546,25.8417,2025-05-05T1100,26,38,0.2,6,6,43,22,38,
攀枝花市,弄弄坪,101.6891,26.571,2025-05-05T1100,18,33,0.6,13,16,111,78,35,
攀枝花市,河门口,101.5769,26.5928,2025-05-05T1100,16,38,1.7,15,28,108,55,38,
攀枝花市,炳草岗,101.7169,26.585,2025-05-05T1100,16,40,0.6,14,22,112,58,40,
攀枝花市,仁和,101.7369,26.5008,2025-05-05T1100,,,0.4,,15,111,69,,
攀枝花市,四十中小,101.7227,26.567,2025-05-05T1100,14,30,0.7,10,16,122,75,39,
盘锦市,开发区,122.0303,41.1489,2025-05-05T1100,,26,0.4,13,10,102,62,,
盘锦市,兴隆台,122.0485,41.0883,2025-05-05T1100,10,28,0.5,18,10,89,52,28,
盘锦市,新生街道,121.8297,41.1028,2025-05-05T1100,11,23,0.4,14,10,101,73,32,
平顶山市,新华旅馆,113.3257,33.742,2025-05-05T1100,22,199,0.3,8,5,104,101,125,颗粒物(PM10)
平顶山市,规划设计院,113.2919,33.737,2025-05-05T1100,58,177,0.5,6,5,103,98,114,颗粒物(PM10)
平顶山市,平顶山工学院,113.182,33.774,2025-05-05T1100,41,131,0.0,5,7,104,100,91,颗粒物(PM10)
平顶山市,规划局,113.3025,33.73,2025-05-05T1100,36,217,0.4,3,6,104,99,134,颗粒物(PM10)
平顶山市,石龙区,112.8867,33.9116,2025-05-05T1100,,295,0.3,8,5,107,102,173,颗粒物(PM10)
平凉市,聚贤嘉苑,106.6692,35.5461,2025-05-05T1100,54,296,0.7,11,11,102,58,173,颗粒物(PM10)
平凉市,博物馆,106.7021,35.5307,2025-05-05T1100,55,308,0.5,10,9,96,57,179,颗粒物(PM10)
萍乡市,武功山,114.0997,27.5002,2025-05-05T1100,3,,0.5,6,15,81,56,26,
萍乡市,中医院,113.8385,27.6434,2025-05-05T1100,22,22,1.0,3,9,100,65,32,
萍乡市,市政府车库,113.8493,27.6253,2025-05-05T1100,37,,1.2,10,6,98,64,53,细颗粒物(PM2.5)
萍乡市,市环保局,113.8676,27.6435,2025-05-05T1100,19,23,1.1,7,5,100,69,32,
萍乡市,安源区政府,113.866,27.6198,2025-05-05T1100,30,45,1.4,15,5,80,55,45,
莆田市,荔城区仓后路,119.0141,25.4325,2025-05-05T1100,34,56,0.6,13,4,104,62,53,颗粒物(PM10)
莆田市,莆田市监测站,119.0015,25.4553,2025-05-05T1100,38,54,0.5,12,6,109,80,54,细颗粒物(PM2.5)
莆田市,涵江区六中,119.1119,25.4561,2025-05-05T1100,46,56,0.5,20,6,132,77,64,细颗粒物(PM2.5)
莆田市,秀屿区政府,119.1013,25.3215,2025-05-05T1100,40,41,0.6,14,8,141,77,57,细颗粒物(PM2.5)
濮阳市,环保局,115.0312,35.7636,2025-05-05T1100,14,48,0.7,13,7,119,101,48,
濮阳市,油田运输公司,115.0574,35.7609,2025-05-05T1100,22,64,0.7,13,7,136,107,57,颗粒物(PM10)
濮阳市,濮水河管理处,115,35.7668,2025-05-05T1100,15,78,0.8,10,7,127,102,64,颗粒物(PM10)
濮阳市,任丘路479号,115.0924,35.7686,2025-05-05T1100,14,52,0.6,8,6,133,102,51,颗粒物(PM10)
普洱市,市环保局,100.98,22.7633,2025-05-05T1100,13,24,0.4,5,7,86,45,27,
普洱市,普洱第二中学,100.9817,22.8322,2025-05-05T1100,9,31,0.5,7,6,88,40,31,
七台河市,新一中,131.0518,45.8751,2025-05-05T1100,8,16,0.7,6,12,108,90,34,
七台河市,中波台,131.0577,45.7879,2025-05-05T1100,8,19,0.5,10,5,82,72,26,
七台河市,人民广场,131.0176,45.7761,2025-05-05T1100,9,23,0.4,8,10,89,79,28,
七台河市,新建矿广场,130.8781,45.8222,2025-05-05T1100,8,129,0.3,14,,76,64,,
齐齐哈尔市,安居小区,123.9305,47.3636,2025-05-05T1100,3,22,0.3,5,2,84,64,27,
齐齐哈尔市,中心广场,123.9488,47.3386,2025-05-05T1100,9,14,0.3,6,8,85,71,27,
齐齐哈尔市,农牧车辆厂,123.9483,47.3227,2025-05-05T1100,3,19,0.3,5,5,85,68,27,
齐齐哈尔市,市环境监测站,123.945,47.2988,2025-05-05T1100,6,22,0.4,4,3,85,69,27,
齐齐哈尔市,富区青少年活动中心,123.6333,47.2075,2025-05-05T1100,17,33,,4,2,79,61,,
黔东南苗族侗族自治州,市环境监测站,107.9783,26.5747,2025-05-05T1100,15,20,0.5,12,3,35,48,22,
黔东南苗族侗族自治州,凯里学院,107.8908,26.5311,2025-05-05T1100,14,17,0.4,4,1,47,53,20,
黔南布依族苗族自治州,小围寨,107.5228,26.2403,2025-05-05T1100,27,27,0.3,7,2,32,44,39,
黔南布依族苗族自治州,沙坝,107.5175,26.2978,2025-05-05T1100,36,46,0.5,7,4,33,47,52,细颗粒物(PM2.5)
黔西南布依族苗族自治州,场坝街,104.9022,25.0925,2025-05-05T1100,12,21,0.4,13,12,101,56,32,
黔西南布依族苗族自治州,坪东大道,104.8811,25.0992,2025-05-05T1100,17,26,0.3,13,13,100,57,32,
钦州市,市环保站,108.6236,21.9667,2025-05-05T1100,,,0.6,,3,41,37,,
钦州市,沙埠小学,108.6549,21.9481,2025-05-05T1100,12,,0.6,8,7,45,38,18,
钦州市,港区一小,108.5989,21.7431,2025-05-05T1100,12,62,0.4,7,11,38,37,56,颗粒物(PM10)
钦州市,北职校,108.5959,21.9633,2025-05-05T1100,14,28,0.6,7,7,43,34,28,
秦皇岛市,第一关,119.7493,40.0116,2025-05-05T1100,29,,0.3,37,4,68,69,42,
秦皇岛市,监测站,119.5897,39.9499,2025-05-05T1100,20,45,0.4,32,3,67,77,45,
秦皇岛市,建设大厦,119.5251,39.9041,2025-05-05T1100,31,40,0.5,37,3,67,73,45,
秦皇岛市,文明里,119.610547,39.943889,2025-05-05T1100,29,34,0.4,33,4,72,82,42,
秦皇岛市,北戴河轮滑馆,119.5090,39.8253,2025-05-05T1100,24,24,0.4,22,4,85,93,35,
青岛市,仰口,120.6659,36.2403,2025-05-05T1100,7,8,0.4,6,6,115,106,36,
青岛市,市南区东部子站,120.4134,36.0658,2025-05-05T1100,7,22,0.3,6,7,112,98,35,
青岛市,四方区子站,120.3664,36.1032,2025-05-05T1100,7,14,0.5,13,3,121,109,38,
青岛市,市南区西部子站,120.2994,36.054,2025-05-05T1100,,,,26,7,107,95,,
青岛市,崂山区子站,120.4581,36.0858,2025-05-05T1100,3,17,0.4,8,8,116,107,37,
青岛市,城阳区子站,120.3999,36.3083,2025-05-05T1100,3,24,0.3,10,4,113,104,36,
青岛市,黄岛区4号,120.0405,35.8735,2025-05-05T1100,3,19,0.4,8,8,115,110,36,
青岛市,即墨2号,120.5014,36.4034,2025-05-05T1100,3,16,0.4,1,6,121,110,38,
青岛市,市北区南部,120.3503,36.0736,2025-05-05T1100,3,18,0.7,3,8,104,92,33,
青岛市,李沧区北部,120.3948,36.1805,2025-05-05T1100,7,19,0.4,12,8,105,94,33,
青岛市,珠江路669号,120.1969,35.9546,2025-05-05T1100,7,17,0.4,6,6,114,108,36,
清远市,环保大楼,113.0426,23.691,2025-05-05T1100,21,42,0.9,26,5,28,20,42,
清远市,凤城街办,113.0208,23.7106,2025-05-05T1100,21,36,0.6,35,6,16,16,36,
清远市,技师学院,113.0477,23.6344,2025-05-05T1100,16,31,0.5,14,6,40,17,31,
清远市,清新太和,112.9903,23.7403,2025-05-05T1100,24,30,0.6,18,7,32,22,35,
清远市,清城东城,113.076,23.7198,2025-05-05T1100,25,42,0.6,17,7,31,22,42,
庆阳市,庆阳五中,107.6325,35.7357,2025-05-05T1100,101,480,0.4,7,5,84,73,375,颗粒物(PM10)
庆阳市,市环保局,107.6364,35.7067,2025-05-05T1100,98,448,0.4,5,8,86,74,335,颗粒物(PM10)
曲靖市,环境监测站,103.7897,25.5035,2025-05-05T1100,23,47,0.7,25,14,103,69,47,
曲靖市,烟厂办公区,103.8,25.5364,2025-05-05T1100,10,45,0.6,17,8,101,56,45,
曲靖市,南苑二区,103.7947,25.462,2025-05-05T1100,,,,19,,107,80,,
曲靖市,曲靖师范学院,103.7444,25.5261,2025-05-05T1100,36,,0.6,22,14,96,52,52,细颗粒物(PM2.5)
衢州市,环保大楼,118.8692,28.9398,2025-05-05T1100,18,31,0.5,17,3,68,75,31,
衢州市,实验学校,118.8709,28.9666,2025-05-05T1100,20,21,0.5,18,7,69,81,29,
衢州市,衢州学院,118.8621,28.9808,2025-05-05T1100,20,25,0.4,19,4,66,71,29,
泉州市,涂山街,118.5819,24.9117,2025-05-05T1100,36,60,0.6,23,10,106,76,55,颗粒物(PM10)
泉州市,津头埔,118.5972,24.8978,2025-05-05T1100,35,61,0.6,28,8,100,75,56,颗粒物(PM10)
泉州市,万安,118.6663,24.9424,2025-05-05T1100,37,67,0.6,26,7,121,72,59,颗粒物(PM10)
泉州市,城华南路,118.6333,24.9264,2025-05-05T1100,35,61,0.6,28,9,108,73,56,颗粒物(PM10)
日喀则市,日喀则监测站,88.8876,29.2718,2025-05-05T1100,3,9,0.4,5,7,122,98,39,
日喀则市,林业技术推广中心,88.8781,29.2426,2025-05-05T1100,3,13,0.3,3,6,124,108,39,
日照市,监测站,119.471,35.4209,2025-05-05T1100,16,17,0.4,8,5,115,107,36,
日照市,市政府广场,119.523,35.4216,2025-05-05T1100,3,17,0.3,5,4,110,104,35,
日照市,港务局,119.5587,35.4044,2025-05-05T1100,14,,0.5,7,6,120,116,38,
日照市,职业技术学院,119.5328,35.4625,2025-05-05T1100,29,,0.4,2,4,119,114,42,
日照市,岚山环保分局,119.3266,35.1044,2025-05-05T1100,15,,0.5,11,7,119,108,38,
三门峡市,市政府,111.1922,34.7752,2025-05-05T1100,36,51,0.6,14,11,99,84,52,细颗粒物(PM2.5)
三门峡市,开发区,111.1587,34.7942,2025-05-05T1100,30,61,0.6,,9,95,83,,
三门峡市,三门峡市第一小学,111.1911,34.7829,2025-05-05T1100,17,57,0.5,10,13,104,89,54,颗粒物(PM10)
三门峡市,富达温泉假日酒店,111.1,34.7167,2025-05-05T1100,21,48,0.6,11,8,104,84,48,
三明市,三钢,117.6211,26.2625,2025-05-05T1100,15,29,1.1,15,13,54,35,29,
三明市,三明二中,117.635,26.2714,2025-05-05T1100,16,27,0.8,16,11,54,39,27,
三明市,三元区政府,117.6028,26.2378,2025-05-05T1100,15,24,0.7,14,9,52,24,24,
三亚市,河东子站,109.5078,18.2489,2025-05-05T1100,7,8,0.3,2,4,37,24,12,
三亚市,河西子站,109.4964,18.2681,2025-05-05T1100,7,13,0.2,1,2,39,22,13,
三亚市,君悦子站,109.7348,18.3443,2025-05-05T1100,7,12,0.2,3,3,44,21,14,
山南市,山南监测站,91.7608,29.2313,2025-05-05T1100,19,,,3,3,108,103,,
山南市,山南人民医院,91.7706,29.2436,2025-05-05T1100,25,70,0.4,6,4,106,98,60,颗粒物(PM10)
汕头市,金平子站,116.6794,23.3667,2025-05-05T1100,19,50,0.7,8,5,100,96,50,
汕头市,龙湖子站,116.7244,23.3633,2025-05-05T1100,11,44,0.5,6,4,100,97,44,
汕头市,濠江子站,116.7258,23.2775,2025-05-05T1100,22,55,0.5,12,4,107,99,53,颗粒物(PM10)
汕头市,澄海子站,116.7519,23.4714,2025-05-05T1100,23,62,0.7,17,2,105,99,56,颗粒物(PM10)
汕头市,潮阳子站,116.6092,23.2539,2025-05-05T1100,16,82,0.8,10,7,109,99,66,颗粒物(PM10)
汕头市,潮南峡山,116.454,23.2684,2025-05-05T1100,21,36,0.7,5,5,104,90,36,
汕头市,潮南子站,116.4069,23.2533,2025-05-05T1100,19,32,0.6,4,4,94,86,32,
汕尾市,市环保局,115.3653,22.775,2025-05-05T1100,16,35,0.4,6,6,94,92,35,
汕尾市,市政府,115.3706,22.7898,2025-05-05T1100,15,26,0.3,7,4,86,84,27,
汕尾市,新城中学,115.3622,22.7925,2025-05-05T1100,19,33,0.3,4,8,89,86,33,
商洛市,监测站,109.9154,33.8715,2025-05-05T1100,12,36,0.3,4,4,110,95,36,
商洛市,商州区中学,109.9643,33.8471,2025-05-05T1100,28,42,0.3,4,3,112,96,42,
商丘市,环境监测站,115.6702,34.4285,2025-05-05T1100,38,50,0.5,13,4,132,108,54,细颗粒物(PM2.5)
商丘市,粮食局,115.6458,34.4045,2025-05-05T1100,43,57,0.5,14,4,137,117,60,细颗粒物(PM2.5)
商丘市,睢阳区环保局,115.6293,34.3948,2025-05-05T1100,33,59,0.5,14,4,142,114,55,颗粒物(PM10)
商丘市,梁园区档案局,115.6071,34.4465,2025-05-05T1100,35,76,0.5,10,4,127,109,63,颗粒物(PM10)
上海市,普陀,121.4,31.238,2025-05-05T1100,12,12,0.5,20,4,73,91,23,
上海市,十五厂,121.478,31.2036,2025-05-05T1100,8,12,0.6,20,8,78,90,25,
上海市,虹口,121.467,31.3008,2025-05-05T1100,13,,0.8,14,6,72,90,23,
上海市,静安监测站,121.425,31.2261,2025-05-05T1100,10,11,0.8,20,8,77,92,25,
上海市,浦东川沙,121.703,31.1907,2025-05-05T1100,6,11,0.6,16,5,81,89,26,
上海市,浦东新区监测站,121.533,31.2284,2025-05-05T1100,6,8,0.5,13,6,85,90,27,
上海市,浦东张江,121.577,31.2071,2025-05-05T1100,12,,0.7,16,5,82,93,26,
上海市,宝山庙行,121.4316,31.3322,2025-05-05T1100,13,20,0.5,24,6,71,94,23,
上海市,崇明上实东滩,121.8791,31.4662,2025-05-05T1100,3,9,0.3,8,1,108,104,34,
上海市,嘉定南翔,121.3162,31.2838,2025-05-05T1100,17,24,0.7,44,5,46,83,25,
上海市,金山新城,121.3359,30.7456,2025-05-05T1100,6,13,0.7,16,2,91,105,29,
上海市,闵行浦江,121.4996,31.0739,2025-05-05T1100,7,10,0.6,14,3,75,89,24,
上海市,青浦徐泾,121.2886,31.1663,2025-05-05T1100,10,14,0.6,24,5,73,92,23,
上海市,松江图书馆,121.2186,31.0378,2025-05-05T1100,7,13,0.6,19,6,85,91,27,
上海市,长宁仙霞,121.3902,31.2059,2025-05-05T1100,14,16,0.7,26,7,64,93,20,
上海市,浦东惠南,121.7965,31.0507,2025-05-05T1100,10,10,0.7,13,7,85,92,27,
上海市,奉贤南桥新城,121.4891,30.925,2025-05-05T1100,12,12,0.6,21,3,84,92,27,
上海市,冠生园路458号,121.4174,31.16637,2025-05-05T1100,13,15,0.7,24,7,64,96,20,
上海市,宁武路151号,121.5419,31.2683,2025-05-05T1100,12,14,0.6,32,4,61,80,20,
上饶市,市监测站,117.9756,28.4436,2025-05-05T1100,18,39,0.7,18,7,49,80,39,
上饶市,凤凰光学,117.9519,28.4628,2025-05-05T1100,28,30,0.8,19,10,45,77,40,
上饶市,双创科技城,117.897,28.4315,2025-05-05T1100,28,36,0.9,26,8,45,83,40,
上饶市,裕丰大道,118.1904,28.4448,2025-05-05T1100,19,35,0.7,13,6,40,70,35,
韶关市,市八中,113.5824,24.7733,2025-05-05T1100,15,29,0.6,16,11,37,25,29,
韶关市,园林处,113.5917,24.7972,2025-05-05T1100,12,16,0.5,10,6,35,22,18,
韶关市,曲江监测站,113.5971,24.6863,2025-05-05T1100,18,25,0.8,15,9,34,26,26,
韶关市,大学路288号,113.6668,24.7756,2025-05-05T1100,18,26,0.9,12,17,46,28,26,
韶关市,碧湖山庄,113.5556,24.8082,2025-05-05T1100,15,21,0.5,10,5,38,26,22,
邵阳市,市化工厂,111.5283,27.2442,2025-05-05T1100,18,26,0.4,11,7,111,79,35,
邵阳市,市环保局,111.4328,27.2272,2025-05-05T1100,12,21,0.5,8,1,112,80,35,
邵阳市,北塔二期4-26地块,111.4460,27.2472,2025-05-05T1100,21,28,0.5,8,4,109,76,35,
邵阳市,邵水西路287号,111.4739,27.2282,2025-05-05T1100,11,26,0.5,9,3,98,67,31,
绍兴市,城东开发委,120.6053,29.9928,2025-05-05T1100,16,26,0.2,15,6,65,78,26,
绍兴市,树下王站,120.5483,30.0003,2025-05-05T1100,20,28,0.5,10,6,71,87,29,
绍兴市,绍兴中专,120.5683,29.9361,2025-05-05T1100,17,20,0.1,6,6,66,90,25,
绍兴市,柯桥区政府,120.4906,30.0861,2025-05-05T1100,11,25,0.4,14,6,64,68,25,
绍兴市,重华小学,120.8752,30.0249,2025-05-05T1100,11,17,0.7,8,,76,91,,
绍兴市,上虞中学,120.8369,30.0137,2025-05-05T1100,17,21,0.5,15,7,79,101,25,
绍兴市,柯桥妇保,120.4722,30.0415,2025-05-05T1100,20,27,0.6,13,5,63,62,29,
绍兴市,袍江中学,120.6153,30.0764,2025-05-05T1100,23,32,0.6,20,2,72,87,33,
深圳市,通心岭子站,114.1063,22.5545,2025-05-05T1100,10,18,0.5,5,6,64,60,20,
深圳市,洪湖,114.117,22.5625,2025-05-05T1100,10,20,0.5,,,64,63,,
深圳市,华侨城,113.987,22.5417,2025-05-05T1100,8,13,0.5,8,6,58,49,19,
深圳市,南海子站,113.9181,22.5171,2025-05-05T1100,11,26,0.7,14,7,58,56,26,
深圳市,盐田,114.2458,22.5689,2025-05-05T1100,19,37,0.6,7,8,75,65,37,
深圳市,龙岗,114.2283,22.7244,2025-05-05T1100,12,25,0.6,5,6,77,71,25,
深圳市,南澳,114.494,22.5422,2025-05-05T1100,15,29,0.6,3,6,78,75,29,
深圳市,葵涌,114.41,22.6342,2025-05-05T1100,10,20,0.5,6,7,75,72,24,
深圳市,梅沙,114.297,22.5978,2025-05-05T1100,13,34,0.6,4,8,79,76,34,
深圳市,观澜,114.0678,22.738,2025-05-05T1100,10,30,0.7,8,6,64,54,30,
深圳市,莲花,114.0731,22.559,2025-05-05T1100,11,16,0.5,8,6,45,49,16,
深圳市,民治,114.0261,22.6198,2025-05-05T1100,10,15,0.5,7,7,60,58,19,
深圳市,横岗,114.1871,22.6451,2025-05-05T1100,15,27,0.6,9,7,67,58,27,
深圳市,坪山,114.3551,22.7151,2025-05-05T1100,14,22,0.4,6,7,72,70,23,
深圳市,西乡,113.8953,22.5861,2025-05-05T1100,16,32,,,8,48,57,,
沈阳市,浑南东路,123.505,41.7406,2025-05-05T1100,22,48,0.5,12,11,91,29,48,
沈阳市,新秀街,123.4231,41.6989,2025-05-05T1100,24,51,0.6,20,16,87,44,51,颗粒物(PM10)
沈阳市,东陵路,123.5903,41.8411,2025-05-05T1100,18,55,0.7,13,12,81,27,53,颗粒物(PM10)
沈阳市,陵东街,123.4264,41.8467,2025-05-05T1100,16,41,0.9,18,8,69,29,41,
沈阳市,文化路,123.4114,41.7653,2025-05-05T1100,20,42,0.8,18,12,93,58,42,
沈阳市,小河沿,123.4678,41.7867,2025-05-05T1100,13,39,0.7,14,11,92,27,39,
沈阳市,太原街,123.4017,41.7972,2025-05-05T1100,19,45,0.8,26,9,83,56,45,
沈阳市,京沈街,123.3783,41.9228,2025-05-05T1100,31,49,0.8,21,12,80,36,49,
沈阳市,沈辽西路,123.2444,41.7347,2025-05-05T1100,20,42,0.6,13,8,90,43,42,
沈阳市,裕农路,123.5953,41.9086,2025-05-05T1100,17,37,0.8,17,11,83,48,37,
十堰市,武当山,111.0419,32.395,2025-05-05T1100,7,30,0.5,4,9,106,98,34,
十堰市,滨河新村,110.78,32.6494,2025-05-05T1100,,37,0.3,5,4,95,54,,
十堰市,刘家沟,110.7258,32.6389,2025-05-05T1100,13,50,0.3,6,8,106,63,50,
十堰市,铁二处,110.8839,32.5714,2025-05-05T1100,9,48,0.4,10,8,106,61,48,
十堰市,郧阳区金沙路,110.8054,32.8401,2025-05-05T1100,,,,,,,,,
石河子市,艾青诗歌馆,86.0497,44.2967,2025-05-05T1100,19,35,0.4,16,9,78,58,35,
石河子市,南区管委会,86.047,44.2331,2025-05-05T1100,24,43,0.5,18,22,83,76,43,
石河子市,世纪广场,86.0791,44.3017,2025-05-05T1100,16,45,0.4,16,10,75,61,45,
石家庄市,职工医院,114.4422,38.0444,2025-05-05T1100,,,0.5,,,72,69,,
石家庄市,高新区,114.6063,38.0266,2025-05-05T1100,38,130,0.5,14,4,82,70,90,颗粒物(PM10)
石家庄市,西北水源,114.4898,38.1328,2025-05-05T1100,46,162,0.5,5,5,73,63,106,颗粒物(PM10)
石家庄市,西南高教,114.4586,38.0058,2025-05-05T1100,61,145,0.5,16,6,80,74,98,颗粒物(PM10)
石家庄市,世纪公园,114.5331,38.0178,2025-05-05T1100,41,111,0.5,19,6,80,71,81,颗粒物(PM10)
石家庄市,人民会堂,114.509,38.0457,2025-05-05T1100,36,136,,17,4,66,72,,
石家庄市,封龙山,114.3524,37.8911,2025-05-05T1100,40,196,0.5,8,11,84,96,123,颗粒物(PM10)
石家庄市,22中南校区,114.5481,38.0378,2025-05-05T1100,34,120,0.4,16,6,81,73,85,颗粒物(PM10)
石家庄市,鹿泉一中,114.289,38.0906,2025-05-05T1100,53,178,0.5,12,5,80,75,114,颗粒物(PM10)
石家庄市,藁城区实验学校,114.8506765,38.0322033,2025-05-05T1100,23,80,0.4,7,3,92,73,65,颗粒物(PM10)
石家庄市,栾城区星河路,114.6549,37.9020,2025-05-05T1100,30,85,0.5,21,4,83,76,68,颗粒物(PM10)
石家庄市,矿区区委大楼,114.0494,38.059,2025-05-05T1100,60,276,0.3,12,7,82,66,163,颗粒物(PM10)
石嘴山市,大武口朝阳西街,106.3668,39.0145,2025-05-05T1100,183,1420,0.3,4,5,118,86,500,颗粒物(PM10)
石嘴山市,惠农南大街,106.7704,39.2282,2025-05-05T1100,211,793,0.1,11,12,112,83,500,颗粒物(PM10)
石嘴山市,红果子镇惠新街,106.7099,39.1325,2025-05-05T1100,164,811,0.4,3,7,117,82,500,颗粒物(PM10)
石嘴山市,妇女儿童医院,106.3495,38.9836,2025-05-05T1100,134,749,0.2,4,3,114,85,500,颗粒物(PM10)
石嘴山市,石大公路,106.7492,39.2069,2025-05-05T1100,210,770,0.1,2,2,124,91,500,颗粒物(PM10)
双鸭山市,双合村,131.1511,46.6937,2025-05-05T1100,7,11,0.2,5,6,79,72,25,
双鸭山市,南小市,131.1652,46.6191,2025-05-05T1100,3,19,0.2,2,7,88,70,28,
双鸭山市,环保局,131.1524,46.6554,2025-05-05T1100,6,30,0.2,4,6,83,70,30,
朔州市,平朔,112.4397,39.3522,2025-05-05T1100,85,382,0.3,8,6,84,78,246,颗粒物(PM10)
朔州市,朔唯,112.4575,39.3617,2025-05-05T1100,73,380,0.5,8,6,78,74,243,颗粒物(PM10)
朔州市,区政府,112.4258,39.3197,2025-05-05T1100,115,406,0.4,7,5,82,72,280,颗粒物(PM10)
朔州市,市环保局,112.4072,39.3278,2025-05-05T1100,99,428,0.4,9,5,76,66,310,颗粒物(PM10)
朔州市,市二中,112.4272,39.3681,2025-05-05T1100,110,361,0.2,8,6,78,71,216,颗粒物(PM10)
朔州市,一水厂,112.2931,39.53,2025-05-05T1100,63,303,0.4,6,12,82,75,177,颗粒物(PM10)
四平市,一商场,124.4002,43.1713,2025-05-05T1100,31,40,0.4,16,11,86,60,45,
四平市,境园,124.388,43.193,2025-05-05T1100,19,38,0.4,13,10,81,58,38,
四平市,植物园,124.4036,43.1411,2025-05-05T1100,21,33,0.4,23,13,89,56,33,
四平市,世纪城,124.3419,43.1666,2025-05-05T1100,20,38,0.3,16,9,86,62,38,
松原市,江南,124.8006,45.1214,2025-05-05T1100,8,13,0.5,6,2,81,48,26,
松原市,江北,124.7965,45.1722,2025-05-05T1100,6,,0.4,6,6,82,56,26,
苏州市,彩香,120.591,31.3019,2025-05-05T1100,20,42,0.6,22,4,62,81,42,
苏州市,轧钢厂,120.596,31.3264,2025-05-05T1100,18,31,0.5,19,2,69,88,31,
苏州市,吴中区,120.613,31.2703,2025-05-05T1100,13,36,0.4,28,4,60,81,36,
苏州市,苏州新区,120.543,31.2994,2025-05-05T1100,23,36,0.5,27,,65,83,,
苏州市,苏州工业园区,120.669,31.3097,2025-05-05T1100,14,28,0.4,28,4,63,87,28,
苏州市,相城区,120.641,31.3708,2025-05-05T1100,17,26,0.3,28,4,72,88,26,
苏州市,方洲路,120.743,31.3188,2025-05-05T1100,14,22,0.3,31,5,59,87,22,
苏州市,木渎中学,120.5031,31.2774,2025-05-05T1100,14,25,,,3,58,82,,
苏州市,越秀幼儿园,120.624,31.1733,2025-05-05T1100,21,31,0.5,28,3,65,84,31,
苏州市,高铁新城,120.6505,31.416,2025-05-05T1100,11,20,0.5,20,5,72,79,23,
宿迁市,宿迁学院,118.293,33.9528,2025-05-05T1100,,38,,9,,81,77,,
宿迁市,宿迁中学,118.2442,33.9592,2025-05-05T1100,26,33,0.6,12,4,95,84,38,
宿迁市,市供电局,118.283,33.965,2025-05-05T1100,29,,0.6,7,4,94,80,42,
宿迁市,宿豫区政府,118.3225,33.9447,2025-05-05T1100,24,45,0.5,6,4,88,81,45,
宿州市,远航博物馆,116.9509,33.666,2025-05-05T1100,18,51,0.3,12,3,100,87,51,颗粒物(PM10)
宿州市,社会福利中心,116.9708,33.591,2025-05-05T1100,33,59,0.4,11,5,115,96,55,颗粒物(PM10)
宿州市,宿州学院,116.9884,33.6305,2025-05-05T1100,25,60,0.4,12,4,100,88,55,颗粒物(PM10)
绥化市,人和东街,126.9785,46.6365,2025-05-05T1100,11,19,0.5,7,1,91,68,29,
绥化市,党政办公中心,126.964,46.6528,2025-05-05T1100,9,17,0.3,6,2,86,63,27,
随州市,市委党校,113.3583,31.7275,2025-05-05T1100,15,43,0.6,11,5,104,74,43,
随州市,市林业局,113.3833,31.6908,2025-05-05T1100,20,48,0.5,6,6,108,78,48,
随州市,市立交桥水厂,113.3983,31.7308,2025-05-05T1100,18,42,0.8,3,8,107,80,42,
遂宁市,石溪浩,105.5453,30.5678,2025-05-05T1100,7,29,0.3,12,4,85,89,29,
遂宁市,市监测站,105.5582,30.5232,2025-05-05T1100,3,28,0.2,15,7,91,93,29,
遂宁市,行政中心,105.5861,30.5366,2025-05-05T1100,7,25,0.2,10,6,93,108,30,
遂宁市,美宁食品公司,105.5918,30.4728,2025-05-05T1100,9,57,0.3,8,8,95,100,54,颗粒物(PM10)
塔城地区,东门外小游园,82.9994,46.7432,2025-05-05T1100,9,29,0.2,16,6,54,42,29,
台州市,黄岩环保大楼,121.273,28.6459,2025-05-05T1100,23,34,0.5,24,3,51,83,34,
台州市,台州环保大楼,121.419,28.6542,2025-05-05T1100,25,,0.5,28,3,60,85,36,
台州市,路桥田洋王,121.377,28.5773,2025-05-05T1100,31,36,0.4,27,4,62,84,45,
台州市,台州科技职业学院,121.2568,28.6681,2025-05-05T1100,18,26,0.4,22,2,61,82,26,
太原市,尖草坪,112.522,37.8873,2025-05-05T1100,36,115,1.0,26,32,65,54,83,颗粒物(PM10)
太原市,晋源,112.469,37.7124,2025-05-05T1100,42,121,0.7,20,37,77,38,86,颗粒物(PM10)
太原市,小店,112.5583,37.7394,2025-05-05T1100,46,126,0.7,18,21,88,58,88,颗粒物(PM10)
太原市,桃园,112.5369,37.8692,2025-05-05T1100,34,102,1.0,21,18,65,52,76,颗粒物(PM10)
太原市,坞城,112.57,37.8195,2025-05-05T1100,36,99,0.9,18,33,74,49,75,颗粒物(PM10)
太原市,南寨,112.549,37.9854,2025-05-05T1100,45,146,1.1,25,31,60,35,98,颗粒物(PM10)
太原市,金胜,112.4719,37.7831,2025-05-05T1100,41,146,1.0,24,23,68,35,98,颗粒物(PM10)
太原市,育英中学,112.5608,37.8807,2025-05-05T1100,36,90,1.0,23,18,64,50,70,颗粒物(PM10)
泰安市,监测站,117.1437,36.1937,2025-05-05T1100,48,51,0.5,12,13,125,107,67,细颗粒物(PM2.5)
泰安市,人口学校,117.0885,36.2017,2025-05-05T1100,19,56,0.3,13,12,114,104,53,颗粒物(PM10)
泰安市,电力学校,117.1089,36.1758,2025-05-05T1100,45,46,0.4,13,10,114,101,63,细颗粒物(PM2.5)
泰安市,国网新校,117.1812,36.2275,2025-05-05T1100,24,44,0.8,14,10,109,72,44,
泰安市,交通技校,117.0313,36.2018,2025-05-05T1100,32,49,0.5,16,4,116,108,49,
泰安市,山东第一医科大学,117.0829,36.13,2025-05-05T1100,59,,0.4,13,7,120,99,80,细颗粒物(PM2.5)
泰州市,公园路,119.905,32.4878,2025-05-05T1100,24,29,0.8,18,7,57,56,35,
泰州市,莲花,119.9189,32.4625,2025-05-05T1100,24,37,0.8,,,62,59,,
泰州市,留学生创业园,119.888,32.4639,2025-05-05T1100,39,,0.9,18,5,62,55,55,细颗粒物(PM2.5)
泰州市,王营,119.8767,32.3289,2025-05-05T1100,19,22,0.6,18,9,57,56,28,
泰州市,姜堰区政府广场,120.1259,32.5099,2025-05-05T1100,19,25,0.6,14,13,55,64,28,
泰州市,周山河街区,119.9192,32.4322,2025-05-05T1100,36,,0.7,15,7,59,53,52,细颗粒物(PM2.5)
唐山市,物资局,118.1725,39.6334,2025-05-05T1100,33,53,1.2,23,7,97,93,52,颗粒物(PM10)
唐山市,十二中,118.1705,39.6506,2025-05-05T1100,39,58,1.4,24,8,92,90,55,细颗粒物(PM2.5)
唐山市,小山,118.1869,39.622,2025-05-05T1100,52,58,1.1,29,6,97,95,72,细颗粒物(PM2.5)
唐山市,冀东油田职工医院,118.4359,39.2762,2025-05-05T1100,38,65,1.5,29,28,107,79,58,颗粒物(PM10)
唐山市,正泰大街热力站,118.09279,39.58089,2025-05-05T1100,28,151,2.0,26,9,95,89,101,颗粒物(PM10)
唐山市,丰润区政府,118.1562,39.8322,2025-05-05T1100,45,57,1.4,21,12,102,87,63,细颗粒物(PM2.5)
唐山市,金山小学,118.43673,39.73809,2025-05-05T1100,38,60,0.9,25,12,94,88,55,颗粒物(PM10)
唐山市,政府服务中心,118.24498,39.66941,2025-05-05T1100,35,50,1.4,24,10,87,87,50,
唐山市,消防缸窑路中队,118.2059,39.6585,2025-05-05T1100,40,60,1.5,22,10,94,93,57,细颗粒物(PM2.5)
唐山市,路南电大,118.1436,39.6202,2025-05-05T1100,36,46,1.2,29,9,96,99,52,细颗粒物(PM2.5)
唐山市,友谊北路34号,118.1309,39.6360,2025-05-05T1100,44,62,1.3,17,8,102,100,62,细颗粒物(PM2.5)
天津市,勤俭道,117.1444,39.1661,2025-05-05T1100,41,54,0.6,14,6,120,91,58,细颗粒物(PM2.5)
天津市,前进道,117.202,39.0927,2025-05-05T1100,44,63,1.0,21,9,113,92,62,细颗粒物(PM2.5)
天津市,淮河道,117.1837,39.2133,2025-05-05T1100,49,72,0.8,22,9,114,79,68,细颗粒物(PM2.5)
天津市,跃进路,117.3083,39.0884,2025-05-05T1100,61,,1.1,19,11,119,80,,
天津市,第四大街,117.707,39.0343,2025-05-05T1100,50,99,,,11,79,59,,
天津市,永明路,117.457,38.8394,2025-05-05T1100,60,72,0.6,,,86,83,,
天津市,汉北路,117.764,39.1587,2025-05-05T1100,35,51,0.7,17,19,110,76,51,颗粒物(PM10)
天津市,河西一经路,117.7918,39.2474,2025-05-05T1100,51,68,1.1,26,16,100,77,70,细颗粒物(PM2.5)
天津市,津沽路,117.3747,38.9846,2025-05-05T1100,43,74,0.6,20,6,109,79,62,颗粒物(PM10)
天津市,宾水西道,117.1589,39.0845,2025-05-05T1100,42,55,0.8,19,8,112,92,59,细颗粒物(PM2.5)
天津市,大理道,117.1941,39.1067,2025-05-05T1100,44,68,0.8,17,8,116,93,62,细颗粒物(PM2.5)
天津市,中山北路,117.2101,39.1699,2025-05-05T1100,,61,,23,,106,76,,
天津市,西四道,117.3876,39.1488,2025-05-05T1100,43,59,1.1,21,11,114,81,60,细颗粒物(PM2.5)
天津市,雍阳西道,117.0365,39.3828,2025-05-05T1100,48,63,0.8,,6,101,96,,
天津市,辛老路,117.0296,39.0605,2025-05-05T1100,52,117,0.8,15,8,116,99,84,颗粒物(PM10)
天津市,地纬路,116.9638,38.9375,2025-05-05T1100,38,50,0.6,16,12,109,90,54,细颗粒物(PM2.5)
天津市,北环路,117.4067,40.0583,2025-05-05T1100,42,57,1.3,14,8,101,80,59,细颗粒物(PM2.5)
天津市,建设路,117.3045,39.7169,2025-05-05T1100,37,53,0.9,18,9,109,78,53,细颗粒物(PM2.5)
天津市,滨水东路,117.8199,39.3521,2025-05-05T1100,42,61,0.9,19,12,102,77,59,细颗粒物(PM2.5)
天津市,光华路,117.2437,39.1029,2025-05-05T1100,45,68,0.9,16,11,115,84,63,细颗粒物(PM2.5)
天水市,公园小学,105.7205,34.5786,2025-05-05T1100,15,36,0.2,7,10,82,46,36,
天水市,麦积国土局,105.8945,34.5538,2025-05-05T1100,18,25,0.3,5,6,77,54,26,
铁岭市,汇工街西,123.8139,42.3022,2025-05-05T1100,22,54,0.9,24,7,83,63,52,颗粒物(PM10)
铁岭市,水上乐园,123.8649,42.2923,2025-05-05T1100,12,51,,14,10,86,60,,
铁岭市,银州路东段,123.8486,42.2867,2025-05-05T1100,17,36,0.6,23,15,84,68,36,
铁岭市,金沙江路北,123.7153,42.2217,2025-05-05T1100,23,57,1.0,30,10,75,57,54,颗粒物(PM10)
通化市,光明,125.9358,41.7173,2025-05-05T1100,29,64,1.3,,14,43,20,,
通化市,铁路,125.9446,41.7325,2025-05-05T1100,33,67,0.9,36,26,39,16,59,颗粒物(PM10)
通辽市,艺术职业学校,122.2532,43.6801,2025-05-05T1100,27,51,0.3,13,12,97,57,51,颗粒物(PM10)
通辽市,老干部活动中心,122.2584,43.6333,2025-05-05T1100,29,49,0.4,12,9,97,46,49,
通辽市,东方明珠社区,122.2922,43.6189,2025-05-05T1100,39,48,0.5,12,11,100,52,55,细颗粒物(PM2.5)
铜川市,王益区政府,109.0697,35.0697,2025-05-05T1100,19,124,0.6,20,9,73,38,87,颗粒物(PM10)
铜川市,新区管委会,108.9344,34.9058,2025-05-05T1100,33,95,0.4,8,4,87,70,73,颗粒物(PM10)
铜川市,大唐三路,108.9497,34.8705,2025-05-05T1100,19,87,0.4,5,6,91,75,69,颗粒物(PM10)
铜陵市,市第四中学,117.8177,30.9412,2025-05-05T1100,19,32,0.7,19,8,69,63,32,
铜陵市,市公路局,117.8059,30.9273,2025-05-05T1100,22,38,0.7,20,6,66,58,38,
铜陵市,市新民污水厂,117.7807,30.9413,2025-05-05T1100,23,54,1.0,22,12,59,51,52,颗粒物(PM10)
铜陵市,市第九中学,117.7439,30.8792,2025-05-05T1100,20,35,0.9,22,5,63,45,35,
铜陵市,车站新区,117.846,30.9413,2025-05-05T1100,35,45,0.6,24,6,57,58,50,
铜陵市,市职教基地,117.8483,30.97,2025-05-05T1100,32,32,1.0,21,5,71,66,46,
铜仁市,铜仁卫校,109.1839,27.7344,2025-05-05T1100,,,0.2,,,62,51,,
铜仁市,铜仁七中,109.1753,27.6944,2025-05-05T1100,8,14,0.3,2,3,88,70,28,
吐鲁番市,市环保局,89.1904,42.9418,2025-05-05T1100,51,221,0.7,10,7,81,98,136,颗粒物(PM10)
吐鲁番市,地区环保局,89.1673,42.9559,2025-05-05T1100,47,272,0.7,16,8,75,91,161,颗粒物(PM10)
威海市,华夏技校,122.1214,37.4236,2025-05-05T1100,7,34,0.2,8,4,108,101,34,
威海市,山大分校,122.0508,37.5236,2025-05-05T1100,7,37,0.2,3,8,127,125,40,
威海市,市监测站,122.1067,37.5072,2025-05-05T1100,12,46,0.2,8,2,118,126,46,
威海市,文登开发区,122.0693,37.2174,2025-05-05T1100,14,29,0.5,8,5,100,89,32,
威海市,临港区管委会,122.1379,37.3414,2025-05-05T1100,3,19,0.4,4,1,112,97,35,
潍坊市,环保局,119.1437,36.7023,2025-05-05T1100,,,0.3,,,109,96,,
潍坊市,坊子邮政,119.1641,36.6523,2025-05-05T1100,9,36,0.4,3,7,110,85,36,
潍坊市,潍坊七中,119.0587,36.721,2025-05-05T1100,17,61,0.4,11,6,103,90,56,颗粒物(PM10)
潍坊市,高新实验学校,119.1977,36.6872,2025-05-05T1100,11,22,0.3,8,6,111,84,35,
潍坊市,潍坊学院,119.1755,36.7149,2025-05-05T1100,11,44,0.5,11,6,106,90,44,
潍坊市,寒亭区实验一小,119.2041,36.7699,2025-05-05T1100,9,39,0.4,9,7,108,90,39,
渭南市,体育馆,109.4636,34.493,2025-05-05T1100,10,66,0.3,10,5,87,71,58,颗粒物(PM10)
渭南市,高新一小,109.4259,34.5023,2025-05-05T1100,9,62,0.3,10,5,79,66,56,颗粒物(PM10)
渭南市,渭花路4号,109.5051,34.4921,2025-05-05T1100,14,70,0.2,7,5,87,68,60,颗粒物(PM10)
温州市,瓯海,120.634,28.0089,2025-05-05T1100,22,35,0.6,30,3,51,68,35,
温州市,南浦,120.6748,27.9939,2025-05-05T1100,,,,,4,60,77,,
温州市,龙湾,120.76,27.9747,2025-05-05T1100,9,19,0.5,28,4,50,64,19,
温州市,市站,120.6709,28.0167,2025-05-05T1100,17,39,0.4,21,3,61,75,39,
温州市,茶山,120.6985,27.9251,2025-05-05T1100,27,39,0.5,47,3,36,66,39,
文山壮族苗族自治州,州水务局,104.2533,23.3594,2025-05-05T1100,3,23,0.3,8,8,86,57,27,
文山壮族苗族自治州,市便民服务中心,104.2319,23.3892,2025-05-05T1100,14,24,0.1,9,8,85,56,27,
乌海市,市林业局,106.8174,39.6973,2025-05-05T1100,324,1611,0.4,4,10,109,102,500,颗粒物(PM10)
乌海市,中海勃湾学校,106.7907,39.6667,2025-05-05T1100,332,1585,0.5,3,6,116,108,500,颗粒物(PM10)
乌海市,海北新区,106.813,39.7274,2025-05-05T1100,348,1891,0.3,2,16,112,104,500,颗粒物(PM10)
乌海市,聚英学校,106.8288,39.6778,2025-05-05T1100,348,2023,0.3,7,11,106,98,500,颗粒物(PM10)
乌兰察布市,集宁新区,113.1306,40.9923,2025-05-05T1100,67,296,0.1,13,8,75,64,173,颗粒物(PM10)
乌兰察布市,光明街小学,113.1076,41.0385,2025-05-05T1100,94,322,0.4,14,10,72,66,186,颗粒物(PM10)
乌兰察布市,北京八中,113.1376,40.9509,2025-05-05T1100,81,307,0.4,13,13,70,62,179,颗粒物(PM10)
乌兰察布市,市委党校,113.1775,40.9779,2025-05-05T1100,86,339,0.1,13,9,76,60,195,颗粒物(PM10)
乌鲁木齐市,监测站,87.5801,43.8303,2025-05-05T1100,6,40,0.5,32,4,46,37,40,
乌鲁木齐市,收费所,87.6046,43.768,2025-05-05T1100,18,43,0.3,20,5,69,45,43,
乌鲁木齐市,新疆农科院农场,87.4754,43.9469,2025-05-05T1100,22,43,0.6,33,9,47,25,43,
乌鲁木齐市,铁路局,87.5525,43.8711,2025-05-05T1100,16,52,0.7,36,3,41,50,51,颗粒物(PM10)
乌鲁木齐市,三十一中学,87.6432,43.831,2025-05-05T1100,12,40,0.3,17,4,70,67,40,
乌鲁木齐市,米东区环保局,87.7216,44.1747,2025-05-05T1100,20,31,0.4,18,10,65,46,31,
乌鲁木齐市,培训基地,87.4651,43.4569,2025-05-05T1100,3,14,0.3,2,3,102,93,32,
乌鲁木齐市,达坂城区环保局,88.3118,43.3658,2025-05-05T1100,19,19,0.4,5,5,86,88,28,
乌鲁木齐市,红光山片区,87.6162,43.8801,2025-05-05T1100,16,39,0.3,28,4,55,52,39,
乌鲁木齐市,新师大温泉校区,87.7024,43.8004,2025-05-05T1100,24,38,0.2,10,3,82,90,38,
乌鲁木齐市,大绿谷,87.4921,43.8411,2025-05-05T1100,19,30,0.3,23,,55,71,,
无锡市,雪浪,120.269,31.4867,2025-05-05T1100,7,12,0.7,20,4,67,82,21,
无锡市,黄巷,120.275,31.6219,2025-05-05T1100,12,19,0.7,37,5,59,73,19,
无锡市,曹张,120.294,31.56,2025-05-05T1100,12,22,0.6,28,4,62,72,22,
无锡市,漆塘,120.242,31.5031,2025-05-05T1100,7,9,0.3,24,4,62,75,20,
无锡市,东亭,120.3489,31.5863,2025-05-05T1100,9,9,0.7,21,4,61,70,20,
无锡市,旺庄,120.354,31.5475,2025-05-05T1100,9,14,0.6,25,3,64,81,20,
无锡市,荣巷,120.245,31.5631,2025-05-05T1100,9,12,0.6,29,4,63,78,20,
无锡市,堰桥,120.299,31.6817,2025-05-05T1100,9,,0.7,21,2,64,81,20,
无锡市,华庄,120.3142,31.4753,2025-05-05T1100,12,20,,28,5,66,82,,
吴忠市,教育园区,106.1532,37.9648,2025-05-05T1100,238,1474,0.1,6,4,138,92,500,颗粒物(PM10)
吴忠市,新区二泵站,106.1856,37.9956,2025-05-05T1100,143,1426,0.3,4,5,108,92,500,颗粒物(PM10)
吴忠市,文卫南街,106.2112,37.9768,2025-05-05T1100,129,550,0.3,5,3,106,90,450,颗粒物(PM10)
芜湖市,监测站,118.3606,31.3519,2025-05-05T1100,22,23,0.7,12,7,92,77,32,
芜湖市,科创中心,118.3714,31.4134,2025-05-05T1100,26,,0.6,,,97,74,,
芜湖市,四水厂,118.3673,31.3131,2025-05-05T1100,18,30,0.6,15,3,86,79,30,
芜湖市,市气象局,118.4209,31.3707,2025-05-05T1100,27,31,0.6,9,6,92,83,39,
芜湖市,清苑社区,118.4781,31.3225,2025-05-05T1100,28,30,0.6,10,7,94,69,40,
芜湖市,扬子职业技术学院,118.2746,31.2326,2025-05-05T1100,26,28,0.7,11,5,77,77,38,
梧州市,市逸夫小学,111.3014,23.4832,2025-05-05T1100,20,37,0.5,16,10,32,16,37,
梧州市,市十一中,111.3239,23.4794,2025-05-05T1100,15,31,0.4,18,10,26,11,31,
梧州市,龙新,111.2711,23.4835,2025-05-05T1100,21,35,0.7,38,11,24,16,35,
梧州市,政贤路18号,111.2419,23.4154,2025-05-05T1100,20,36,0.6,15,10,45,13,36,
五家渠市,农水大厦,87.5475,44.1756,2025-05-05T1100,14,38,0.3,15,11,55,44,38,
五家渠市,经开区管委会,87.546,44.1912,2025-05-05T1100,9,41,0.5,15,7,64,41,41,
武汉市,东湖梨园,114.3677,30.5584,2025-05-05T1100,34,47,0.8,7,6,106,97,49,
武汉市,汉阳月湖,114.2529,30.558,2025-05-05T1100,36,51,0.5,9,7,121,113,52,细颗粒物(PM2.5)
武汉市,汉口花桥,114.282,30.6189,2025-05-05T1100,34,48,0.6,6,9,117,113,49,
武汉市,武昌紫阳,114.3025,30.5332,2025-05-05T1100,32,54,0.7,4,9,111,108,52,颗粒物(PM10)
武汉市,青山钢花,114.3646,30.6217,2025-05-05T1100,34,59,0.8,18,6,113,107,55,颗粒物(PM10)
武汉市,沌口新区,114.1566,30.4825,2025-05-05T1100,38,51,0.4,15,8,126,112,54,细颗粒物(PM2.5)
武汉市,汉口江滩,114.3014,30.5944,2025-05-05T1100,34,65,0.6,9,7,117,106,58,颗粒物(PM10)
武汉市,吴家山,114.135,30.6319,2025-05-05T1100,24,51,0.6,10,7,111,94,51,颗粒物(PM10)
武汉市,沉湖七壕,113.8454,30.2917,2025-05-05T1100,18,27,0.5,11,6,108,92,34,
武汉市,民族大道182号,114.3877,30.4908,2025-05-05T1100,26,48,0.7,8,6,129,128,48,
武威市,监测站,102.6201,37.9251,2025-05-05T1100,74,262,0.2,8,7,98,92,156,颗粒物(PM10)
武威市,钟楼街149号,102.6447,37.9293,2025-05-05T1100,130,293,0.2,8,5,100,94,172,"颗粒物(PM10),细颗粒物(PM2.5)"
西安市,兴庆小区,108.993,34.2629,2025-05-05T1100,14,40,0.5,9,6,81,82,40,
西安市,纺织城,109.06,34.2572,2025-05-05T1100,11,54,0.4,17,6,73,51,52,颗粒物(PM10)
西安市,小寨,108.9356,34.2173,2025-05-05T1100,11,66,0.3,9,6,72,73,58,颗粒物(PM10)
西安市,市人民体育场,108.954,34.2713,2025-05-05T1100,18,50,0.5,3,4,77,75,50,
西安市,高新西区,108.8922,34.2322,2025-05-05T1100,12,39,0.5,9,4,77,71,39,
西安市,经开区,108.935,34.3474,2025-05-05T1100,16,52,0.5,8,6,84,77,51,颗粒物(PM10)
西安市,长安区,108.906,34.1546,2025-05-05T1100,14,54,0.3,23,8,76,68,52,颗粒物(PM10)
西安市,临潼区,109.2186,34.3731,2025-05-05T1100,20,48,0.4,3,7,95,94,48,
西安市,草滩,108.869,34.378,2025-05-05T1100,34,47,0.2,12,3,80,61,49,
西安市,曲江文化产业集团,108.985,34.1978,2025-05-05T1100,10,50,0.6,12,7,73,75,50,
西安市,广运潭,109.051,34.3213,2025-05-05T1100,19,43,0.4,11,6,81,69,43,
西安市,无线电监控中心,109.09,34.5236,2025-05-05T1100,,,,11,5,,57,,
西安市,行知小学,108.8869,34.2662,2025-05-05T1100,12,57,0.5,14,5,75,70,54,颗粒物(PM10)
西安市,西苑北路977号,108.5962,34.1188,2025-05-05T1100,10,47,0.3,6,,75,65,,
西宁市,城北区政府,101.7775,36.6428,2025-05-05T1100,76,85,1.3,27,12,55,51,102,细颗粒物(PM2.5)
西宁市,世纪职校,101.8305,36.5786,2025-05-05T1100,184,,1.2,22,14,67,50,234,细颗粒物(PM2.5)
西宁市,师大城西校区,101.7413,36.6397,2025-05-05T1100,65,95,1.6,25,16,66,52,88,细颗粒物(PM2.5)
西双版纳傣族自治州,景洪市江南,100.8018,21.9995,2025-05-05T1100,21,45,0.7,16,4,45,21,45,
西双版纳傣族自治州,景洪市江北,100.8017,22.0225,2025-05-05T1100,9,23,0.6,14,7,56,26,23,
西咸新区,北杜,108.7108,34.46,2025-05-05T1100,19,69,0.3,9,7,69,62,60,颗粒物(PM10)
西咸新区,同德佳苑,108.7096,34.2956,2025-05-05T1100,27,68,0.2,8,4,77,65,59,颗粒物(PM10)
西咸新区,崇文塔,108.8558,34.4978,2025-05-05T1100,26,73,0.6,11,7,83,66,62,颗粒物(PM10)
锡林郭勒盟,市环保监测站,116.1042,43.9317,2025-05-05T1100,3,12,0.2,1,2,68,66,22,
锡林郭勒盟,市政府,116.0781,43.9311,2025-05-05T1100,9,9,0.2,6,2,73,77,23,
厦门市,洪文,118.1514,24.4767,2025-05-05T1100,18,34,0.6,18,3,94,68,34,
厦门市,鼓浪屿,118.0661,24.4444,2025-05-05T1100,19,33,0.6,20,5,108,72,34,
厦门市,湖里中学,118.0936,24.5058,2025-05-05T1100,19,32,0.5,19,2,99,56,32,
厦门市,集美中学,118.0958,24.5688,2025-05-05T1100,24,34,0.4,26,3,107,76,35,
厦门市,同安二实小,118.1493,24.7245,2025-05-05T1100,25,25,0.4,22,3,92,56,36,
咸宁市,森林公园,114.3175,29.8142,2025-05-05T1100,17,24,0.5,3,5,110,105,35,
咸宁市,长江产业园,114.3375,29.8683,2025-05-05T1100,27,46,0.7,7,1,116,106,46,
咸宁市,双鹤路18号,114.3182,29.8447,2025-05-05T1100,36,,1.0,6,8,124,113,52,细颗粒物(PM2.5)
咸宁市,碧桂路,114.284,29.8595,2025-05-05T1100,43,50,0.6,8,5,116,102,60,细颗粒物(PM2.5)
咸阳市,实验中学,108.673,34.3155,2025-05-05T1100,23,66,0.3,14,9,78,70,58,颗粒物(PM10)
咸阳市,师范学院,108.7233,34.3617,2025-05-05T1100,22,81,0.3,10,4,82,72,66,颗粒物(PM10)
咸阳市,两寺渡,108.6594,34.2969,2025-05-05T1100,23,71,0.4,8,7,80,61,61,颗粒物(PM10)
咸阳市,奥体中心,108.6396,34.4078,2025-05-05T1100,30,64,0.4,5,5,76,66,57,颗粒物(PM10)
湘潭市,板塘,112.9433,27.8614,2025-05-05T1100,17,30,0.4,9,6,89,102,30,
湘潭市,市监测站,112.9118,27.8403,2025-05-05T1100,31,,0.7,6,1,93,107,45,
湘潭市,江麓,112.8937,27.8728,2025-05-05T1100,28,,0.7,6,,95,105,,
湘潭市,岳塘,112.9227,27.8159,2025-05-05T1100,31,39,0.8,10,5,92,109,45,
湘潭市,科大,112.9074,27.9119,2025-05-05T1100,15,39,0.6,5,3,94,104,39,
湘潭市,昭山,113.0048,27.9153,2025-05-05T1100,28,31,0.6,5,5,94,106,40,
湘潭市,韶山,112.4876,27.9164,2025-05-05T1100,16,28,0.5,6,4,107,118,34,
湘西土家族苗族自治州,跃进水库,109.6414,28.2558,2025-05-05T1100,17,27,0.9,2,6,103,31,33,
湘西土家族苗族自治州,州政府,109.7325,28.3169,2025-05-05T1100,24,26,0.3,4,7,86,40,35,
湘西土家族苗族自治州,吉首市计生局,109.6958,28.2675,2025-05-05T1100,25,26,0.4,10,4,96,54,36,
襄阳市,襄城运动路,112.155,32.0197,2025-05-05T1100,10,70,0.4,8,6,105,78,60,颗粒物(PM10)
襄阳市,高新管委会,112.1825,32.1142,2025-05-05T1100,23,63,0.3,9,4,106,65,57,颗粒物(PM10)
襄阳市,襄州航空路,112.2106,32.0903,2025-05-05T1100,14,68,0.4,8,7,106,70,59,颗粒物(PM10)
襄阳市,襄城隆中路,112.0828,32.0067,2025-05-05T1100,17,59,0.3,7,6,109,76,55,颗粒物(PM10)
襄阳市,高新台子湾,112.1214,32.1008,2025-05-05T1100,22,73,0.3,8,6,104,66,62,颗粒物(PM10)
襄阳市,铁院东路4号,112.1433,32.0581,2025-05-05T1100,24,77,0.2,10,8,111,78,64,颗粒物(PM10)
孝感市,文化路,113.9153,30.9285,2025-05-05T1100,18,65,0.6,9,8,109,88,58,颗粒物(PM10)
孝感市,东城区,113.942,30.9075,2025-05-05T1100,19,53,0.6,8,8,120,97,52,颗粒物(PM10)
忻州市,开发区,112.7383,38.4519,2025-05-05T1100,40,140,0.9,16,9,70,69,95,颗粒物(PM10)
忻州市,会展中心,112.7003,38.4928,2025-05-05T1100,26,130,0.5,22,7,56,65,90,颗粒物(PM10)
忻州市,市政府,112.7283,38.4153,2025-05-05T1100,46,160,0.7,26,10,71,62,105,颗粒物(PM10)
新乡市,环保西院,113.836,35.311,2025-05-05T1100,35,158,0.5,10,10,90,77,104,颗粒物(PM10)
新乡市,开发区,113.884,35.272,2025-05-05T1100,48,167,0.8,11,10,89,77,109,颗粒物(PM10)
新乡市,环保东院,113.883,35.303,2025-05-05T1100,31,132,0.6,6,8,89,80,91,颗粒物(PM10)
新乡市,市委党校,113.9194,35.2847,2025-05-05T1100,37,129,0.7,19,9,86,82,90,颗粒物(PM10)
新乡市,市政府,113.9188,35.3045,2025-05-05T1100,43,136,0.2,11,12,93,80,93,颗粒物(PM10)
新乡市,行政服务中心,113.9003,35.372,2025-05-05T1100,23,167,0.5,10,6,83,70,109,颗粒物(PM10)
新乡市,建设东路46号,113.9166,35.3315,2025-05-05T1100,31,170,0.5,4,6,99,86,110,颗粒物(PM10)
新余市,飞宇,114.9886,27.8431,2025-05-05T1100,22,,0.7,2,3,79,45,32,
新余市,第二水厂,114.9231,27.8246,2025-05-05T1100,15,24,,4,5,72,42,,
新余市,市气象局,114.9308,27.8036,2025-05-05T1100,23,72,0.6,6,1,77,45,61,颗粒物(PM10)
新余市,新钢沁园村,114.9149,27.807,2025-05-05T1100,15,24,0.4,6,6,77,45,25,
信阳市,平桥分局,114.1099,32.1059,2025-05-05T1100,14,48,0.4,8,6,122,109,48,
信阳市,南湾水厂,113.9956,32.1271,2025-05-05T1100,11,35,0.3,9,5,114,92,36,
信阳市,市酿酒公司,114.0775,32.1195,2025-05-05T1100,16,40,0.4,7,6,109,98,40,
信阳市,审计局,114.0609,32.1399,2025-05-05T1100,11,49,0.4,8,8,119,102,49,
兴安盟,胜华新制药厂,122.0392,46.0656,2025-05-05T1100,24,,0.2,1,6,107,60,35,
兴安盟,科右前旗环保局,121.9504,46.0741,2025-05-05T1100,10,20,0.4,1,7,93,50,30,
兴安盟,北滨河,122.0931,46.0707,2025-05-05T1100,11,21,0.2,4,3,101,51,32,
邢台市,达活泉,114.4704,37.0886,2025-05-05T1100,48,117,0.7,23,14,78,85,84,颗粒物(PM10)
邢台市,邢师高专,114.5062,37.0349,2025-05-05T1100,34,111,0.9,18,11,79,78,81,颗粒物(PM10)
邢台市,路桥公司,114.5237,37.0851,2025-05-05T1100,50,87,0.6,21,9,75,75,69,"颗粒物(PM10),细颗粒物(PM2.5)"
邢台市,市环保局,114.4725,37.0719,2025-05-05T1100,74,134,0.8,24,2,88,94,99,细颗粒物(PM2.5)
雄安新区,容城县环境保护局,115.8844,39.0341,2025-05-05T1100,36,44,0.3,15,11,114,76,52,细颗粒物(PM2.5)
雄安新区,河北容城中学,115.8665,39.0645,2025-05-05T1100,18,90,0.5,18,9,103,77,70,颗粒物(PM10)
雄安新区,安新县民政局,115.923,38.9405,2025-05-05T1100,30,53,0.4,15,7,109,103,52,颗粒物(PM10)
雄安新区,安新县电力局,115.9324,38.9338,2025-05-05T1100,37,,0.0,9,9,120,111,53,细颗粒物(PM2.5)
雄安新区,雄县环境保护局,116.0901,38.9816,2025-05-05T1100,19,41,0.5,8,8,121,97,41,
雄安新区,雄县国土资源局,116.1105,39.0046,2025-05-05T1100,33,66,0.3,19,7,117,85,58,颗粒物(PM10)
徐州市,黄河新村,117.179,34.2761,2025-05-05T1100,39,44,0.4,18,5,110,92,55,细颗粒物(PM2.5)
徐州市,新城区,117.256,34.2153,2025-05-05T1100,26,34,0.5,11,6,104,82,38,
徐州市,农科院,117.2933,34.2778,2025-05-05T1100,44,,0.4,15,,97,83,,
徐州市,鼓楼区政府,117.1814,34.29,2025-05-05T1100,39,,0.7,14,6,102,87,55,细颗粒物(PM2.5)
徐州市,铜山区招生办,117.1694,34.1781,2025-05-05T1100,21,36,0.3,15,6,108,88,36,
徐州市,大泉街道,117.4754,34.4422,2025-05-05T1100,39,54,0.5,14,8,87,81,55,细颗粒物(PM2.5)
徐州市,解放南路202号,117.1942,34.22935,2025-05-05T1100,34,44,0.5,20,6,106,88,49,
徐州市,龙潭环路5号,117.2456,34.2908,2025-05-05T1100,36,48,0.5,10,8,97,80,52,细颗粒物(PM2.5)
许昌市,开发区,113.7906,33.9953,2025-05-05T1100,43,160,0.4,8,6,100,82,105,颗粒物(PM10)
许昌市,市一中,113.8172,34.0339,2025-05-05T1100,37,144,0.2,11,6,105,92,97,颗粒物(PM10)
许昌市,许昌学院,113.8614,34.0442,2025-05-05T1100,42,180,0.2,8,5,110,94,115,颗粒物(PM10)
许昌市,芙蓉广场,113.843,34.0823,2025-05-05T1100,22,134,0.2,8,6,107,93,92,颗粒物(PM10)
许昌市,新元大道996号,113.8157,34.12670,2025-05-05T1100,38,148,0.3,10,4,104,91,99,颗粒物(PM10)
许昌市,望田路111号,113.8358,34.01552,2025-05-05T1100,28,142,0.4,8,6,108,96,96,颗粒物(PM10)
宣城市,鳌峰子站,118.7581,30.9454,2025-05-05T1100,17,31,0.6,13,5,60,60,31,
宣城市,敬亭山子站,118.7385,30.9743,2025-05-05T1100,20,34,0.5,17,6,50,50,34,
宣城市,开发区子站,118.7173,30.9427,2025-05-05T1100,28,,0.3,13,4,58,67,40,
宣城市,夏渡子站,118.7724,30.9141,2025-05-05T1100,26,32,0.6,14,5,55,55,38,
雅安市,市政府,103.0111,29.9833,2025-05-05T1100,3,6,0.1,5,8,73,87,23,
雅安市,川农大,102.9905,29.9775,2025-05-05T1100,3,6,0.4,4,6,67,78,21,
雅安市,康养中心,103.0456,29.9956,2025-05-05T1100,6,,0.8,1,1,84,,,
烟台市,开发区,121.2514,37.5639,2025-05-05T1100,9,22,0.4,7,5,115,117,36,
烟台市,西郊化工站,121.3181,37.5436,2025-05-05T1100,10,39,0.4,7,2,117,118,39,
烟台市,莱山环保局,121.4478,37.4822,2025-05-05T1100,8,61,0.2,3,3,114,105,56,颗粒物(PM10)
烟台市,福山环保局,121.2611,37.4967,2025-05-05T1100,3,46,0.1,4,5,114,108,46,
烟台市,牟平检察院,121.5992,37.4014,2025-05-05T1100,3,36,0.4,5,4,119,115,38,
烟台市,中国农业大学,121.5206,37.4336,2025-05-05T1100,9,36,0.0,2,3,120,105,38,
烟台市,青年南路118号,121.3642,37.5296,2025-05-05T1100,11,29,0.2,4,3,103,98,33,
延安市,枣园,109.4131,36.6275,2025-05-05T1100,55,523,0.2,6,10,85,28,423,颗粒物(PM10)
延安市,延大医附院,109.4761,36.6028,2025-05-05T1100,140,687,0.4,5,4,84,29,500,颗粒物(PM10)
延安市,百米大道,109.5056,36.6106,2025-05-05T1100,136,561,0.5,23,4,76,44,461,颗粒物(PM10)
延安市,西北局旧址,109.4809,36.5786,2025-05-05T1100,109,458,0.4,14,6,68,38,348,颗粒物(PM10)
延边朝鲜族自治州,妇幼医院,129.47,42.8883,2025-05-05T1100,12,28,0.5,14,5,75,42,28,
延边朝鲜族自治州,延边医院,129.5055,42.9108,2025-05-05T1100,14,17,0.5,15,6,80,50,25,
延边朝鲜族自治州,朝阳川镇医院,129.3964,42.8881,2025-05-05T1100,8,24,0.1,17,,77,50,,
盐城市,市监测站,120.156,33.3942,2025-05-05T1100,22,,0.5,13,4,80,87,32,
盐城市,开发区管委会,120.2144,33.38,2025-05-05T1100,17,19,0.5,11,7,76,85,25,
