area,positionname,longitude,latitude,timepoint,pm2_5,pm10,co,no2,so2,o3,o3_8h,aqi,primarypollutant
阿坝藏族羌族自治州,州农科所,102.1879,31.914,2025-06-21T2200,3,18,0.6,9,12,41,68,18,
阿坝藏族羌族自治州,马师校,102.2502,31.8896,2025-06-21T2200,18,19,0.5,16,6,23,71,26,
阿坝藏族羌族自治州,马尔康中学西区,102.2165,31.9024,2025-06-21T2200,20,27,0.6,13,5,26,77,29,
阿克苏地区,电视台,80.292,41.1694,2025-06-21T2200,68,251,0.6,10,7,113,116,151,颗粒物(PM10)
阿克苏地区,艺术中心,80.2613,41.1551,2025-06-21T2200,101,269,0.3,8,3,120,132,160,颗粒物(PM10)
阿拉善盟,西城区西花园,105.6467,38.8363,2025-06-21T2200,23,28,0.9,10,7,174,174,68,臭氧1小时
阿拉善盟,蒙二幼,105.6985,38.8411,2025-06-21T2200,14,28,0.7,12,11,162,166,53,臭氧1小时
阿拉善盟,环保局新楼,105.724,38.8516,2025-06-21T2200,10,20,0.5,5,9,160,159,50,
阿勒泰地区,市站,88.1264,47.8517,2025-06-21T2200,10,14,0.4,12,2,89,106,28,
阿里地区,阿里监测站,80.1161,32.5,2025-06-21T2200,18,,0.3,6,7,,133,,
阿里地区,阿里藏医院,80.0903,32.5028,2025-06-21T2200,3,14,0.4,1,8,134,140,42,
安康市,香溪洞,109.0318,32.6537,2025-06-21T2200,9,17,0.6,3,5,110,110,35,
安康市,汉滨区检察院,109.0072,32.6975,2025-06-21T2200,10,23,0.5,12,6,53,102,23,
安康市,市邮政管理局,109.0325,32.6913,2025-06-21T2200,15,23,0.5,12,6,60,105,23,
安庆市,环科院,117.0809,30.5177,2025-06-21T2200,3,,0.5,5,2,101,104,32,
安庆市,马山宾馆,117.0331,30.5119,2025-06-21T2200,10,,0.5,7,4,,100,,
安庆市,安庆大学,116.9896,30.6145,2025-06-21T2200,3,9,0.4,4,2,98,107,31,
安庆市,市人大,117.0598,30.5351,2025-06-21T2200,8,,0.4,7,2,95,106,30,
安顺市,伍家关,105.9606,26.2611,2025-06-21T2200,8,16,0.5,8,3,63,84,20,
安顺市,凤凰山,105.9408,26.2431,2025-06-21T2200,19,29,0.5,10,2,78,103,29,
安顺市,金钟山,105.9439,26.2564,2025-06-21T2200,22,26,0.4,10,4,75,107,32,
安顺市,娄家坡,105.8983,26.2481,2025-06-21T2200,14,19,0.5,8,4,72,96,23,
安阳市,棉研所,114.4839,36.0621,2025-06-21T2200,,,,,,,,,
安阳市,红庙街,114.3551,36.1017,2025-06-21T2200,9,43,0.5,3,4,161,174,52,臭氧1小时
安阳市,银杏小区,114.361,36.0681,2025-06-21T2200,22,35,0.4,7,4,167,178,59,臭氧1小时
安阳市,信访局,114.3922,36.0878,2025-06-21T2200,9,46,0.5,10,3,159,178,50,
安阳市,左辅环卫站,114.4705,36.0637,2025-06-21T2200,25,54,0.4,13,4,149,174,52,颗粒物(PM10)
安阳市,安钢职工学校,114.2917,36.0949,2025-06-21T2200,16,55,0.2,14,14,136,165,53,颗粒物(PM10)
鞍山市,深沟寺,123.044,41.1196,2025-06-21T2200,15,30,0.6,29,10,90,118,30,
鞍山市,太阳城,123.011,41.0931,2025-06-21T2200,20,34,0.6,30,9,82,126,34,
鞍山市,太平,123.0485,41.1442,2025-06-21T2200,19,38,1.3,25,11,91,117,38,
鞍山市,铁西三道街,122.9642,41.0971,2025-06-21T2200,17,30,0.7,29,8,81,112,30,
鞍山市,明达新区,123.022,41.0821,2025-06-21T2200,17,36,0.7,24,10,88,116,36,
鞍山市,千山,123.1289,41.0228,2025-06-21T2200,,,,,,,,,
鞍山市,兴盛南路290号,122.9446,41.0826,2025-06-21T2200,17,40,0.5,40,7,74,119,40,
巴彦淖尔市,附二中,107.4212,40.761,2025-06-21T2200,18,40,0.5,19,18,106,140,40,
巴彦淖尔市,市环保大楼,107.37,40.7372,2025-06-21T2200,18,33,0.6,25,10,119,147,38,
巴音郭楞蒙古自治州,孔雀公园,86.1472,41.7538,2025-06-21T2200,18,29,0.2,31,8,76,113,29,
巴音郭楞蒙古自治州,棉纺厂,86.1972,41.7166,2025-06-21T2200,8,31,0.3,17,3,100,114,32,
巴音郭楞蒙古自治州,经济开发区,86.2357,41.7173,2025-06-21T2200,8,36,0.1,6,9,97,116,36,
巴中市,苏山坪,106.7677,31.8794,2025-06-21T2200,,,,,,,106,,
巴中市,市五中,106.7768,31.8526,2025-06-21T2200,8,15,0.5,9,7,93,119,30,
巴中市,圣泉水务公司,106.7418,31.8654,2025-06-21T2200,6,13,0.6,19,5,53,119,17,
巴中市,市中心医院,106.7616,31.8344,2025-06-21T2200,3,12,0.4,6,6,93,110,30,
白城市,洮北区环保局,122.7911,45.6077,2025-06-21T2200,11,11,0.4,17,3,61,89,20,
白城市,市环保局,122.8738,45.5725,2025-06-21T2200,7,19,0.4,15,6,55,86,19,
白山市,喜丰,126.4219,41.9171,2025-06-21T2200,13,31,0.7,30,6,41,105,31,
白山市,环保局,126.4077,41.9419,2025-06-21T2200,11,35,0.8,15,9,48,104,35,
白银市,第三小学,104.1724,36.5446,2025-06-21T2200,17,49,0.6,7,12,105,139,49,
白银市,动力公司,104.1465,36.5482,2025-06-21T2200,18,46,0.4,8,13,108,138,46,
百色市,市监测站,106.6103,23.9011,2025-06-21T2200,14,21,0.5,14,4,22,45,21,
百色市,市中心血站,106.6538,23.8859,2025-06-21T2200,20,34,0.8,28,3,2,44,34,
百色市,祈福高中,106.6085,23.8798,2025-06-21T2200,24,35,0.7,20,5,10,56,35,
蚌埠市,工人疗养院,117.396,32.939,2025-06-21T2200,14,23,0.5,16,4,56,105,23,
蚌埠市,百货大楼,117.3605,32.9427,2025-06-21T2200,3,20,0.4,12,4,74,100,24,
蚌埠市,蚌埠学院,117.4185,32.8911,2025-06-21T2200,7,9,0.3,9,3,67,100,21,
蚌埠市,淮上区政府,117.3533,32.9673,2025-06-21T2200,10,17,0.4,17,5,79,106,25,
蚌埠市,高新区,117.3145,32.8977,2025-06-21T2200,9,9,0.3,14,4,57,101,18,
蚌埠市,蚌埠田家炳中学,117.3092,32.9314,2025-06-21T2200,9,16,0.2,16,6,73,94,23,
包头市,市环境监测站,109.8756,40.6532,2025-06-21T2200,3,17,0.4,30,10,107,165,34,
包头市,包头八中,109.9991,40.5842,2025-06-21T2200,16,34,0.6,24,22,122,157,39,
包头市,青山宾馆,109.8538,40.6821,2025-06-21T2200,16,30,0.4,44,9,94,174,30,
包头市,惠龙物流,109.8642,40.6288,2025-06-21T2200,11,17,0.4,23,11,119,168,38,
包头市,东河鸿龙湾,110.0377,40.5546,2025-06-21T2200,10,35,0.5,35,29,97,159,35,
包头市,滨河大厦,109.9154,40.5685,2025-06-21T2200,17,,0.4,20,7,119,166,38,
包头市,包头市委党校,109.9447,40.6261,2025-06-21T2200,15,37,0.4,33,10,113,165,37,
包头市,昆区政府,109.8331,40.6576,2025-06-21T2200,19,24,0.5,27,9,115,168,36,
宝鸡市,庙沟村,107.185,34.3063,2025-06-21T2200,13,14,0.4,9,6,162,168,53,臭氧1小时
宝鸡市,竹园沟,107.0708,34.3017,2025-06-21T2200,14,22,0.3,17,6,107,172,34,
宝鸡市,三陆医院,107.1906,34.3672,2025-06-21T2200,,,,,,,66,,
宝鸡市,监测站,107.1431,34.3547,2025-06-21T2200,15,26,0.3,15,6,108,166,34,
宝鸡市,技工学校,107.1186,34.3739,2025-06-21T2200,18,28,0.5,16,7,123,176,39,
宝鸡市,陈仓区环保局家属楼,107.3906,34.3528,2025-06-21T2200,26,38,0.6,28,6,130,174,41,
宝鸡市,文理学院,107.2058,34.3497,2025-06-21T2200,18,28,0.5,23,5,122,179,39,
宝鸡市,三迪小学,107.2386,34.3622,2025-06-21T2200,17,22,0.5,23,6,137,174,43,
保定市,游泳馆,115.493,38.8632,2025-06-21T2200,12,45,0.1,29,2,112,148,45,
保定市,华电二区,115.5213,38.8959,2025-06-21T2200,17,40,0.3,20,1,115,147,40,
保定市,接待中心,115.4713,38.9108,2025-06-21T2200,8,32,0.3,18,1,,152,,
保定市,地表水厂,115.4612,38.8416,2025-06-21T2200,13,70,0.2,54,3,80,150,60,颗粒物(PM10)
保定市,满城区生态环境分局,115.31981,38.95208,2025-06-21T2200,9,56,0.2,22,3,104,165,53,颗粒物(PM10)
保定市,清苑区第二中学,115.47694,38.76408,2025-06-21T2200,23,91,0.3,36,1,94,155,71,颗粒物(PM10)
保定市,徐水物探局,115.62909,39.02311,2025-06-21T2200,14,124,0.2,65,3,48,142,87,颗粒物(PM10)
保定市,双鹰农机,115.4202,38.8656,2025-06-21T2200,23,47,0.3,36,3,100,158,47,
保定市,植保所站,115.5150,38.8590,2025-06-21T2200,23,59,0.3,28,3,108,147,55,颗粒物(PM10)
保山市,市环境监测站,99.1678,25.1081,2025-06-21T2200,28,,0.4,5,6,26,49,40,
保山市,市环保局,99.1711,25.1328,2025-06-21T2200,14,17,0.5,3,6,38,54,20,
北海市,牛尾岭水库,109.2262,21.588,2025-06-21T2200,27,,0.4,10,3,45,73,39,
北海市,海滩公园,109.1436,21.4086,2025-06-21T2200,3,26,0.3,4,2,57,66,26,
北海市,新市环保局,109.0981,21.4661,2025-06-21T2200,7,11,0.4,6,2,67,77,21,
北海市,北海工业园,109.1778,21.5233,2025-06-21T2200,17,27,0.5,8,3,51,73,27,
北海市,龙潭自来水厂,109.1911,21.4415,2025-06-21T2200,14,18,0.4,5,2,59,76,20,
北京市,万寿西宫,116.3621,39.8784,2025-06-21T2200,10,25,0.4,29,3,119,130,38,
北京市,定陵,116.2202,40.2915,2025-06-21T2200,,,,,,,,,
北京市,东四,116.4174,39.9289,2025-06-21T2200,7,26,0.2,35,2,120,139,38,
北京市,天坛,116.4072,39.8863,2025-06-21T2200,12,19,0.4,19,3,105,126,33,
北京市,农展馆,116.462,39.9365,2025-06-21T2200,8,22,0.4,21,4,113,120,36,
北京市,官园,116.3392,39.9295,2025-06-21T2200,12,26,0.3,27,3,121,128,38,
北京市,海淀万柳,116.2878,39.9611,2025-06-21T2200,10,31,0.4,39,3,85,112,31,
北京市,顺义新城,116.6636,40.135,2025-06-21T2200,16,26,0.4,53,3,69,127,27,
北京市,怀柔镇,116.6275,40.3275,2025-06-21T2200,7,13,0.3,9,1,75,113,24,
北京市,昌平镇,116.2296,40.217,2025-06-21T2200,9,21,0.2,9,4,74,115,24,
北京市,奥体中心,116.3966,39.9821,2025-06-21T2200,9,21,0.6,24,4,102,107,32,
北京市,延庆夏都,115.9718,40.4529,2025-06-21T2200,8,20,0.5,43,4,35,108,22,
北京市,密云新城,116.8336,40.4095,2025-06-21T2200,14,43,0.3,50,1,42,102,43,
北京市,门头沟三家店,116.088,39.9726,2025-06-21T2200,16,25,0.5,12,3,72,105,25,
北京市,丰台云岗,116.1541,39.8204,2025-06-21T2200,7,48,0.4,50,3,42,111,48,
北京市,通州东关,116.6804,39.9081,2025-06-21T2200,11,29,0.3,25,2,118,133,37,
北京市,房山燕山,115.9577,39.7603,2025-06-21T2200,9,22,0.3,10,2,75,91,24,
北京市,大兴旧宫,116.4672,39.7733,2025-06-21T2200,11,36,0.3,29,3,92,124,36,
北京市,延庆石河营,115.986,40.4563,2025-06-21T2200,12,21,0.4,26,2,31,100,21,
北京市,怀柔新城,116.6151,40.3053,2025-06-21T2200,9,14,0.3,8,1,78,105,25,
北京市,丰台小屯,116.2545,39.8768,2025-06-21T2200,8,32,0.4,28,2,97,104,32,
北京市,密云镇,116.84,40.3844,2025-06-21T2200,11,58,0.5,43,2,48,104,54,颗粒物(PM10)
北京市,八角北路9号,116.1942,39.9158,2025-06-21T2200,13,60,0.5,40,1,65,110,55,颗粒物(PM10)
北京市,洳河巡河路,117.0790,40.1518,2025-06-21T2200,14,31,0.4,20,3,60,102,31,
本溪市,大峪,123.8275,41.3064,2025-06-21T2200,11,30,0.9,19,7,60,107,30,
本溪市,溪湖,123.7567,41.3325,2025-06-21T2200,7,23,0.6,17,9,69,112,23,
本溪市,彩屯,123.7169,41.3094,2025-06-21T2200,14,34,0.5,34,9,38,103,34,
本溪市,东明,123.7669,41.2864,2025-06-21T2200,17,47,1.2,43,9,50,120,47,
本溪市,新立屯,123.7992,41.2664,2025-06-21T2200,6,15,0.5,43,6,56,111,22,
本溪市,威宁,123.8142,41.3472,2025-06-21T2200,11,43,0.4,26,6,50,110,43,
毕节市,八中,105.2864,27.3125,2025-06-21T2200,12,13,0.5,8,5,61,104,20,
毕节市,师专,105.31,27.2944,2025-06-21T2200,9,14,0.4,7,4,87,108,28,
毕节市,工业大道,105.3688,27.3598,2025-06-21T2200,7,12,0.5,13,6,73,134,23,
滨州市,第二水厂,118.0018,37.3617,2025-06-21T2200,48,83,0.7,24,12,171,200,67,"颗粒物(PM10),细颗粒物(PM2.5)"
滨州市,北中新校,117.9776,37.393,2025-06-21T2200,51,73,1.0,19,20,187,210,84,臭氧1小时
滨州市,中海酒店,117.9378,37.3956,2025-06-21T2200,39,63,1.1,16,14,185,206,82,臭氧1小时
滨州市,开发区一中,117.9378,37.3553,2025-06-21T2200,34,66,1.1,16,18,186,204,83,臭氧1小时
滨州市,金海六路,118.0917,37.694,2025-06-21T2200,58,98,0.8,30,11,185,234,82,臭氧1小时
滨州市,滨州市西街道办事处,117.9956,37.3753,2025-06-21T2200,44,78,0.7,20,18,174,210,68,臭氧1小时
亳州市,污水处理厂,115.8072,33.8399,2025-06-21T2200,25,28,0.4,5,2,95,114,36,
亳州市,三国揽胜宫,115.7789,33.8518,2025-06-21T2200,21,23,0.3,2,2,83,107,30,
亳州市,亳州学院,115.7633,33.8034,2025-06-21T2200,24,,0.4,4,2,100,117,,
博尔塔拉蒙古自治州,市党校,82.0485,44.8556,2025-06-21T2200,14,23,0,7,2,117,123,37,
博尔塔拉蒙古自治州,市环保局,82.0806,44.8969,2025-06-21T2200,8,40,0.3,7,3,107,120,40,
沧州市,沧县城建局,116.8842,38.2991,2025-06-21T2200,42,86,0.7,34,8,170,168,68,颗粒物(PM10)
沧州市,电视转播站,116.8584,38.3254,2025-06-21T2200,41,75,0.7,31,6,167,166,63,颗粒物(PM10)
沧州市,市环保局,116.8709,38.3228,2025-06-21T2200,38,83,0.7,27,7,,171,,
沧州市,河北水利电力学院,116.8136,38.3004,2025-06-21T2200,37,80,0.8,32,6,190,185,88,臭氧1小时
昌都市,昌都监测站,97.1806,31.1273,2025-06-21T2200,16,23,0.5,24,6,,151,,
昌都市,昌都会议中心,97.1714,31.1406,2025-06-21T2200,14,20,0.2,11,6,101,137,32,
昌吉回族自治州,天山天池,88.1236,43.8886,2025-06-21T2200,3,13,0.6,7,5,80,105,25,
昌吉回族自治州,新区政务中心,87.2717,44.0297,2025-06-21T2200,3,23,0.2,11,2,102,112,32,
昌吉回族自治州,亚心广场,87.3095,44.0142,2025-06-21T2200,3,29,0.2,14,5,107,105,34,
长春市,客车厂,125.2863,43.9027,2025-06-21T2200,13,27,0.3,34,4,59,93,27,
长春市,邮电学院,125.2841,43.8463,2025-06-21T2200,3,22,0.4,48,7,43,93,24,
长春市,劳动公园,125.3716,43.8772,2025-06-21T2200,13,30,0.3,38,3,56,93,30,
长春市,园林处,125.3297,43.8805,2025-06-21T2200,7,21,0.5,32,5,56,93,21,
长春市,净月潭,125.4605,43.79,2025-06-21T2200,6,29,0.2,29,6,26,94,29,
长春市,甩湾子,125.7194,43.515,2025-06-21T2200,3,16,0.5,61,1,11,93,31,
长春市,经开区环卫处,125.3863,43.8447,2025-06-21T2200,9,42,0.3,31,5,61,94,42,
长春市,高新区管委会,125.245,43.7783,2025-06-21T2200,8,27,0.3,40,3,47,96,27,
长春市,岱山公园,125.1761,43.8325,2025-06-21T2200,3,19,0.2,48,3,40,93,24,
长春市,北亚泰大街1068号,125.3346,43.9164,2025-06-21T2200,11,26,0.3,28,4,56,81,26,
长沙市,经开区环保局,113.0833,28.2325,2025-06-21T2200,10,10,0.3,10,4,78,70,25,
长沙市,高开区环保局,112.8872,28.2189,2025-06-21T2200,11,14,0.5,6,3,85,74,27,
长沙市,马坡岭,113.0792,28.2053,2025-06-21T2200,3,12,0.7,8,3,80,70,25,
长沙市,湖南师范大学,112.9394,28.19,2025-06-21T2200,3,6,0.2,6,2,93,77,30,
长沙市,雨花区环保局,113.0178,28.1322,2025-06-21T2200,8,,0.5,6,4,86,72,27,
长沙市,伍家岭,112.9792,28.2597,2025-06-21T2200,7,9,0.3,6,2,84,72,27,
长沙市,火车新站,113.0014,28.1944,2025-06-21T2200,3,9,0.5,4,6,83,70,26,
长沙市,天心区环保局,112.9844,28.1178,2025-06-21T2200,10,11,0.8,7,1,90,78,29,
长沙市,湖南中医药大学,112.8908,28.1308,2025-06-21T2200,3,8,0.4,5,3,88,77,28,
长沙市,沙坪,112.9581,28.3611,2025-06-21T2200,3,30,0.5,9,4,81,70,30,
长治市,清华站,113.1147,36.1547,2025-06-21T2200,19,32,0.6,12,7,178,194,73,臭氧1小时
长治市,审计局,113.0886,36.2125,2025-06-21T2200,22,34,0.7,11,10,180,198,75,臭氧1小时
长治市,长治八中,113.0844,36.1856,2025-06-21T2200,28,32,0.7,15,13,189,205,87,臭氧1小时
长治市,德盛苑,113.1569,36.1911,2025-06-21T2200,24,34,0.6,12,9,162,193,53,臭氧1小时
长治市,向阳小学,113.06,36.0464,2025-06-21T2200,37,61,0.7,10,6,189,205,87,臭氧1小时
长治市,屯留一中,112.8792,36.3144,2025-06-21T2200,33,45,0.4,16,7,161,192,52,臭氧1小时
长治市,英华南巷50号,113.1131,36.19948,2025-06-21T2200,29,35,0.6,12,9,178,196,73,臭氧1小时
长治市,学府街1号,113.2367,36.3344,2025-06-21T2200,13,52,0.6,26,5,156,180,51,颗粒物(PM10)
常德市,市二中,111.6975,28.9703,2025-06-21T2200,10,14,0.7,11,3,76,106,24,
常德市,白鹤山,111.7158,29.1456,2025-06-21T2200,,,,,,,,,
常德市,武陵区永安,111.7153,29.0289,2025-06-21T2200,14,,0.4,8,2,89,109,28,
常德市,鼎城区玉霞,111.6892,28.9881,2025-06-21T2200,11,15,0.5,10,2,72,113,23,
常德市,武陵区长庚,111.6625,29.0531,2025-06-21T2200,28,,0.4,11,3,70,108,40,
常州市,市监测站,119.9633,31.762,2025-06-21T2200,3,8,0.4,4,9,78,94,25,
常州市,武进监测站,119.9468,31.7069,2025-06-21T2200,3,13,0.8,16,7,74,89,24,
常州市,安家,119.9255,31.9087,2025-06-21T2200,3,15,,11,6,,94,,
常州市,行政中心,119.9805,31.8174,2025-06-21T2200,3,23,0.2,14,8,75,91,24,
常州市,经开区,120.0522,31.7748,2025-06-21T2200,3,17,0.2,14,6,77,89,25,
常州市,钟楼,119.9025,31.7964,2025-06-21T2200,3,7,0.5,12,5,78,91,25,
常州市,武进经发区,119.8598,31.7066,2025-06-21T2200,13,28,0.6,19,4,63,88,28,
常州市,金坛城区,119.5826,31.7245,2025-06-21T2200,9,14,0.3,10,6,95,103,30,
朝阳市,西梁,120.4318,41.5881,2025-06-21T2200,17,72,0.6,45,4,22,89,61,颗粒物(PM10)
朝阳市,河畔小区,120.4521,41.5646,2025-06-21T2200,11,23,0.4,24,6,55,93,23,
朝阳市,八里堡,120.4176,41.5648,2025-06-21T2200,21,59,0.6,39,5,33,93,55,颗粒物(PM10)
朝阳市,农业园区,120.3806,41.5969,2025-06-21T2200,9,,0.3,28,4,38,84,14,
潮州市,西园路,116.6367,23.6719,2025-06-21T2200,6,21,0.6,20,8,17,54,21,
潮州市,市政府,116.6183,23.6608,2025-06-21T2200,8,34,0.7,23,10,11,46,34,
潮州市,金山,116.6461,23.6761,2025-06-21T2200,9,25,0.6,13,8,12,55,25,
郴州市,马头岭,113.0073,25.9061,2025-06-21T2200,6,13,0.3,11,7,45,49,15,
郴州市,市职中,113.0116,25.8226,2025-06-21T2200,8,14,0.3,5,3,50,52,16,
郴州市,市审计局,113.0383,25.8071,2025-06-21T2200,9,13,0.4,5,3,50,54,16,
郴州市,市环保局,113.0348,25.7759,2025-06-21T2200,10,21,0,6,3,62,66,21,
郴州市,好美居路49号,113.0138,25.8011,2025-06-21T2200,9,,0.4,6,5,60,61,19,
成都市,金泉两河,103.9728,30.7236,2025-06-21T2200,3,33,0.4,22,2,108,179,34,
成都市,十里店,104.176,30.6872,2025-06-21T2200,24,31,0.5,14,4,116,153,37,
成都市,三瓦窑,104.079,30.5706,2025-06-21T2200,8,33,0.5,25,3,118,162,37,
成都市,沙河铺,104.1114,30.63,2025-06-21T2200,3,20,0.5,16,4,112,148,35,
成都市,君平街,104.0786,30.6531,2025-06-21T2200,16,31,0.8,14,5,133,189,42,
成都市,灵岩寺,103.613,31.0283,2025-06-21T2200,,,,,,,,,
成都市,大石西路,104.0239,30.65639,2025-06-21T2200,19,36,0.6,21,5,110,173,36,
成都市,龙泉驿区区政府,104.2725,30.5589,2025-06-21T2200,12,22,0.6,9,4,130,141,41,
成都市,金博路,104.0106,30.6931,2025-06-21T2200,11,31,0.6,19,4,122,170,39,
成都市,华阳,104.0578,30.5225,2025-06-21T2200,19,22,0.6,13,7,120,145,38,
成都市,青白江技师分院,104.3853,30.7453,2025-06-21T2200,17,37,0.6,15,6,123,158,39,
成都市,科学城,104.0789,30.4072,2025-06-21T2200,9,16,0.6,11,4,122,150,39,
成都市,光华大道三段,103.8506,30.6947,2025-06-21T2200,31,54,0.5,15,4,110,200,52,颗粒物(PM10)
成都市,鲸龙路1057号,104.2433,30.5353,2025-06-21T2200,15,27,0.6,10,7,131,148,41,
承德市,铁路,117.9531,40.9081,2025-06-21T2200,16,34,0.3,15,2,38,100,34,
承德市,中国银行,117.9392,40.9763,2025-06-21T2200,28,36,0.4,19,3,27,99,40,
承德市,开发区,117.9503,40.928,2025-06-21T2200,15,35,0.4,15,4,55,103,35,
承德市,文化中心,117.8051,40.9655,2025-06-21T2200,11,46,0.3,35,1,28,98,46,
承德市,离宫,117.9268,41.0026,2025-06-21T2200,23,26,0.3,14,3,43,94,33,
池州市,池州学院,117.47,30.6618,2025-06-21T2200,6,8,0.5,7,4,92,99,29,
池州市,展览馆,117.4918,30.6617,2025-06-21T2200,8,11,0.6,6,4,46,102,15,
池州市,第八中学,117.5627,30.695,2025-06-21T2200,7,8,0.8,8,4,88,102,28,
池州市,第十二中学,117.5038,30.6243,2025-06-21T2200,3,6,0.8,5,2,100,106,32,
赤峰市,松山一中,118.9233,42.2816,2025-06-21T2200,10,16,0.5,19,8,61,106,20,
赤峰市,哈达街,118.9576,42.2728,2025-06-21T2200,20,38,0.5,25,10,50,94,38,
赤峰市,天义路,118.8788,42.2554,2025-06-21T2200,18,,0.4,16,10,63,99,26,
赤峰市,银河街,119.2658,42.0353,2025-06-21T2200,22,72,0.8,38,54,24,90,61,颗粒物(PM10)
赤峰市,桥北物流园区,118.9359,42.3147,2025-06-21T2200,6,57,0.6,42,8,30,94,54,颗粒物(PM10)
崇左市,市环保局江州分局,107.3476,22.4136,2025-06-21T2200,8,21,0.6,7,5,35,55,21,
崇左市,石景林东路7号,107.3750,22.3736,2025-06-21T2200,4,,1.1,8,3,40,57,,
滁州市,老年大学,118.3093,32.3153,2025-06-21T2200,14,15,0.2,11,10,59,93,20,
滁州市,人大宾馆,118.3244,32.2786,2025-06-21T2200,16,,0.3,8,3,66,96,23,
滁州市,市政府原办公楼,118.3118,32.3038,2025-06-21T2200,16,,0.3,6,3,70,96,23,
滁州市,图书馆,118.3267,32.2634,2025-06-21T2200,14,,0.4,8,8,62,89,20,
楚雄彝族自治州,州环境监测站,101.5482,25.0441,2025-06-21T2200,19,,0.6,15,6,55,47,28,
楚雄彝族自治州,市经济开发区,101.538,25.0492,2025-06-21T2200,21,25,0.8,17,8,51,45,30,
达州市,达州职业技术学院,107.5277,31.2827,2025-06-21T2200,3,19,0.3,26,6,32,77,19,
达州市,市环境监测站,107.5086,31.2186,2025-06-21T2200,3,12,0.3,19,4,67,84,21,
达州市,凤凰小区,107.4988,31.2132,2025-06-21T2200,3,9,0.2,12,3,82,88,26,
达州市,达县机关宾馆,107.5082,31.1986,2025-06-21T2200,7,12,0.3,34,5,38,85,17,
达州市,市政中心,107.4644,31.2124,2025-06-21T2200,3,17,0.3,8,2,80,81,25,
大理白族自治州,大理市环境监测站,100.1542,25.7054,2025-06-21T2200,,,,,,,41,,
大理白族自治州,大理古城,100.2171,25.5811,2025-06-21T2200,,,0.7,9,8,51,60,,
大连市,甘井子,121.612,38.9741,2025-06-21T2200,14,24,0.5,22,5,82,139,26,
大连市,周水子,121.565,38.9511,2025-06-21T2200,20,23,0.4,20,8,81,149,29,
大连市,星海三站,121.5637,38.8845,2025-06-21T2200,19,28,0.4,16,5,75,137,28,
大连市,青泥洼桥,121.6302,38.9117,2025-06-21T2200,18,27,0.3,24,8,75,147,27,
大连市,傅家庄,121.6251,38.8638,2025-06-21T2200,7,19,0.2,12,9,105,127,33,
大连市,七贤岭,121.5213,38.8661,2025-06-21T2200,15,23,0.6,11,6,93,153,30,
大连市,旅顺,121.2529,38.8061,2025-06-21T2200,25,39,0.4,19,6,66,129,39,
大连市,金州,121.7485,39.1311,2025-06-21T2200,30,86,0.4,21,8,88,135,68,颗粒物(PM10)
大连市,开发区,121.7811,39.0496,2025-06-21T2200,30,38,0.4,17,6,99,139,43,
大连市,双D港,121.9762,39.0631,2025-06-21T2200,10,21,0.3,19,9,100,135,32,
大庆市,大同区,124.81117,46.03138,2025-06-21T2200,10,,0.6,6,5,55,70,18,
大庆市,龙凤区,125.129,46.533,2025-06-21T2200,11,31,0.3,8,4,50,68,31,
大庆市,红岗区,124.902,46.408,2025-06-21T2200,25,,0.4,2,8,56,76,36,
大庆市,萨尔图区,125.153,46.586,2025-06-21T2200,8,19,0.5,13,8,39,58,19,
大庆市,让胡路区,124.9042,46.6215,2025-06-21T2200,20,,0.3,4,4,53,70,29,
大庆市,萨区政府监测点,125.141,46.634,2025-06-21T2200,3,14,0.4,3,6,50,68,16,
大同市,果树场,113.3819,40.1097,2025-06-21T2200,,,,,,,,,
大同市,云冈宾馆,113.2994,40.0758,2025-06-21T2200,10,27,0.3,20,6,81,113,27,
大同市,大同大学,113.3444,40.0917,2025-06-21T2200,7,13,0.3,12,11,96,116,30,
大同市,安家小村,113.2661,40.1269,2025-06-21T2200,8,17,0.4,16,5,92,113,29,
大同市,教育学院,113.2711,40.0844,2025-06-21T2200,12,24,0.3,19,7,89,116,28,
大同市,大同市卫生学校,113.3397,40.0597,2025-06-21T2200,34,38,0.4,19,8,86,116,49,
大同市,云冈站,113.1367,40.1122,2025-06-21T2200,6,10,0.3,9,4,72,115,23,
大同市,图书馆,113.1186,40.2556,2025-06-21T2200,12,15,0.4,9,6,66,117,21,
大同市,区一中,113.5931,40.0461,2025-06-21T2200,6,,0.3,6,11,94,121,30,
大同市,魏都大道141号,113.2798,40.0997,2025-06-21T2200,15,,0.4,22,6,84,120,27,
大兴安岭地区,科技局,124.1069,50.4097,2025-06-21T2200,17,44,0.4,5,6,65,73,44,
大兴安岭地区,红旗社区,124.1164,50.4278,2025-06-21T2200,11,14,0.3,3,5,68,71,22,
丹东市,江湾东路,124.3303,40.0625,2025-06-21T2200,22,37,0.6,27,6,84,124,37,
丹东市,临江后街,124.4256,40.1503,2025-06-21T2200,24,121,1.1,25,9,92,127,86,颗粒物(PM10)
丹东市,元宝山,124.3933,40.1461,2025-06-21T2200,11,24,0.7,15,7,111,108,35,
丹东市,民主桥,124.3633,40.1092,2025-06-21T2200,26,27,0.6,24,10,89,120,38,
儋州市,第一中学子站,109.5726,19.5167,2025-06-21T2200,20,30,0.5,13,9,23,43,30,
儋州市,东坡学校子站,109.5567,19.5187,2025-06-21T2200,12,15,0.6,12,8,29,40,18,
德宏傣族景颇族自治州,德宏州监测站,98.5842,24.428,2025-06-21T2200,10,19,0.6,6,7,35,64,19,
德宏傣族景颇族自治州,芒市人民政府综合楼,98.5881,24.4368,2025-06-21T2200,14,21,0.4,6,7,34,67,21,
德阳市,东山公园,104.4239,31.1208,2025-06-21T2200,25,,0.6,10,5,116,190,37,
德阳市,西小区,104.3826,31.1317,2025-06-21T2200,18,33,0.8,16,5,118,183,37,
德阳市,耐火材料厂,104.3553,31.1091,2025-06-21T2200,22,28,0.5,16,7,117,180,37,
德阳市,市教育局,104.4019,31.1244,2025-06-21T2200,18,27,0.6,14,5,115,197,36,
德州市,儿童乐园,116.3032,37.4674,2025-06-21T2200,7,39,0.3,29,6,133,197,42,
德州市,监理站,116.2991,37.4451,2025-06-21T2200,3,27,0.2,19,8,156,199,49,
德州市,九衢泉纯净水厂,116.2721,37.4379,2025-06-21T2200,9,34,0.5,18,7,147,188,46,
德州市,开发区人民医院,116.3728,37.4403,2025-06-21T2200,9,39,0.4,30,6,138,191,44,
德州市,太阳城中学,116.3572,37.4094,2025-06-21T2200,,,,,,,,,
德州市,陵城艺术中心,116.5652,37.3319,2025-06-21T2200,17,61,0.6,17,7,152,189,56,颗粒物(PM10)
迪庆藏族自治州,迪庆州站,99.7056,27.8317,2025-06-21T2200,17,38,0.7,22,7,39,60,38,
迪庆藏族自治州,质量技术监督局,99.7136,27.8094,2025-06-21T2200,8,13,0.5,12,7,44,56,14,
定西市,将台街,104.6092,35.5962,2025-06-21T2200,18,40,0.5,8,4,134,146,42,
定西市,正龙路62号,104.6159,35.5701,2025-06-21T2200,21,40,0.3,4,3,129,142,41,
东莞市,莞城梨川,113.7547,23.0494,2025-06-21T2200,7,16,0.3,16,6,16,36,16,
东莞市,东城石井,113.7944,23.0128,2025-06-21T2200,7,19,0.5,17,2,7,31,19,
东莞市,南城西平,113.7383,22.9658,2025-06-21T2200,3,11,0.4,14,2,22,38,11,
东莞市,万江金泰,113.7338,23.0381,2025-06-21T2200,7,14,0.7,14,2,11,24,14,
东莞市,南城元岭,113.7533,23.0202,2025-06-21T2200,71,,0.6,23,5,10,33,95,细颗粒物(PM2.5)
东莞市,东城主山,113.7875,23.0457,2025-06-21T2200,7,16,0.5,16,6,15,34,16,
东营市,市环保局,118.6614,37.4309,2025-06-21T2200,51,58,0.7,19,8,197,205,97,臭氧1小时
东营市,开发区管委会,118.6904,37.4338,2025-06-21T2200,46,68,0.5,16,7,213,219,107,臭氧1小时
东营市,垦利区民丰路,118.5719,37.565,2025-06-21T2200,53,92,1.0,23,8,191,221,89,臭氧1小时
东营市,河口城区,118.5055,37.8612,2025-06-21T2200,83,122,1.3,26,7,181,249,110,细颗粒物(PM2.5)
东营市,胜利站,118.4978,37.4623,2025-06-21T2200,51,56,1.1,20,8,197,211,97,臭氧1小时
东营市,理想之城,118.35,37.26,2025-06-21T2200,53,75,0.9,22,6,195,214,94,臭氧1小时
鄂尔多斯市,综合楼,110.0023,39.8129,2025-06-21T2200,12,44,0.4,36,4,88,139,44,
鄂尔多斯市,巴音孟克林场办事处,109.9486,39.8261,2025-06-21T2200,9,44,0.6,26,4,109,152,44,
鄂尔多斯市,康泽苑,109.7736,39.5986,2025-06-21T2200,9,27,0.3,18,8,117,167,37,
鄂尔多斯市,华泰汽车城,109.8119,39.5989,2025-06-21T2200,14,44,0.4,31,6,87,153,44,
鄂尔多斯市,奥林花园,109.9734,39.7884,2025-06-21T2200,17,48,0.5,47,6,86,154,48,
鄂州市,市政府,114.8938,30.3994,2025-06-21T2200,3,10,0.4,11,4,83,97,26,
鄂州市,赵家坝,114.8989,30.3714,2025-06-21T2200,3,6,0.3,5,8,86,102,27,
鄂州市,精准医疗中心,114.8094,30.4089,2025-06-21T2200,,2,0.5,2,4,66,76,,
恩施土家族苗族自治州,湖北民院,109.4978,30.2981,2025-06-21T2200,6,19,0.4,5,4,46,91,19,
恩施土家族苗族自治州,州电力总公司,109.4707,30.2798,2025-06-21T2200,11,14,0.5,13,6,30,72,16,
恩施土家族苗族自治州,龙凤新区,109.5061,30.3772,2025-06-21T2200,3,13,0.4,6,3,12,68,13,
防城港市,沙万,108.3411,21.6158,2025-06-21T2200,14,20,,17,4,51,58,,
防城港市,防城档案局,108.3514,21.7731,2025-06-21T2200,13,20,0.4,7,1,60,63,20,
防城港市,大海花园,108.3506,21.6414,2025-06-21T2200,10,23,0.4,12,3,60,66,23,
佛山市,湾梁,113.1294,23.0067,2025-06-21T2200,3,19,0.4,39,13,1,32,20,
佛山市,华材职中,113.1083,23.0478,2025-06-21T2200,9,17,0.5,30,8,4,36,17,
佛山市,南海气象局,113.144,23.0453,2025-06-21T2200,10,26,0.8,33,4,2,29,26,
佛山市,顺德苏岗,113.2881,22.8094,2025-06-21T2200,3,12,0.5,20,6,9,23,12,
佛山市,高明孔堂,112.8383,22.8678,2025-06-21T2200,3,26,0.6,11,5,20,36,26,
佛山市,三水监测站,112.8836,23.1588,2025-06-21T2200,3,19,0.6,44,2,1,34,22,
佛山市,三水云东海,112.867,23.185,2025-06-21T2200,15,38,0.7,42,1,4,47,38,
佛山市,容桂街道办,113.2544,22.7642,2025-06-21T2200,7,19,0.7,28,5,9,20,19,
福州市,鼓山,119.3903,26.0543,2025-06-21T2200,,,,,,,,,
福州市,师大,119.2681,26.0504,2025-06-21T2200,9,31,0.2,8,5,65,70,31,
福州市,五四北路,119.2984,26.1028,2025-06-21T2200,8,33,0.3,18,4,44,69,33,
福州市,杨桥西路,119.2648,26.0768,2025-06-21T2200,9,32,0.2,11,4,63,68,32,
福州市,紫阳,119.317,26.0746,2025-06-21T2200,7,28,0.2,16,4,42,70,28,
福州市,九龙,119.5799,26.0936,2025-06-21T2200,10,23,0.2,12,6,49,86,23,
福州市,吴航,119.5189,25.9664,2025-06-21T2200,11,23,0.3,9,6,43,85,23,
抚顺市,望花区,123.7977,41.8491,2025-06-21T2200,13,19,0.5,53,34,56,120,27,
抚顺市,顺城区,123.9161,41.8822,2025-06-21T2200,21,52,0.7,80,6,4,115,51,颗粒物(PM10)
抚顺市,东洲区,124.0436,41.8611,2025-06-21T2200,21,24,,26,16,61,114,,
抚顺市,新抚区,123.9247,41.8642,2025-06-21T2200,12,26,0.7,25,9,60,116,26,
抚顺市,大伙房水库,124.0972,41.8961,2025-06-21T2200,7,9,0.3,16,8,74,108,24,
抚顺市,沈抚新城,123.7086,41.8391,2025-06-21T2200,16,38,0.6,94,8,7,116,47,
抚州市,桐源党溪,116.2127,28.0814,2025-06-21T2200,3,29,0.1,2,4,,57,,
抚州市,市站,116.3544,27.9831,2025-06-21T2200,7,24,0.6,2,3,37,54,24,
抚州市,血防站,116.3565,27.963,2025-06-21T2200,13,23,0.5,6,3,36,56,23,
抚州市,采茶剧团,116.3564,28.0007,2025-06-21T2200,14,19,0.2,2,4,40,55,20,
抚州市,医学分院,116.385,27.9647,2025-06-21T2200,13,22,0.6,2,3,39,58,22,
阜新市,工业园区,121.6094,41.998,2025-06-21T2200,8,32,0.4,38,35,34,98,32,
阜新市,长青街,121.6697,42.0279,2025-06-21T2200,16,34,0.5,39,47,38,94,34,
阜新市,农业园区,121.6673,42.0705,2025-06-21T2200,7,24,0.4,26,8,51,93,24,
阜新市,东苑,121.6717,42.0224,2025-06-21T2200,13,37,0.7,39,74,42,98,37,
阜新市,玉龙新城,121.6506,42.0498,2025-06-21T2200,17,51,0.6,55,7,14,92,51,颗粒物(PM10)
阜阳市,市监测站,115.8277,32.8929,2025-06-21T2200,3,16,0.2,6,2,98,102,31,
阜阳市,开发区,115.8554,32.8605,2025-06-21T2200,3,,0.1,11,6,95,106,30,
阜阳市,阜阳职业技术学院,115.784,32.8892,2025-06-21T2200,10,,0.3,6,4,104,109,33,
阜阳市,市规划展馆,115.7901,32.8613,2025-06-21T2200,3,12,0.3,7,2,95,104,30,
阜阳市,枣园社区,115.836,32.9183,2025-06-21T2200,3,14,0.3,9,3,104,105,33,
甘南藏族自治州,州政府,102.9099,34.9841,2025-06-21T2200,19,,0.4,12,3,92,119,29,
甘南藏族自治州,甘肃民族师范学院,102.8914,34.9617,2025-06-21T2200,11,14,0.4,14,8,87,123,28,
甘孜藏族自治州,水桥子,101.9603,30.0475,2025-06-21T2200,12,16,0.3,39,5,23,82,20,
甘孜藏族自治州,州环保局,101.9533,29.9972,2025-06-21T2200,3,19,0.3,36,2,42,101,19,
赣江新区,桑海产业园,115.8347,28.932,2025-06-21T2200,,,,,,,67,,
赣州市,通天岩,114.9017,25.9149,2025-06-21T2200,3,20,0.3,3,1,31,48,20,
赣州市,地委,114.9367,25.8664,2025-06-21T2200,8,10,0.6,8,7,30,51,12,
赣州市,气象台,114.9461,25.8481,2025-06-21T2200,3,16,0.3,4,7,34,53,16,
赣州市,市图书馆,114.9322,25.8333,2025-06-21T2200,3,11,0.4,5,4,29,49,11,
赣州市,华坚鞋城,114.8905,25.8471,2025-06-21T2200,3,14,0.3,10,4,35,57,14,
赣州市,赣县区卫计委,115.0093,25.8613,2025-06-21T2200,11,,0.2,8,2,29,50,16,
固原市,马园,106.2319,36.1417,2025-06-21T2200,23,50,0.7,73,65,82,137,50,
固原市,监测站,106.2792,36.0022,2025-06-21T2200,18,27,0.3,13,5,150,153,47,
固原市,新区,106.2375,36.0211,2025-06-21T2200,13,32,0.4,14,3,148,153,47,
固原市,原州区十五小,106.2177,35.9959,2025-06-21T2200,15,25,0.3,12,9,146,150,46,
广安市,小平旧居,106.6308,30.5278,2025-06-21T2200,,,,,,,,,
广安市,市委,106.6303,30.4576,2025-06-21T2200,7,15,0.5,12,4,72,89,23,
广安市,友谊中学,106.6271,30.4663,2025-06-21T2200,7,15,0.6,11,7,90,109,29,
广安市,广电花园,106.6388,30.4551,2025-06-21T2200,8,13,0.5,8,8,74,92,24,
广安市,北辰小学,106.6351,30.4865,2025-06-21T2200,8,10,0.6,8,8,82,97,26,
广元市,黑石坡,105.8945,32.4535,2025-06-21T2200,21,32,0.4,11,8,108,123,34,
广元市,老城,105.821,32.4444,2025-06-21T2200,19,30,0.7,12,5,127,134,40,
广元市,监测站,105.8628,32.4287,2025-06-21T2200,23,,0.5,16,8,108,134,34,
广元市,经开区,105.8047,32.4166,2025-06-21T2200,15,28,0.5,9,4,134,139,42,
广州市,广雅中学,113.2347,23.1423,2025-06-21T2200,13,24,0.5,34,2,15,39,24,
广州市,市五中,113.2612,23.105,2025-06-21T2200,11,21,0.6,18,4,9,31,21,
广州市,广东商学院,113.3478,23.0916,2025-06-21T2200,14,24,0.7,31,2,9,33,24,
广州市,市八十六中,113.4332,23.1047,2025-06-21T2200,9,16,0.6,40,3,1,18,20,
广州市,番禺中学,113.3505,22.9483,2025-06-21T2200,9,19,0.6,31,7,5,35,19,
广州市,花都师范,113.2146,23.3916,2025-06-21T2200,14,32,0.8,41,4,10,44,32,
广州市,市监测站,113.2597,23.1331,2025-06-21T2200,10,26,0.4,20,5,12,32,26,
广州市,九龙镇镇龙,113.5618,23.312,2025-06-21T2200,19,37,0.5,32,7,2,23,37,
广州市,麓湖,113.2765,23.1544,2025-06-21T2200,10,21,0.6,21,2,13,23,21,
广州市,帽峰山森林公园,113.443,23.3035,2025-06-21T2200,7,14,0.5,34,6,18,42,17,
广州市,体育西,113.3221,23.1322,2025-06-21T2200,12,23,0.5,34,5,9,30,23,
广州市,从化街口,113.5717,23.5491,2025-06-21T2200,11,22,0.8,27,8,11,34,22,
广州市,白云竹料,113.3472,23.3692,2025-06-21T2200,14,31,0.8,31,3,7,32,31,
广州市,白云嘉禾,113.2981,23.237,2025-06-21T2200,16,26,0.9,35,4,7,33,26,
广州市,黄埔科学城,113.4256,23.1716,2025-06-21T2200,10,25,0.6,30,4,0,23,25,
广州市,番禺大学城,113.3942,23.0483,2025-06-21T2200,14,16,0.7,31,4,5,34,20,
广州市,南沙黄阁,113.4922,22.8168,2025-06-21T2200,3,18,0.5,10,4,20,28,18,
广州市,南沙街,113.5342,22.7896,2025-06-21T2200,6,15,0.5,15,2,16,29,15,
广州市,花都梯面,113.2902,23.5544,2025-06-21T2200,8,17,0.5,22,5,18,42,17,
广州市,从化良口,113.7858,23.7478,2025-06-21T2200,6,14,0.6,11,6,8,32,14,
广州市,增城荔城,113.8051,23.2614,2025-06-21T2200,6,16,0.3,15,6,14,30,16,
贵港市,德智高中,109.568,23.1478,2025-06-21T2200,,,,,,,,,
贵港市,江南子站,109.6047,23.0666,2025-06-21T2200,15,29,0.6,22,9,24,59,29,
贵港市,荷城子站,109.5669,23.1065,2025-06-21T2200,9,26,0.3,14,7,35,55,26,
贵港市,新世纪学校,109.5886,23.1172,2025-06-21T2200,12,24,0.4,13,4,31,59,24,
贵港市,中山路155-3号,109.5933,23.0951,2025-06-21T2200,13,31,0.4,17,4,32,62,31,
贵阳市,马鞍山,106.6899,26.5998,2025-06-21T2200,3,19,0.4,8,3,53,61,19,
贵阳市,鉴湖路,106.6243,26.6266,2025-06-21T2200,3,19,0.4,7,6,70,83,22,
贵阳市,燕子冲,106.7487,26.6343,2025-06-21T2200,27,31,0.2,13,7,72,80,39,
贵阳市,碧云窝,106.6555,26.4365,2025-06-21T2200,14,22,0.4,10,3,72,93,23,
贵阳市,红边门,106.7109,26.6027,2025-06-21T2200,9,19,0.2,6,3,78,94,25,
贵阳市,新华路,106.7164,26.5699,2025-06-21T2200,19,,0.3,12,3,75,86,28,
贵阳市,太慈桥,106.674,26.5424,2025-06-21T2200,17,17,0.4,19,3,49,81,25,
贵阳市,桐木岭,106.805,26.3003,2025-06-21T2200,27,36,0.9,5,4,82,95,39,
贵阳市,花果园大街66号,106.6882,26.5695,2025-06-21T2200,16,19,0.5,10,3,80,92,25,
贵阳市,漓江路57号,106.6873,26.5169,2025-06-21T2200,9,19,0.4,13,5,78,92,25,
桂林市,电子科大尧山校区,110.4144,25.3167,2025-06-21T2200,,,,,,,,,
桂林市,龙隐路小学,110.3089,25.2708,2025-06-21T2200,3,18,0.4,7,8,26,49,18,
桂林市,八中,110.2869,25.2178,2025-06-21T2200,3,14,0.5,23,6,,57,,
桂林市,旅游学院,110.296,25.1253,2025-06-21T2200,3,7,0.3,22,1,14,50,11,
桂林市,环湖路276号,110.1835,25.2444,2025-06-21T2200,3,9,0.4,6,4,48,52,15,
桂林市,信义路13号,110.2803,25.2773,2025-06-21T2200,12,,0.5,16,1,30,48,18,
果洛藏族自治州,玛沁县大武镇,100.2561,34.4714,2025-06-21T2200,14,25,0.4,2,19,126,129,40,
哈尔滨市,岭北,126.5422,45.755,2025-06-21T2200,3,7,0.8,11,10,69,83,22,
哈尔滨市,松北商大,126.561,45.8167,2025-06-21T2200,6,16,0.5,11,5,31,57,16,
哈尔滨市,阿城会宁,126.979,45.5419,2025-06-21T2200,10,19,0.5,18,9,57,79,19,
哈尔滨市,南岗学府路,126.599,45.7222,2025-06-21T2200,6,15,0.4,9,6,60,73,19,
哈尔滨市,太平宏伟公园,126.689,45.7733,2025-06-21T2200,6,11,0.4,7,5,60,71,19,
哈尔滨市,道外承德广场,126.635,45.7667,2025-06-21T2200,3,28,0.5,10,6,54,67,28,
哈尔滨市,香坊红旗大街,126.685,45.7319,2025-06-21T2200,12,14,0.6,8,1,61,75,20,
哈尔滨市,动力和平路,126.6411,45.7258,2025-06-21T2200,3,12,0.3,10,7,62,75,20,
哈尔滨市,道里建国路,126.593,45.7478,2025-06-21T2200,3,12,0.6,5,3,60,74,19,
哈尔滨市,平房东轻厂,126.615,45.61,2025-06-21T2200,3,6,0.3,22,9,47,74,15,
哈尔滨市,呼兰师专,126.595,45.9855,2025-06-21T2200,3,8,0.3,7,7,52,66,17,
哈尔滨市,省农科院,126.6206,45.6842,2025-06-21T2200,6,22,0.6,9,9,54,54,22,
哈密市,地区监测站,93.5128,42.8172,2025-06-21T2200,11,59,0.1,6,12,115,127,55,颗粒物(PM10)
哈密市,哈密师范学校,93.4961,42.8328,2025-06-21T2200,10,41,0.1,6,4,114,121,41,
海北藏族自治州,海晏县西海镇,100.9048,36.9639,2025-06-21T2200,12,15,0.3,6,10,129,152,41,
海东市,平安区公安北苑,102.0738,36.5056,2025-06-21T2200,9,19,0.7,40,6,64,121,20,
海口市,东寨港,110.576,19.9507,2025-06-21T2200,6,9,0.3,3,12,33,46,11,
海口市,海南大学,110.3232,20.0574,2025-06-21T2200,11,22,0.4,4,3,36,57,22,
海口市,秀英海南医院,110.283,20.0053,2025-06-21T2200,16,62,0.3,8,5,,56,,
海口市,海南师范大学,110.338,19.9969,2025-06-21T2200,10,22,0.3,5,4,35,58,22,
海口市,龙华路环保局宿舍,110.33,20.0356,2025-06-21T2200,9,27,0.3,6,5,36,58,27,
海口市,桂林洋子站,110.5111,19.9736,2025-06-21T2200,8,19,0.2,5,4,33,51,19,
海南藏族自治州,共和县恰卜恰镇,100.6188,36.2866,2025-06-21T2200,6,23,0.5,28,10,100,152,32,
海西蒙古族藏族自治州,德令哈市,97.3731,37.3753,2025-06-21T2200,14,26,0.6,1,10,173,164,67,臭氧1小时
邯郸市,东污水处理厂,114.5302,36.6116,2025-06-21T2200,3,40,0.3,37,5,118,185,40,
邯郸市,矿院,114.4918,36.5713,2025-06-21T2200,7,48,0.3,24,10,140,201,48,
邯郸市,丛台公园,114.484,36.6133,2025-06-21T2200,10,30,0.4,17,6,146,188,46,
邯郸市,香泉濮院小区,114.7895,36.5593,2025-06-21T2200,11,76,0.1,15,6,156,169,63,颗粒物(PM10)
邯郸市,永年区实验高中,114.50634,36.77178,2025-06-21T2200,22,48,0.4,22,3,132,182,48,
邯郸市,峰峰矿区临水派出所,114.20016,36.44293,2025-06-21T2200,3,23,0.6,12,5,176,194,70,臭氧1小时
汉中市,汉川机床厂子校,106.9893,33.1842,2025-06-21T2200,15,25,0.5,9,3,97,134,31,
汉中市,市监测站,107.0154,33.0706,2025-06-21T2200,13,26,0.5,9,6,92,123,29,
汉中市,鑫源开发区,107.0089,33.1138,2025-06-21T2200,13,20,0.5,11,6,90,130,29,
汉中市,南郑大河坎水厂,107.007,33.0323,2025-06-21T2200,15,27,0.5,11,4,83,117,27,
杭州市,滨江,120.2072,30.2111,2025-06-21T2200,10,19,0.7,15,7,78,90,25,
杭州市,西溪,120.0633,30.2747,2025-06-21T2200,11,,0.3,9,4,82,78,26,
杭州市,下沙,120.3417,30.3150,2025-06-21T2200,11,16,0.5,12,4,82,90,26,
杭州市,卧龙桥,120.1269,30.2456,2025-06-21T2200,10,18,0.7,10,7,79,90,25,
杭州市,浙江农大,120.1903,30.2692,2025-06-21T2200,15,22,0.5,14,9,65,76,22,
杭州市,和睦小学,120.1197,30.3119,2025-06-21T2200,8,15,0.4,7,8,81,77,26,
杭州市,临平镇,120.3019,30.4183,2025-06-21T2200,3,27,0.4,9,5,86,89,27,
杭州市,城厢镇,120.2753,30.1839,2025-06-21T2200,18,,0.6,8,6,81,89,26,
杭州市,云栖,120.0883,30.1808,2025-06-21T2200,7,18,0.5,7,7,49,80,18,
杭州市,镇二中,119.9464,30.0494,2025-06-21T2200,17,23,0.4,14,3,68,92,25,
杭州市,市府大楼,119.7183,30.2367,2025-06-21T2200,3,9,0.4,9,6,84,68,27,
杭州市,消防大队,120.1556,30.2864,2025-06-21T2200,14,18,0.6,14,5,72,82,23,
合肥市,明珠广场,117.1959,31.7848,2025-06-21T2200,3,7,0.3,13,4,102,102,32,
合肥市,三里街,117.3072,31.8764,2025-06-21T2200,3,,0.4,16,5,81,96,26,
合肥市,琥珀山庄,117.2588,31.8707,2025-06-21T2200,12,,0.4,15,6,88,100,28,
合肥市,董铺水库,117.1604,31.9052,2025-06-21T2200,3,14,0.2,6,3,90,102,29,
合肥市,长江中路,117.25,31.8571,2025-06-21T2200,10,19,0.5,15,6,95,106,30,
合肥市,庐阳区,117.266,31.9436,2025-06-21T2200,3,7,0.6,19,8,78,105,25,
合肥市,瑶海区,117.3453,31.8616,2025-06-21T2200,3,7,0.5,18,6,83,104,26,
合肥市,包河区,117.3027,31.7964,2025-06-21T2200,3,6,0.5,37,4,72,84,23,
合肥市,滨湖新区,117.2776,31.7385,2025-06-21T2200,3,6,0.4,4,8,110,102,35,
合肥市,高新区,117.1318,31.8403,2025-06-21T2200,7,7,0.4,18,6,89,104,28,
合肥市,高教基地,117.3803,31.9147,2025-06-21T2200,3,7,0.3,8,6,54,91,17,
和田地区,地区环保局,79.924,37.0877,2025-06-21T2200,103,420,0.6,26,1,106,129,300,颗粒物(PM10)
和田地区,市环保局,79.9131,37.113,2025-06-21T2200,94,376,0.3,26,1,96,127,238,颗粒物(PM10)
河池市,东仁乐园,108.2011,24.715,2025-06-21T2200,,,,,,,,,
河池市,市环保站,108.0497,24.6947,2025-06-21T2200,10,17,0.7,9,2,17,56,17,
河池市,市疾控中心,108.0983,24.6989,2025-06-21T2200,6,18,0.6,18,3,8,53,18,
河源市,源西,114.6778,23.7569,2025-06-21T2200,12,,0.5,9,4,34,52,18,
河源市,东埔,114.6944,23.7586,2025-06-21T2200,7,8,0.4,11,4,29,49,10,
河源市,老城,114.6892,23.7233,2025-06-21T2200,3,10,0.2,8,5,26,48,10,
菏泽市,气象局,115.4208,35.2464,2025-06-21T2200,14,34,0.4,12,3,141,183,45,
菏泽市,定陶老年大学,115.5564,35.0891,2025-06-21T2200,12,29,0.2,16,3,129,167,41,
菏泽市,永昌路1号,115.4797,35.24401,2025-06-21T2200,14,34,0.3,14,4,139,183,44,
菏泽市,长城路999号,115.4715,35.2800,2025-06-21T2200,13,36,0.4,17,4,150,190,47,
贺州市,环保小区,111.5264,24.4172,2025-06-21T2200,22,30,0.6,12,14,34,55,32,
贺州市,政协大楼,111.5608,24.4078,2025-06-21T2200,13,28,0.6,14,16,35,60,28,
贺州市,西湾,111.4744,24.4553,2025-06-21T2200,14,20,0.4,22,11,21,56,20,
鹤壁市,市监测站,114.17,35.9019,2025-06-21T2200,43,49,0.8,14,6,162,177,60,细颗粒物(PM2.5)
鹤壁市,市交警支队,114.2956,35.7511,2025-06-21T2200,26,47,0.8,21,2,169,178,62,臭氧1小时
鹤壁市,迎宾馆,114.2878,35.7306,2025-06-21T2200,38,55,0.7,18,6,167,176,59,臭氧1小时
鹤壁市,大新区,114.2617,35.6822,2025-06-21T2200,39,54,0.7,19,7,151,177,55,细颗粒物(PM2.5)
鹤壁市,南山宾馆,114.1572,35.9603,2025-06-21T2200,30,62,0.5,15,6,160,190,56,颗粒物(PM10)
鹤岗市,哈啤分公司,130.2537,47.3416,2025-06-21T2200,9,15,0.3,10,15,25,82,15,
鹤岗市,斯达机电,130.2684,47.3086,2025-06-21T2200,21,39,0.3,11,13,45,76,39,
鹤岗市,东山纸板厂,130.3114,47.3388,2025-06-21T2200,18,35,0.8,19,14,34,77,35,
鹤岗市,五号水库,130.1097,47.3382,2025-06-21T2200,7,12,0.5,10,13,33,65,12,
黑河市,交通局,127.4833,50.2524,2025-06-21T2200,6,19,0.4,5,6,61,89,20,
黑河市,环保局,127.5144,50.2341,2025-06-21T2200,8,16,0.3,5,6,63,96,20,
黑河市,大黑河岛,127.5291,50.2472,2025-06-21T2200,14,,0.4,6,18,47,56,20,
衡水市,电机北厂,115.6838,37.7541,2025-06-21T2200,20,56,0.3,20,17,128,187,53,颗粒物(PM10)
衡水市,市监测站,115.6303,37.7316,2025-06-21T2200,18,52,0.3,17,5,141,186,51,颗粒物(PM10)
衡水市,市城管局,115.6683,37.7217,2025-06-21T2200,16,55,0.4,22,3,138,194,53,颗粒物(PM10)
衡水市,地表水厂,115.5989,37.5491,2025-06-21T2200,10,64,0.2,46,6,105,190,57,颗粒物(PM10)
衡阳市,原169医院,112.5003,26.9167,2025-06-21T2200,8,15,0.4,10,3,44,75,15,
衡阳市,衡阳化工总厂,112.6194,26.9258,2025-06-21T2200,14,18,0.4,11,4,25,64,20,
衡阳市,珠晖区环保局,112.6211,26.8956,2025-06-21T2200,,13,0.5,9,6,30,71,,
衡阳市,市委党校,112.6197,26.8733,2025-06-21T2200,8,15,0.4,8,6,40,64,15,
衡阳市,市监测站,112.6006,26.8919,2025-06-21T2200,11,21,0.3,8,6,35,63,21,
衡阳市,真空机电公司,112.5664,26.9056,2025-06-21T2200,12,12,0.6,7,6,35,64,18,
衡阳市,师范学院,112.6703,26.882,2025-06-21T2200,13,19,0.7,13,6,26,64,19,
红河哈尼族彝族自治州,污水处理厂,103.3772,23.3993,2025-06-21T2200,11,12,0.4,8,8,25,33,16,
红河哈尼族彝族自治州,监测站,103.3861,23.35,2025-06-21T2200,14,25,0.3,5,5,26,32,25,
红河哈尼族彝族自治州,州图书馆,103.3758,23.368,2025-06-21T2200,19,,0.3,7,1,29,36,28,
呼和浩特市,呼市一监,111.6507,40.7517,2025-06-21T2200,7,19,0.3,17,7,86,118,27,
呼和浩特市,小召,111.6572,40.8033,2025-06-21T2200,6,9,0.3,16,4,100,112,32,
呼和浩特市,如意水处理厂,111.7516,40.8369,2025-06-21T2200,14,27,0.3,28,5,77,116,27,
呼和浩特市,二十九中,111.7276,40.8062,2025-06-21T2200,8,23,0.4,19,5,90,118,29,
呼和浩特市,工大金川校区,111.5512,40.7866,2025-06-21T2200,10,27,0.5,21,5,78,110,27,
呼和浩特市,化肥厂生活区,111.717,40.7612,2025-06-21T2200,9,23,0.3,26,7,83,120,26,
呼和浩特市,红旗小学,111.5968,40.8178,2025-06-21T2200,8,14,0.3,30,2,76,112,24,
呼和浩特市,海东办,111.6518,40.8389,2025-06-21T2200,7,24,0.2,17,4,92,109,29,
呼伦贝尔市,区环保局,119.7594,49.2261,2025-06-21T2200,30,43,0.5,27,6,41,77,43,
呼伦贝尔市,国华电力东,119.7512,49.1577,2025-06-21T2200,27,39,0.5,16,4,54,92,39,
湖州市,城西水厂,120.0751,30.8669,2025-06-21T2200,14,22,0.4,12,5,79,88,25,
湖州市,仁皇山新区,120.0830,30.8929,2025-06-21T2200,15,21,0.5,12,4,76,89,24,
湖州市,吴兴区站,120.1844,30.8596,2025-06-21T2200,6,12,0.5,14,6,82,88,26,
湖州市,南浔区站,120.4148,30.8538,2025-06-21T2200,14,19,0.6,10,4,73,92,23,
葫芦岛市,龙港区,120.9049,40.7211,2025-06-21T2200,11,12,0.4,29,6,75,121,24,
葫芦岛市,化工街,120.8392,40.7514,2025-06-21T2200,12,27,0.4,65,9,37,108,33,
葫芦岛市,新区,120.8341,40.7073,2025-06-21T2200,7,13,0.5,41,4,63,118,21,
葫芦岛市,东城区,120.8695,40.7677,2025-06-21T2200,12,33,0.6,73,7,36,106,37,
怀化市,林科所,109.5981,27.5721,2025-06-21T2200,3,6,0.3,1,3,90,69,29,
怀化市,河西地税局,109.9453,27.5444,2025-06-21T2200,3,6,0.1,6,4,78,60,25,
怀化市,市四医院,109.9781,27.5342,2025-06-21T2200,3,6,0.6,4,1,66,50,21,
怀化市,监测楼,109.9972,27.5578,2025-06-21T2200,3,6,0.1,6,3,69,55,22,
怀化市,市委党校,110.0394,27.583,2025-06-21T2200,3,7,0.2,4,3,73,58,23,
淮安市,钵池山,119.036,33.5981,2025-06-21T2200,18,29,0.7,19,6,76,108,29,
淮安市,北京南路,119.007,33.575,2025-06-21T2200,18,44,0.7,67,6,7,108,44,
淮安市,市监测站,118.989,33.6067,2025-06-21T2200,48,58,0.8,28,11,49,126,67,细颗粒物(PM2.5)
淮安市,楚州区监测站,119.135,33.5039,2025-06-21T2200,16,27,0.7,48,7,22,102,27,
淮安市,新华书店,118.8755,33.2894,2025-06-21T2200,14,20,0.4,12,7,77,109,25,
淮安市,承德北路606号,119.0288,33.6319,2025-06-21T2200,16,51,0.7,25,4,54,107,51,颗粒物(PM10)
淮北市,监测站,116.8004,33.975,2025-06-21T2200,28,57,0.8,8,6,104,130,54,颗粒物(PM10)
淮北市,烈山区政府,116.8091,33.9007,2025-06-21T2200,29,76,0.8,18,6,75,118,63,颗粒物(PM10)
淮北市,杜集区检察院,116.8873,33.9836,2025-06-21T2200,44,45,0.9,6,8,98,127,62,细颗粒物(PM2.5)
淮北市,市博物馆,116.7923,33.9535,2025-06-21T2200,31,34,0.9,5,7,104,130,45,
淮南市,潘集区政府,116.8305,32.7727,2025-06-21T2200,12,15,0.3,10,4,86,98,27,
淮南市,谢家集区政府,116.8569,32.5951,2025-06-21T2200,3,17,0.1,8,5,101,101,32,
淮南市,八公山区政府,116.8281,32.633,2025-06-21T2200,7,13,0.1,7,5,83,98,26,
淮南市,焦岗湖风景区管理处,116.6325,32.6201,2025-06-21T2200,,,,,,,,,
淮南市,经济技术开发区消防队,117.0566,32.6531,2025-06-21T2200,8,8,0.2,7,6,87,103,28,
淮南市,山南新区,117.0108,32.5893,2025-06-21T2200,8,,0.2,6,6,82,108,26,
淮南市,国庆中路369号,117.0031,32.6445,2025-06-21T2200,9,17,0.2,7,6,90,100,29,
黄冈市,职工中心,114.9028,30.4742,2025-06-21T2200,3,7,0.4,2,6,96,108,30,
黄冈市,红卫路,114.8858,30.4519,2025-06-21T2200,52,,0.3,2,4,95,106,72,细颗粒物(PM2.5)
黄冈市,市林业局,114.9136,30.4445,2025-06-21T2200,13,,0.3,2,6,,100,,
黄南藏族自治州,同仁县隆务镇,102.0199,35.5102,2025-06-21T2200,6,18,0.2,1,6,96,110,30,
黄山市,延安路89号,118.2903,29.6963,2025-06-21T2200,14,,0.5,5,6,60,62,20,
黄山市,黄山区政府5号楼,118.1371,30.2756,2025-06-21T2200,11,,0.5,4,4,79,73,25,
黄山市,滨江东路7-2号,118.3354,29.7203,2025-06-21T2200,3,22,0.3,5,4,62,63,22,
黄石市,沈家营,115.0601,30.2313,2025-06-21T2200,3,7,0.5,5,6,90,97,29,
黄石市,铁山,114.8988,30.2019,2025-06-21T2200,6,8,0.5,3,3,87,91,28,
黄石市,团城山,115.0307,30.2092,2025-06-21T2200,,7,0.3,2,6,104,98,,
黄石市,笔架山北路,115.0235,30.1578,2025-06-21T2200,,9,0.3,7,5,100,90,,
黄石市,磁湖东路29号,115.0780,30.21118,2025-06-21T2200,3,6,0.0,4,6,92,87,29,
惠州市,河南岸金山湖子站,114.4183,23.0528,2025-06-21T2200,8,18,0.6,20,6,3,44,18,
惠州市,下埔横江三路子站,114.4053,23.0822,2025-06-21T2200,15,29,0.4,31,6,10,48,29,
惠州市,江北云山西路子站,114.4103,23.1142,2025-06-21T2200,,,0.5,26,9,,54,,
惠州市,惠阳区承修路船湖子站,114.4645,22.7833,2025-06-21T2200,9,20,0.5,14,7,17,37,20,
惠州市,大亚湾管委会子站,114.5317,22.7422,2025-06-21T2200,6,15,0.5,21,8,5,38,15,
惠州市,惠阳秋长,114.4338,22.8134,2025-06-21T2200,18,48,0.6,31,11,3,48,48,
惠州市,大亚湾霞涌,114.6517,22.775,2025-06-21T2200,4,,0.3,17,5,21,45,,
鸡西市,环保局,130.9762,45.3001,2025-06-21T2200,11,13,0.4,8,4,67,76,21,
鸡西市,第一中学,130.9429,45.3039,2025-06-21T2200,8,10,0.2,6,7,83,86,26,
鸡西市,欧美日汽修厂,131.0207,45.3073,2025-06-21T2200,3,16,0.5,7,5,91,93,29,
鸡西市,市政设施管理处,130.9967,45.3106,2025-06-21T2200,11,21,0.5,13,4,83,90,26,
吉安市,红声器材厂,114.9754,27.0803,2025-06-21T2200,9,14,0.6,4,11,44,71,14,
吉安市,市森林工业局,114.9658,27.0999,2025-06-21T2200,3,16,0.4,2,9,46,76,16,
吉安市,市环境监测站,114.99,27.1312,2025-06-21T2200,3,23,0.4,1,15,48,79,23,
吉安市,青原区法院,115.0093,27.0968,2025-06-21T2200,8,20,0.4,10,11,39,70,20,
吉林市,哈达湾,126.54,43.8622,2025-06-21T2200,10,37,0.3,24,7,60,99,37,
吉林市,东局子,126.5844,43.8358,2025-06-21T2200,16,21,0.6,27,5,60,89,23,
吉林市,电力学院,126.5052,43.8245,2025-06-21T2200,18,27,0.4,33,4,48,96,27,
吉林市,江北,126.6133,43.8972,2025-06-21T2200,11,25,0.4,23,6,60,96,25,
吉林市,江南公园,126.555,43.8306,2025-06-21T2200,12,17,0.3,20,4,66,94,21,
吉林市,丰满,126.7061,43.7133,2025-06-21T2200,,,,,,,,,
吉林市,九站,126.4739,43.953,2025-06-21T2200,3,11,0.2,22,4,76,107,24,
济南市,科干所,116.9862,36.6114,2025-06-21T2200,17,31,0.5,26,5,114,160,36,
济南市,农科所,116.9376,36.665,2025-06-21T2200,20,61,0.4,34,10,153,155,56,颗粒物(PM10)
济南市,开发区,117.1265,36.6734,2025-06-21T2200,20,63,0.8,36,10,153,159,57,颗粒物(PM10)
济南市,省种子仓库,117.0624,36.6868,2025-06-21T2200,27,63,0.5,21,9,182,170,78,臭氧1小时
济南市,机床二厂,116.9489,36.6447,2025-06-21T2200,22,61,0.7,32,9,155,164,56,颗粒物(PM10)
济南市,市监测站,117.0495,36.663,2025-06-21T2200,17,56,0.6,26,12,166,162,58,臭氧1小时
济南市,长清党校,116.7675,36.5484,2025-06-21T2200,15,27,0.4,24,5,118,158,37,
济南市,技术学院,117.6795,36.229,2025-06-21T2200,14,19,0.6,15,9,121,134,38,
济南市,东山小学,117.532,36.6868,2025-06-21T2200,20,59,0.4,25,9,146,147,55,颗粒物(PM10)
济南市,泰兴公司,117.7161,36.2049,2025-06-21T2200,22,39,0.7,65,10,54,138,39,
济南市,莱芜战役纪念馆,117.6867,36.2171,2025-06-21T2200,16,24,1.0,12,7,118,133,37,
济南市,济阳区政府,117.1673,36.9782,2025-06-21T2200,29,68,0.7,14,9,196,191,95,臭氧1小时
济南市,锦屏中学,117.1171,36.63,2025-06-21T2200,10,27,0.6,24,8,89,157,28,
济南市,济南四建,116.9814,36.6819,2025-06-21T2200,27,58,0.5,29,9,172,164,65,臭氧1小时
济宁市,火炬城,116.6251,35.4302,2025-06-21T2200,19,42,0.6,14,5,116,140,42,
济宁市,电化厂,116.5491,35.4042,2025-06-21T2200,31,46,0.6,39,4,96,150,46,
济宁市,北湖一中,116.5814,35.3707,2025-06-21T2200,26,40,0.5,11,6,144,169,45,
济宁市,服务中心,116.8249,35.5593,2025-06-21T2200,18,30,0.4,20,2,115,118,36,
济宁市,市第七中学,116.5907,35.4054,2025-06-21T2200,14,30,0.5,7,8,134,157,42,
佳木斯市,佳纺,130.2751,46.8028,2025-06-21T2200,9,11,0.4,14,3,43,73,14,
佳木斯市,发电厂,130.3995,46.8307,2025-06-21T2200,9,13,0.4,13,4,58,78,19,
佳木斯市,环保局,130.3258,46.7975,2025-06-21T2200,12,15,0.4,20,3,42,73,18,
佳木斯市,十一中,130.3648,46.8032,2025-06-21T2200,15,16,0.4,15,5,53,73,22,
佳木斯市,四丰,130.3794,46.7588,2025-06-21T2200,,18,0.4,7,1,,,,
嘉兴市,清河小学,120.7436,30.778,2025-06-21T2200,18,34,0.9,15,7,74,100,34,
嘉兴市,嘉兴学院,120.726,30.7478,2025-06-21T2200,24,26,0.7,14,4,72,102,35,
嘉兴市,南湖区残联,120.7846,30.7525,2025-06-21T2200,22,37,0.8,12,5,70,102,37,
嘉兴市,秀洲住建,120.6916,30.7739,2025-06-21T2200,17,22,0.8,13,5,75,101,25,
嘉峪关市,气象局,98.2908,39.7711,2025-06-21T2200,17,34,1.0,19,8,109,128,35,
嘉峪关市,酒钢宾馆,98.2672,39.7978,2025-06-21T2200,9,27,0.5,9,55,116,119,37,
嘉峪关市,雄关区,98.2643,39.7724,2025-06-21T2200,13,33,0.9,23,15,,128,,
江门市,北街,113.1064,22.6058,2025-06-21T2200,8,17,0.5,18,2,7,22,17,
江门市,西区,113.0731,22.5835,2025-06-21T2200,3,16,0.4,10,8,18,26,16,
江门市,圭峰西,113.0219,22.5311,2025-06-21T2200,8,18,0.5,11,2,13,27,18,
江门市,东湖,113.0828,22.5947,2025-06-21T2200,9,13,0.5,12,6,16,25,13,
江门市,江海富民,113.1075,22.5647,2025-06-21T2200,13,27,0.4,12,10,18,29,27,
江门市,新会银湖,113.05,22.4667,2025-06-21T2200,3,14,0.3,7,1,12,22,14,
焦作市,影视城,113.1992,35.2590,2025-06-21T2200,,,,,,,,,
焦作市,太极体育中心,113.2725,35.2067,2025-06-21T2200,19,73,0.3,24,3,159,206,62,颗粒物(PM10)
焦作市,马村街道办,113.3137,35.2641,2025-06-21T2200,20,46,0.4,16,10,143,190,46,
焦作市,焦作技师学院,113.2465,35.2373,2025-06-21T2200,14,47,0.6,12,4,147,183,47,
焦作市,中站许衡医院,113.1656,35.2539,2025-06-21T2200,24,57,0.4,25,7,128,187,54,颗粒物(PM10)
焦作市,原李万街道办,113.2449,35.1803,2025-06-21T2200,14,53,0.7,23,10,138,185,52,颗粒物(PM10)
焦作市,新安路1731号,113.2340,35.2190,2025-06-21T2200,22,44,0.3,13,5,148,188,47,
揭阳市,新兴,116.3701,23.5345,2025-06-21T2200,10,,0.5,6,4,26,45,15,
揭阳市,西马,116.3264,23.5443,2025-06-21T2200,8,13,0.5,7,1,20,41,13,
揭阳市,东兴,116.3611,23.5626,2025-06-21T2200,12,,0.5,14,2,16,48,18,
揭阳市,渔湖,116.4151,23.5294,2025-06-21T2200,9,22,0.4,8,6,24,42,22,
揭阳市,曲溪,116.403,23.5699,2025-06-21T2200,5,,0.4,7,2,24,53,,
金昌市,天庆家园,102.1692,38.5167,2025-06-21T2200,9,9,0.7,11,11,75,110,24,
金昌市,金川区人防中心,102.1647,38.5371,2025-06-21T2200,9,16,0.6,14,12,79,113,25,
金昌市,长春路96号,102.1930,38.5319,2025-06-21T2200,11,28,1.0,14,8,84,118,28,
金华市,十五中,119.647,29.077,2025-06-21T2200,10,20,0.5,13,2,29,99,20,
金华市,监测站,119.686,29.1029,2025-06-21T2200,10,23,0.1,10,1,21,96,23,
金华市,气象局,119.656,29.1131,2025-06-21T2200,7,16,0.3,18,2,32,94,16,
锦州市,南山,121.1115,41.0879,2025-06-21T2200,16,28,0.6,64,7,29,100,32,
锦州市,开发区,121.0604,40.8428,2025-06-21T2200,26,67,0.7,37,34,68,114,59,颗粒物(PM10)
锦州市,百股街道,121.1836,41.1119,2025-06-21T2200,12,22,0.6,30,10,48,102,22,
锦州市,天安街道,121.1178,41.1222,2025-06-21T2200,16,57,0.8,71,6,23,105,54,颗粒物(PM10)
锦州市,北湖公园,121.1303,41.1386,2025-06-21T2200,20,42,0.6,56,7,34,97,42,
晋城市,自来水公司,112.85,35.5051,2025-06-21T2200,19,50,0,14,2,172,197,65,臭氧1小时
晋城市,白云商贸,112.8318,35.4936,2025-06-21T2200,12,72,0.4,17,1,159,187,61,颗粒物(PM10)
晋城市,市环保局,112.8508,35.4887,2025-06-21T2200,19,59,0,14,8,164,193,55,"颗粒物(PM10),臭氧1小时"
晋城市,技术学院,112.8676,35.4897,2025-06-21T2200,14,58,0.3,14,8,164,190,55,臭氧1小时
晋城市,白马寺,112.8453,35.546,2025-06-21T2200,,,,,,,159,,
晋城市,泽州一中,112.8271,35.4828,2025-06-21T2200,17,22,0.5,23,4,166,196,58,臭氧1小时
晋中市,南都小区,112.7249,37.7067,2025-06-21T2200,20,31,0.3,20,3,110,160,35,
晋中市,榆次区政府,112.6991,37.6982,2025-06-21T2200,11,31,0.3,28,6,101,158,32,
晋中市,榆次三中,112.7195,37.6828,2025-06-21T2200,7,29,0.3,17,6,117,168,37,
晋中市,迎宾街26号,112.7478,37.6954,2025-06-21T2200,3,31,0.3,15,7,122,167,39,
荆门市,竹园小学,112.2014,31.0481,2025-06-21T2200,17,44,0.8,15,5,65,114,44,
荆门市,掇刀,112.1969,30.9891,2025-06-21T2200,15,25,0.8,6,5,101,118,32,
荆门市,石化一小,112.2213,31.0386,2025-06-21T2200,8,34,0.7,15,15,70,114,34,
荆门市,西山林语,112.1849,31.0362,2025-06-21T2200,13,22,0.6,1,9,71,117,23,
荆门市,龙泉中学南校,112.1632,31.0138,2025-06-21T2200,19,,0.5,6,6,73,118,28,
荆州市,市图书馆,112.2494,30.3197,2025-06-21T2200,17,27,0.6,78,3,7,110,39,
荆州市,市委党校,112.2008,30.3544,2025-06-21T2200,16,36,0.5,23,5,49,104,36,
荆州市,管委会,112.2747,30.3122,2025-06-21T2200,17,33,1.0,36,5,28,101,33,
荆州市,学苑路85号,112.1722,30.3366,2025-06-21T2200,20,24,0.5,13,3,59,97,29,
景德镇市,王港中学,117.3102,29.3867,2025-06-21T2200,,,,,,,,,
景德镇市,老干部活动中心,117.2117,29.2933,2025-06-21T2200,3,16,0.5,11,8,52,69,17,
景德镇市,兽医站,117.1894,29.2789,2025-06-21T2200,8,28,0.3,17,11,33,62,28,
景德镇市,台达陶瓷,117.1547,29.2617,2025-06-21T2200,12,17,0.4,14,25,45,66,18,
景德镇市,陶研所,117.2461,29.2956,2025-06-21T2200,7,23,0.4,16,6,34,67,23,
九江市,十里,115.9872,29.6815,2025-06-21T2200,6,7,0.5,7,2,100,96,32,
九江市,茅山头,115.9584,29.7046,2025-06-21T2200,3,9,0.3,8,4,98,94,31,
九江市,西园,115.9877,29.7295,2025-06-21T2200,3,6,0.5,11,4,107,102,34,
九江市,综合工业园,115.9114,29.6038,2025-06-21T2200,,12,0.5,11,3,100,97,,
九江市,石化总厂,116.0721,29.7535,2025-06-21T2200,12,,0.7,7,5,96,95,30,
九江市,庐山气象台,115.9773,29.5698,2025-06-21T2200,6,6,1.0,2,7,58,67,19,
九江市,外国语学校,116.0254,29.6994,2025-06-21T2200,7,7,0.4,7,2,95,91,30,
九江市,莲花大道8号,116.0102,29.6594,2025-06-21T2200,9,,0.4,5,3,96,80,30,
酒泉市,玉门东路5号,98.4958,39.7339,2025-06-21T2200,35,75,0.3,19,10,93,117,63,颗粒物(PM10)
酒泉市,北大街108号,98.5099,39.7506,2025-06-21T2200,23,53,0.3,13,12,97,123,52,颗粒物(PM10)
喀什地区,巡警大队,76.0072,39.4467,2025-06-21T2200,34,126,0.3,15,3,124,142,88,颗粒物(PM10)
喀什地区,吾办,75.9755,39.4694,2025-06-21T2200,45,129,0.5,20,2,113,135,90,颗粒物(PM10)
喀什地区,老干局,75.9483,39.4689,2025-06-21T2200,33,125,0.3,15,3,111,130,88,颗粒物(PM10)
开封市,肿瘤医院,114.3389,34.7781,2025-06-21T2200,33,54,0.5,29,4,114,188,52,颗粒物(PM10)
开封市,世纪星幼儿园,114.2885,34.7965,2025-06-21T2200,54,75,0.8,27,4,127,193,74,细颗粒物(PM2.5)
开封市,龙亭公园,114.3438,34.8106,2025-06-21T2200,32,52,0.4,26,4,123,191,51,颗粒物(PM10)
开封市,汴京公园,114.3644,34.7964,2025-06-21T2200,37,52,0.6,29,5,128,195,53,细颗粒物(PM2.5)
开封市,技师学院,114.2485,34.8306,2025-06-21T2200,34,38,0.5,18,5,,202,,
开封市,祥符区生态环境局,114.4644,34.7556,2025-06-21T2200,28,66,0.7,51,5,93,179,58,颗粒物(PM10)
克拉玛依市,长征新村,84.895,45.6094,2025-06-21T2200,3,20,0.2,3,4,107,110,34,
克拉玛依市,南林小区,84.8988,45.5893,2025-06-21T2200,6,19,0.1,3,3,111,118,35,
克拉玛依市,独山子区,84.905,44.3396,2025-06-21T2200,8,29,0.3,4,8,111,118,35,
克拉玛依市,乌尔禾区商贸楼,85.6979,46.098,2025-06-21T2200,3,26,0.3,4,4,108,113,34,
克拉玛依市,白碱滩区新站,85.1045,45.6899,2025-06-21T2200,8,19,0.2,2,4,122,129,39,
克孜勒苏柯尔克孜自治州,市人民政府,76.1454,39.7142,2025-06-21T2200,49,135,0.3,7,3,128,142,93,颗粒物(PM10)
克孜勒苏柯尔克孜自治州,克州文化中心,76.1658,39.7157,2025-06-21T2200,48,224,0.4,6,3,127,141,137,颗粒物(PM10)
昆明市,呈贡新区,102.8204,24.8886,2025-06-21T2200,10,,0.4,12,2,61,88,20,
昆明市,西山森林公园,102.6251,24.9608,2025-06-21T2200,,,,,,,,,
昆明市,龙泉镇,102.7252,25.0902,2025-06-21T2200,8,19,0.4,10,3,,68,,
昆明市,东风东路,102.7266,25.0375,2025-06-21T2200,11,13,0.4,13,4,64,72,20,
昆明市,金鼎山,102.6742,25.0669,2025-06-21T2200,3,15,0.4,12,3,59,60,19,
昆明市,碧鸡广场,102.6644,25.0401,2025-06-21T2200,11,16,0.5,14,4,58,64,19,
昆明市,官渡区博物馆,102.7494,25.0119,2025-06-21T2200,10,18,0.5,18,6,55,66,18,
昆明市,青年创业园,102.8017,24.8336,2025-06-21T2200,10,13,0.6,15,8,59,88,19,
昆明市,昆明学院,102.7997,24.9786,2025-06-21T2200,10,12,0.3,22,4,59,78,19,
昆明市,晋宁区生态环境分局,102.5967,24.6736,2025-06-21T2200,12,19,0.5,12,1,55,86,19,
昆明市,云天化总部,102.6678,24.9856,2025-06-21T2200,9,12,0.6,21,3,48,67,15,
拉萨市,八廓街,91.1319,29.6514,2025-06-21T2200,11,30,0.3,15,7,146,167,46,
拉萨市,市环保局,91.1221,29.6747,2025-06-21T2200,11,27,0.4,21,6,138,162,44,
拉萨市,区监测站,91.0874,29.6475,2025-06-21T2200,13,89,0.2,26,6,143,170,70,颗粒物(PM10)
拉萨市,西藏大学,91.1774,29.6541,2025-06-21T2200,8,16,0.2,13,2,157,169,50,
拉萨市,区辐射站,90.9798,29.6588,2025-06-21T2200,9,19,0.2,10,6,155,153,49,
拉萨市,拉萨火车站,91.0834,29.6292,2025-06-21T2200,6,18,0.1,14,4,156,171,49,
来宾市,来宾技工学校,109.2203,23.7256,2025-06-21T2200,8,18,0.4,10,7,33,59,18,
来宾市,兴宾区政府,109.1781,23.7297,2025-06-21T2200,12,28,0.6,12,5,27,59,28,
来宾市,中南小学,109.2416,23.7461,2025-06-21T2200,3,17,1.0,12,6,30,62,17,
兰州市,榆中兰大校区,104.1373,35.9454,2025-06-21T2200,,,,,,,,,
兰州市,铁路设计院,103.831,36.0464,2025-06-21T2200,33,45,0.5,21,13,107,131,48,
兰州市,百合公园,103.7439,36.0842,2025-06-21T2200,20,36,0.2,8,3,118,141,37,
兰州市,和平,103.9611,35.998,2025-06-21T2200,41,138,0.6,8,11,124,150,94,颗粒物(PM10)
兰州市,庄浪东路808号,103.6293,36.0938,2025-06-21T2200,32,38,0.3,13,13,116,148,46,
兰州市,安宁西路88号,103.7251,36.1043,2025-06-21T2200,31,42,0.4,6,10,121,154,45,
兰州市,北滨河东路1号,103.8470,36.0676,2025-06-21T2200,27,53,0.6,15,14,120,147,52,颗粒物(PM10)
兰州新区,新区管委会,103.6633,36.533,2025-06-21T2200,31,34,0.4,9,7,121,151,45,
兰州新区,舟曲中学,103.6975,36.4789,2025-06-21T2200,24,51,0.4,14,8,113,146,51,颗粒物(PM10)
廊坊市,药材公司,116.6708,39.5111,2025-06-21T2200,14,45,0.3,22,3,100,129,45,
廊坊市,开发区,116.7214,39.5589,2025-06-21T2200,9,31,0.4,19,2,118,131,37,
廊坊市,北华航天学院,116.7244,39.5269,2025-06-21T2200,10,43,0.3,19,2,117,133,43,
廊坊市,河北工业大学,116.7022,39.5453,2025-06-21T2200,13,41,0.3,16,3,119,137,41,
乐山市,花湖湾,103.7723,29.5462,2025-06-21T2200,12,20,0.5,9,2,83,114,26,
乐山市,牛耳桥,103.7627,29.5844,2025-06-21T2200,15,20,0.7,9,9,91,124,29,
乐山市,市第三水厂,103.7508,29.6006,2025-06-21T2200,15,22,0.7,15,6,84,121,27,
乐山市,市监测站,103.7571,29.5664,2025-06-21T2200,17,,0.6,6,6,83,,26,
乐山市,理工大学,103.7311,29.5628,2025-06-21T2200,14,19,0.5,11,7,87,131,28,
丽江市,西南郊,100.2143,26.8576,2025-06-21T2200,9,11,1.2,10,5,51,47,16,
丽江市,丽江古城,100.2497,26.8802,2025-06-21T2200,16,,0.5,13,9,48,44,23,
丽江市,市中心,100.2203,26.8906,2025-06-21T2200,6,8,0.7,7,7,45,41,15,
丽水市,监测站大楼,119.914,28.4514,2025-06-21T2200,9,23,0.4,32,2,2,52,23,
丽水市,莲都小学,119.93,28.4586,2025-06-21T2200,8,20,0.4,29,3,13,58,20,
丽水市,余庄前,119.879,28.4231,2025-06-21T2200,9,17,0.5,13,3,3,58,17,
连云港市,市环境监测站,119.176,34.5885,2025-06-21T2200,24,24,0.6,15,5,109,129,35,
连云港市,德源药业,119.3581,34.6972,2025-06-21T2200,17,41,0.9,21,8,62,114,41,
连云港市,新城一中,119.178,34.844,2025-06-21T2200,28,33,0.7,26,6,93,136,40,
连云港市,胡沟管理处,119.3608,34.7519,2025-06-21T2200,17,19,0.4,18,6,113,120,36,
连云港市,矿山设计院,119.1478,34.5911,2025-06-21T2200,22,24,0.5,8,5,105,127,33,
连云港市,工贸学校,119.2413,34.6539,2025-06-21T2200,24,49,0.6,3,7,112,128,49,
连云港市,连云街道,119.4172,34.7341,2025-06-21T2200,16,27,0.5,6,8,126,121,40,
凉山彝族自治州,青龙寺,102.3431,27.8099,2025-06-21T2200,3,14,0.5,3,4,53,72,17,
凉山彝族自治州,邛海宾馆,102.2721,27.8415,2025-06-21T2200,7,21,0.4,12,6,51,89,21,
凉山彝族自治州,西昌市政府,102.2625,27.898,2025-06-21T2200,9,10,0.4,15,9,55,88,18,
凉山彝族自治州,凉山州政府,102.2685,27.8851,2025-06-21T2200,14,,0.6,12,8,73,90,23,
凉山彝族自治州,凯乐南路30号,102.2342,27.8859,2025-06-21T2200,14,16,0.6,18,7,58,88,20,
辽阳市,宏伟区,123.2,41.1953,2025-06-21T2200,3,52,0.9,31,7,78,123,51,颗粒物(PM10)
辽阳市,新华园,123.1683,41.2495,2025-06-21T2200,10,49,0.8,32,9,82,120,49,
辽阳市,滨河路,123.2354,41.2639,2025-06-21T2200,3,45,0.8,38,14,70,114,45,
辽阳市,铁西工业园,123.149,41.2991,2025-06-21T2200,22,56,1.7,34,16,66,105,53,颗粒物(PM10)
辽源市,环保局,125.1358,42.8845,2025-06-21T2200,6,22,0.2,34,3,63,106,22,
辽源市,银鹰制药,125.0764,42.9078,2025-06-21T2200,3,26,0.2,48,3,39,111,26,
聊城市,区政府,115.9848,36.4372,2025-06-21T2200,14,33,0.5,17,9,128,184,40,
聊城市,聊大东校,116.0072,36.4343,2025-06-21T2200,18,29,0.5,19,8,127,187,40,
聊城市,监控中心,115.9819,36.4978,2025-06-21T2200,7,29,0.5,17,9,131,179,41,
聊城市,九州社区,116.0445,36.4361,2025-06-21T2200,13,38,0.5,17,5,122,185,39,
聊城市,星美广场,116.0567,36.4608,2025-06-21T2200,7,34,0.4,16,8,127,180,40,
林芝市,林芝监测站,94.3681,29.6376,2025-06-21T2200,11,42,0.3,14,4,64,94,42,
林芝市,林芝人民医院,94.3616,29.6616,2025-06-21T2200,10,25,0.2,7,5,59,98,25,
临沧市,市环保局,100.0781,23.8982,2025-06-21T2200,31,,0.4,10,3,20,44,45,
临沧市,市气象局,100.0894,23.8822,2025-06-21T2200,9,22,0.4,6,8,24,39,22,
临汾市,临钢医院,111.5531,36.0783,2025-06-21T2200,24,56,0.8,21,9,142,178,53,颗粒物(PM10)
临汾市,技工学校,111.5028,36.0714,2025-06-21T2200,27,59,0.8,17,9,138,176,55,颗粒物(PM10)
临汾市,市委,111.5018,36.0855,2025-06-21T2200,16,74,0.9,20,9,145,177,62,颗粒物(PM10)
临汾市,唐尧大酒店,111.505,36.1014,2025-06-21T2200,23,92,0.9,14,8,139,172,71,颗粒物(PM10)
临汾市,启星学校,111.4879,36.0530,2025-06-21T2200,24,48,0.9,17,5,133,174,48,
临夏回族自治州,滨河东路1号,103.2464,35.6123,2025-06-21T2200,9,43,0.2,7,8,82,102,43,
临夏回族自治州,新华街21号,103.2093,35.5995,2025-06-21T2200,8,35,0.3,7,4,96,104,35,
临沂市,沂河小区,118.3429,35.0532,2025-06-21T2200,54,68,0.6,31,10,105,140,74,细颗粒物(PM2.5)
临沂市,鲁南制药厂,118.295,35.0583,2025-06-21T2200,38,68,0.7,26,10,110,156,59,颗粒物(PM10)
临沂市,新光毛纺厂,118.2794,34.9976,2025-06-21T2200,35,53,0.6,26,11,97,161,52,颗粒物(PM10)
临沂市,河东保险公司,118.3956,35.0888,2025-06-21T2200,36,61,0.6,22,9,130,148,56,颗粒物(PM10)
临沂市,十里堡居委,118.3564,35.0215,2025-06-21T2200,53,68,0.7,29,9,110,160,73,细颗粒物(PM2.5)
临沂市,南坊新区,118.3604,35.1084,2025-06-21T2200,41,78,0.8,25,11,134,152,64,颗粒物(PM10)
临沂市,皇山花园小区,118.3920,35.0300,2025-06-21T2200,34,61,0.6,25,11,108,151,56,颗粒物(PM10)
柳州市,柳东小学,109.4856,24.3895,2025-06-21T2200,3,18,0.5,21,14,19,49,18,
柳州市,环保监测站,109.4157,24.3277,2025-06-21T2200,7,22,0.8,16,7,19,48,22,
柳州市,河西水厂,109.389,24.341,2025-06-21T2200,15,23,0.6,20,5,14,48,23,
柳州市,市四中,109.4311,24.2921,2025-06-21T2200,8,18,0.4,17,10,23,49,18,
柳州市,市九中,109.4006,24.3631,2025-06-21T2200,3,26,0.6,18,10,18,49,26,
柳州市,古亭山,109.4958,24.3134,2025-06-21T2200,3,16,0.5,19,4,12,53,16,
柳州市,市二中,109.5422,24.3996,2025-06-21T2200,7,25,0.4,17,40,24,54,25,
六安市,监测大楼,116.5079,31.737,2025-06-21T2200,,,,,,,74,,
六安市,皖西学院,116.4738,31.7643,2025-06-21T2200,8,,0.2,1,4,114,109,36,
六安市,朝阳厂,116.4996,31.7905,2025-06-21T2200,6,,0.2,8,5,92,93,29,
六安市,开发区,116.5567,31.7886,2025-06-21T2200,9,,0.2,2,2,102,99,32,
六盘水市,窑上,104.8,26.5892,2025-06-21T2200,3,27,0.2,6,3,35,83,27,
六盘水市,黄土坡,104.83,26.5917,2025-06-21T2200,7,15,0.5,8,9,75,100,24,
六盘水市,水钢,104.89,26.5939,2025-06-21T2200,3,16,0.4,6,9,86,104,27,
六盘水市,民中,104.8475,26.5894,2025-06-21T2200,7,12,0.4,23,9,59,100,19,
六盘水市,双水,104.9544,26.5506,2025-06-21T2200,3,7,0.4,18,10,71,91,23,
龙岩市,龙岩师专,117.0189,25.1181,2025-06-21T2200,,,,,,,,,
龙岩市,龙岩市监测站,117.0217,25.1033,2025-06-21T2200,13,,0.4,10,2,41,52,19,
龙岩市,闽西职业技术学院,117.0258,25.0661,2025-06-21T2200,12,19,0.5,16,10,15,50,19,
龙岩市,龙岩学院,117.0196,25.0306,2025-06-21T2200,6,6,0.4,5,3,26,51,9,
陇南市,汉王镇固水子,105.0822,33.3261,2025-06-21T2200,,,,,,,,,
陇南市,滨江中学,104.9339,33.3826,2025-06-21T2200,16,36,0.7,5,4,81,106,36,
陇南市,市总工会,104.955,33.371,2025-06-21T2200,10,44,0.6,6,5,86,110,44,
娄底市,电视发射台,111.9589,27.8901,2025-06-21T2200,0,,0.4,3,5,88,63,,
娄底市,市监测站,111.9975,27.725,2025-06-21T2200,3,,0.5,8,6,92,65,29,
娄底市,市委党校,112.0194,27.7314,2025-06-21T2200,3,19,0.4,6,2,95,72,30,
娄底市,涟钢,111.9561,27.7569,2025-06-21T2200,3,8,0.7,13,5,80,55,25,
娄底市,市政府,111.9892,27.7044,2025-06-21T2200,3,6,0.4,6,5,102,44,32,
泸州市,九狮山,105.4324,28.9634,2025-06-21T2200,27,,0.3,25,4,45,93,39,
泸州市,小市上码头,105.4427,28.9063,2025-06-21T2200,8,20,0.6,10,12,55,88,20,
泸州市,兰田宪桥,105.4241,28.8573,2025-06-21T2200,15,,0.6,14,7,49,86,22,
泸州市,市环监站,105.4379,28.8833,2025-06-21T2200,11,18,0.2,13,7,95,95,30,
泸州市,纳溪中医医院,105.3689,28.7783,2025-06-21T2200,19,22,0.9,26,4,44,90,28,
吕梁市,环保局,111.1406,37.5211,2025-06-21T2200,33,93,0.6,31,4,86,151,72,颗粒物(PM10)
吕梁市,自来水公司,111.1297,37.5136,2025-06-21T2200,28,55,0.8,38,5,61,142,53,颗粒物(PM10)
吕梁市,马茂庄小学,111.1283,37.51,2025-06-21T2200,22,58,0.5,40,5,68,146,54,颗粒物(PM10)
洛阳市,市委党校,112.3931,34.6516,2025-06-21T2200,24,42,0.5,10,8,166,169,58,臭氧1小时
洛阳市,河南林校,112.494,34.6886,2025-06-21T2200,26,45,0.4,13,6,153,164,48,
洛阳市,开发区管委会,112.3844,34.623,2025-06-21T2200,30,40,0.5,10,9,163,165,54,臭氧1小时
洛阳市,市委新办公区,112.4267,34.6258,2025-06-21T2200,26,42,0.3,6,13,164,138,55,臭氧1小时
洛阳市,伊滨,112.6005,34.6326,2025-06-21T2200,23,58,0.5,12,5,157,162,54,颗粒物(PM10)
洛阳市,中移产业园,112.4951,34.6332,2025-06-21T2200,22,41,0.6,9,7,160,163,50,
洛阳市,吉利监测站,112.5736,34.8993,2025-06-21T2200,21,48,0.4,20,12,135,176,48,
洛阳市,河科大西苑校区,112.3677,34.662,2025-06-21T2200,18,44,0.4,9,8,168,168,60,臭氧1小时
洛阳市,英才小学,112.4388,34.6781,2025-06-21T2200,31,49,0.8,11,7,155,160,49,
洛阳市,春都路1号院,112.4600,34.6949,2025-06-21T2200,27,50,0.7,10,4,154,164,50,
漯河市,三五一五工厂,114.051,33.5699,2025-06-21T2200,10,14,0.5,12,4,92,157,29,
漯河市,漯河大学,114.0055,33.5698,2025-06-21T2200,12,28,0.4,13,3,88,158,28,
漯河市,市水利局,114.0138,33.5828,2025-06-21T2200,9,14,0.4,9,4,89,158,28,
漯河市,市广电局,114.0261,33.5698,2025-06-21T2200,11,12,0.5,9,1,89,159,28,
漯河市,市图书馆,113.9749,33.5664,2025-06-21T2200,11,22,0.3,16,4,79,157,25,
漯河市,韶山路11号,114.0892,33.5882,2025-06-21T2200,13,24,0.5,9,2,95,158,30,
马鞍山市,湖东路四小,118.5092,31.6837,2025-06-21T2200,17,,0.5,8,6,88,99,28,
马鞍山市,开发区,118.5024,31.6449,2025-06-21T2200,8,14,0.6,7,6,94,100,30,
马鞍山市,濮塘,118.6245,31.7241,2025-06-21T2200,8,11,0.6,8,7,89,101,28,
马鞍山市,雨山,118.4918,31.6809,2025-06-21T2200,13,,0.5,10,6,86,94,27,
马鞍山市,慈湖高新区,118.5274,31.72227,2025-06-21T2200,11,17,0.4,12,5,85,96,27,
茂名市,电白南海,111.0286,21.4688,2025-06-21T2200,7,19,0.3,4,2,35,44,19,
茂名市,茂石化七小,110.9294,21.6533,2025-06-21T2200,3,22,0.3,7,2,24,43,22,
茂名市,健康路,110.9107,21.6687,2025-06-21T2200,3,19,0.4,9,2,28,47,19,
茂名市,高岭,110.8592,21.6828,2025-06-21T2200,3,24,0.3,14,4,25,46,24,
茂名市,电白水东,111.01,21.5165,2025-06-21T2200,3,14,0.3,5,4,34,42,14,
眉山市,黑龙滩水库,104.0308,30.0478,2025-06-21T2200,19,,0.5,4,1,105,142,33,
眉山市,气象局,103.8416,30.0874,2025-06-21T2200,7,28,0.4,12,3,109,149,35,
眉山市,市委党校,103.8578,30.0744,2025-06-21T2200,9,9,0.5,13,3,101,138,32,
眉山市,区人社局,103.8291,30.0564,2025-06-21T2200,3,34,0.6,13,7,101,141,34,
梅州市,梅江月梅,116.1231,24.3284,2025-06-21T2200,3,17,0.5,14,,6,50,,
梅州市,梅县新城,116.0797,24.2719,2025-06-21T2200,3,9,0.5,10,6,12,36,9,
梅州市,环境监控中心,116.1248,24.2654,2025-06-21T2200,7,20,0.5,21,2,1,41,20,
梅州市,梅龙,116.1233,24.2991,2025-06-21T2200,3,14,0.4,10,6,15,48,14,
绵阳市,富乐山,104.7778,31.4741,2025-06-21T2200,23,27,0.5,12,8,116,160,37,
绵阳市,高新区自来水公司,104.6697,31.4668,2025-06-21T2200,14,45,0.6,39,8,96,156,45,
绵阳市,三水厂,104.7287,31.5075,2025-06-21T2200,24,49,0.8,40,9,80,166,49,
绵阳市,西科大附属小学,104.69,31.5322,2025-06-21T2200,30,58,0.4,53,8,60,163,54,颗粒物(PM10)
绵阳市,安州区旅游局,104.5648,31.5343,2025-06-21T2200,14,24,0.3,30,5,76,143,24,
绵阳市,绵阳市气象局,104.7651,31.4531,2025-06-21T2200,19,34,0.4,18,11,111,146,35,
牡丹江市,环保大楼,129.61,44.561,2025-06-21T2200,9,23,0.2,14,8,80,94,25,
牡丹江市,文化广场,129.6115,44.5782,2025-06-21T2200,14,16,0.3,15,6,78,88,25,
牡丹江市,第一医院,129.5904,44.5963,2025-06-21T2200,8,14,0.4,13,6,80,89,25,
牡丹江市,机车工厂,129.6364,44.6075,2025-06-21T2200,6,20,0.3,15,5,78,87,25,
牡丹江市,第一中学,129.6386,44.5462,2025-06-21T2200,11,18,0.3,14,5,79,90,25,
内江市,市监测站,105.0703,29.61,2025-06-21T2200,12,26,0.6,9,7,93,121,30,
内江市,东兴区政府,105.0717,29.5947,2025-06-21T2200,6,26,0.4,13,3,91,122,29,
内江市,内江二中,105.0653,29.5817,2025-06-21T2200,17,26,0.5,11,5,90,116,29,
内江市,内江日报社,105.0406,29.5822,2025-06-21T2200,13,32,0.4,9,8,88,118,32,
那曲市,那曲监测站,92.0657,31.4846,2025-06-21T2200,23,52,0.6,34,8,125,157,51,颗粒物(PM10)
那曲市,那曲市委宣传部,92.0515,31.4787,2025-06-21T2200,13,27,0.2,13,10,157,167,50,
南昌市,省外办,115.8931,28.6843,2025-06-21T2200,7,15,0.5,10,3,110,90,35,
南昌市,省林业公司,115.8886,28.7003,2025-06-21T2200,7,7,0.5,8,9,88,78,28,
南昌市,林科所,115.8126,28.7442,2025-06-21T2200,3,7,0.3,2,4,74,73,24,
南昌市,建工学校,115.8518,28.687,2025-06-21T2200,37,,0.4,3,6,83,77,53,细颗粒物(PM2.5)
南昌市,象湖,115.8921,28.6424,2025-06-21T2200,3,16,0.6,7,6,79,76,25,
南昌市,武术学校,115.7423,28.7996,2025-06-21T2200,10,11,0.3,5,8,67,65,21,
南昌市,机电学校,115.9084,28.6062,2025-06-21T2200,7,23,0.5,11,4,70,75,23,
南昌市,外国语学校,115.9721,28.7031,2025-06-21T2200,14,,0.5,5,9,93,82,30,
南昌市,南京东路235号,115.9316,28.68677,2025-06-21T2200,3,29,0.5,10,7,83,76,29,
南充市,西山风景区,106.056,30.8064,2025-06-21T2200,,,,,,,,,
南充市,南充市委,106.0789,30.8023,2025-06-21T2200,9,16,0.4,10,5,89,118,28,
南充市,南充炼油厂,106.1031,30.8217,2025-06-21T2200,10,15,0.3,12,5,77,108,25,
南充市,梨树横街98号,106.1083,30.7884,2025-06-21T2200,3,26,0.3,9,4,84,110,27,
南充市,清泉寺北路188号,106.1172,30.843,2025-06-21T2200,16,24,0.3,7,3,85,104,27,
南充市,同庆路1号,106.067,30.7616,2025-06-21T2200,14,15,0.2,8,3,82,109,26,
南京市,迈皋桥,118.8086,32.1065,2025-06-21T2200,7,17,0.5,18,4,50,74,17,
南京市,草场门,118.7538,32.0551,2025-06-21T2200,9,14,0.4,18,1,69,96,22,
南京市,山西路,118.7794,32.0745,2025-06-21T2200,3,19,0.2,18,3,76,99,24,
南京市,中华门,118.7752,32.0023,2025-06-21T2200,7,,0,17,6,59,90,19,
南京市,瑞金路,118.8109,32.0309,2025-06-21T2200,7,9,0.5,16,7,66,92,21,
南京市,玄武湖,118.7997,32.0754,2025-06-21T2200,,,,,,,42,,
南京市,浦口,118.6414,32.0931,2025-06-21T2200,3,18,0.3,11,3,55,88,18,
南京市,奥体中心,118.7356,31.9996,2025-06-21T2200,9,16,0.3,20,3,72,98,23,
南京市,仙林大学城,118.9125,32.1028,2025-06-21T2200,5,,0.5,9,6,79,94,,
南京市,江宁彩虹桥,118.8436,31.9198,2025-06-21T2200,7,14,0.5,16,3,80,97,25,
南京市,六合雄州,118.8554,32.3578,2025-06-21T2200,16,34,0.6,25,2,54,99,34,
南京市,汶溪路181号,118.8708,31.3402,2025-06-21T2200,3,6,0.4,13,5,90,102,29,
南京市,中山西路1号,119.019,31.6512,2025-06-21T2200,3,9,0.6,6,4,85,94,27,
南宁市,二十一中,108.3103,22.7881,2025-06-21T2200,8,11,0.6,11,1,56,57,18,
南宁市,北湖,108.3141,22.8528,2025-06-21T2200,10,29,0.4,11,4,53,60,29,
南宁市,市监测站,108.3206,22.8225,2025-06-21T2200,13,24,0.5,11,6,52,58,24,
南宁市,大自然花园,108.3829,22.8037,2025-06-21T2200,26,38,0.5,7,4,61,68,38,
南宁市,仙葫,108.4394,22.7904,2025-06-21T2200,11,23,0.5,4,6,65,70,23,
南宁市,区农职院,108.2397,22.8467,2025-06-21T2200,10,28,0.5,13,4,52,62,28,
南宁市,英华嘉园,108.3275,22.735,2025-06-21T2200,12,31,0.5,21,8,47,62,31,
南宁市,红星社区,108.4834,22.7618,2025-06-21T2200,16,26,0.5,7,2,56,66,26,
南宁市,乐贤路16号,108.2177,22.7774,2025-06-21T2200,13,28,0.5,18,5,42,58,28,
南平市,茫荡山,118.0966,26.6761,2025-06-21T2200,,,,,,,,,
南平市,南平市监测站,118.1681,26.6369,2025-06-21T2200,3,14,0.6,11,4,24,69,14,
南平市,南平铝业有限公司,118.1825,26.6489,2025-06-21T2200,3,8,0.6,6,4,34,68,11,
南平市,南平七中,118.1756,26.6272,2025-06-21T2200,3,11,0.4,6,4,27,74,11,
南通市,狼山街道,120.9098,31.9663,2025-06-21T2200,3,6,0.6,6,3,100,96,32,
南通市,虹桥,120.86,32.0005,2025-06-21T2200,3,7,0.5,10,1,,95,,
南通市,城中,120.87,32.02,2025-06-21T2200,3,6,0.6,7,4,98,96,31,
南通市,星湖花园,120.94,31.93,2025-06-21T2200,3,,0.3,8,2,99,95,31,
南通市,紫琅学院,120.81,32.0417,2025-06-21T2200,3,6,0.4,8,4,99,95,31,
南通市,通州监测站,121.067,32.062,2025-06-21T2200,3,6,0.5,3,5,116,104,37,
南通市,环境教育馆,120.9348,31.9883,2025-06-21T2200,3,9,0.0,8,2,104,97,33,
南阳市,瓦房庄,112.5224,33.0122,2025-06-21T2200,24,42,0.5,12,6,133,157,42,
南阳市,汉画馆,112.5003,32.9735,2025-06-21T2200,27,40,0.6,13,6,121,154,40,
南阳市,气象站,112.5573,33.027,2025-06-21T2200,27,46,0.5,18,6,117,158,46,
南阳市,理工学院,112.5481,32.9689,2025-06-21T2200,29,42,0.4,16,6,115,158,42,
南阳市,卧龙区政府,112.5234,32.9922,2025-06-21T2200,27,46,0.5,11,4,130,160,46,
宁波市,区环保大楼,121.8358,29.911,2025-06-21T2200,18,40,0.6,24,7,97,88,40,
宁波市,万里学院,121.56,29.82,2025-06-21T2200,11,23,0.6,12,2,68,94,23,
宁波市,龙赛医院,121.713,29.9572,2025-06-21T2200,12,30,0.5,17,7,69,100,30,
宁波市,钱湖水厂,121.633,29.7733,2025-06-21T2200,16,31,0.4,15,4,78,92,31,
宁波市,太古小学,121.5856,29.8635,2025-06-21T2200,11,19,0.6,10,3,65,93,21,
宁波市,市环境监测中心,121.524,29.8674,2025-06-21T2200,13,23,0.6,16,3,58,86,23,
宁波市,万里国际学校,121.6147,29.9017,2025-06-21T2200,10,23,0.6,19,3,62,99,23,
宁波市,白沙活动中心,121.5594,29.8975,2025-06-21T2200,12,20,0.4,13,3,63,95,20,
宁德市,金涵水库,119.5001,26.6946,2025-06-21T2200,,,,,,,,,
宁德市,宁德市监测站,119.5388,26.6612,2025-06-21T2200,19,44,1.1,30,7,43,81,44,
宁德市,宁德一中,119.5231,26.6562,2025-06-21T2200,8,28,0.6,11,4,55,76,28,
怒江傈僳族自治州,州监测站,98.8601,25.8567,2025-06-21T2200,17,23,0.4,10,7,37,61,25,
怒江傈僳族自治州,泸水一中,98.8546,25.8417,2025-06-21T2200,11,19,0.5,14,6,23,47,19,
攀枝花市,弄弄坪,101.6891,26.571,2025-06-21T2200,3,19,0.7,9,6,75,61,24,
攀枝花市,河门口,101.5769,26.5928,2025-06-21T2200,13,18,1.0,20,5,53,54,19,
攀枝花市,炳草岗,101.7169,26.585,2025-06-21T2200,3,13,0.8,11,6,64,51,20,
攀枝花市,仁和,101.7369,26.5008,2025-06-21T2200,3,6,0.6,10,7,73,68,23,
攀枝花市,四十中小,101.7227,26.567,2025-06-21T2200,7,12,0.9,16,6,71,75,23,
盘锦市,开发区,122.0303,41.1489,2025-06-21T2200,11,,0.4,19,4,97,124,31,
盘锦市,兴隆台,122.0485,41.0883,2025-06-21T2200,11,,0.3,18,4,99,123,31,
盘锦市,新生街道,121.8297,41.1028,2025-06-21T2200,10,,0.4,17,7,78,125,25,
平顶山市,新华旅馆,113.3257,33.742,2025-06-21T2200,33,80,0.6,39,5,87,174,65,颗粒物(PM10)
平顶山市,规划设计院,113.2919,33.737,2025-06-21T2200,43,67,0.8,46,6,70,168,60,细颗粒物(PM2.5)
平顶山市,平顶山工学院,113.182,33.774,2025-06-21T2200,27,60,0.5,16,3,142,178,55,颗粒物(PM10)
平顶山市,规划局,113.3025,33.73,2025-06-21T2200,30,66,0.6,20,4,120,182,58,颗粒物(PM10)
平顶山市,石龙区,112.8867,33.9116,2025-06-21T2200,34,59,0.6,20,7,141,176,55,颗粒物(PM10)
平凉市,聚贤嘉苑,106.6692,35.5461,2025-06-21T2200,23,43,0.7,24,12,119,159,43,
平凉市,博物馆,106.7021,35.5307,2025-06-21T2200,22,59,1.0,19,8,133,165,55,颗粒物(PM10)
萍乡市,武功山,114.0997,27.5002,2025-06-21T2200,3,6,0.3,8,14,37,53,12,
萍乡市,中医院,113.8385,27.6434,2025-06-21T2200,3,8,0.7,7,9,37,58,12,
萍乡市,市政府车库,113.8493,27.6253,2025-06-21T2200,8,,0.4,9,6,32,48,12,
萍乡市,市环保局,113.8676,27.6435,2025-06-21T2200,14,16,0.6,5,6,38,53,20,
萍乡市,安源区政府,113.866,27.6198,2025-06-21T2200,6,22,0.5,7,7,34,51,22,
莆田市,荔城区仓后路,119.0141,25.4325,2025-06-21T2200,8,22,0.4,11,4,34,76,22,
莆田市,莆田市监测站,119.0015,25.4553,2025-06-21T2200,19,24,0.4,11,4,33,81,28,
莆田市,涵江区六中,119.1119,25.4561,2025-06-21T2200,11,23,0.4,16,2,30,82,23,
莆田市,秀屿区政府,119.1013,25.3215,2025-06-21T2200,3,18,0.4,9,5,44,70,18,
莆田市,东圳水库,118.981,25.4792,2025-06-21T2200,,,,,,,,,
濮阳市,环保局,115.0312,35.7636,2025-06-21T2200,16,21,0.3,16,7,146,188,46,
濮阳市,油田运输公司,115.0574,35.7609,2025-06-21T2200,13,38,0.5,17,7,136,184,43,
濮阳市,濮水河管理处,115,35.7668,2025-06-21T2200,20,34,0.4,25,4,128,169,40,
濮阳市,任丘路479号,115.0924,35.7686,2025-06-21T2200,18,48,0.7,16,6,124,178,48,
普洱市,市环保局,100.98,22.7633,2025-06-21T2200,19,21,0.5,5,4,35,47,28,
普洱市,普洱第二中学,100.9817,22.8322,2025-06-21T2200,21,,0.6,7,6,30,51,30,
七台河市,新一中,131.0518,45.8751,2025-06-21T2200,19,,0.8,10,9,85,89,28,
七台河市,中波台,131.0577,45.7879,2025-06-21T2200,8,,0.3,9,6,62,65,20,
七台河市,人民广场,131.0176,45.7761,2025-06-21T2200,11,13,0.5,10,11,64,67,20,
七台河市,新建矿广场,130.8781,45.8222,2025-06-21T2200,12,,0.7,8,10,60,67,,
齐齐哈尔市,安居小区,123.9305,47.3636,2025-06-21T2200,19,27,0.5,16,6,44,68,28,
齐齐哈尔市,中心广场,123.9488,47.3386,2025-06-21T2200,7,29,0.5,16,6,54,71,29,
齐齐哈尔市,农牧车辆厂,123.9483,47.3227,2025-06-21T2200,3,17,0.1,8,5,57,70,18,
齐齐哈尔市,市环境监测站,123.945,47.2988,2025-06-21T2200,7,15,0.2,8,4,60,74,19,
齐齐哈尔市,富区青少年活动中心,123.6333,47.2075,2025-06-21T2200,14,47,0.7,30,4,35,76,47,
黔东南苗族侗族自治州,市环境监测站,107.9783,26.5747,2025-06-21T2200,9,16,0.6,19,2,,55,,
黔东南苗族侗族自治州,凯里学院,107.8908,26.5311,2025-06-21T2200,9,14,0.5,12,2,28,52,14,
黔南布依族苗族自治州,小围寨,107.5228,26.2403,2025-06-21T2200,3,6,0.4,6,2,27,46,9,
黔南布依族苗族自治州,沙坝,107.5175,26.2978,2025-06-21T2200,7,24,0.8,13,4,15,34,24,
黔西南布依族苗族自治州,场坝街,104.9022,25.0925,2025-06-21T2200,16,42,0.4,10,2,,91,,
黔西南布依族苗族自治州,坪东大道,104.8811,25.0992,2025-06-21T2200,23,32,0.3,12,1,61,81,33,
钦州市,市环保站,108.6236,21.9667,2025-06-21T2200,7,22,0.4,11,2,60,73,22,
钦州市,沙埠小学,108.6549,21.9481,2025-06-21T2200,13,31,0.4,22,2,41,74,31,
钦州市,港区一小,108.5989,21.7431,2025-06-21T2200,13,52,0.4,19,2,56,69,51,颗粒物(PM10)
钦州市,北职校,108.5959,21.9633,2025-06-21T2200,11,29,0.3,8,1,59,66,29,
秦皇岛市,第一关,119.7493,40.0116,2025-06-21T2200,16,25,0.3,33,4,76,128,25,
秦皇岛市,监测站,119.5897,39.9499,2025-06-21T2200,7,27,0.5,28,4,77,128,27,
秦皇岛市,建设大厦,119.5251,39.9041,2025-06-21T2200,16,38,0.4,21,5,92,126,38,
秦皇岛市,文明里,119.610547,39.943889,2025-06-21T2200,8,36,0.4,26,5,83,122,36,
秦皇岛市,北戴河轮滑馆,119.5090,39.8253,2025-06-21T2200,10,36,0.5,13,4,90,124,36,
青岛市,仰口,120.6659,36.2403,2025-06-21T2200,17,34,0.8,10,7,142,130,45,
青岛市,市南区东部子站,120.4134,36.0658,2025-06-21T2200,24,29,0.4,10,9,116,149,37,
青岛市,四方区子站,120.3664,36.1032,2025-06-21T2200,22,31,0.5,14,7,143,172,45,
青岛市,市南区西部子站,120.2994,36.054,2025-06-21T2200,22,44,0.6,24,9,125,155,44,
青岛市,崂山区子站,120.4581,36.0858,2025-06-21T2200,24,41,0.3,15,7,112,138,41,
青岛市,城阳区子站,120.3999,36.3083,2025-06-21T2200,22,34,0.4,20,6,144,161,45,
青岛市,黄岛区4号,120.0405,35.8735,2025-06-21T2200,24,36,0.9,23,10,129,150,41,
青岛市,即墨2号,120.5014,36.4034,2025-06-21T2200,18,37,0.3,15,6,,155,,
青岛市,市北区南部,120.3503,36.0736,2025-06-21T2200,22,28,0.5,11,6,120,148,38,
青岛市,李沧区北部,120.3948,36.1805,2025-06-21T2200,22,41,0.6,23,8,114,140,41,
青岛市,珠江路669号,120.1969,35.9546,2025-06-21T2200,20,27,0.4,13,7,127,166,40,
清远市,环保大楼,113.0426,23.691,2025-06-21T2200,7,8,0.3,24,6,13,64,12,
清远市,凤城街办,113.0208,23.7106,2025-06-21T2200,14,,0.4,,7,,56,,
清远市,技师学院,113.0477,23.6344,2025-06-21T2200,10,21,0.5,29,7,6,53,21,
清远市,清新太和,112.9903,23.7403,2025-06-21T2200,6,16,0.5,25,7,14,60,16,
清远市,清城东城,113.076,23.7198,2025-06-21T2200,8,18,0.4,24,9,12,60,18,
庆阳市,庆阳五中,107.6325,35.7357,2025-06-21T2200,28,36,0.5,12,5,154,156,49,
庆阳市,市环保局,107.6364,35.7067,2025-06-21T2200,16,37,0.4,10,7,156,159,49,
曲靖市,环境监测站,103.7897,25.5035,2025-06-21T2200,14,31,0.7,14,2,51,70,31,
曲靖市,烟厂办公区,103.8,25.5364,2025-06-21T2200,11,23,0.8,10,3,61,74,23,
曲靖市,南苑二区,103.7947,25.462,2025-06-21T2200,13,19,0.8,14,4,59,75,19,
曲靖市,曲靖师范学院,103.7444,25.5261,2025-06-21T2200,6,16,0.5,7,6,68,67,22,
衢州市,环保大楼,118.8692,28.9398,2025-06-21T2200,10,24,0.2,8,5,35,61,24,
衢州市,实验学校,118.8709,28.9666,2025-06-21T2200,13,28,0.2,12,6,32,64,28,
衢州市,衢州学院,118.8621,28.9808,2025-06-21T2200,12,28,0.4,25,5,25,71,28,
泉州市,涂山街,118.5819,24.9117,2025-06-21T2200,10,24,0.5,19,2,,67,,
泉州市,津头埔,118.5972,24.8978,2025-06-21T2200,3,22,0.5,16,3,38,64,22,
泉州市,万安,118.6663,24.9424,2025-06-21T2200,3,19,0.4,10,2,40,64,19,
泉州市,清源山,118.6117,24.9604,2025-06-21T2200,,,,,,,,,
泉州市,城华南路,118.6333,24.9264,2025-06-21T2200,9,14,0.4,15,5,34,63,14,
日喀则市,日喀则监测站,88.8876,29.2718,2025-06-21T2200,9,19,0.4,29,13,118,156,37,
日喀则市,林业技术推广中心,88.8781,29.2426,2025-06-21T2200,7,21,0.4,4,8,124,146,39,
日照市,监测站,119.471,35.4209,2025-06-21T2200,48,66,1.2,40,6,78,154,67,细颗粒物(PM2.5)
日照市,市政府广场,119.523,35.4216,2025-06-21T2200,35,61,1.1,33,12,90,137,56,颗粒物(PM10)
日照市,港务局,119.5587,35.4044,2025-06-21T2200,44,70,1.1,41,10,82,121,62,细颗粒物(PM2.5)
日照市,职业技术学院,119.5328,35.4625,2025-06-21T2200,46,75,1.2,30,9,109,145,64,细颗粒物(PM2.5)
日照市,岚山环保分局,119.3266,35.1044,2025-06-21T2200,30,44,0.7,22,7,105,161,44,
三门峡市,市政府,111.1922,34.7752,2025-06-21T2200,23,39,0.6,30,9,114,170,39,
三门峡市,开发区,111.1587,34.7942,2025-06-21T2200,18,34,0.5,29,4,,176,,
三门峡市,风景区,111.143,34.7955,2025-06-21T2200,12,24,0.4,8,7,118,181,37,
三门峡市,三门峡市第一小学,111.1911,34.7829,2025-06-21T2200,44,,0.8,18,8,129,169,62,细颗粒物(PM2.5)
三门峡市,富达温泉假日酒店,111.1,34.7167,2025-06-21T2200,16,25,0.2,15,8,133,173,42,
三明市,三钢,117.6211,26.2625,2025-06-21T2200,3,17,3.3,16,26,20,57,33,
三明市,三明二中,117.635,26.2714,2025-06-21T2200,9,11,1.0,16,8,17,60,13,
三明市,三元区政府,117.6028,26.2378,2025-06-21T2200,3,17,0.3,19,10,14,64,17,
三明市,洋溪,117.7275,26.3108,2025-06-21T2200,,,,,,,,,
三亚市,河东子站,109.5078,18.2489,2025-06-21T2200,9,23,0.4,3,3,39,52,23,
三亚市,河西子站,109.4964,18.2681,2025-06-21T2200,7,18,0.3,11,2,37,52,18,
三亚市,君悦子站,109.7348,18.3443,2025-06-21T2200,3,12,0.3,2,1,51,60,16,
山南市,山南监测站,91.7608,29.2313,2025-06-21T2200,12,16,0.2,9,7,137,160,43,
山南市,山南人民医院,91.7706,29.2436,2025-06-21T2200,16,27,0.2,17,6,130,164,41,
汕头市,金平子站,116.6794,23.3667,2025-06-21T2200,3,11,0.4,7,4,30,46,11,
汕头市,龙湖子站,116.7244,23.3633,2025-06-21T2200,3,7,0.4,8,5,30,45,10,
汕头市,濠江子站,116.7258,23.2775,2025-06-21T2200,3,12,0.5,8,5,27,43,12,
汕头市,澄海子站,116.7519,23.4714,2025-06-21T2200,3,,0.5,8,2,30,47,10,
汕头市,潮阳子站,116.6092,23.2539,2025-06-21T2200,3,11,0.6,4,4,33,46,11,
汕头市,潮南峡山,116.454,23.2684,2025-06-21T2200,13,14,0.4,5,5,30,40,19,
汕头市,潮南子站,116.4069,23.2533,2025-06-21T2200,7,13,0.5,5,4,29,41,13,
汕尾市,市环保局,115.3653,22.775,2025-06-21T2200,3,11,0.3,6,3,38,47,12,
汕尾市,市政府,115.3706,22.7898,2025-06-21T2200,3,8,0.4,6,3,42,48,14,
汕尾市,新城中学,115.3622,22.7925,2025-06-21T2200,3,7,0.5,5,3,40,49,13,
商洛市,监测站,109.9154,33.8715,2025-06-21T2200,22,24,0.5,15,9,93,140,32,
商洛市,商州区中学,109.9643,33.8471,2025-06-21T2200,12,26,0.5,30,7,72,134,26,
商丘市,环境监测站,115.6702,34.4285,2025-06-21T2200,55,,0.6,10,2,101,147,75,细颗粒物(PM2.5)
商丘市,粮食局,115.6458,34.4045,2025-06-21T2200,27,29,0.4,9,1,103,154,39,
商丘市,睢阳区环保局,115.6293,34.3948,2025-06-21T2200,26,33,0.4,12,2,101,153,38,
商丘市,梁园区档案局,115.6071,34.4465,2025-06-21T2200,27,33,0.6,14,2,97,154,39,
上海市,普陀,121.4,31.238,2025-06-21T2200,10,18,0.4,13,5,101,130,32,
上海市,十五厂,121.478,31.2036,2025-06-21T2200,3,11,0.5,13,7,,109,,
上海市,虹口,121.467,31.3008,2025-06-21T2200,6,12,0.4,7,8,95,101,30,
上海市,静安监测站,121.425,31.2261,2025-06-21T2200,8,13,0.6,11,4,96,103,30,
上海市,浦东川沙,121.703,31.1907,2025-06-21T2200,6,18,0.6,16,7,88,103,28,
上海市,浦东新区监测站,121.533,31.2284,2025-06-21T2200,8,9,0.6,7,7,97,105,31,
上海市,浦东张江,121.577,31.2071,2025-06-21T2200,9,11,0.8,10,6,101,110,32,
上海市,宝山庙行,121.4316,31.3322,2025-06-21T2200,8,17,0.5,15,9,94,103,30,
上海市,崇明上实东滩,121.8791,31.4662,2025-06-21T2200,8,18,0.4,5,2,115,118,36,
上海市,嘉定南翔,121.3162,31.2838,2025-06-21T2200,3,28,0.3,10,5,,91,,
上海市,金山新城,121.3359,30.7456,2025-06-21T2200,11,18,0.4,19,2,74,106,24,
上海市,闵行浦江,121.4996,31.0739,2025-06-21T2200,7,19,0.7,9,4,95,108,30,
上海市,青浦徐泾,121.2886,31.1663,2025-06-21T2200,7,20,0.6,8,5,101,105,32,
上海市,松江图书馆,121.2186,31.0378,2025-06-21T2200,3,12,0.6,7,7,100,109,32,
上海市,长宁仙霞,121.3902,31.2059,2025-06-21T2200,11,15,0.5,13,9,97,100,31,
上海市,浦东惠南,121.7965,31.0507,2025-06-21T2200,6,11,0.5,12,9,94,108,30,
上海市,奉贤南桥新城,121.4891,30.925,2025-06-21T2200,11,22,0.9,8,6,84,105,27,
上海市,冠生园路458号,121.4174,31.16637,2025-06-21T2200,10,10,0.7,9,4,100,102,32,
上海市,宁武路151号,121.5419,31.2683,2025-06-21T2200,7,14,0.3,11,7,,100,,
上饶市,百草园,118.005,28.4572,2025-06-21T2200,,,,,,,,,
上饶市,市监测站,117.9756,28.4436,2025-06-21T2200,13,28,0.4,20,8,17,60,28,
上饶市,凤凰光学,117.9519,28.4628,2025-06-21T2200,11,12,0.7,11,7,29,57,16,
上饶市,双创科技城,117.897,28.4315,2025-06-21T2200,14,22,0.6,23,9,26,58,22,
上饶市,裕丰大道,118.1904,28.4448,2025-06-21T2200,3,23,0.5,6,8,38,62,23,
韶关市,市八中,113.5824,24.7733,2025-06-21T2200,3,14,0.5,14,11,32,69,14,
韶关市,园林处,113.5917,24.7972,2025-06-21T2200,3,12,0.6,10,6,29,65,12,
韶关市,曲江监测站,113.5971,24.6863,2025-06-21T2200,3,12,0.7,12,5,33,70,12,
韶关市,大学路288号,113.6668,24.7756,2025-06-21T2200,15,26,0.4,7,6,29,61,26,
韶关市,碧湖山庄,113.5556,24.8082,2025-06-21T2200,7,14,0.4,12,8,38,71,14,
邵阳市,市水土所,111.5239,27.3033,2025-06-21T2200,,,,,,,,,
邵阳市,市化工厂,111.5283,27.2442,2025-06-21T2200,10,19,0.4,10,6,37,45,19,
邵阳市,市环保局,111.4328,27.2272,2025-06-21T2200,6,14,0.3,6,4,48,38,15,
邵阳市,北塔二期4-26地块,111.4460,27.2472,2025-06-21T2200,11,19,0.4,8,4,50,32,19,
邵阳市,邵水西路287号,111.4739,27.2282,2025-06-21T2200,8,9,0.4,10,4,47,40,15,
绍兴市,城东开发委,120.6053,29.9928,2025-06-21T2200,12,25,0.5,9,3,72,90,25,
绍兴市,树下王站,120.5483,30.0003,2025-06-21T2200,10,13,0.4,7,6,83,96,26,
绍兴市,绍兴中专,120.5683,29.9361,2025-06-21T2200,6,21,0.3,8,3,82,96,26,
绍兴市,柯桥区政府,120.4906,30.0861,2025-06-21T2200,12,24,0.6,9,9,78,90,25,
绍兴市,重华小学,120.8752,30.0249,2025-06-21T2200,17,28,0.5,11,6,70,87,28,
绍兴市,上虞中学,120.8369,30.0137,2025-06-21T2200,18,32,0.4,17,8,69,95,32,
绍兴市,柯桥妇保,120.4722,30.0415,2025-06-21T2200,12,20,0.6,10,6,81,95,26,
绍兴市,袍江中学,120.6153,30.0764,2025-06-21T2200,12,20,0.5,15,5,72,94,23,
深圳市,通心岭子站,114.1063,22.5545,2025-06-21T2200,3,13,0.5,13,8,12,37,13,
深圳市,洪湖,114.117,22.5625,2025-06-21T2200,9,18,0.5,18,6,,37,,
深圳市,华侨城,113.987,22.5417,2025-06-21T2200,21,25,0.7,20,6,2,33,30,
深圳市,南海子站,113.9181,22.5171,2025-06-21T2200,6,18,0.7,32,8,2,38,18,
深圳市,盐田,114.2458,22.5689,2025-06-21T2200,7,19,0.5,16,8,0,29,19,
深圳市,龙岗,114.2283,22.7244,2025-06-21T2200,8,15,0.8,24,6,4,39,15,
深圳市,南澳,114.494,22.5422,2025-06-21T2200,3,28,0.5,4,6,9,43,28,
深圳市,葵涌,114.41,22.6342,2025-06-21T2200,8,29,0.6,12,7,5,44,29,
深圳市,梅沙,114.297,22.5978,2025-06-21T2200,6,19,0.4,7,7,6,38,19,
深圳市,观澜,114.0678,22.738,2025-06-21T2200,10,37,0.7,24,6,0,35,37,
深圳市,莲花,114.0731,22.559,2025-06-21T2200,7,31,0.7,14,2,4,26,31,
深圳市,民治,114.0261,22.6198,2025-06-21T2200,10,19,0.6,26,7,3,36,19,
深圳市,横岗,114.1871,22.6451,2025-06-21T2200,9,20,0.1,22,8,5,44,20,
深圳市,坪山,114.3551,22.7151,2025-06-21T2200,3,12,0.5,15,7,12,37,12,
深圳市,西乡,113.8953,22.5861,2025-06-21T2200,12,32,0.6,27,6,3,39,32,
沈阳市,森林路,123.6836,41.9339,2025-06-21T2200,,,,,,,,,
沈阳市,浑南东路,123.505,41.7406,2025-06-21T2200,17,26,0.6,67,5,27,112,34,
沈阳市,新秀街,123.4231,41.6989,2025-06-21T2200,10,14,0.6,50,6,60,104,25,
沈阳市,东陵路,123.5903,41.8411,2025-06-21T2200,9,27,0.6,42,6,53,113,27,
沈阳市,陵东街,123.4264,41.8467,2025-06-21T2200,6,15,0.5,24,5,59,105,19,
沈阳市,文化路,123.4114,41.7653,2025-06-21T2200,3,30,0.6,50,7,52,115,30,
沈阳市,小河沿,123.4678,41.7867,2025-06-21T2200,9,13,0.7,25,8,72,109,23,
沈阳市,太原街,123.4017,41.7972,2025-06-21T2200,9,37,0.5,36,4,70,102,37,
沈阳市,京沈街,123.3783,41.9228,2025-06-21T2200,8,30,0.6,70,25,31,102,35,
沈阳市,沈辽西路,123.2444,41.7347,2025-06-21T2200,10,30,0.7,40,7,50,105,30,
沈阳市,裕农路,123.5953,41.9086,2025-06-21T2200,11,13,0.6,29,7,65,112,21,
十堰市,武当山,111.0419,32.395,2025-06-21T2200,14,22,0.5,4,7,66,92,22,
十堰市,滨河新村,110.78,32.6494,2025-06-21T2200,32,34,0.8,22,7,57,134,46,
十堰市,刘家沟,110.7258,32.6389,2025-06-21T2200,26,37,0.3,9,4,45,74,38,
十堰市,铁二处,110.8839,32.5714,2025-06-21T2200,19,36,0.5,6,7,52,120,36,
十堰市,郧阳区金沙路,110.8054,32.8401,2025-06-21T2200,23,43,0.9,8,6,70,111,43,
石河子市,艾青诗歌馆,86.0497,44.2967,2025-06-21T2200,8,22,0.1,4,8,113,118,36,
石河子市,南区管委会,86.047,44.2331,2025-06-21T2200,11,33,0.2,9,11,100,126,33,
石河子市,世纪广场,86.0791,44.3017,2025-06-21T2200,19,,0.2,9,6,85,115,28,
石家庄市,职工医院,114.4422,38.0444,2025-06-21T2200,20,38,0.4,9,4,142,168,45,
石家庄市,高新区,114.6063,38.0266,2025-06-21T2200,28,46,0.3,22,2,118,159,46,
石家庄市,西北水源,114.4898,38.1328,2025-06-21T2200,17,78,0.3,16,3,116,161,64,颗粒物(PM10)
石家庄市,西南高教,114.4586,38.0058,2025-06-21T2200,9,49,0.3,17,2,120,160,49,
石家庄市,世纪公园,114.5331,38.0178,2025-06-21T2200,24,34,0.3,14,4,128,158,40,
石家庄市,人民会堂,114.509,38.0457,2025-06-21T2200,12,53,0.3,14,4,133,167,52,颗粒物(PM10)
石家庄市,封龙山,114.3524,37.8911,2025-06-21T2200,37,40,0.4,11,18,145,152,53,细颗粒物(PM2.5)
石家庄市,22中南校区,114.5481,38.0378,2025-06-21T2200,29,45,0.3,19,3,128,168,45,
石家庄市,鹿泉一中,114.289,38.0906,2025-06-21T2200,32,61,0.3,14,3,130,164,56,颗粒物(PM10)
石家庄市,藁城区实验学校,114.8506765,38.0322033,2025-06-21T2200,15,64,0.6,27,1,116,170,57,颗粒物(PM10)
石家庄市,栾城区星河路,114.6549,37.9020,2025-06-21T2200,15,40,0.6,19,2,130,177,41,
石家庄市,矿区区委大楼,114.0494,38.059,2025-06-21T2200,6,47,0.3,12,12,125,149,47,
石嘴山市,沙湖旅游区,106.3394,38.817,2025-06-21T2200,,,,,,,,,
石嘴山市,大武口朝阳西街,106.3668,39.0145,2025-06-21T2200,18,48,0.7,53,5,85,178,48,
石嘴山市,惠农南大街,106.7704,39.2282,2025-06-21T2200,17,42,0.8,34,18,113,158,42,
石嘴山市,红果子镇惠新街,106.7099,39.1325,2025-06-21T2200,15,65,0.4,26,6,128,176,58,颗粒物(PM10)
石嘴山市,妇女儿童医院,106.3495,38.9836,2025-06-21T2200,12,19,0.5,10,8,176,169,70,臭氧1小时
石嘴山市,石大公路,106.7492,39.2069,2025-06-21T2200,15,44,0.6,52,5,55,166,44,
双鸭山市,双合村,131.1511,46.6937,2025-06-21T2200,9,14,0.2,9,9,49,74,16,
双鸭山市,南小市,131.1652,46.6191,2025-06-21T2200,3,7,0.5,8,7,66,72,21,
双鸭山市,环保局,131.1524,46.6554,2025-06-21T2200,3,24,0.4,12,8,59,69,24,
双鸭山市,苗圃,131.12,46.5656,2025-06-21T2200,,,,,,,,,
朔州市,平朔,112.4397,39.3522,2025-06-21T2200,11,40,0.2,17,5,101,154,40,
朔州市,朔唯,112.4575,39.3617,2025-06-21T2200,13,44,0.2,20,4,94,146,44,
朔州市,区政府,112.4258,39.3197,2025-06-21T2200,18,42,0.2,19,8,104,148,42,
朔州市,市环保局,112.4072,39.3278,2025-06-21T2200,33,74,0.6,26,5,73,138,62,颗粒物(PM10)
朔州市,市二中,112.4272,39.3681,2025-06-21T2200,23,44,0.1,25,5,77,141,44,
朔州市,一水厂,112.2931,39.53,2025-06-21T2200,20,82,0.4,65,6,66,139,66,颗粒物(PM10)
四平市,一商场,124.4002,43.1713,2025-06-21T2200,22,34,0.4,69,,21,97,,
四平市,境园,124.388,43.193,2025-06-21T2200,15,28,0.3,81,9,6,96,41,
四平市,植物园,124.4036,43.1411,2025-06-21T2200,9,12,0.3,77,8,8,95,39,
四平市,世纪城,124.3419,43.1666,2025-06-21T2200,17,18,0.2,70,5,32,92,35,
松原市,江南,124.8006,45.1214,2025-06-21T2200,37,69,0.5,6,8,80,81,60,颗粒物(PM10)
松原市,江北,124.7965,45.1722,2025-06-21T2200,3,13,0.4,7,9,86,82,27,
苏州市,上方山,120.561,31.2472,2025-06-21T2200,,,,,,,,,
苏州市,彩香,120.591,31.3019,2025-06-21T2200,9,10,0.6,11,5,89,81,28,
苏州市,轧钢厂,120.596,31.3264,2025-06-21T2200,7,13,0.5,12,1,76,73,24,
苏州市,吴中区,120.613,31.2703,2025-06-21T2200,3,8,0.2,10,4,84,80,27,
苏州市,苏州新区,120.543,31.2994,2025-06-21T2200,10,10,0.4,14,4,78,79,25,
苏州市,苏州工业园区,120.669,31.3097,2025-06-21T2200,6,13,0.4,10,5,86,78,27,
苏州市,相城区,120.641,31.3708,2025-06-21T2200,5,,0.6,,4,82,75,,
苏州市,方洲路,120.743,31.3188,2025-06-21T2200,9,12,0.4,15,5,80,81,25,
苏州市,木渎中学,120.5031,31.2774,2025-06-21T2200,9,18,0.7,10,2,80,84,25,
苏州市,越秀幼儿园,120.624,31.1733,2025-06-21T2200,9,20,0.5,12,1,85,90,27,
苏州市,高铁新城,120.6505,31.416,2025-06-21T2200,6,11,0.5,11,5,88,76,28,
宿迁市,宿迁学院,118.293,33.9528,2025-06-21T2200,38,38,0.7,17,6,83,110,54,细颗粒物(PM2.5)
宿迁市,宿迁中学,118.2442,33.9592,2025-06-21T2200,34,,0.5,15,3,98,118,49,
宿迁市,市供电局,118.283,33.965,2025-06-21T2200,30,59,1.4,11,4,,,,
宿迁市,宿豫区政府,118.3225,33.9447,2025-06-21T2200,40,40,0.7,24,5,62,90,57,细颗粒物(PM2.5)
宿州市,远航博物馆,116.9509,33.666,2025-06-21T2200,17,21,0.5,11,5,92,120,29,
宿州市,社会福利中心,116.9708,33.591,2025-06-21T2200,29,,0.2,14,4,72,106,42,
宿州市,宿州学院,116.9884,33.6305,2025-06-21T2200,16,24,0.3,,3,85,115,,
宿州市,皖北煤电集团,116.9648,33.6252,2025-06-21T2200,25,31,0.5,7,3,92,121,36,
绥化市,人和东街,126.9785,46.6365,2025-06-21T2200,8,10,0.2,10,6,48,64,15,
绥化市,党政办公中心,126.964,46.6528,2025-06-21T2200,3,6,0.3,5,4,49,62,16,
随州市,市委党校,113.3583,31.7275,2025-06-21T2200,15,23,0.6,10,6,87,109,28,
随州市,市林业局,113.3833,31.6908,2025-06-21T2200,,29,0.4,5,3,95,105,,
随州市,市立交桥水厂,113.3983,31.7308,2025-06-21T2200,20,25,0.7,5,4,85,101,29,
遂宁市,石溪浩,105.5453,30.5678,2025-06-21T2200,10,24,0.2,12,6,88,124,28,
遂宁市,市监测站,105.5582,30.5232,2025-06-21T2200,7,22,0.5,11,6,96,124,30,
遂宁市,行政中心,105.5861,30.5366,2025-06-21T2200,7,25,0.4,8,11,108,132,34,
遂宁市,美宁食品公司,105.5918,30.4728,2025-06-21T2200,3,19,0.3,20,6,,124,,
塔城地区,东门外小游园,82.9994,46.7432,2025-06-21T2200,10,23,0.3,6,5,102,119,32,
台州市,黄岩环保大楼,121.273,28.6459,2025-06-21T2200,11,26,0.3,7,7,67,105,26,
台州市,台州环保大楼,121.419,28.6542,2025-06-21T2200,12,25,0.3,9,6,69,112,25,
台州市,路桥田洋王,121.377,28.5773,2025-06-21T2200,8,22,0.3,8,7,65,112,22,
台州市,台州科技职业学院,121.2568,28.6681,2025-06-21T2200,8,22,0.4,9,4,62,100,22,
太原市,尖草坪,112.522,37.8873,2025-06-21T2200,11,28,0.3,19,6,115,144,36,
太原市,上兰,112.434,38.0108,2025-06-21T2200,8,17,0.2,8,4,103,142,33,
太原市,晋源,112.469,37.7124,2025-06-21T2200,12,12,0.4,17,11,116,150,37,
太原市,小店,112.5583,37.7394,2025-06-21T2200,13,27,0.3,23,7,109,162,35,
太原市,桃园,112.5369,37.8692,2025-06-21T2200,8,33,0.4,24,8,102,141,33,
太原市,坞城,112.57,37.8195,2025-06-21T2200,10,22,0.5,27,4,101,147,32,
太原市,南寨,112.549,37.9854,2025-06-21T2200,13,26,0.4,22,8,70,140,26,
太原市,金胜,112.4719,37.7831,2025-06-21T2200,11,58,0.3,21,6,115,151,54,颗粒物(PM10)
太原市,育英中学,112.5608,37.8807,2025-06-21T2200,10,24,0.3,29,4,93,148,30,
泰安市,监测站,117.1437,36.1937,2025-06-21T2200,9,22,0.4,18,8,120,148,38,
泰安市,人口学校,117.0885,36.2017,2025-06-21T2200,13,27,0.5,20,7,113,147,36,
泰安市,电力学校,117.1089,36.1758,2025-06-21T2200,18,29,0.2,15,7,117,142,37,
泰安市,国网新校,117.1812,36.2275,2025-06-21T2200,7,12,0.2,16,4,132,150,42,
泰安市,交通技校,117.0313,36.2018,2025-06-21T2200,9,20,0.4,14,4,118,144,37,
泰安市,山东第一医科大学,117.0829,36.13,2025-06-21T2200,12,27,0.2,32,2,95,147,30,
泰州市,公园路,119.905,32.4878,2025-06-21T2200,3,17,0.6,9,6,82,106,26,
泰州市,莲花,119.9189,32.4625,2025-06-21T2200,7,15,0.5,10,6,88,109,28,
泰州市,留学生创业园,119.888,32.4639,2025-06-21T2200,9,24,0.8,7,6,81,94,26,
泰州市,王营,119.8767,32.3289,2025-06-21T2200,3,6,0.3,10,6,84,104,27,
泰州市,姜堰区政府广场,120.1259,32.5099,2025-06-21T2200,9,17,0.7,9,9,83,91,26,
泰州市,周山河街区,119.9192,32.4322,2025-06-21T2200,12,19,0.4,7,7,73,99,23,
唐山市,物资局,118.1725,39.6334,2025-06-21T2200,27,47,0.4,25,8,102,121,47,
唐山市,十二中,118.1705,39.6506,2025-06-21T2200,12,34,0.5,18,4,109,121,35,
唐山市,小山,118.1869,39.622,2025-06-21T2200,9,79,0.4,24,9,99,122,65,颗粒物(PM10)
唐山市,冀东油田职工医院,118.4359,39.2762,2025-06-21T2200,18,39,0.3,16,5,119,151,39,
唐山市,正泰大街热力站,118.09279,39.58089,2025-06-21T2200,12,49,0.5,26,4,108,125,49,
唐山市,丰润区政府,118.1562,39.8322,2025-06-21T2200,28,54,0.6,38,7,84,117,52,颗粒物(PM10)
唐山市,金山小学,118.43673,39.73809,2025-06-21T2200,21,72,1.3,36,21,87,128,61,颗粒物(PM10)
唐山市,政府服务中心,118.24498,39.66941,2025-06-21T2200,16,63,0.5,30,16,98,126,57,颗粒物(PM10)
唐山市,消防缸窑路中队,118.2059,39.6585,2025-06-21T2200,16,47,0.5,20,9,122,126,47,
唐山市,路南电大,118.1436,39.6202,2025-06-21T2200,14,54,0.5,26,4,109,125,52,颗粒物(PM10)
唐山市,友谊北路34号,118.1309,39.6360,2025-06-21T2200,20,49,0.2,17,5,119,127,49,
天津市,勤俭道,117.1444,39.1661,2025-06-21T2200,27,44,0.7,18,7,143,152,45,
天津市,前进道,117.202,39.0927,2025-06-21T2200,18,50,0.5,31,6,118,157,50,
天津市,淮河道,117.1837,39.2133,2025-06-21T2200,19,50,0.3,27,6,135,158,50,
天津市,跃进路,117.3083,39.0884,2025-06-21T2200,33,61,0.6,55,6,87,157,56,颗粒物(PM10)
天津市,第四大街,117.707,39.0343,2025-06-21T2200,47,85,0.9,48,6,141,160,68,颗粒物(PM10)
天津市,永明路,117.457,38.8394,2025-06-21T2200,40,77,1.0,35,9,144,159,64,颗粒物(PM10)
天津市,汉北路,117.764,39.1587,2025-06-21T2200,40,84,1.0,82,10,69,169,67,颗粒物(PM10)
天津市,团泊洼,117.157,38.9194,2025-06-21T2200,,,,,,,,,
天津市,河西一经路,117.7918,39.2474,2025-06-21T2200,33,87,1.0,62,10,112,152,69,颗粒物(PM10)
天津市,津沽路,117.3747,38.9846,2025-06-21T2200,45,75,0.7,39,8,128,161,63,"颗粒物(PM10),细颗粒物(PM2.5)"
天津市,宾水西道,117.1589,39.0845,2025-06-21T2200,18,40,0.5,21,8,107,138,40,
天津市,大理道,117.1941,39.1067,2025-06-21T2200,19,44,0.6,21,6,136,153,44,
天津市,中山北路,117.2101,39.1699,2025-06-21T2200,22,42,0.5,24,5,117,144,42,
天津市,西四道,117.3876,39.1488,2025-06-21T2200,20,44,0.5,69,7,64,152,44,
天津市,雍阳西道,117.0365,39.3828,2025-06-21T2200,18,40,0.3,32,6,90,115,40,
天津市,辛老路,117.0296,39.0605,2025-06-21T2200,29,67,0.7,35,8,114,130,59,颗粒物(PM10)
天津市,地纬路,116.9638,38.9375,2025-06-21T2200,24,54,0.5,35,7,126,133,52,颗粒物(PM10)
天津市,北环路,117.4067,40.0583,2025-06-21T2200,13,30,0.4,16,5,79,117,30,
天津市,建设路,117.3045,39.7169,2025-06-21T2200,50,75,0.5,22,9,95,113,69,细颗粒物(PM2.5)
天津市,滨水东路,117.8199,39.3521,2025-06-21T2200,27,71,0.8,48,11,122,134,61,颗粒物(PM10)
天津市,光华路,117.2437,39.1029,2025-06-21T2200,24,61,0.8,28,8,111,155,56,颗粒物(PM10)
天水市,麦积山,106.0055,34.343,2025-06-21T2200,,,,,,,,,
天水市,公园小学,105.7205,34.5786,2025-06-21T2200,28,35,0.4,10,9,121,152,40,
天水市,麦积国土局,105.8945,34.5538,2025-06-21T2200,30,32,0.4,10,10,128,150,43,
铁岭市,汇工街西,123.8139,42.3022,2025-06-21T2200,10,30,0.4,57,6,35,106,30,
铁岭市,水上乐园,123.8649,42.2923,2025-06-21T2200,9,24,0.3,37,5,54,90,24,
铁岭市,银州路东段,123.8486,42.2867,2025-06-21T2200,9,24,0.5,41,5,50,98,24,
铁岭市,金沙江路北,123.7153,42.2217,2025-06-21T2200,8,31,0.3,92,4,5,101,46,
通化市,光明,125.9358,41.7173,2025-06-21T2200,16,27,0.3,18,9,59,113,27,
通化市,铁路,125.9446,41.7325,2025-06-21T2200,3,16,0.5,16,10,57,108,18,
通辽市,艺术职业学校,122.2532,43.6801,2025-06-21T2200,11,39,0.1,23,8,63,100,39,
通辽市,老干部活动中心,122.2584,43.6333,2025-06-21T2200,18,41,0.3,27,4,37,78,41,
通辽市,东方明珠社区,122.2922,43.6189,2025-06-21T2200,38,53,0.5,27,5,48,86,54,细颗粒物(PM2.5)
铜川市,党校,109.0656,35.0994,2025-06-21T2200,,,,,,,,,
铜川市,王益区政府,109.0697,35.0697,2025-06-21T2200,,,0.6,24,5,21,145,,
铜川市,新区管委会,108.9344,34.9058,2025-06-21T2200,19,49,0.8,34,6,71,174,49,
铜川市,大唐三路,108.9497,34.8705,2025-06-21T2200,20,46,0.7,21,4,108,180,46,
铜陵市,市第四中学,117.8177,30.9412,2025-06-21T2200,10,13,0.7,16,7,77,98,25,
铜陵市,市公路局,117.8059,30.9273,2025-06-21T2200,13,23,0.7,13,6,74,92,24,
铜陵市,市新民污水厂,117.7807,30.9413,2025-06-21T2200,16,24,0.5,20,3,77,89,25,
铜陵市,市第九中学,117.7439,30.8792,2025-06-21T2200,12,29,1.0,14,6,77,83,29,
铜陵市,车站新区,117.846,30.9413,2025-06-21T2200,3,25,0.6,14,6,78,96,25,
铜陵市,市职教基地,117.8483,30.97,2025-06-21T2200,18,,1.0,17,5,77,98,26,
铜仁市,铜仁卫校,109.1839,27.7344,2025-06-21T2200,8,18,0.2,5,2,91,76,29,
铜仁市,铜仁七中,109.1753,27.6944,2025-06-21T2200,3,13,0.3,7,4,107,90,34,
吐鲁番市,市环保局,89.1904,42.9418,2025-06-21T2200,21,57,0.4,9,5,101,132,54,颗粒物(PM10)
吐鲁番市,地区环保局,89.1673,42.9559,2025-06-21T2200,28,49,0.5,15,4,96,130,49,
威海市,华夏技校,122.1214,37.4236,2025-06-21T2200,9,22,0.3,15,3,106,148,34,
威海市,山大分校,122.0508,37.5236,2025-06-21T2200,34,39,0.5,15,11,204,195,102,臭氧1小时
威海市,市监测站,122.1067,37.5072,2025-06-21T2200,24,39,0.5,8,5,133,155,42,
威海市,文登开发区,122.0693,37.2174,2025-06-21T2200,7,21,0.5,16,5,98,126,31,
威海市,临港区管委会,122.1379,37.3414,2025-06-21T2200,10,24,0.3,16,4,86,148,27,
潍坊市,环保局,119.1437,36.7023,2025-06-21T2200,23,41,0.5,31,10,133,166,42,
潍坊市,坊子邮政,119.1641,36.6523,2025-06-21T2200,25,36,0.5,28,9,97,164,36,
潍坊市,潍坊七中,119.0587,36.721,2025-06-21T2200,31,73,0.6,32,10,,176,,
潍坊市,高新实验学校,119.1977,36.6872,2025-06-21T2200,18,36,0.5,29,8,89,162,36,
潍坊市,潍坊学院,119.1755,36.7149,2025-06-21T2200,17,44,0.6,21,7,143,175,45,
潍坊市,寒亭区实验一小,119.2041,36.7699,2025-06-21T2200,19,34,0.4,17,6,160,172,50,
渭南市,农科所,109.5293,34.5101,2025-06-21T2200,,,,,,,,,
渭南市,体育馆,109.4636,34.493,2025-06-21T2200,24,36,0.5,23,6,94,172,36,
渭南市,高新一小,109.4259,34.5023,2025-06-21T2200,29,37,0.7,19,5,104,169,42,
渭南市,渭花路4号,109.5051,34.4921,2025-06-21T2200,34,41,0.6,20,6,84,175,49,
温州市,瓯海,120.634,28.0089,2025-06-21T2200,20,36,0.3,17,4,52,108,36,
温州市,南浦,120.6748,27.9939,2025-06-21T2200,15,34,0.2,11,3,52,111,34,
温州市,龙湾,120.76,27.9747,2025-06-21T2200,19,37,0.4,31,3,29,99,37,
温州市,市站,120.6709,28.0167,2025-06-21T2200,20,31,0.4,20,3,47,110,31,
温州市,茶山,120.6985,27.9251,2025-06-21T2200,22,44,0.4,39,2,21,104,44,
文山壮族苗族自治州,州水务局,104.2533,23.3594,2025-06-21T2200,3,9,0.4,8,3,30,36,10,
文山壮族苗族自治州,市便民服务中心,104.2319,23.3892,2025-06-21T2200,6,8,0.4,8,4,29,38,10,
乌海市,市林业局,106.8174,39.6973,2025-06-21T2200,13,26,0.7,10,9,135,151,43,
乌海市,中海勃湾学校,106.7907,39.6667,2025-06-21T2200,30,36,0.6,18,9,119,162,43,
乌海市,海北新区,106.813,39.7274,2025-06-21T2200,3,46,0.4,12,15,139,147,46,
乌海市,聚英学校,106.8288,39.6778,2025-06-21T2200,24,56,0.6,17,12,107,149,53,颗粒物(PM10)
乌兰察布市,集宁新区,113.1306,40.9923,2025-06-21T2200,25,31,0.2,28,6,66,115,36,
乌兰察布市,光明街小学,113.1076,41.0385,2025-06-21T2200,21,24,0.4,31,23,59,105,30,
乌兰察布市,北京八中,113.1376,40.9509,2025-06-21T2200,24,63,0.8,35,16,47,111,57,颗粒物(PM10)
乌兰察布市,市委党校,113.1775,40.9779,2025-06-21T2200,21,25,0.3,19,7,72,118,30,
乌鲁木齐市,监测站,87.5801,43.8303,2025-06-21T2200,14,26,0.3,16,4,102,108,32,
乌鲁木齐市,收费所,87.6046,43.768,2025-06-21T2200,9,20,0.3,16,7,87,96,28,
乌鲁木齐市,新疆农科院农场,87.4754,43.9469,2025-06-21T2200,19,25,0.6,9,7,96,98,30,
乌鲁木齐市,铁路局,87.5525,43.8711,2025-06-21T2200,3,28,0.1,9,3,107,102,34,
乌鲁木齐市,三十一中学,87.6432,43.831,2025-06-21T2200,17,22,0.3,11,7,111,106,35,
乌鲁木齐市,米东区环保局,87.7216,44.1747,2025-06-21T2200,9,17,0.2,1,4,110,106,35,
乌鲁木齐市,培训基地,87.4651,43.4569,2025-06-21T2200,7,14,0.4,3,4,89,117,28,
乌鲁木齐市,达坂城区环保局,88.3118,43.3658,2025-06-21T2200,12,19,0.2,2,6,101,104,32,
乌鲁木齐市,红光山片区,87.6162,43.8801,2025-06-21T2200,7,27,0.2,11,11,104,94,33,
乌鲁木齐市,新师大温泉校区,87.7024,43.8004,2025-06-21T2200,7,29,0.3,9,3,109,112,35,
乌鲁木齐市,大绿谷,87.4921,43.8411,2025-06-21T2200,12,20,0.4,17,6,94,102,30,
无锡市,雪浪,120.269,31.4867,2025-06-21T2200,3,9,0.8,14,4,75,86,24,
无锡市,黄巷,120.275,31.6219,2025-06-21T2200,12,14,1.1,14,6,82,72,26,
无锡市,曹张,120.294,31.56,2025-06-21T2200,12,,0.8,15,4,83,78,26,
无锡市,漆塘,120.242,31.5031,2025-06-21T2200,7,12,0.5,16,4,73,82,23,
无锡市,东亭,120.3489,31.5863,2025-06-21T2200,3,17,0.9,18,5,79,78,25,
无锡市,旺庄,120.354,31.5475,2025-06-21T2200,7,7,0.9,15,4,91,84,29,
无锡市,荣巷,120.245,31.5631,2025-06-21T2200,7,9,0.9,15,4,85,90,27,
无锡市,堰桥,120.299,31.6817,2025-06-21T2200,3,9,0.7,12,2,95,86,30,
无锡市,华庄,120.3142,31.4753,2025-06-21T2200,10,13,0.7,14,5,83,83,26,
吴忠市,教育园区,106.1532,37.9648,2025-06-21T2200,14,43,0.4,25,4,110,192,43,
吴忠市,新区二泵站,106.1856,37.9956,2025-06-21T2200,27,42,0.4,35,8,108,201,42,
吴忠市,文卫南街,106.2112,37.9768,2025-06-21T2200,16,70,0.4,20,5,116,200,60,颗粒物(PM10)
芜湖市,监测站,118.3606,31.3519,2025-06-21T2200,15,,1.0,14,10,79,89,25,
芜湖市,科创中心,118.3714,31.4134,2025-06-21T2200,21,,0.8,15,7,78,91,30,
芜湖市,四水厂,118.3673,31.3131,2025-06-21T2200,9,9,0.6,11,4,94,96,30,
芜湖市,市气象局,118.4209,31.3707,2025-06-21T2200,8,,0.2,7,6,92,94,29,
芜湖市,清苑社区,118.4781,31.3225,2025-06-21T2200,7,,0.4,17,5,75,80,24,
芜湖市,扬子职业技术学院,118.2746,31.2326,2025-06-21T2200,11,,0.7,12,6,87,95,28,
梧州市,市逸夫小学,111.3014,23.4832,2025-06-21T2200,19,33,0.6,21,2,16,64,33,
梧州市,市十一中,111.3239,23.4794,2025-06-21T2200,3,20,0.4,41,7,4,66,21,
梧州市,龙新,111.2711,23.4835,2025-06-21T2200,13,,0.2,2,2,31,61,19,
梧州市,政贤路18号,111.2419,23.4154,2025-06-21T2200,10,16,0.4,13,5,26,56,16,
五家渠市,农水大厦,87.5475,44.1756,2025-06-21T2200,22,25,0.2,10,7,102,104,32,
五家渠市,经开区管委会,87.546,44.1912,2025-06-21T2200,18,21,0.4,17,6,97,105,31,
武汉市,东湖梨园,114.3677,30.5584,2025-06-21T2200,3,8,0.2,8,5,75,107,24,
武汉市,汉阳月湖,114.2529,30.558,2025-06-21T2200,12,,0.4,12,7,76,106,24,
武汉市,汉口花桥,114.282,30.6189,2025-06-21T2200,7,13,0.3,12,10,72,101,23,
武汉市,武昌紫阳,114.3025,30.5332,2025-06-21T2200,3,12,0.5,8,6,76,110,24,
武汉市,青山钢花,114.3646,30.6217,2025-06-21T2200,3,13,0.5,9,5,75,104,24,
武汉市,沌口新区,114.1566,30.4825,2025-06-21T2200,3,10,0.3,15,7,76,108,24,
武汉市,汉口江滩,114.3014,30.5944,2025-06-21T2200,7,11,0.3,8,4,72,96,23,
武汉市,吴家山,114.135,30.6319,2025-06-21T2200,12,,0.6,8,7,80,111,25,
武汉市,沉湖七壕,113.8454,30.2917,2025-06-21T2200,9,,0.5,8,4,67,93,21,
武汉市,民族大道182号,114.3877,30.4908,2025-06-21T2200,3,9,0.6,10,3,72,86,23,
武威市,监测站,102.6201,37.9251,2025-06-21T2200,6,10,0.2,18,7,87,106,28,
武威市,钟楼街149号,102.6447,37.9293,2025-06-21T2200,3,12,0.3,17,5,90,108,29,
西安市,兴庆小区,108.993,34.2629,2025-06-21T2200,24,34,0.6,19,2,105,167,35,
西安市,纺织城,109.06,34.2572,2025-06-21T2200,20,38,0.5,29,7,67,161,38,
西安市,小寨,108.9356,34.2173,2025-06-21T2200,24,39,0.7,12,8,114,170,39,
西安市,市人民体育场,108.954,34.2713,2025-06-21T2200,21,34,0.7,18,6,104,176,34,
西安市,高新西区,108.8922,34.2322,2025-06-21T2200,21,35,0.5,13,7,129,189,41,
西安市,经开区,108.935,34.3474,2025-06-21T2200,24,38,0.5,17,3,110,182,38,
西安市,长安区,108.906,34.1546,2025-06-21T2200,24,42,0.5,,,,177,,
西安市,临潼区,109.2186,34.3731,2025-06-21T2200,22,34,0.6,12,7,127,193,40,
西安市,草滩,108.869,34.378,2025-06-21T2200,19,41,0.4,29,2,111,194,41,
西安市,曲江文化产业集团,108.985,34.1978,2025-06-21T2200,23,37,0.8,28,8,95,166,37,
西安市,广运潭,109.051,34.3213,2025-06-21T2200,24,41,0.6,30,8,89,174,41,
西安市,无线电监控中心,109.09,34.5236,2025-06-21T2200,29,50,0.7,55,3,95,200,50,
西安市,行知小学,108.8869,34.2662,2025-06-21T2200,24,25,0.7,15,4,123,182,39,
西安市,西苑北路977号,108.5962,34.1188,2025-06-21T2200,24,37,0.5,21,6,114,180,37,
西宁市,第五水厂,101.524,36.6867,2025-06-21T2200,,,,,,,,,
西宁市,城北区政府,101.7775,36.6428,2025-06-21T2200,7,,0.2,20,5,70,105,22,
西宁市,世纪职校,101.8305,36.5786,2025-06-21T2200,6,9,0.8,42,8,66,119,21,
西宁市,师大城西校区,101.7413,36.6397,2025-06-21T2200,27,30,0.4,29,7,67,100,39,
西双版纳傣族自治州,景洪市江南,100.8018,21.9995,2025-06-21T2200,10,18,0.6,7,6,24,34,18,
西双版纳傣族自治州,景洪市江北,100.8017,22.0225,2025-06-21T2200,16,37,0.4,5,4,19,36,37,
西咸新区,北杜,108.7108,34.46,2025-06-21T2200,20,40,0.6,48,7,101,195,40,
西咸新区,同德佳苑,108.7096,34.2956,2025-06-21T2200,23,39,0.5,21,5,132,183,42,
西咸新区,崇文塔,108.8558,34.4978,2025-06-21T2200,16,43,0.7,39,5,121,206,43,
锡林郭勒盟,市环保监测站,116.1042,43.9317,2025-06-21T2200,,,,,,,,,
锡林郭勒盟,市政府,116.0781,43.9311,2025-06-21T2200,33,40,0.5,73,4,5,82,48,
厦门市,溪东,118.1608,24.8169,2025-06-21T2200,,,,,,,,,
厦门市,洪文,118.1514,24.4767,2025-06-21T2200,3,11,0.4,4,2,41,51,13,
厦门市,鼓浪屿,118.0661,24.4444,2025-06-21T2200,8,12,0.4,14,1,27,37,12,
厦门市,湖里中学,118.0936,24.5058,2025-06-21T2200,6,13,0.5,11,1,28,50,13,
厦门市,集美中学,118.0958,24.5688,2025-06-21T2200,3,14,0.4,21,2,41,71,14,
厦门市,同安二实小,118.1493,24.7245,2025-06-21T2200,11,22,0.3,18,2,22,70,22,
咸宁市,森林公园,114.3175,29.8142,2025-06-21T2200,6,,0.5,3,5,84,90,27,
咸宁市,长江产业园,114.3375,29.8683,2025-06-21T2200,6,14,0.4,5,2,98,102,31,
咸宁市,双鹤路18号,114.3182,29.8447,2025-06-21T2200,22,23,0.7,4,5,98,103,32,
咸宁市,碧桂路,114.284,29.8595,2025-06-21T2200,7,16,0.6,6,3,89,88,28,
咸阳市,气象站,108.7197,34.3956,2025-06-21T2200,,,,,,,,,
咸阳市,实验中学,108.673,34.3155,2025-06-21T2200,21,39,0.8,18,6,165,189,57,臭氧1小时
咸阳市,师范学院,108.7233,34.3617,2025-06-21T2200,28,47,0.5,18,4,142,185,47,
咸阳市,两寺渡,108.6594,34.2969,2025-06-21T2200,22,50,0.6,19,6,154,192,50,
咸阳市,奥体中心,108.6396,34.4078,2025-06-21T2200,21,59,0.7,21,5,151,201,55,颗粒物(PM10)
湘潭市,板塘,112.9433,27.8614,2025-06-21T2200,3,13,0.4,11,3,88,74,28,
湘潭市,市监测站,112.9118,27.8403,2025-06-21T2200,6,,0.6,2,1,88,74,28,
湘潭市,江麓,112.8937,27.8728,2025-06-21T2200,3,10,0.6,3,5,91,79,29,
湘潭市,岳塘,112.9227,27.8159,2025-06-21T2200,3,6,0.3,7,6,97,77,31,
湘潭市,科大,112.9074,27.9119,2025-06-21T2200,7,13,0.5,9,5,114,81,36,
湘潭市,昭山,113.0048,27.9153,2025-06-21T2200,7,7,0.6,6,6,87,67,28,
湘潭市,韶山,112.4876,27.9164,2025-06-21T2200,3,6,0.3,2,4,108,88,34,
湘西土家族苗族自治州,跃进水库,109.6414,28.2558,2025-06-21T2200,3,15,0.7,2,6,51,70,16,
湘西土家族苗族自治州,州政府,109.7325,28.3169,2025-06-21T2200,6,17,0.4,5,4,43,80,17,
湘西土家族苗族自治州,吉首市计生局,109.6958,28.2675,2025-06-21T2200,6,9,0.3,6,6,52,71,17,
襄阳市,襄城运动路,112.155,32.0197,2025-06-21T2200,20,33,0.5,14,7,93,133,33,
襄阳市,高新管委会,112.1825,32.1142,2025-06-21T2200,10,30,0.5,13,5,101,133,32,
襄阳市,襄州航空路,112.2106,32.0903,2025-06-21T2200,20,37,0.5,10,6,98,131,37,
襄阳市,襄城隆中路,112.0828,32.0067,2025-06-21T2200,13,31,0.4,6,7,105,127,33,
襄阳市,高新台子湾,112.1214,32.1008,2025-06-21T2200,17,27,0.4,13,5,100,124,32,
襄阳市,铁院东路4号,112.1433,32.0581,2025-06-21T2200,23,23,0.6,18,6,98,130,33,
孝感市,文化路,113.9153,30.9285,2025-06-21T2200,3,22,0.4,6,7,80,89,25,
孝感市,东城区,113.942,30.9075,2025-06-21T2200,3,7,0.2,7,7,84,98,27,
忻州市,开发区,112.7383,38.4519,2025-06-21T2200,18,33,0.6,20,4,91,138,33,
忻州市,会展中心,112.7003,38.4928,2025-06-21T2200,15,37,0.5,16,7,104,124,37,
忻州市,市政府,112.7283,38.4153,2025-06-21T2200,10,33,0.6,21,5,103,138,33,
新乡市,环保西院,113.836,35.311,2025-06-21T2200,25,70,0.5,16,4,145,185,60,颗粒物(PM10)
新乡市,开发区,113.884,35.272,2025-06-21T2200,24,36,0.6,14,4,158,190,50,
新乡市,环保东院,113.883,35.303,2025-06-21T2200,38,60,0.5,13,4,157,186,55,颗粒物(PM10)
新乡市,市委党校,113.9194,35.2847,2025-06-21T2200,23,49,0.5,12,4,155,186,49,
新乡市,市政府,113.9188,35.3045,2025-06-21T2200,27,47,0.4,15,6,163,188,54,臭氧1小时
新乡市,行政服务中心,113.9003,35.372,2025-06-21T2200,20,49,0.6,15,4,154,184,49,
新乡市,建设东路46号,113.9166,35.3315,2025-06-21T2200,33,46,0.2,8,8,162,185,53,臭氧1小时
新余市,北岗,115.0861,27.9317,2025-06-21T2200,,,,,,,,,
新余市,飞宇,114.9886,27.8431,2025-06-21T2200,3,17,0.6,9,4,41,74,17,
新余市,第二水厂,114.9231,27.8246,2025-06-21T2200,11,24,0.5,18,6,31,58,24,
新余市,市气象局,114.9308,27.8036,2025-06-21T2200,18,21,3.2,18,21,39,70,32,
新余市,新钢沁园村,114.9149,27.807,2025-06-21T2200,8,24,0.6,13,13,50,77,24,
信阳市,平桥分局,114.1099,32.1059,2025-06-21T2200,,,0.3,8,4,93,105,,
信阳市,南湾水厂,113.9956,32.1271,2025-06-21T2200,10,19,0.3,9,5,94,105,30,
信阳市,市酿酒公司,114.0775,32.1195,2025-06-21T2200,7,13,0.4,12,5,90,107,29,
信阳市,审计局,114.0609,32.1399,2025-06-21T2200,12,26,0.4,11,4,90,109,29,
兴安盟,胜华新制药厂,122.0392,46.0656,2025-06-21T2200,24,,0.7,24,4,39,85,35,
兴安盟,科右前旗环保局,121.9504,46.0741,2025-06-21T2200,23,31,0.5,39,6,19,81,33,
兴安盟,北滨河,122.0931,46.0707,2025-06-21T2200,28,42,0.5,25,2,39,81,42,
邢台市,达活泉,114.4704,37.0886,2025-06-21T2200,14,44,0.4,19,2,125,169,44,
邢台市,邢师高专,114.5062,37.0349,2025-06-21T2200,17,52,0.1,23,7,128,161,51,颗粒物(PM10)
邢台市,路桥公司,114.5237,37.0851,2025-06-21T2200,12,45,0.0,27,2,119,159,45,
邢台市,市环保局,114.4725,37.0719,2025-06-21T2200,17,34,0.5,20,3,125,156,40,
雄安新区,容城县环境保护局,115.8844,39.0341,2025-06-21T2200,24,204,0.3,38,3,93,143,127,颗粒物(PM10)
雄安新区,河北容城中学,115.8665,39.0645,2025-06-21T2200,17,65,0.5,36,7,110,149,58,颗粒物(PM10)
雄安新区,安新县民政局,115.923,38.9405,2025-06-21T2200,22,59,0.4,16,7,132,154,55,颗粒物(PM10)
雄安新区,安新县电力局,115.9324,38.9338,2025-06-21T2200,14,51,0.2,17,9,126,147,51,颗粒物(PM10)
雄安新区,雄县环境保护局,116.0901,38.9816,2025-06-21T2200,14,97,0.4,34,7,84,142,74,颗粒物(PM10)
雄安新区,雄县国土资源局,116.1105,39.0046,2025-06-21T2200,22,69,0.4,26,3,100,134,60,颗粒物(PM10)
徐州市,黄河新村,117.179,34.2761,2025-06-21T2200,45,51,0.8,17,4,108,156,63,细颗粒物(PM2.5)
徐州市,新城区,117.256,34.2153,2025-06-21T2200,43,,0.6,12,4,82,146,60,细颗粒物(PM2.5)
徐州市,农科院,117.2933,34.2778,2025-06-21T2200,51,,0.8,14,4,85,133,70,细颗粒物(PM2.5)
徐州市,鼓楼区政府,117.1814,34.29,2025-06-21T2200,45,,0.9,15,7,102,145,63,细颗粒物(PM2.5)
徐州市,铜山区招生办,117.1694,34.1781,2025-06-21T2200,43,53,0.8,15,7,99,144,60,细颗粒物(PM2.5)
徐州市,大泉街道,117.4754,34.4422,2025-06-21T2200,42,50,0.4,15,7,91,137,59,细颗粒物(PM2.5)
徐州市,解放南路202号,117.1942,34.22935,2025-06-21T2200,56,57,0.8,18,5,100,158,77,细颗粒物(PM2.5)
徐州市,龙潭环路5号,117.2456,34.2908,2025-06-21T2200,38,58,0.6,12,6,92,146,54,"颗粒物(PM10),细颗粒物(PM2.5)"
许昌市,开发区,113.7906,33.9953,2025-06-21T2200,28,71,0.7,58,1,65,163,61,颗粒物(PM10)
许昌市,市一中,113.8172,34.0339,2025-06-21T2200,35,64,0.4,27,1,109,158,57,颗粒物(PM10)
许昌市,许昌学院,113.8614,34.0442,2025-06-21T2200,25,46,0.5,22,2,116,167,46,
许昌市,芙蓉广场,113.843,34.0823,2025-06-21T2200,21,51,0.4,30,5,89,163,51,颗粒物(PM10)
许昌市,新元大道996号,113.8157,34.12670,2025-06-21T2200,26,44,0.4,43,1,88,166,44,
许昌市,望田路111号,113.8358,34.01552,2025-06-21T2200,33,67,0.5,36,2,98,166,59,颗粒物(PM10)
宣城市,鳌峰子站,118.7581,30.9454,2025-06-21T2200,3,6,0.6,2,5,89,91,28,
宣城市,敬亭山子站,118.7385,30.9743,2025-06-21T2200,3,8,0.4,8,7,84,90,27,
宣城市,开发区子站,118.7173,30.9427,2025-06-21T2200,3,8,0.3,2,5,96,92,30,
宣城市,夏渡子站,118.7724,30.9141,2025-06-21T2200,6,10,0.4,6,7,79,89,25,
雅安市,市政府,103.0111,29.9833,2025-06-21T2200,14,21,0.7,10,1,64,102,21,
雅安市,川农大,102.9905,29.9775,2025-06-21T2200,13,19,0.6,21,4,88,118,28,
雅安市,康养中心,103.0456,29.9956,2025-06-21T2200,19,25,,2,1,127,120,,
