area,positionname,longitude,latitude,timepoint,pm2_5,pm10,co,no2,so2,o3,o3_8h,aqi,primarypollutant
阿坝藏族羌族自治州,州农科所,102.1879,31.914,2025-02-03T2300,20,39,1.1,10,9,60,87,39,
阿坝藏族羌族自治州,马师校,102.2502,31.8896,2025-02-03T2300,29,,0.4,5,6,51,82,42,
阿坝藏族羌族自治州,马尔康中学西区,102.2165,31.9024,2025-02-03T2300,16,26,0.4,6,4,56,82,26,
阿克苏地区,电视台,80.292,41.1694,2025-02-03T2300,76,175,1.3,81,8,20,91,113,颗粒物(PM10)
阿克苏地区,艺术中心,80.2613,41.1551,2025-02-03T2300,51,160,0.7,39,10,48,86,105,颗粒物(PM10)
阿拉善盟,西城区西花园,105.6467,38.8363,2025-02-03T2300,22,43,0.9,19,7,66,90,43,
阿拉善盟,蒙二幼,105.6985,38.8411,2025-02-03T2300,15,32,0.5,13,6,71,85,32,
阿拉善盟,环保局新楼,105.724,38.8516,2025-02-03T2300,10,20,0.5,6,9,84,89,27,
阿勒泰地区,市站,88.1264,47.8517,2025-02-03T2300,50,,0.4,31,3,30,43,69,细颗粒物(PM2.5)
阿里地区,阿里监测站,80.1161,32.5,2025-02-03T2300,3,10,0.6,10,12,69,90,22,
阿里地区,阿里藏医院,80.0903,32.5028,2025-02-03T2300,3,6,0.4,1,4,87,94,28,
安康市,香溪洞,109.0318,32.6537,2025-02-03T2300,17,36,0.5,5,9,70,83,36,
安康市,汉滨区检察院,109.0072,32.6975,2025-02-03T2300,23,36,0.5,9,6,41,82,36,
安康市,市邮政管理局,109.0325,32.6913,2025-02-03T2300,40,49,0.6,14,7,39,78,57,细颗粒物(PM2.5)
安庆市,环科院,117.0809,30.5177,2025-02-03T2300,89,121,1.0,12,5,55,63,118,细颗粒物(PM2.5)
安庆市,马山宾馆,117.0331,30.5119,2025-02-03T2300,93,109,0.9,18,6,49,60,123,细颗粒物(PM2.5)
安庆市,安庆大学,116.9896,30.6145,2025-02-03T2300,89,105,0.9,10,6,49,64,118,细颗粒物(PM2.5)
安庆市,市人大,117.0598,30.5351,2025-02-03T2300,95,123,0.9,17,5,46,61,125,细颗粒物(PM2.5)
安顺市,伍家关,105.9606,26.2611,2025-02-03T2300,27,34,0.8,8,17,66,62,39,
安顺市,凤凰山,105.9408,26.2431,2025-02-03T2300,32,,0.7,10,23,58,54,46,
安顺市,金钟山,105.9439,26.2564,2025-02-03T2300,32,,0.8,6,25,59,56,46,
安顺市,娄家坡,105.8983,26.2481,2025-02-03T2300,33,33,0.7,8,23,56,53,48,
安阳市,棉研所,114.4839,36.0621,2025-02-03T2300,70,92,1.0,23,14,49,83,94,细颗粒物(PM2.5)
安阳市,红庙街,114.3551,36.1017,2025-02-03T2300,70,107,0.8,25,8,46,92,94,细颗粒物(PM2.5)
安阳市,银杏小区,114.361,36.0681,2025-02-03T2300,84,119,1.0,40,6,27,91,112,细颗粒物(PM2.5)
安阳市,信访局,114.3922,36.0878,2025-02-03T2300,60,104,0.7,28,7,49,92,82,细颗粒物(PM2.5)
安阳市,左辅环卫站,114.4705,36.0637,2025-02-03T2300,68,103,0.8,16,7,60,93,92,细颗粒物(PM2.5)
安阳市,安钢职工学校,114.2917,36.0949,2025-02-03T2300,81,109,0.9,35,8,35,87,108,细颗粒物(PM2.5)
鞍山市,深沟寺,123.044,41.1196,2025-02-03T2300,25,46,0.6,13,9,49,67,46,
鞍山市,太阳城,123.011,41.0931,2025-02-03T2300,18,45,0.6,11,6,58,67,45,
鞍山市,太平,123.0485,41.1442,2025-02-03T2300,31,53,1.2,28,8,44,73,52,颗粒物(PM10)
鞍山市,铁西三道街,122.9642,41.0971,2025-02-03T2300,33,58,1.1,34,14,39,74,54,颗粒物(PM10)
鞍山市,明达新区,123.022,41.0821,2025-02-03T2300,22,43,0.6,22,8,48,71,43,
鞍山市,千山,123.1289,41.0228,2025-02-03T2300,,,,,,,58,,
鞍山市,兴盛南路290号,122.9446,41.0826,2025-02-03T2300,94,120,2.5,57,19,22,65,124,细颗粒物(PM2.5)
巴彦淖尔市,附二中,107.4212,40.761,2025-02-03T2300,33,49,0.5,27,8,41,66,49,
巴彦淖尔市,市环保大楼,107.37,40.7372,2025-02-03T2300,17,52,0.1,12,5,56,66,51,颗粒物(PM10)
巴音郭楞蒙古自治州,孔雀公园,86.1472,41.7538,2025-02-03T2300,31,129,0.4,10,4,77,79,90,颗粒物(PM10)
巴音郭楞蒙古自治州,棉纺厂,86.1972,41.7166,2025-02-03T2300,25,154,0.4,25,2,58,73,102,颗粒物(PM10)
巴音郭楞蒙古自治州,经济开发区,86.2357,41.7173,2025-02-03T2300,11,117,0.3,4,2,83,85,84,颗粒物(PM10)
巴中市,苏山坪,106.7677,31.8794,2025-02-03T2300,28,39,0.3,9,5,76,85,40,
巴中市,市五中,106.7768,31.8526,2025-02-03T2300,47,63,0.6,17,7,29,76,65,细颗粒物(PM2.5)
巴中市,圣泉水务公司,106.7418,31.8654,2025-02-03T2300,37,52,0.6,29,4,27,86,53,细颗粒物(PM2.5)
巴中市,市中心医院,106.7616,31.8344,2025-02-03T2300,52,76,0.8,34,4,12,88,72,细颗粒物(PM2.5)
白城市,洮北区环保局,122.7911,45.6077,2025-02-03T2300,60,,0.6,18,6,53,71,82,细颗粒物(PM2.5)
白城市,市环保局,122.8738,45.5725,2025-02-03T2300,69,73,0.5,29,7,34,69,93,细颗粒物(PM2.5)
白山市,喜丰,126.4219,41.9171,2025-02-03T2300,18,34,0.6,11,11,66,73,34,
白山市,环保局,126.4077,41.9419,2025-02-03T2300,27,59,0.9,11,8,64,77,55,颗粒物(PM10)
白银市,第三小学,104.1724,36.5446,2025-02-03T2300,15,45,0.9,16,7,68,89,45,
白银市,动力公司,104.1465,36.5482,2025-02-03T2300,12,23,0.4,16,3,60,90,23,
百色市,市监测站,106.6103,23.9011,2025-02-03T2300,26,27,0.8,17,10,49,72,38,
百色市,市中心血站,106.6538,23.8859,2025-02-03T2300,28,32,0.7,8,8,68,74,40,
百色市,祈福高中,106.6085,23.8798,2025-02-03T2300,16,31,0.6,11,7,54,68,31,
蚌埠市,工人疗养院,117.396,32.939,2025-02-03T2300,98,119,1.0,32,4,58,88,129,细颗粒物(PM2.5)
蚌埠市,百货大楼,117.3605,32.9427,2025-02-03T2300,99,123,0.8,25,7,64,87,130,细颗粒物(PM2.5)
蚌埠市,蚌埠学院,117.4185,32.8911,2025-02-03T2300,87,112,0.7,18,6,75,90,115,细颗粒物(PM2.5)
蚌埠市,淮上区政府,117.3533,32.9673,2025-02-03T2300,98,119,0.9,28,9,60,86,129,细颗粒物(PM2.5)
蚌埠市,高新区,117.3145,32.8977,2025-02-03T2300,126,151,0.8,23,6,52,87,166,细颗粒物(PM2.5)
蚌埠市,蚌埠田家炳中学,117.3092,32.9314,2025-02-03T2300,91,108,0.7,19,14,72,86,120,细颗粒物(PM2.5)
包头市,市环境监测站,109.8756,40.6532,2025-02-03T2300,11,17,0.4,12,11,61,73,20,
包头市,包头八中,109.9991,40.5842,2025-02-03T2300,25,,0.6,31,9,33,71,36,
包头市,青山宾馆,109.8538,40.6821,2025-02-03T2300,12,19,0.3,13,8,56,71,19,
包头市,惠龙物流,109.8642,40.6288,2025-02-03T2300,10,17,0.4,16,8,61,75,20,
包头市,东河鸿龙湾,110.0377,40.5546,2025-02-03T2300,20,30,0.5,19,9,52,76,30,
包头市,滨河大厦,109.9154,40.5685,2025-02-03T2300,17,32,0.6,17,8,51,72,32,
包头市,包头市委党校,109.9447,40.6261,2025-02-03T2300,12,23,0.3,17,6,54,72,23,
包头市,昆区政府,109.8331,40.6576,2025-02-03T2300,14,18,0.5,24,12,49,70,20,
宝鸡市,庙沟村,107.185,34.3063,2025-02-03T2300,30,34,0.5,16,6,68,82,43,
宝鸡市,竹园沟,107.0708,34.3017,2025-02-03T2300,18,31,0.5,9,6,50,81,31,
宝鸡市,三陆医院,107.1906,34.3672,2025-02-03T2300,65,89,0.7,38,6,34,82,88,细颗粒物(PM2.5)
宝鸡市,监测站,107.1431,34.3547,2025-02-03T2300,46,77,0.6,24,8,34,80,64,"颗粒物(PM10),细颗粒物(PM2.5)"
宝鸡市,技工学校,107.1186,34.3739,2025-02-03T2300,49,60,0.6,18,5,41,78,68,细颗粒物(PM2.5)
宝鸡市,陈仓区环保局家属楼,107.3906,34.3528,2025-02-03T2300,52,77,0.6,49,8,23,87,72,细颗粒物(PM2.5)
宝鸡市,文理学院,107.2058,34.3497,2025-02-03T2300,,,0.6,25,6,40,77,,
宝鸡市,三迪小学,107.2386,34.3622,2025-02-03T2300,45,92,0.7,32,7,30,75,71,颗粒物(PM10)
保定市,游泳馆,115.493,38.8632,2025-02-03T2300,13,32,0.2,16,6,56,83,32,
保定市,华电二区,115.5213,38.8959,2025-02-03T2300,20,29,0.2,8,5,50,70,29,
保定市,接待中心,115.4713,38.9108,2025-02-03T2300,18,38,0.3,20,2,54,75,38,
保定市,地表水厂,115.4612,38.8416,2025-02-03T2300,21,46,0.3,18,3,60,86,46,
保定市,满城区生态环境分局,115.31981,38.95208,2025-02-03T2300,14,41,0.2,34,2,56,92,41,
保定市,清苑区第二中学,115.47694,38.76408,2025-02-03T2300,34,67,0.4,23,6,52,81,59,颗粒物(PM10)
保定市,徐水物探局,115.62909,39.02311,2025-02-03T2300,7,19,0.5,19,8,50,85,19,
保定市,双鹰农机,115.4202,38.8656,2025-02-03T2300,25,36,0.3,9,4,61,87,36,
保定市,植保所站,115.5150,38.8590,2025-02-03T2300,22,44,0.3,18,9,50,82,44,
保山市,市环境监测站,99.1678,25.1081,2025-02-03T2300,26,52,0.5,7,4,84,104,51,颗粒物(PM10)
保山市,市环保局,99.1711,25.1328,2025-02-03T2300,37,50,0.5,4,7,91,107,53,细颗粒物(PM2.5)
北海市,牛尾岭水库,109.2262,21.588,2025-02-03T2300,11,11,0.6,5,5,23,23,16,
北海市,海滩公园,109.1436,21.4086,2025-02-03T2300,10,22,0.7,9,6,57,54,22,
北海市,新市环保局,109.0981,21.4661,2025-02-03T2300,17,17,0.7,9,5,60,57,25,
北海市,北海工业园,109.1778,21.5233,2025-02-03T2300,17,,0.6,5,6,60,56,25,
北海市,龙潭自来水厂,109.1911,21.4415,2025-02-03T2300,14,20,0.6,7,7,55,52,20,
北京市,万寿西宫,116.3621,39.8784,2025-02-03T2300,3,10,0.4,5,5,73,80,23,
北京市,定陵,116.2202,40.2915,2025-02-03T2300,,,,,,,,,
北京市,东四,116.4174,39.9289,2025-02-03T2300,3,12,0.4,4,1,66,76,21,
北京市,天坛,116.4072,39.8863,2025-02-03T2300,3,11,0.4,3,2,76,83,24,
北京市,农展馆,116.462,39.9365,2025-02-03T2300,3,8,0.6,7,3,75,83,24,
北京市,官园,116.3392,39.9295,2025-02-03T2300,3,11,0.4,6,5,69,78,22,
北京市,海淀万柳,116.2878,39.9611,2025-02-03T2300,3,10,0.2,17,3,63,69,20,
北京市,顺义新城,116.6636,40.135,2025-02-03T2300,3,7,0.2,2,3,79,80,25,
北京市,怀柔镇,116.6275,40.3275,2025-02-03T2300,3,6,0.4,2,2,78,82,25,
北京市,昌平镇,116.2296,40.217,2025-02-03T2300,3,10,0.2,2,1,68,69,22,
北京市,奥体中心,116.3966,39.9821,2025-02-03T2300,3,9,0.3,6,4,74,78,24,
北京市,延庆夏都,115.9718,40.4529,2025-02-03T2300,3,9,0.4,3,4,66,74,21,
北京市,平谷新城,117.0709,40.1465,2025-02-03T2300,3,7,0.3,2,1,68,62,22,
北京市,密云新城,116.8336,40.4095,2025-02-03T2300,3,8,0.2,2,1,68,75,22,
北京市,门头沟三家店,116.088,39.9726,2025-02-03T2300,3,11,0.2,2,3,67,72,21,
北京市,丰台云岗,116.1541,39.8204,2025-02-03T2300,3,11,0.2,2,1,69,72,22,
北京市,通州东关,116.6804,39.9081,2025-02-03T2300,3,6,0.2,4,6,72,71,23,
北京市,房山燕山,115.9577,39.7603,2025-02-03T2300,6,10,0.3,2,5,79,82,25,
北京市,大兴旧宫,116.4672,39.7733,2025-02-03T2300,3,11,0.2,4,3,67,74,21,
北京市,延庆石河营,115.986,40.4563,2025-02-03T2300,3,8,0.5,3,3,70,82,22,
北京市,怀柔新城,116.6151,40.3053,2025-02-03T2300,3,6,0.0,1,3,74,76,24,
北京市,丰台小屯,116.2545,39.8768,2025-02-03T2300,3,11,0.2,5,4,68,73,22,
北京市,密云镇,116.84,40.3844,2025-02-03T2300,3,10,0.2,3,5,75,82,24,
北京市,八角,116.1942,39.91583,2025-02-03T2300,3,11,0.1,2,1,69,76,22,
本溪市,大峪,123.8275,41.3064,2025-02-03T2300,21,36,2.3,11,6,57,72,36,
本溪市,溪湖,123.7567,41.3325,2025-02-03T2300,30,46,0.8,29,7,40,73,46,
本溪市,彩屯,123.7169,41.3094,2025-02-03T2300,24,34,0.7,22,5,47,71,35,
本溪市,东明,123.7669,41.2864,2025-02-03T2300,29,38,0.8,33,9,37,65,42,
本溪市,新立屯,123.7992,41.2664,2025-02-03T2300,38,,0.9,22,4,47,78,54,细颗粒物(PM2.5)
本溪市,威宁,123.8142,41.3472,2025-02-03T2300,34,48,0.8,35,2,29,72,49,
毕节市,八中,105.2864,27.3125,2025-02-03T2300,20,33,0.8,8,7,41,55,33,
毕节市,师专,105.31,27.2944,2025-02-03T2300,35,39,0.6,9,8,41,54,50,
毕节市,碧海医院,105.3688,27.3599,2025-02-03T2300,16,16,0.7,8,8,49,59,23,
滨州市,第二水厂,118.0018,37.3617,2025-02-03T2300,22,34,0.4,12,9,60,93,34,
滨州市,北中新校,117.9776,37.393,2025-02-03T2300,19,41,0.6,24,10,52,82,41,
滨州市,中海酒店,117.9378,37.3956,2025-02-03T2300,36,56,1.1,45,12,36,84,53,颗粒物(PM10)
滨州市,开发区一中,117.9378,37.3553,2025-02-03T2300,17,34,0.3,18,9,65,84,34,
滨州市,金海六路,118.0917,37.694,2025-02-03T2300,29,39,0.9,32,8,40,82,42,
滨州市,滨州市西街道办事处,117.9956,37.3753,2025-02-03T2300,19,31,0.4,18,9,57,83,31,
亳州市,污水处理厂,115.8072,33.8399,2025-02-03T2300,66,96,0.6,11,6,79,84,89,细颗粒物(PM2.5)
亳州市,三国揽胜宫,115.7789,33.8518,2025-02-03T2300,75,110,0.6,13,4,85,94,100,细颗粒物(PM2.5)
亳州市,亳州学院,115.7633,33.8034,2025-02-03T2300,80,108,0.8,11,6,80,90,107,细颗粒物(PM2.5)
博尔塔拉蒙古自治州,市党校,82.0485,44.8556,2025-02-03T2300,49,62,1.2,13,6,93,95,68,细颗粒物(PM2.5)
博尔塔拉蒙古自治州,市环保局,82.0806,44.8969,2025-02-03T2300,36,36,1.0,29,6,59,76,52,细颗粒物(PM2.5)
沧州市,沧县城建局,116.8842,38.2991,2025-02-03T2300,18,35,0.4,10,4,70,84,35,
沧州市,电视转播站,116.8584,38.3254,2025-02-03T2300,12,37,0.5,8,3,67,83,37,
沧州市,市环保局,116.8709,38.3228,2025-02-03T2300,24,39,0.3,8,6,64,81,39,
沧州市,河北水利电力学院,116.8136,38.3004,2025-02-03T2300,17,17,0.3,5,4,65,75,25,
昌都市,昌都监测站,97.1806,31.1273,2025-02-03T2300,17,29,0.8,7,6,56,89,29,
昌都市,昌都会议中心,97.1714,31.1406,2025-02-03T2300,15,23,0.3,1,3,76,94,24,
昌吉回族自治州,天山天池,88.1236,43.8886,2025-02-03T2300,6,9,0.3,2,1,78,82,25,
昌吉回族自治州,新区政务中心,87.2717,44.0297,2025-02-03T2300,40,70,1.3,72,1,8,59,60,颗粒物(PM10)
昌吉回族自治州,亚心广场,87.3095,44.0142,2025-02-03T2300,68,68,1.2,25,3,48,72,92,细颗粒物(PM2.5)
长春市,食品厂,125.3325,43.9166,2025-02-03T2300,32,37,0.5,33,8,41,64,46,
长春市,客车厂,125.2863,43.9027,2025-02-03T2300,35,37,0.5,14,6,60,68,50,
长春市,邮电学院,125.2841,43.8463,2025-02-03T2300,36,38,0.5,19,12,55,71,52,细颗粒物(PM2.5)
长春市,劳动公园,125.3716,43.8772,2025-02-03T2300,22,27,1.0,26,9,51,74,32,
长春市,园林处,125.3297,43.8805,2025-02-03T2300,35,52,0.5,14,12,58,70,51,颗粒物(PM10)
长春市,净月潭,125.4605,43.79,2025-02-03T2300,27,37,0.4,17,7,47,68,39,
长春市,甩湾子,125.7194,43.515,2025-02-03T2300,,,,,,,,,
长春市,经开区环卫处,125.3863,43.8447,2025-02-03T2300,31,45,0.4,34,29,30,59,45,
长春市,高新区管委会,125.245,43.7783,2025-02-03T2300,51,,0.9,49,6,20,70,70,细颗粒物(PM2.5)
长春市,岱山公园,125.1761,43.8325,2025-02-03T2300,50,,0.6,29,8,44,74,69,细颗粒物(PM2.5)
长沙市,经开区环保局,113.0833,28.2325,2025-02-03T2300,68,107,0.8,14,4,69,74,92,细颗粒物(PM2.5)
长沙市,高开区环保局,112.8872,28.2189,2025-02-03T2300,74,98,1.0,14,6,79,81,99,细颗粒物(PM2.5)
长沙市,马坡岭,113.0792,28.2053,2025-02-03T2300,80,115,0.8,22,4,55,73,107,细颗粒物(PM2.5)
长沙市,湖南师范大学,112.9394,28.19,2025-02-03T2300,48,106,0.9,16,4,68,75,78,颗粒物(PM10)
长沙市,雨花区环保局,113.0178,28.1322,2025-02-03T2300,67,112,1.0,27,6,52,68,90,细颗粒物(PM2.5)
长沙市,伍家岭,112.9792,28.2597,2025-02-03T2300,78,124,1.3,29,5,41,69,104,细颗粒物(PM2.5)
长沙市,火车新站,113.0014,28.1944,2025-02-03T2300,85,111,0.9,33,4,56,68,113,细颗粒物(PM2.5)
长沙市,天心区环保局,112.9844,28.1178,2025-02-03T2300,76,110,1.1,30,4,56,71,102,细颗粒物(PM2.5)
长沙市,湖南中医药大学,112.8908,28.1308,2025-02-03T2300,79,,0.8,22,5,60,76,105,细颗粒物(PM2.5)
长沙市,沙坪,112.9581,28.3611,2025-02-03T2300,71,,1.0,12,7,57,69,95,细颗粒物(PM2.5)
长治市,清华站,113.1147,36.1547,2025-02-03T2300,14,27,0.6,12,13,60,75,27,
长治市,审计局,113.0886,36.2125,2025-02-03T2300,9,27,0.4,14,12,59,77,27,
长治市,长治八中,113.0844,36.1856,2025-02-03T2300,17,42,0.6,12,12,60,76,42,
长治市,德盛苑,113.1569,36.1911,2025-02-03T2300,14,32,0.7,15,16,58,77,32,
长治市,向阳小学,113.06,36.0464,2025-02-03T2300,21,49,0.5,18,14,55,78,49,
长治市,屯留一中,112.8792,36.3144,2025-02-03T2300,13,38,0.5,20,13,52,79,38,
长治市,英华南巷50号,113.1131,36.19948,2025-02-03T2300,14,36,0.6,15,13,63,81,36,
长治市,学府街1号,113.2367,36.3344,2025-02-03T2300,11,38,1.0,35,17,34,81,38,
常德市,市二中,111.6975,28.9703,2025-02-03T2300,56,76,0.5,10,6,77,88,77,细颗粒物(PM2.5)
常德市,白鹤山,111.7158,29.1456,2025-02-03T2300,,,,,,,,,
常德市,武陵区永安,111.7153,29.0289,2025-02-03T2300,63,105,0.4,20,4,68,92,85,细颗粒物(PM2.5)
常德市,鼎城区玉霞,111.6892,28.9881,2025-02-03T2300,72,114,0.9,39,3,14,88,97,细颗粒物(PM2.5)
常德市,武陵区长庚,111.6625,29.0531,2025-02-03T2300,71,117,0.6,50,6,29,86,95,细颗粒物(PM2.5)
常州市,市监测站,119.9633,31.762,2025-02-03T2300,46,56,0.5,19,8,79,91,64,细颗粒物(PM2.5)
常州市,武进监测站,119.9468,31.7069,2025-02-03T2300,42,53,0.2,17,5,67,89,59,细颗粒物(PM2.5)
常州市,安家,119.9255,31.9087,2025-02-03T2300,44,58,0.6,31,7,50,90,62,细颗粒物(PM2.5)
常州市,行政中心,119.9805,31.8174,2025-02-03T2300,45,50,0.6,17,11,64,84,63,细颗粒物(PM2.5)
常州市,经开区,120.0522,31.7748,2025-02-03T2300,44,66,0.5,16,6,82,94,62,细颗粒物(PM2.5)
常州市,钟楼,119.9025,31.7964,2025-02-03T2300,50,56,0.8,21,7,62,87,69,细颗粒物(PM2.5)
常州市,武进经发区,119.8598,31.7066,2025-02-03T2300,43,60,0.6,18,6,70,91,60,细颗粒物(PM2.5)
常州市,金坛城区,119.5826,31.7245,2025-02-03T2300,47,65,0.6,17,8,66,93,65,细颗粒物(PM2.5)
朝阳市,西梁,120.4318,41.5881,2025-02-03T2300,15,34,0.5,6,3,68,76,34,
朝阳市,河畔小区,120.4521,41.5646,2025-02-03T2300,11,38,0.5,5,9,66,72,38,
朝阳市,八里堡,120.4176,41.5648,2025-02-03T2300,11,20,0.4,4,12,74,79,24,
朝阳市,农业园区,120.3806,41.5969,2025-02-03T2300,6,21,0.6,4,7,69,76,22,
潮州市,西园路,116.6367,23.6719,2025-02-03T2300,6,7,0.4,6,4,27,44,9,
潮州市,市政府,116.6183,23.6608,2025-02-03T2300,3,6,0.6,4,3,29,45,10,
潮州市,金山,116.6461,23.6761,2025-02-03T2300,3,6,0.6,5,5,25,42,8,
郴州市,马头岭,113.0073,25.9061,2025-02-03T2300,25,54,1.1,14,7,33,38,52,颗粒物(PM10)
郴州市,市职中,113.0116,25.8226,2025-02-03T2300,36,,0.8,13,6,21,27,52,细颗粒物(PM2.5)
郴州市,市审计局,113.0383,25.8071,2025-02-03T2300,34,38,1.2,5,2,32,28,49,
郴州市,市环保局,113.0348,25.7759,2025-02-03T2300,46,,0.9,12,6,22,23,64,细颗粒物(PM2.5)
郴州市,人民路派出所,113.0138,25.8011,2025-02-03T2300,38,48,0.9,11,5,26,27,54,细颗粒物(PM2.5)
成都市,金泉两河,103.9728,30.7236,2025-02-03T2300,32,59,0.3,24,3,43,78,55,颗粒物(PM10)
成都市,十里店,104.176,30.6872,2025-02-03T2300,21,40,0.2,22,3,56,84,40,
成都市,三瓦窑,104.079,30.5706,2025-02-03T2300,17,45,0.4,22,2,52,82,45,
成都市,沙河铺,104.1114,30.63,2025-02-03T2300,21,52,0.3,23,5,60,81,51,颗粒物(PM10)
成都市,君平街,104.0786,30.6531,2025-02-03T2300,32,38,0.2,19,4,62,80,46,
成都市,灵岩寺,103.613,31.0283,2025-02-03T2300,,,,,,,,,
成都市,大石西路,104.0239,30.65639,2025-02-03T2300,24,44,0.3,26,2,46,76,44,
成都市,龙泉驿区区政府,104.2725,30.5589,2025-02-03T2300,31,46,0.7,20,3,47,85,46,
成都市,金博路,104.0106,30.6931,2025-02-03T2300,26,44,0.3,22,3,47,78,44,
成都市,华阳,104.0578,30.5225,2025-02-03T2300,,,,,,,81,,
成都市,青白江技师分院,104.3853,30.7453,2025-02-03T2300,33,52,0.4,31,6,31,90,51,颗粒物(PM10)
成都市,科学城,104.0789,30.4072,2025-02-03T2300,24,,0.6,14,5,67,82,35,
成都市,光华大道三段,103.8506,30.6947,2025-02-03T2300,22,49,0.4,25,1,41,79,49,
成都市,鲸龙路1057号,104.2433,30.5353,2025-02-03T2300,32,52,0.5,20,2,50,84,51,颗粒物(PM10)
承德市,铁路,117.9531,40.9081,2025-02-03T2300,3,11,0.2,4,5,70,77,22,
承德市,中国银行,117.9392,40.9763,2025-02-03T2300,3,20,0.3,4,2,63,72,20,
承德市,开发区,117.9503,40.928,2025-02-03T2300,11,22,0.2,5,4,76,82,24,
承德市,文化中心,117.8051,40.9655,2025-02-03T2300,3,6,0.2,4,3,75,81,24,
承德市,离宫,117.9268,41.0026,2025-02-03T2300,15,24,0.1,2,3,64,75,24,
池州市,池州学院,117.47,30.6618,2025-02-03T2300,107,118,0.8,23,4,33,64,140,细颗粒物(PM2.5)
池州市,展览馆,117.4918,30.6617,2025-02-03T2300,80,117,0.9,27,5,6,67,107,细颗粒物(PM2.5)
池州市,第八中学,117.5627,30.695,2025-02-03T2300,95,117,0.8,14,9,33,66,125,细颗粒物(PM2.5)
池州市,第十二中学,117.5038,30.6243,2025-02-03T2300,90,103,0.8,15,2,20,66,119,细颗粒物(PM2.5)
赤峰市,松山一中,118.9233,42.2816,2025-02-03T2300,6,14,0.6,12,12,54,62,17,
赤峰市,哈达街,118.9576,42.2728,2025-02-03T2300,13,21,0.5,15,7,52,54,21,
赤峰市,天义路,118.8788,42.2554,2025-02-03T2300,3,7,0.4,7,11,56,61,18,
赤峰市,银河街,119.2658,42.0353,2025-02-03T2300,9,28,0.5,11,16,54,60,28,
赤峰市,桥北物流园区,118.9359,42.3147,2025-02-03T2300,3,18,0.6,13,4,61,67,20,
崇左市,市环保局江州分局,107.3476,22.4136,2025-02-03T2300,12,16,0.7,6,4,63,59,20,
崇左市,城南新区,107.3702,22.3707,2025-02-03T2300,3,13,0.7,10,5,57,59,18,
滁州市,老年大学,118.3093,32.3153,2025-02-03T2300,66,80,0.5,16,5,73,95,89,细颗粒物(PM2.5)
滁州市,人大宾馆,118.3244,32.2786,2025-02-03T2300,71,84,0.7,12,6,78,94,95,细颗粒物(PM2.5)
滁州市,市政府原办公楼,118.3118,32.3038,2025-02-03T2300,66,79,0.6,17,3,72,93,89,细颗粒物(PM2.5)
滁州市,图书馆,118.3267,32.2634,2025-02-03T2300,68,78,0.7,10,5,76,92,92,细颗粒物(PM2.5)
楚雄彝族自治州,州环境监测站,101.5482,25.0441,2025-02-03T2300,18,24,0.8,9,8,40,53,26,
楚雄彝族自治州,市经济开发区,101.538,25.0492,2025-02-03T2300,27,31,0.9,10,7,39,52,39,
达州市,达州职业技术学院,107.5277,31.2827,2025-02-03T2300,37,60,1.0,21,4,7,66,55,颗粒物(PM10)
达州市,市环境监测站,107.5086,31.2186,2025-02-03T2300,31,52,1.0,42,5,9,58,51,颗粒物(PM10)
达州市,凤凰小区,107.4988,31.2132,2025-02-03T2300,27,29,0.6,28,7,30,67,39,
达州市,达县机关宾馆,107.5082,31.1986,2025-02-03T2300,26,39,0.7,30,5,3,61,39,
达州市,市政中心,107.4644,31.2124,2025-02-03T2300,19,49,0.8,36,5,14,58,49,
大理白族自治州,大理市环境监测站,100.1542,25.7054,2025-02-03T2300,39,40,0.4,4,7,96,91,55,细颗粒物(PM2.5)
大理白族自治州,大理古城,100.2171,25.5811,2025-02-03T2300,55,66,0.8,28,6,53,93,75,细颗粒物(PM2.5)
大连市,甘井子,121.612,38.9741,2025-02-03T2300,9,25,0.6,9,6,72,78,25,
大连市,周水子,121.565,38.9511,2025-02-03T2300,11,23,0.6,8,12,68,76,23,
大连市,星海三站,121.5637,38.8845,2025-02-03T2300,9,25,0.6,8,10,69,77,25,
大连市,青泥洼桥,121.6302,38.9117,2025-02-03T2300,9,27,0.4,8,11,60,69,27,
大连市,傅家庄,121.6251,38.8638,2025-02-03T2300,3,22,0.5,12,10,64,74,22,
大连市,七贤岭,121.5213,38.8661,2025-02-03T2300,12,27,0.7,9,10,65,76,27,
大连市,旅顺,121.2529,38.8061,2025-02-03T2300,10,19,0.4,8,8,72,81,23,
大连市,金州,121.7485,39.1311,2025-02-03T2300,14,41,0.7,10,7,68,79,41,
大连市,开发区,121.7811,39.0496,2025-02-03T2300,9,22,0.4,6,9,69,76,22,
大连市,双D港,121.9762,39.0631,2025-02-03T2300,10,39,0.5,12,9,65,81,39,
大庆市,大同区,124.81117,46.03138,2025-02-03T2300,34,35,0.5,13,4,49,63,49,
大庆市,龙凤区,125.129,46.533,2025-02-03T2300,17,28,0.6,30,9,44,70,28,
大庆市,红岗区,124.902,46.408,2025-02-03T2300,14,26,0.4,8,5,58,66,26,
大庆市,萨尔图区,125.153,46.586,2025-02-03T2300,19,,0.4,18,4,60,70,28,
大庆市,让胡路区,124.9042,46.6215,2025-02-03T2300,25,31,0.3,7,7,60,69,36,
大庆市,萨区政府监测点,125.141,46.634,2025-02-03T2300,12,24,0.7,18,4,52,69,24,
大同市,果树场,113.3819,40.1097,2025-02-03T2300,,,,,,,,,
大同市,云冈宾馆,113.2994,40.0758,2025-02-03T2300,6,24,0.5,10,8,69,88,24,
大同市,大同大学,113.3444,40.0917,2025-02-03T2300,14,,0.5,5,8,71,87,23,
大同市,安家小村,113.2661,40.1269,2025-02-03T2300,13,30,0.5,15,10,55,84,30,
大同市,教育学院,113.2711,40.0844,2025-02-03T2300,10,25,0.5,15,6,59,74,25,
大同市,大同市卫生学校,113.3397,40.0597,2025-02-03T2300,14,21,1.1,9,8,68,83,22,
大同市,云冈站,113.1367,40.1122,2025-02-03T2300,15,31,0.6,30,34,50,86,31,
大同市,图书馆,113.1186,40.2556,2025-02-03T2300,30,34,1.6,13,10,44,80,43,
大同市,区一中,113.5931,40.0461,2025-02-03T2300,24,36,0.6,9,16,55,77,36,
大同市,魏都大道141号,113.2798,40.0997,2025-02-03T2300,6,24,0.5,11,12,66,79,24,
大兴安岭地区,科技局,124.1069,50.4097,2025-02-03T2300,15,,0.4,3,6,73,73,23,
大兴安岭地区,红旗社区,124.1164,50.4278,2025-02-03T2300,3,,0.5,2,4,72,72,23,
丹东市,江湾东路,124.3303,40.0625,2025-02-03T2300,13,30,0.6,12,8,62,74,30,
丹东市,临江后街,124.4256,40.1503,2025-02-03T2300,12,26,0.4,4,4,71,77,26,
丹东市,元宝山,124.3933,40.1461,2025-02-03T2300,14,23,0.5,9,8,68,78,23,
丹东市,民主桥,124.3633,40.1092,2025-02-03T2300,10,35,0.4,5,3,66,72,35,
儋州市,第一中学子站,109.5726,19.5167,2025-02-03T2300,19,37,1.0,6,6,39,54,37,
儋州市,东坡学校子站,109.5567,19.5187,2025-02-03T2300,17,38,0.9,8,9,35,58,38,
德宏傣族景颇族自治州,德宏州监测站,98.5842,24.428,2025-02-03T2300,76,104,0.9,18,8,76,105,102,细颗粒物(PM2.5)
德宏傣族景颇族自治州,芒市人民政府综合楼,98.5881,24.4368,2025-02-03T2300,50,81,0.7,12,4,61,94,69,细颗粒物(PM2.5)
德阳市,东山公园,104.4239,31.1208,2025-02-03T2300,37,55,0.4,14,3,61,78,53,"颗粒物(PM10),细颗粒物(PM2.5)"
德阳市,西小区,104.3826,31.1317,2025-02-03T2300,53,63,0.4,27,11,40,72,73,细颗粒物(PM2.5)
德阳市,耐火材料厂,104.3553,31.1091,2025-02-03T2300,46,66,0.6,25,6,34,74,64,细颗粒物(PM2.5)
德阳市,市教育局,104.4019,31.1244,2025-02-03T2300,49,61,0.5,45,4,28,76,68,细颗粒物(PM2.5)
德州市,儿童乐园,116.3032,37.4674,2025-02-03T2300,27,56,0.6,11,11,67,83,53,颗粒物(PM10)
德州市,监理站,116.2991,37.4451,2025-02-03T2300,29,51,0.7,16,16,65,84,51,颗粒物(PM10)
德州市,九衢泉纯净水厂,116.2721,37.4379,2025-02-03T2300,24,41,0.6,16,11,68,82,41,
德州市,开发区人民医院,116.3728,37.4403,2025-02-03T2300,29,53,0.6,21,16,62,90,52,颗粒物(PM10)
德州市,太阳城中学,116.3572,37.4094,2025-02-03T2300,27,46,0.5,18,14,68,86,46,
德州市,陵城艺术中心,116.5652,37.3319,2025-02-03T2300,51,85,0.9,20,30,48,80,70,细颗粒物(PM2.5)
迪庆藏族自治州,迪庆州站,99.7056,27.8317,2025-02-03T2300,29,44,0.6,10,10,73,87,44,
迪庆藏族自治州,质量技术监督局,99.7136,27.8094,2025-02-03T2300,24,25,0.4,7,7,74,81,35,
定西市,东关小学,104.6241,35.5734,2025-02-03T2300,41,99,1.1,20,22,47,95,75,颗粒物(PM10)
定西市,将台街,104.6092,35.5962,2025-02-03T2300,42,71,0.8,38,32,40,89,61,颗粒物(PM10)
东莞市,莞城梨川,113.7547,23.0494,2025-02-03T2300,3,9,0.6,8,5,56,59,18,
东莞市,东城石井,113.7944,23.0128,2025-02-03T2300,3,6,0.4,6,6,57,58,18,
东莞市,南城西平,113.7383,22.9658,2025-02-03T2300,3,6,0.7,7,12,60,60,19,
东莞市,万江金泰,113.7338,23.0381,2025-02-03T2300,3,8,0.7,4,3,57,61,18,
东莞市,南城元岭,113.7533,23.0202,2025-02-03T2300,3,6,0.6,3,7,56,58,18,
东莞市,东城主山,113.7875,23.0457,2025-02-03T2300,3,6,0.5,1,7,58,60,19,
东营市,市环保局,118.6614,37.4309,2025-02-03T2300,14,29,0.5,18,4,60,85,29,
东营市,开发区管委会,118.6904,37.4338,2025-02-03T2300,12,23,0.6,17,2,59,77,23,
东营市,垦利区民丰路,118.5719,37.565,2025-02-03T2300,19,39,1.3,22,2,51,81,39,
东营市,河口城区,118.5055,37.8612,2025-02-03T2300,12,22,0.4,18,7,62,86,22,
东营市,胜利站,118.4978,37.4623,2025-02-03T2300,36,44,0.7,33,11,38,76,52,细颗粒物(PM2.5)
东营市,理想之城,118.35,37.26,2025-02-03T2300,17,,0.4,21,6,45,84,,
鄂尔多斯市,综合楼,110.0023,39.8129,2025-02-03T2300,12,27,0.6,9,11,67,75,27,
鄂尔多斯市,巴音孟克林场办事处,109.9486,39.8261,2025-02-03T2300,29,44,0.2,10,14,61,73,44,
鄂尔多斯市,康泽苑,109.7736,39.5986,2025-02-03T2300,22,39,0.4,8,8,58,72,39,
鄂尔多斯市,华泰汽车城,109.8119,39.5989,2025-02-03T2300,24,41,0.4,18,4,42,68,41,
鄂尔多斯市,奥林花园,109.9734,39.7884,2025-02-03T2300,12,22,0.3,9,8,61,70,22,
鄂州市,市政府,114.8938,30.3994,2025-02-03T2300,83,84,0.9,19,4,53,56,110,细颗粒物(PM2.5)
鄂州市,赵家坝,114.8989,30.3714,2025-02-03T2300,76,91,0.6,5,3,62,73,102,细颗粒物(PM2.5)
鄂州市,精准医疗中心,114.8094,30.4089,2025-02-03T2300,69,78,0.7,8,13,70,82,93,细颗粒物(PM2.5)
恩施土家族苗族自治州,湖北民院,109.4978,30.2981,2025-02-03T2300,39,,0.8,17,8,19,54,55,细颗粒物(PM2.5)
恩施土家族苗族自治州,州电力总公司,109.4707,30.2798,2025-02-03T2300,28,31,0.9,17,8,25,54,40,
恩施土家族苗族自治州,龙凤新区,109.5061,30.3772,2025-02-03T2300,24,32,0.9,8,6,10,56,35,
防城港市,沙万,108.3411,21.6158,2025-02-03T2300,14,17,0.7,5,7,58,57,20,
防城港市,防城档案局,108.3514,21.7731,2025-02-03T2300,11,27,0.8,8,6,47,46,27,
防城港市,大海花园,108.3506,21.6414,2025-02-03T2300,16,23,1.0,5,4,40,40,23,
佛山市,湾梁,113.1294,23.0067,2025-02-03T2300,3,9,0.6,14,6,32,34,10,
佛山市,华材职中,113.1083,23.0478,2025-02-03T2300,11,12,0.7,13,7,34,38,16,
佛山市,南海气象局,113.144,23.0453,2025-02-03T2300,3,14,0.7,12,8,33,35,14,
佛山市,顺德苏岗,113.2881,22.8094,2025-02-03T2300,3,17,0.6,8,8,42,38,17,
佛山市,高明孔堂,112.8383,22.8678,2025-02-03T2300,3,12,0.9,9,4,30,33,12,
佛山市,三水监测站,112.8836,23.1588,2025-02-03T2300,7,7,0.9,18,3,25,26,10,
佛山市,三水云东海,112.867,23.185,2025-02-03T2300,6,7,0.9,14,3,25,26,9,
佛山市,容桂街道办,113.2544,22.7642,2025-02-03T2300,7,9,0.6,13,6,45,40,15,
福州市,鼓山,119.3903,26.0543,2025-02-03T2300,,,,,,,67,,
福州市,师大,119.2681,26.0504,2025-02-03T2300,28,34,0.5,6,3,68,72,40,
福州市,五四北路,119.2984,26.1028,2025-02-03T2300,29,34,0.5,7,1,66,70,42,
福州市,杨桥西路,119.2648,26.0768,2025-02-03T2300,25,29,0.4,7,4,67,71,36,
福州市,紫阳,119.317,26.0746,2025-02-03T2300,40,,0.5,7,9,66,69,57,细颗粒物(PM2.5)
福州市,九龙,119.5799,26.0936,2025-02-03T2300,19,26,0.5,5,1,51,75,28,
福州市,吴航,119.5189,25.9664,2025-02-03T2300,32,39,0.6,7,4,64,82,46,
抚顺市,望花区,123.7977,41.8491,2025-02-03T2300,82,113,1.4,37,1,26,73,109,细颗粒物(PM2.5)
抚顺市,顺城区,123.9161,41.8822,2025-02-03T2300,71,102,1.2,39,8,34,74,95,细颗粒物(PM2.5)
抚顺市,东洲区,124.0436,41.8611,2025-02-03T2300,49,60,0.9,15,5,41,67,68,细颗粒物(PM2.5)
抚顺市,新抚区,123.9247,41.8642,2025-02-03T2300,80,99,1.1,56,2,16,72,107,细颗粒物(PM2.5)
抚顺市,大伙房水库,124.0972,41.8961,2025-02-03T2300,33,46,0.8,9,5,60,72,48,
抚顺市,沈抚新城,123.7086,41.8391,2025-02-03T2300,105,,1.4,45,4,22,74,138,细颗粒物(PM2.5)
抚州市,桐源党溪,116.2127,28.0814,2025-02-03T2300,74,98,0.9,3,3,24,60,99,细颗粒物(PM2.5)
抚州市,市站,116.3544,27.9831,2025-02-03T2300,76,96,2.0,11,1,52,72,102,细颗粒物(PM2.5)
抚州市,血防站,116.3565,27.963,2025-02-03T2300,74,104,0.3,10,3,49,68,99,细颗粒物(PM2.5)
抚州市,采茶剧团,116.3564,28.0007,2025-02-03T2300,70,90,1.3,6,8,40,57,94,细颗粒物(PM2.5)
抚州市,医学分院,116.385,27.9647,2025-02-03T2300,60,93,0.8,6,4,40,54,82,细颗粒物(PM2.5)
阜新市,工业园区,121.6094,41.998,2025-02-03T2300,15,41,0.3,9,7,66,81,41,
阜新市,长青街,121.6697,42.0279,2025-02-03T2300,15,22,0.3,5,6,64,74,22,
阜新市,农业园区,121.6673,42.0705,2025-02-03T2300,7,24,0.3,5,8,63,71,24,
阜新市,东苑,121.6717,42.0224,2025-02-03T2300,8,29,0.4,6,5,61,68,29,
阜新市,玉龙新城,121.6506,42.0498,2025-02-03T2300,15,65,0.4,15,5,53,76,58,颗粒物(PM10)
阜阳市,市监测站,115.8277,32.8929,2025-02-03T2300,145,164,1.3,46,6,28,69,193,细颗粒物(PM2.5)
阜阳市,开发区,115.8554,32.8605,2025-02-03T2300,141,212,0.9,35,7,32,74,188,细颗粒物(PM2.5)
阜阳市,阜阳职业技术学院,115.784,32.8892,2025-02-03T2300,123,159,1.0,20,8,57,74,162,细颗粒物(PM2.5)
阜阳市,市规划展馆,115.7901,32.8613,2025-02-03T2300,132,172,1.1,15,8,72,78,175,细颗粒物(PM2.5)
阜阳市,枣园社区,115.836,32.9183,2025-02-03T2300,142,191,0.9,66,7,13,81,189,细颗粒物(PM2.5)
甘南藏族自治州,州政府,102.9099,34.9841,2025-02-03T2300,,,0.6,22,14,,77,,
甘南藏族自治州,甘肃民族师范学院,102.8914,34.9617,2025-02-03T2300,6,18,0.4,21,4,43,81,18,
甘孜藏族自治州,水桥子,101.9603,30.0475,2025-02-03T2300,12,13,0.5,13,2,50,69,18,
甘孜藏族自治州,州环保局,101.9533,29.9972,2025-02-03T2300,3,6,0.4,3,4,64,72,20,
赣江新区,桑海产业园,115.8347,28.932,2025-02-03T2300,34,41,0.8,34,9,8,51,49,
赣州市,通天岩,114.9017,25.9149,2025-02-03T2300,15,38,0.4,4,6,36,56,38,
赣州市,地委,114.9367,25.8664,2025-02-03T2300,33,52,0.6,7,2,42,52,51,颗粒物(PM10)
赣州市,气象台,114.9461,25.8481,2025-02-03T2300,27,62,0.5,13,5,48,60,56,颗粒物(PM10)
赣州市,市图书馆,114.9322,25.8333,2025-02-03T2300,37,45,0.7,11,4,52,58,53,细颗粒物(PM2.5)
赣州市,华坚鞋城,114.8905,25.8471,2025-02-03T2300,32,56,0.3,9,4,49,57,53,颗粒物(PM10)
赣州市,赣县区卫计委,115.0093,25.8613,2025-02-03T2300,35,41,0.6,12,3,36,53,50,
固原市,马园,106.2319,36.1417,2025-02-03T2300,38,53,0.7,47,7,22,80,54,细颗粒物(PM2.5)
固原市,监测站,106.2792,36.0022,2025-02-03T2300,53,77,1.3,31,12,47,85,73,细颗粒物(PM2.5)
固原市,新区,106.2375,36.0211,2025-02-03T2300,22,48,0.5,32,6,53,82,48,
固原市,原州区十五小,106.2177,35.9959,2025-02-03T2300,20,38,0.5,14,10,72,88,38,
广安市,小平旧居,106.6308,30.5278,2025-02-03T2300,,,,,,,,,
广安市,市委,106.6303,30.4576,2025-02-03T2300,34,45,0.9,27,3,21,54,49,
广安市,友谊中学,106.6271,30.4663,2025-02-03T2300,40,50,1.0,30,14,14,54,57,细颗粒物(PM2.5)
广安市,广电花园,106.6388,30.4551,2025-02-03T2300,39,44,0.7,28,2,17,51,55,细颗粒物(PM2.5)
广安市,北辰小学,106.6351,30.4865,2025-02-03T2300,34,38,0.9,20,9,26,54,49,
广元市,黑石坡,105.8945,32.4535,2025-02-03T2300,28,56,0.4,3,4,62,73,53,颗粒物(PM10)
广元市,老城,105.821,32.4444,2025-02-03T2300,22,48,0.3,17,1,38,78,48,
广元市,监测站,105.8628,32.4287,2025-02-03T2300,27,39,0.3,16,3,47,81,39,
广元市,经开区,105.8047,32.4166,2025-02-03T2300,34,49,0.7,30,4,22,69,49,
广州市,广雅中学,113.2347,23.1423,2025-02-03T2300,15,18,0.9,12,4,36,34,22,
广州市,市五中,113.2612,23.105,2025-02-03T2300,10,11,0.6,10,3,42,39,15,
广州市,广东商学院,113.3478,23.0916,2025-02-03T2300,3,10,0.7,6,4,49,50,16,
广州市,市八十六中,113.4332,23.1047,2025-02-03T2300,9,12,0.9,6,2,52,57,17,
广州市,番禺中学,113.3505,22.9483,2025-02-03T2300,3,13,0.8,10,3,53,54,17,
广州市,花都师范,113.2146,23.3916,2025-02-03T2300,6,10,0.9,12,5,30,34,10,
广州市,市监测站,113.2597,23.1331,2025-02-03T2300,8,16,0.6,10,5,43,40,16,
广州市,九龙镇镇龙,113.5618,23.312,2025-02-03T2300,3,6,0.6,7,4,52,55,17,
广州市,麓湖,113.2765,23.1544,2025-02-03T2300,9,13,0.8,6,2,45,42,15,
广州市,帽峰山森林公园,113.443,23.3035,2025-02-03T2300,3,6,0.8,4,5,49,56,16,
广州市,体育西,113.3221,23.1322,2025-02-03T2300,6,11,0.5,5,4,41,40,13,
广州市,从化街口,113.5717,23.5491,2025-02-03T2300,3,8,0.5,5,6,55,58,18,
广州市,白云竹料,113.3472,23.3692,2025-02-03T2300,7,7,0.6,5,6,50,49,16,
广州市,白云嘉禾,113.2981,23.237,2025-02-03T2300,8,10,0.9,9,8,45,42,15,
广州市,黄埔科学城,113.4256,23.1716,2025-02-03T2300,8,9,0.6,4,6,50,54,16,
广州市,番禺大学城,113.3942,23.0483,2025-02-03T2300,3,9,1.0,10,6,56,59,18,
广州市,南沙黄阁,113.4922,22.8168,2025-02-03T2300,6,12,0.5,14,4,54,56,17,
广州市,南沙街,113.5342,22.7896,2025-02-03T2300,6,12,0.6,14,5,52,53,17,
广州市,花都梯面,113.2902,23.5544,2025-02-03T2300,7,9,0.6,6,3,31,36,10,
广州市,从化良口,113.7858,23.7478,2025-02-03T2300,6,8,0.4,3,4,68,66,22,
广州市,增城荔城,113.8051,23.2614,2025-02-03T2300,3,7,0.4,6,4,54,59,17,
贵港市,德智高中,109.568,23.1478,2025-02-03T2300,,,,,,,,,
贵港市,江南子站,109.6047,23.0666,2025-02-03T2300,20,22,0.6,4,2,68,64,29,
贵港市,贵城子站,109.6014,23.0948,2025-02-03T2300,28,,0.7,7,6,66,62,40,
贵港市,荷城子站,109.5669,23.1065,2025-02-03T2300,24,24,0.6,,8,66,62,,
贵港市,新世纪学校,109.5886,23.1172,2025-02-03T2300,18,27,0.5,7,4,69,64,27,
贵阳市,马鞍山,106.6899,26.5998,2025-02-03T2300,24,39,0.8,10,3,62,80,39,
贵阳市,鉴湖路,106.6243,26.6266,2025-02-03T2300,29,46,0.5,9,11,58,77,46,
贵阳市,燕子冲,106.7487,26.6343,2025-02-03T2300,27,36,0.3,6,9,68,77,39,
贵阳市,碧云窝,106.6555,26.4365,2025-02-03T2300,31,44,0.5,10,24,67,83,45,
贵阳市,红边门,106.7109,26.6027,2025-02-03T2300,31,44,0.7,11,14,69,82,45,
贵阳市,新华路,106.7164,26.5699,2025-02-03T2300,36,51,0.4,5,16,67,82,52,细颗粒物(PM2.5)
贵阳市,太慈桥,106.674,26.5424,2025-02-03T2300,29,41,0.5,9,8,73,83,42,
贵阳市,桐木岭,106.805,26.3003,2025-02-03T2300,44,60,0.9,8,17,61,73,62,细颗粒物(PM2.5)
贵阳市,花果园大街66号,106.6882,26.5695,2025-02-03T2300,40,46,0.7,10,7,61,72,57,细颗粒物(PM2.5)
贵阳市,漓江路57号,106.6873,26.5169,2025-02-03T2300,31,48,0.5,15,13,58,79,48,
桂林市,电子科大尧山校区,110.4144,25.3167,2025-02-03T2300,48,52,0.9,7,4,61,76,67,细颗粒物(PM2.5)
桂林市,监测站,110.2819,25.2697,2025-02-03T2300,70,,0.8,15,8,55,68,94,细颗粒物(PM2.5)
桂林市,龙隐路小学,110.3089,25.2708,2025-02-03T2300,59,,0.7,9,7,61,75,80,细颗粒物(PM2.5)
桂林市,八中,110.2869,25.2178,2025-02-03T2300,51,60,0.8,11,6,58,70,70,细颗粒物(PM2.5)
桂林市,创业大厦,110.1764,25.2381,2025-02-03T2300,53,61,1.1,8,6,66,74,73,细颗粒物(PM2.5)
桂林市,旅游学院,110.296,25.1253,2025-02-03T2300,51,51,1.2,16,5,55,67,70,细颗粒物(PM2.5)
果洛藏族自治州,玛沁县大武镇,100.2561,34.4714,2025-02-03T2300,22,40,0.4,1,5,90,100,40,
哈尔滨市,岭北,126.5422,45.755,2025-02-03T2300,66,69,0.3,21,10,68,79,89,细颗粒物(PM2.5)
哈尔滨市,松北商大,126.561,45.8167,2025-02-03T2300,58,63,0.7,14,3,72,76,79,细颗粒物(PM2.5)
哈尔滨市,阿城会宁,126.979,45.5419,2025-02-03T2300,96,112,1.2,23,16,60,78,127,细颗粒物(PM2.5)
哈尔滨市,南岗学府路,126.599,45.7222,2025-02-03T2300,48,68,0.7,20,22,69,72,67,细颗粒物(PM2.5)
哈尔滨市,太平宏伟公园,126.689,45.7733,2025-02-03T2300,48,61,0.4,18,10,68,74,67,细颗粒物(PM2.5)
哈尔滨市,道外承德广场,126.635,45.7667,2025-02-03T2300,56,82,1.1,27,12,66,71,77,细颗粒物(PM2.5)
哈尔滨市,香坊红旗大街,126.685,45.7319,2025-02-03T2300,57,,0.6,12,5,70,76,78,细颗粒物(PM2.5)
哈尔滨市,动力和平路,126.6411,45.7258,2025-02-03T2300,50,60,0.8,18,22,63,73,69,细颗粒物(PM2.5)
哈尔滨市,道里建国路,126.593,45.7478,2025-02-03T2300,58,63,0.7,15,5,70,74,79,细颗粒物(PM2.5)
哈尔滨市,平房东轻厂,126.615,45.61,2025-02-03T2300,65,74,0.5,20,6,59,74,88,细颗粒物(PM2.5)
哈尔滨市,呼兰师专,126.595,45.9855,2025-02-03T2300,65,86,0.8,20,6,63,69,88,细颗粒物(PM2.5)
哈尔滨市,省农科院,126.6206,45.6842,2025-02-03T2300,54,63,0.8,23,17,58,72,74,细颗粒物(PM2.5)
哈密市,地区监测站,93.5128,42.8172,2025-02-03T2300,20,47,0.1,12,3,71,77,47,
哈密市,哈密师范学校,93.4961,42.8328,2025-02-03T2300,25,69,0.5,33,5,42,74,60,颗粒物(PM10)
海北藏族自治州,海晏县西海镇,100.9048,36.9639,2025-02-03T2300,17,27,0.2,1,8,91,96,29,
海东市,平安区公安北苑,102.0738,36.5056,2025-02-03T2300,20,49,0.6,6,19,83,84,49,
海口市,东寨港,110.576,19.9507,2025-02-03T2300,6,16,0.8,5,17,32,49,16,
海口市,海南大学,110.3232,20.0574,2025-02-03T2300,15,25,0.8,11,6,32,64,25,
海口市,秀英海南医院,110.283,20.0053,2025-02-03T2300,15,36,0.8,11,4,35,67,36,
海口市,海南师范大学,110.338,19.9969,2025-02-03T2300,16,36,0.8,10,7,36,71,36,
海口市,龙华路环保局宿舍,110.33,20.0356,2025-02-03T2300,16,36,0.9,10,6,33,66,36,
海口市,桂林洋子站,110.5111,19.9736,2025-02-03T2300,10,17,0.6,5,5,39,71,17,
海南藏族自治州,共和县恰卜恰镇,100.6188,36.2866,2025-02-03T2300,3,20,0.3,1,8,103,104,33,
海西蒙古族藏族自治州,德令哈市,97.3731,37.3753,2025-02-03T2300,37,,0.6,14,11,64,96,53,细颗粒物(PM2.5)
邯郸市,东污水处理厂,114.5302,36.6116,2025-02-03T2300,34,59,0.3,26,4,46,72,55,颗粒物(PM10)
邯郸市,矿院,114.4918,36.5713,2025-02-03T2300,41,73,0.6,30,4,46,75,62,颗粒物(PM10)
邯郸市,丛台公园,114.484,36.6133,2025-02-03T2300,66,96,0.9,58,4,9,77,89,细颗粒物(PM2.5)
邯郸市,香泉濮院小区,114.7895,36.5593,2025-02-03T2300,36,46,0.4,20,8,64,89,52,细颗粒物(PM2.5)
邯郸市,永年区实验高中,114.50634,36.77178,2025-02-03T2300,69,125,1.0,77,7,4,70,93,细颗粒物(PM2.5)
邯郸市,峰峰矿区临水派出所,114.20016,36.44293,2025-02-03T2300,43,64,0.8,10,6,75,88,60,细颗粒物(PM2.5)
汉中市,汉川机床厂子校,106.9893,33.1842,2025-02-03T2300,23,34,0.6,4,6,52,90,34,
汉中市,市监测站,107.0154,33.0706,2025-02-03T2300,45,69,1.0,23,6,44,87,63,细颗粒物(PM2.5)
汉中市,鑫源开发区,107.0089,33.1138,2025-02-03T2300,71,80,0.8,26,7,36,89,95,细颗粒物(PM2.5)
汉中市,南郑大河坎水厂,107.007,33.0323,2025-02-03T2300,31,55,0.7,13,6,50,90,53,颗粒物(PM10)
杭州市,滨江,120.2072,30.2111,2025-02-03T2300,50,63,0.7,30,6,51,84,69,细颗粒物(PM2.5)
杭州市,西溪,120.0633,30.2747,2025-02-03T2300,40,54,0.7,20,6,32,78,57,细颗粒物(PM2.5)
杭州市,下沙,120.3461,30.3153,2025-02-03T2300,41,62,0.7,19,7,60,80,58,细颗粒物(PM2.5)
杭州市,卧龙桥,120.1269,30.2456,2025-02-03T2300,42,47,0.8,16,5,34,78,59,细颗粒物(PM2.5)
杭州市,浙江农大,120.1903,30.2692,2025-02-03T2300,45,61,0.9,39,6,31,77,63,细颗粒物(PM2.5)
杭州市,和睦小学,120.1197,30.3119,2025-02-03T2300,48,56,1.0,37,6,32,84,67,细颗粒物(PM2.5)
杭州市,临平镇,120.3019,30.4183,2025-02-03T2300,40,57,0.8,22,5,67,91,57,细颗粒物(PM2.5)
杭州市,城厢镇,120.2697,30.1819,2025-02-03T2300,44,58,0.7,18,6,55,81,62,细颗粒物(PM2.5)
杭州市,云栖,120.0883,30.1808,2025-02-03T2300,34,50,0.6,20,6,41,77,50,
杭州市,镇二中,119.9464,30.0494,2025-02-03T2300,53,55,0.9,17,5,45,70,73,细颗粒物(PM2.5)
杭州市,市府大楼,119.7183,30.2367,2025-02-03T2300,66,71,1.0,18,6,37,78,89,细颗粒物(PM2.5)
杭州市,消防大队,120.1556,30.2864,2025-02-03T2300,47,64,0.9,28,6,49,85,65,细颗粒物(PM2.5)
合肥市,明珠广场,117.1959,31.7848,2025-02-03T2300,97,117,1.0,19,7,48,75,128,细颗粒物(PM2.5)
合肥市,三里街,117.3072,31.8764,2025-02-03T2300,100,124,0.6,17,4,59,71,132,细颗粒物(PM2.5)
合肥市,琥珀山庄,117.2588,31.8707,2025-02-03T2300,95,117,1.0,25,5,44,67,125,细颗粒物(PM2.5)
合肥市,董铺水库,117.1604,31.9052,2025-02-03T2300,90,124,0.8,20,2,42,78,119,细颗粒物(PM2.5)
合肥市,长江中路,117.25,31.8571,2025-02-03T2300,109,119,1.0,21,6,56,75,143,细颗粒物(PM2.5)
合肥市,庐阳区,117.266,31.9436,2025-02-03T2300,97,127,1.0,13,2,64,81,128,细颗粒物(PM2.5)
合肥市,瑶海区,117.336,31.8586,2025-02-03T2300,99,114,1.0,16,6,61,71,130,细颗粒物(PM2.5)
合肥市,包河区,117.3027,31.7964,2025-02-03T2300,107,122,0.8,16,3,61,72,140,细颗粒物(PM2.5)
合肥市,滨湖新区,117.2776,31.7385,2025-02-03T2300,85,134,0.9,30,3,39,69,113,细颗粒物(PM2.5)
合肥市,高新区,117.1318,31.8403,2025-02-03T2300,104,127,0.9,17,4,56,77,137,细颗粒物(PM2.5)
合肥市,高教基地,117.3803,31.9147,2025-02-03T2300,93,117,0.8,13,5,56,76,123,细颗粒物(PM2.5)
和田地区,地区环保局,79.924,37.0877,2025-02-03T2300,147,344,,46,35,35,86,197,颗粒物(PM10)
和田地区,市环保局,79.9131,37.113,2025-02-03T2300,70,257,3.6,82,8,21,90,154,颗粒物(PM10)
河池市,东仁乐园,108.2011,24.715,2025-02-03T2300,26,30,0.6,7,5,75,76,38,
河池市,市环保站,108.0497,24.6947,2025-02-03T2300,29,,0.6,4,7,73,76,42,
河池市,市疾控中心,108.0983,24.6989,2025-02-03T2300,28,,0.5,1,6,78,78,40,
河源市,源西,114.6778,23.7569,2025-02-03T2300,7,9,0.4,5,5,52,58,17,
河源市,东埔,114.6944,23.7586,2025-02-03T2300,10,15,0.7,8,3,49,53,16,
河源市,老城,114.6892,23.7233,2025-02-03T2300,35,,0.6,4,3,46,52,50,
菏泽市,气象局,115.4208,35.2464,2025-02-03T2300,73,105,0.8,31,9,64,96,98,细颗粒物(PM2.5)
菏泽市,定陶老年大学,115.5564,35.0891,2025-02-03T2300,88,119,1.0,31,14,60,95,117,细颗粒物(PM2.5)
菏泽市,永昌路1号,115.4797,35.24401,2025-02-03T2300,79,110,0.9,31,14,61,94,105,细颗粒物(PM2.5)
菏泽市,长城路999号,115.4715,35.2800,2025-02-03T2300,61,97,0.9,33,14,52,84,83,细颗粒物(PM2.5)
贺州市,环保小区,111.5264,24.4172,2025-02-03T2300,18,,0.8,9,5,46,50,26,
贺州市,政协大楼,111.5608,24.4078,2025-02-03T2300,22,33,0.8,8,5,41,46,33,
贺州市,西湾,111.4744,24.4553,2025-02-03T2300,15,19,0.7,6,3,50,51,22,
鹤壁市,市监测站,114.17,35.9019,2025-02-03T2300,60,102,0.6,18,3,41,86,82,细颗粒物(PM2.5)
鹤壁市,市交警支队,114.2956,35.7511,2025-02-03T2300,64,107,0.5,31,4,40,87,87,细颗粒物(PM2.5)
鹤壁市,迎宾馆,114.2878,35.7306,2025-02-03T2300,58,88,0.9,29,7,44,88,79,细颗粒物(PM2.5)
鹤壁市,大新区,114.2617,35.6822,2025-02-03T2300,56,76,0.7,21,3,53,87,77,细颗粒物(PM2.5)
鹤壁市,南山宾馆,114.1572,35.9603,2025-02-03T2300,72,76,0.1,15,5,73,90,97,细颗粒物(PM2.5)
鹤岗市,哈啤分公司,130.2537,47.3416,2025-02-03T2300,23,31,0.6,3,15,66,61,33,
鹤岗市,斯达机电,130.2684,47.3086,2025-02-03T2300,31,43,0.3,4,13,71,67,45,
鹤岗市,东山纸板厂,130.3114,47.3388,2025-02-03T2300,36,,0.5,7,12,72,68,52,细颗粒物(PM2.5)
鹤岗市,五号水库,130.1097,47.3382,2025-02-03T2300,26,39,0.2,7,7,79,96,39,
黑河市,交通局,127.4833,50.2524,2025-02-03T2300,12,15,0.4,6,6,66,65,21,
黑河市,环保局,127.5144,50.2341,2025-02-03T2300,12,,0.6,5,4,64,62,20,
黑河市,大黑河岛,127.5291,50.2472,2025-02-03T2300,17,,,10,1,5,6,,
衡水市,电机北厂,115.6838,37.7541,2025-02-03T2300,40,73,0.5,26,9,42,83,62,颗粒物(PM10)
衡水市,市监测站,115.6303,37.7316,2025-02-03T2300,36,48,0.4,22,8,54,82,52,细颗粒物(PM2.5)
衡水市,市城管局,115.6683,37.7217,2025-02-03T2300,42,56,0.5,24,9,50,77,59,细颗粒物(PM2.5)
衡水市,地表水厂,115.5989,37.5491,2025-02-03T2300,58,78,0.5,17,12,61,85,79,细颗粒物(PM2.5)
衡阳市,原169医院,112.5003,26.9167,2025-02-03T2300,49,81,0.9,13,11,25,41,68,细颗粒物(PM2.5)
衡阳市,衡阳化工总厂,112.6194,26.9258,2025-02-03T2300,79,97,1.4,32,8,11,44,105,细颗粒物(PM2.5)
衡阳市,珠晖区环保局,112.6211,26.8956,2025-02-03T2300,77,85,1.8,48,17,9,40,103,细颗粒物(PM2.5)
衡阳市,市委党校,112.6197,26.8733,2025-02-03T2300,85,100,1.1,26,16,19,48,113,细颗粒物(PM2.5)
衡阳市,市监测站,112.6006,26.8919,2025-02-03T2300,110,120,1.5,46,9,2,45,144,细颗粒物(PM2.5)
衡阳市,真空机电公司,112.5664,26.9056,2025-02-03T2300,71,116,1.3,33,4,9,46,95,细颗粒物(PM2.5)
衡阳市,师范学院,112.6703,26.882,2025-02-03T2300,69,80,1.0,17,10,30,48,93,细颗粒物(PM2.5)
红河哈尼族彝族自治州,污水处理厂,103.3772,23.3993,2025-02-03T2300,32,,0.7,7,6,37,50,46,
红河哈尼族彝族自治州,监测站,103.3861,23.35,2025-02-03T2300,26,27,0.8,7,9,42,57,38,
红河哈尼族彝族自治州,州图书馆,103.3758,23.368,2025-02-03T2300,25,,0.6,6,6,37,49,36,
呼和浩特市,呼市一监,111.6507,40.7517,2025-02-03T2300,6,9,0.3,6,6,84,89,27,
呼和浩特市,小召,111.6572,40.8033,2025-02-03T2300,6,12,0.3,6,7,82,88,26,
呼和浩特市,如意水处理厂,111.7516,40.8369,2025-02-03T2300,3,8,0.3,5,6,73,79,23,
呼和浩特市,二十九中,111.7276,40.8062,2025-02-03T2300,3,16,0.3,8,2,70,83,22,
呼和浩特市,工大金川校区,111.5512,40.7866,2025-02-03T2300,3,12,0.4,12,5,67,81,21,
呼和浩特市,化肥厂生活区,111.717,40.7612,2025-02-03T2300,3,8,0.3,6,4,82,81,26,
呼和浩特市,红旗小学,111.5968,40.8178,2025-02-03T2300,3,9,0.5,8,4,79,92,25,
呼和浩特市,海东办,111.6518,40.8389,2025-02-03T2300,3,6,0.4,5,3,80,84,25,
呼伦贝尔市,区环保局,119.7594,49.2261,2025-02-03T2300,24,,0.4,14,6,63,69,35,
呼伦贝尔市,国华电力东,119.7512,49.1577,2025-02-03T2300,24,36,0.3,7,4,65,73,36,
湖州市,城西水厂,120.0751,30.8669,2025-02-03T2300,46,63,0.5,29,6,45,93,64,细颗粒物(PM2.5)
湖州市,仁皇山新区,120.0875,30.8955,2025-02-03T2300,42,51,0.6,32,6,50,90,59,细颗粒物(PM2.5)
湖州市,吴兴区站,120.1844,30.8596,2025-02-03T2300,44,51,0.6,22,4,54,93,62,细颗粒物(PM2.5)
湖州市,南浔区站,120.4148,30.8538,2025-02-03T2300,44,54,0.5,12,7,80,96,62,细颗粒物(PM2.5)
葫芦岛市,龙港区,120.9092,40.7136,2025-02-03T2300,11,40,0.7,14,8,56,74,40,
葫芦岛市,化工街,120.8392,40.7514,2025-02-03T2300,9,58,0.3,18,6,57,75,54,颗粒物(PM10)
葫芦岛市,新区,120.8341,40.7073,2025-02-03T2300,10,47,0.8,10,7,69,80,47,
葫芦岛市,东城区,120.8695,40.7677,2025-02-03T2300,19,36,0.5,10,5,59,72,36,
怀化市,林科所,109.5981,27.5721,2025-02-03T2300,26,38,1.6,27,5,18,56,38,
怀化市,河西地税局,109.9453,27.5444,2025-02-03T2300,48,64,0.9,22,4,6,57,67,细颗粒物(PM2.5)
怀化市,市四医院,109.9781,27.5342,2025-02-03T2300,72,90,1.3,31,2,7,57,97,细颗粒物(PM2.5)
怀化市,监测楼,109.9972,27.5578,2025-02-03T2300,87,113,1.1,30,7,5,52,115,细颗粒物(PM2.5)
怀化市,市委党校,110.0394,27.583,2025-02-03T2300,73,81,1.0,25,6,10,59,98,细颗粒物(PM2.5)
淮安市,钵池山,119.036,33.5981,2025-02-03T2300,55,63,0.6,14,8,70,91,75,细颗粒物(PM2.5)
淮安市,北京南路,119.007,33.575,2025-02-03T2300,51,66,0.9,14,9,68,87,70,细颗粒物(PM2.5)
淮安市,市监测站,118.989,33.6067,2025-02-03T2300,58,66,0.9,12,8,74,93,79,细颗粒物(PM2.5)
淮安市,楚州区监测站,119.135,33.5039,2025-02-03T2300,43,61,0.7,18,8,70,89,60,细颗粒物(PM2.5)
淮安市,淮阴区监测站,119.0186,33.6297,2025-02-03T2300,58,83,0.8,21,7,64,90,79,细颗粒物(PM2.5)
淮安市,新华书店,118.8755,33.2894,2025-02-03T2300,60,106,0.8,17,8,73,87,82,细颗粒物(PM2.5)
淮北市,监测站,116.8004,33.975,2025-02-03T2300,70,94,0.8,31,5,46,81,94,细颗粒物(PM2.5)
淮北市,烈山区政府,116.8091,33.9007,2025-02-03T2300,106,138,1.0,43,,44,89,139,细颗粒物(PM2.5)
淮北市,杜集区检察院,116.8873,33.9836,2025-02-03T2300,83,100,0.7,17,4,61,84,110,细颗粒物(PM2.5)
淮北市,市博物馆,116.7923,33.9535,2025-02-03T2300,84,120,1.0,53,8,33,85,112,细颗粒物(PM2.5)
淮南市,潘集区政府,116.8305,32.7727,2025-02-03T2300,135,156,0.8,27,4,54,78,179,细颗粒物(PM2.5)
淮南市,谢家集区政府,116.8569,32.5951,2025-02-03T2300,130,148,0.9,19,5,55,75,172,细颗粒物(PM2.5)
淮南市,八公山区政府,116.8281,32.633,2025-02-03T2300,113,140,0.9,13,1,70,80,148,细颗粒物(PM2.5)
淮南市,焦岗湖风景区管理处,116.6325,32.6201,2025-02-03T2300,108,143,0.7,8,10,30,52,142,细颗粒物(PM2.5)
淮南市,经济技术开发区消防队,117.0566,32.6531,2025-02-03T2300,120,155,0.9,28,5,42,82,158,细颗粒物(PM2.5)
淮南市,山南新区,117.0108,32.5893,2025-02-03T2300,164,174,1.1,13,5,53,85,214,细颗粒物(PM2.5)
淮南市,国庆中路369号,117.0031,32.6445,2025-02-03T2300,118,152,0.9,45,9,28,83,155,细颗粒物(PM2.5)
黄冈市,职工中心,114.9028,30.4742,2025-02-03T2300,71,81,1.0,10,8,66,72,95,细颗粒物(PM2.5)
黄冈市,红卫路,114.8858,30.4519,2025-02-03T2300,60,80,1.0,14,6,74,76,82,细颗粒物(PM2.5)
黄冈市,市林业局,114.9136,30.4445,2025-02-03T2300,61,77,0.8,7,9,65,75,83,细颗粒物(PM2.5)
黄南藏族自治州,同仁县隆务镇,102.0199,35.5102,2025-02-03T2300,20,45,0.2,1,14,72,86,45,
黄山市,延安路89号,118.2903,29.6963,2025-02-03T2300,68,82,0.7,4,6,24,76,92,细颗粒物(PM2.5)
黄山市,黄山区政府5号楼,118.1371,30.2756,2025-02-03T2300,48,74,0.9,5,7,15,66,67,细颗粒物(PM2.5)
黄山市,滨江东路7-2号,118.3354,29.7203,2025-02-03T2300,70,94,0.6,11,5,18,72,94,细颗粒物(PM2.5)
黄石市,沈家营,115.0601,30.2313,2025-02-03T2300,97,117,0.9,16,6,59,79,128,细颗粒物(PM2.5)
黄石市,铁山,114.8988,30.2019,2025-02-03T2300,87,92,1.2,17,5,53,65,115,细颗粒物(PM2.5)
黄石市,团城山,115.0307,30.2092,2025-02-03T2300,95,115,1.0,16,6,62,73,125,细颗粒物(PM2.5)
黄石市,笔架山北路,115.0235,30.1578,2025-02-03T2300,86,88,0.8,8,8,65,71,114,细颗粒物(PM2.5)
黄石市,磁湖东路29号,115.0780,30.21118,2025-02-03T2300,111,136,1.4,24,7,43,73,145,细颗粒物(PM2.5)
惠州市,河南岸金山湖子站,114.4183,23.0528,2025-02-03T2300,3,11,0.6,3,6,49,55,16,
惠州市,下埔横江三路子站,114.4053,23.0822,2025-02-03T2300,9,13,0.6,6,8,49,53,16,
惠州市,江北云山西路子站,114.4103,23.1142,2025-02-03T2300,7,13,0.5,6,6,50,56,16,
惠州市,惠阳区承修路船湖子站,114.4645,22.7833,2025-02-03T2300,7,12,0.7,6,8,45,53,15,
惠州市,大亚湾管委会子站,114.5317,22.7422,2025-02-03T2300,3,9,0.6,5,6,45,52,15,
惠州市,惠阳秋长,114.4338,22.8134,2025-02-03T2300,6,7,0.7,5,9,53,63,17,
惠州市,大亚湾霞涌,114.6517,22.775,2025-02-03T2300,8,,0.9,4,6,43,46,14,
鸡西市,环保局,130.9762,45.3001,2025-02-03T2300,58,71,0.6,10,6,74,80,79,细颗粒物(PM2.5)
鸡西市,第一中学,130.9429,45.3039,2025-02-03T2300,49,64,0.5,7,5,82,87,68,细颗粒物(PM2.5)
鸡西市,欧美日汽修厂,131.0207,45.3073,2025-02-03T2300,83,94,0.6,50,12,46,94,110,细颗粒物(PM2.5)
鸡西市,市政设施管理处,130.9967,45.3106,2025-02-03T2300,72,95,0.7,47,8,45,85,97,细颗粒物(PM2.5)
吉安市,红声器材厂,114.9754,27.0803,2025-02-03T2300,44,69,0.8,14,12,48,61,62,细颗粒物(PM2.5)
吉安市,市森林工业局,114.9658,27.0999,2025-02-03T2300,52,72,0.4,17,20,50,62,72,细颗粒物(PM2.5)
吉安市,市环境监测站,114.99,27.1312,2025-02-03T2300,54,73,0.7,12,17,46,60,74,细颗粒物(PM2.5)
吉安市,青原区法院,115.0093,27.0968,2025-02-03T2300,66,94,0.7,28,44,38,62,89,细颗粒物(PM2.5)
吉林市,哈达湾,126.54,43.8622,2025-02-03T2300,28,44,0.5,10,7,67,77,44,
吉林市,东局子,126.5844,43.8358,2025-02-03T2300,33,44,0.5,12,7,63,77,48,
吉林市,电力学院,126.5052,43.8245,2025-02-03T2300,38,,0.7,11,3,64,78,54,细颗粒物(PM2.5)
吉林市,江北,126.6133,43.8972,2025-02-03T2300,37,51,0.6,16,4,67,78,53,细颗粒物(PM2.5)
吉林市,江南公园,126.555,43.8306,2025-02-03T2300,31,34,0.8,12,6,64,75,45,
吉林市,丰满,126.7061,43.7133,2025-02-03T2300,,,,,,,,,
吉林市,九站,126.4739,43.953,2025-02-03T2300,39,47,0.8,19,6,58,78,55,细颗粒物(PM2.5)
济南市,科干所,116.9862,36.6114,2025-02-03T2300,24,41,0.8,24,13,49,83,41,
济南市,农科所,116.9376,36.665,2025-02-03T2300,44,68,0.9,66,19,9,77,62,细颗粒物(PM2.5)
济南市,开发区,117.1265,36.6734,2025-02-03T2300,34,51,0.8,52,10,20,85,51,颗粒物(PM10)
济南市,省种子仓库,117.0624,36.6868,2025-02-03T2300,39,66,0.5,39,13,35,88,58,颗粒物(PM10)
济南市,机床二厂,116.9489,36.6447,2025-02-03T2300,49,78,1.3,74,67,12,88,68,细颗粒物(PM2.5)
济南市,市监测站,117.0495,36.663,2025-02-03T2300,22,46,0.9,48,12,28,82,46,
济南市,长清党校,116.7675,36.5484,2025-02-03T2300,17,34,0.8,16,4,70,92,34,
济南市,技术学院,117.6795,36.229,2025-02-03T2300,41,63,1.1,53,13,21,77,58,细颗粒物(PM2.5)
济南市,东山小学,117.532,36.6868,2025-02-03T2300,17,32,0.5,26,6,45,87,32,
济南市,泰兴公司,117.7161,36.2049,2025-02-03T2300,41,75,0.9,52,14,14,83,63,颗粒物(PM10)
济南市,莱芜战役纪念馆,117.6867,36.2171,2025-02-03T2300,41,85,0.8,54,10,17,80,68,颗粒物(PM10)
济南市,济阳区政府,117.1673,36.9782,2025-02-03T2300,20,44,0.6,6,15,63,80,44,
济南市,锦屏中学,117.1171,36.63,2025-02-03T2300,20,29,0.4,21,6,46,83,29,
济南市,济南四建,116.9814,36.6819,2025-02-03T2300,,,,,,,,,
济宁市,火炬城,116.6251,35.4302,2025-02-03T2300,29,56,0.5,28,16,53,93,53,颗粒物(PM10)
济宁市,电化厂,116.5491,35.4042,2025-02-03T2300,34,54,0.8,15,13,59,88,52,颗粒物(PM10)
济宁市,北湖一中,116.5814,35.3707,2025-02-03T2300,29,40,0.7,31,11,58,90,42,
济宁市,服务中心,116.8249,35.5593,2025-02-03T2300,29,56,0.8,21,11,57,79,53,颗粒物(PM10)
济宁市,市第七中学,116.5907,35.4054,2025-02-03T2300,27,60,0.6,26,8,56,88,55,颗粒物(PM10)
佳木斯市,佳纺,130.2751,46.8028,2025-02-03T2300,129,131,1.1,22,6,76,82,170,细颗粒物(PM2.5)
佳木斯市,发电厂,130.3995,46.8307,2025-02-03T2300,153,,1.4,33,10,67,84,203,细颗粒物(PM2.5)
佳木斯市,环保局,130.3258,46.7975,2025-02-03T2300,156,,1.2,22,12,67,70,206,细颗粒物(PM2.5)
佳木斯市,十一中,130.3648,46.8032,2025-02-03T2300,138,,0.9,25,9,70,62,183,细颗粒物(PM2.5)
佳木斯市,四丰,130.3794,46.7588,2025-02-03T2300,54,70,0.8,12,1,75,84,74,细颗粒物(PM2.5)
嘉兴市,清河小学,120.7436,30.778,2025-02-03T2300,38,53,0.7,16,4,72,87,54,细颗粒物(PM2.5)
嘉兴市,嘉兴学院,120.726,30.7478,2025-02-03T2300,45,58,0.8,16,6,81,90,63,细颗粒物(PM2.5)
嘉兴市,南湖区残联,120.7846,30.7525,2025-02-03T2300,43,70,0.8,14,8,71,90,60,"颗粒物(PM10),细颗粒物(PM2.5)"
嘉兴市,秀洲住建,120.6916,30.7739,2025-02-03T2300,50,60,0.6,18,5,63,92,69,细颗粒物(PM2.5)
嘉峪关市,气象局,98.2908,39.7711,2025-02-03T2300,12,22,0.5,10,3,78,88,25,
嘉峪关市,酒钢宾馆,98.2672,39.7978,2025-02-03T2300,7,24,0.4,10,8,68,86,24,
嘉峪关市,雄关区,98.2643,39.7724,2025-02-03T2300,19,29,0.4,12,7,77,88,29,
江门市,北街,113.1064,22.6058,2025-02-03T2300,3,13,0.6,14,3,44,38,14,
江门市,西区,113.0731,22.5835,2025-02-03T2300,3,11,0.7,12,5,41,36,13,
江门市,圭峰西,113.0219,22.5311,2025-02-03T2300,3,10,0.7,9,5,38,35,12,
江门市,东湖,113.0828,22.5947,2025-02-03T2300,9,,0.6,10,6,44,39,14,
江门市,江海富民,113.1075,22.5647,2025-02-03T2300,3,6,0.6,9,5,42,38,14,
江门市,新会银湖,113.05,22.4667,2025-02-03T2300,6,7,0.8,11,7,31,30,10,
焦作市,影视城,113.1992,35.2590,2025-02-03T2300,23,39,0.1,8,6,78,84,39,
焦作市,太极体育中心,113.2725,35.2067,2025-02-03T2300,3,44,0.7,15,8,67,86,44,
焦作市,马村街道办,113.3137,35.2641,2025-02-03T2300,10,43,0.4,8,5,69,80,43,
焦作市,焦作技师学院,113.2465,35.2373,2025-02-03T2300,19,32,0.8,32,6,41,89,32,
焦作市,中站许衡医院,113.1656,35.2539,2025-02-03T2300,19,32,0.6,21,6,57,80,32,
焦作市,原李万街道办,113.2449,35.1803,2025-02-03T2300,7,41,0.7,14,11,66,83,41,
焦作市,新安路1731号,113.2340,35.2190,2025-02-03T2300,15,49,0.2,14,8,65,85,49,
揭阳市,新兴,116.3701,23.5345,2025-02-03T2300,11,22,0.6,7,6,29,46,22,
揭阳市,西马,116.3264,23.5443,2025-02-03T2300,17,,0.6,3,6,36,49,25,
揭阳市,东兴,116.3611,23.5626,2025-02-03T2300,6,14,0.6,3,4,31,46,14,
揭阳市,渔湖,116.4151,23.5294,2025-02-03T2300,3,,0.7,4,8,30,52,10,
揭阳市,曲溪,116.403,23.5699,2025-02-03T2300,9,9,0.8,10,2,30,52,13,
金昌市,天庆家园,102.1692,38.5167,2025-02-03T2300,,,,,,,55,,
金昌市,金川区人防中心,102.1647,38.5371,2025-02-03T2300,24,51,0.6,4,6,77,87,51,颗粒物(PM10)
金昌市,长春路96号,102.1930,38.5319,2025-02-03T2300,16,32,0.5,6,12,91,94,32,
金华市,十五中,119.647,29.077,2025-02-03T2300,66,90,0.6,15,7,30,68,89,细颗粒物(PM2.5)
金华市,监测站,119.686,29.1029,2025-02-03T2300,83,99,0.9,16,5,30,66,110,细颗粒物(PM2.5)
金华市,气象局,119.656,29.1131,2025-02-03T2300,77,111,1.1,24,4,19,67,103,细颗粒物(PM2.5)
锦州市,南山,121.1115,41.0879,2025-02-03T2300,7,33,0.2,4,2,72,77,33,
锦州市,开发区,121.0533,40.8434,2025-02-03T2300,11,45,0.3,9,14,69,78,45,
锦州市,百股街道,121.1836,41.1119,2025-02-03T2300,17,40,0.5,9,8,59,75,40,
锦州市,天安街道,121.1178,41.1222,2025-02-03T2300,11,43,0.4,6,4,66,73,43,
锦州市,北湖公园,121.1303,41.1386,2025-02-03T2300,10,35,0.3,4,4,68,76,35,
晋城市,自来水公司,112.85,35.5051,2025-02-03T2300,12,39,0.5,17,5,59,79,39,
晋城市,白云商贸,112.8318,35.4936,2025-02-03T2300,3,45,0.3,22,7,59,78,45,
晋城市,市环保局,112.8508,35.4887,2025-02-03T2300,9,38,0.6,20,5,57,77,38,
晋城市,技术学院,112.8676,35.4897,2025-02-03T2300,14,25,0.3,14,5,66,84,25,
晋城市,白马寺,112.8453,35.546,2025-02-03T2300,,,,,,,,,
晋城市,泽州一中,112.8271,35.4828,2025-02-03T2300,7,24,0.4,11,7,68,80,24,
晋中市,南都小区,112.7249,37.7067,2025-02-03T2300,20,53,0.2,35,5,39,78,52,颗粒物(PM10)
晋中市,榆次区政府,112.6991,37.6982,2025-02-03T2300,27,46,0.4,21,7,48,76,46,
晋中市,榆次三中,112.7195,37.6828,2025-02-03T2300,12,44,0.5,16,7,54,78,44,
晋中市,榆次一中,112.7478,37.6954,2025-02-03T2300,14,44,0.3,16,5,57,78,44,
荆门市,竹园小学,112.2014,31.0481,2025-02-03T2300,32,52,0.9,36,2,24,89,51,颗粒物(PM10)
荆门市,掇刀,112.1969,30.9891,2025-02-03T2300,35,59,0.5,30,9,44,91,55,颗粒物(PM10)
荆门市,石化一小,112.2213,31.0386,2025-02-03T2300,42,79,0.9,52,8,18,92,65,颗粒物(PM10)
荆门市,西山林语,112.1849,31.0362,2025-02-03T2300,30,35,0.9,33,3,43,94,43,
荆门市,龙泉中学南校,112.1632,31.0138,2025-02-03T2300,30,50,0.6,30,10,34,89,50,
荆州市,市图书馆,112.2494,30.3197,2025-02-03T2300,63,78,1.0,52,8,37,92,85,细颗粒物(PM2.5)
荆州市,市委党校,112.2008,30.3544,2025-02-03T2300,57,94,1.1,69,6,16,93,78,细颗粒物(PM2.5)
荆州市,管委会,112.2747,30.3122,2025-02-03T2300,69,96,0.9,30,10,61,97,93,细颗粒物(PM2.5)
荆州市,学苑路,112.1655,30.3364,2025-02-03T2300,64,,0.7,63,10,32,97,87,细颗粒物(PM2.5)
景德镇市,王港中学,117.3102,29.3867,2025-02-03T2300,,,,,,,,,
景德镇市,老干部活动中心,117.2117,29.2933,2025-02-03T2300,59,65,0.8,26,3,21,72,80,细颗粒物(PM2.5)
景德镇市,兽医站,117.1894,29.2789,2025-02-03T2300,65,98,0.9,7,13,32,74,88,细颗粒物(PM2.5)
景德镇市,台达陶瓷,117.1547,29.2617,2025-02-03T2300,47,72,0.5,19,4,18,72,65,细颗粒物(PM2.5)
景德镇市,陶研所,117.2461,29.2956,2025-02-03T2300,49,65,0.8,11,4,31,79,68,细颗粒物(PM2.5)
九江市,十里,115.9872,29.6815,2025-02-03T2300,63,82,1.0,27,11,25,58,85,细颗粒物(PM2.5)
九江市,茅山头,115.9584,29.7046,2025-02-03T2300,45,56,1.2,28,5,17,57,63,细颗粒物(PM2.5)
九江市,西园,115.9877,29.7295,2025-02-03T2300,52,56,0.5,22,12,,62,,
九江市,综合工业园,115.9114,29.6038,2025-02-03T2300,61,70,0.7,18,12,39,56,83,细颗粒物(PM2.5)
九江市,石化总厂,116.0721,29.7535,2025-02-03T2300,73,83,1.1,38,24,22,62,98,细颗粒物(PM2.5)
九江市,庐山气象台,115.9773,29.5698,2025-02-03T2300,49,49,1.6,9,9,68,67,68,细颗粒物(PM2.5)
九江市,外国语学校,116.0254,29.6994,2025-02-03T2300,69,85,0.8,35,12,33,67,93,细颗粒物(PM2.5)
九江市,莲花大道8号,116.0102,29.6594,2025-02-03T2300,67,81,1.1,12,16,44,52,90,细颗粒物(PM2.5)
酒泉市,仓门街子站,98.5061,39.7443,2025-02-03T2300,11,34,0.3,8,9,68,86,34,
酒泉市,玉门东路5号,98.4958,39.7339,2025-02-03T2300,18,29,0.3,7,6,68,88,29,
喀什地区,巡警大队,76.0072,39.4467,2025-02-03T2300,81,210,1.4,55,11,48,78,130,颗粒物(PM10)
喀什地区,吾办,75.9755,39.4694,2025-02-03T2300,50,200,1.1,49,5,39,75,125,颗粒物(PM10)
喀什地区,老干局,75.9483,39.4689,2025-02-03T2300,49,242,1.9,81,13,21,80,146,颗粒物(PM10)
开封市,肿瘤医院,114.3389,34.7781,2025-02-03T2300,35,60,0.7,13,6,54,81,55,颗粒物(PM10)
开封市,世纪星幼儿园,114.2885,34.7965,2025-02-03T2300,41,48,0.6,17,6,43,58,58,细颗粒物(PM2.5)
开封市,龙亭公园,114.3438,34.8106,2025-02-03T2300,43,65,0.6,20,5,51,78,60,细颗粒物(PM2.5)
开封市,汴京公园,114.3644,34.7964,2025-02-03T2300,34,52,0.6,18,6,53,83,51,颗粒物(PM10)
开封市,技师学院,114.2485,34.8306,2025-02-03T2300,38,49,0.7,25,4,48,78,54,细颗粒物(PM2.5)
开封市,祥符区生态环境局,114.4644,34.7556,2025-02-03T2300,30,49,0.7,16,4,52,79,49,
克拉玛依市,长征新村,84.895,45.6094,2025-02-03T2300,30,48,0.5,9,5,75,77,48,
克拉玛依市,南林小区,84.8988,45.5893,2025-02-03T2300,43,60,0.6,4,4,80,79,60,细颗粒物(PM2.5)
克拉玛依市,独山子区,84.905,44.3396,2025-02-03T2300,53,68,0.6,12,3,73,76,73,细颗粒物(PM2.5)
克拉玛依市,乌尔禾区商贸楼,85.6979,46.098,2025-02-03T2300,11,29,0.5,15,4,71,85,29,
克拉玛依市,白碱滩区新站,85.1045,45.6899,2025-02-03T2300,39,50,0.6,10,4,73,74,55,细颗粒物(PM2.5)
克孜勒苏柯尔克孜自治州,市人民政府,76.1454,39.7142,2025-02-03T2300,54,188,0.8,22,6,69,88,119,颗粒物(PM10)
克孜勒苏柯尔克孜自治州,克州文化中心,76.1658,39.7157,2025-02-03T2300,47,206,1.5,54,11,43,84,128,颗粒物(PM10)
昆明市,呈贡新区,102.8204,24.8886,2025-02-03T2300,31,31,0.7,10,5,30,39,45,
昆明市,西山森林公园,102.6251,24.9608,2025-02-03T2300,,,,,,,,,
昆明市,龙泉镇,102.7252,25.0902,2025-02-03T2300,27,,0.7,12,6,34,47,39,
昆明市,东风东路,102.7266,25.0375,2025-02-03T2300,33,34,0.5,14,6,29,43,48,
昆明市,金鼎山,102.6742,25.0669,2025-02-03T2300,35,,0.9,14,9,33,46,50,
昆明市,碧鸡广场,102.6644,25.0401,2025-02-03T2300,31,38,0.8,15,5,32,46,45,
昆明市,官渡区博物馆,102.7494,25.0119,2025-02-03T2300,28,33,0.7,13,6,30,43,40,
昆明市,青年创业园,102.8017,24.8336,2025-02-03T2300,24,32,0.9,7,5,33,40,35,
昆明市,昆明学院,102.7997,24.9786,2025-02-03T2300,25,32,0.8,14,4,31,46,36,
昆明市,晋宁区生态环境分局,102.5967,24.6736,2025-02-03T2300,22,52,0.7,8,3,38,41,51,颗粒物(PM10)
昆明市,云天化总部,102.6678,24.9856,2025-02-03T2300,28,37,0.6,13,6,34,48,40,
拉萨市,八廓街,91.1319,29.6514,2025-02-03T2300,39,53,1.2,49,8,33,93,55,细颗粒物(PM2.5)
拉萨市,市环保局,91.1221,29.6747,2025-02-03T2300,,71,2.2,54,12,48,100,,
拉萨市,区监测站,91.0874,29.6475,2025-02-03T2300,13,22,0.8,40,7,53,99,22,
拉萨市,西藏大学,91.1774,29.6541,2025-02-03T2300,12,33,0.4,16,7,66,96,33,
拉萨市,区辐射站,90.9798,29.6588,2025-02-03T2300,24,31,1.0,34,9,59,98,35,
拉萨市,拉萨火车站,91.0834,29.6292,2025-02-03T2300,10,12,0.5,23,5,75,102,24,
来宾市,来宾技工学校,109.2203,23.7256,2025-02-03T2300,25,28,0.7,6,6,70,73,36,
来宾市,兴宾区政府,109.1781,23.7297,2025-02-03T2300,22,26,0.8,3,5,58,58,32,
来宾市,中南小学,109.2416,23.7461,2025-02-03T2300,22,38,0.8,7,6,60,64,38,
兰州市,榆中兰大校区,104.1373,35.9454,2025-02-03T2300,,,,,,,,,
兰州市,铁路设计院,103.831,36.0464,2025-02-03T2300,64,75,1.1,60,16,34,69,87,细颗粒物(PM2.5)
兰州市,百合公园,103.7439,36.0842,2025-02-03T2300,39,65,0.9,60,8,26,77,58,颗粒物(PM10)
兰州市,和平,103.9611,35.998,2025-02-03T2300,24,45,0.5,19,10,65,94,45,
兰州市,庄浪东路808号,103.6293,36.0938,2025-02-03T2300,34,63,0.7,33,6,55,87,57,颗粒物(PM10)
兰州市,安宁西路88号,103.7251,36.1043,2025-02-03T2300,44,86,0.9,61,16,25,91,68,颗粒物(PM10)
兰州市,北滨河东路1号,103.8470,36.0676,2025-02-03T2300,37,73,0.7,76,13,18,78,62,颗粒物(PM10)
兰州新区,新区管委会,103.6633,36.533,2025-02-03T2300,25,33,0.2,7,10,75,92,36,
兰州新区,舟曲中学,103.6975,36.4789,2025-02-03T2300,9,23,0.2,7,2,79,90,25,
廊坊市,药材公司,116.6708,39.5111,2025-02-03T2300,3,,0.2,6,3,74,80,24,
廊坊市,开发区,116.7214,39.5589,2025-02-03T2300,7,8,0.2,5,3,71,82,23,
廊坊市,北华航天学院,116.7244,39.5269,2025-02-03T2300,3,17,0.1,5,3,68,79,22,
廊坊市,河北工业大学,116.7022,39.5453,2025-02-03T2300,9,19,0.2,9,6,66,81,21,
乐山市,花湖湾,103.7723,29.5462,2025-02-03T2300,40,60,0.4,15,5,46,69,57,细颗粒物(PM2.5)
乐山市,牛耳桥,103.7627,29.5844,2025-02-03T2300,39,52,0.8,39,5,9,60,55,细颗粒物(PM2.5)
乐山市,市第三水厂,103.7508,29.6006,2025-02-03T2300,40,56,0.9,25,4,9,66,57,细颗粒物(PM2.5)
乐山市,市监测站,103.7571,29.5664,2025-02-03T2300,39,44,0.8,40,5,20,62,55,细颗粒物(PM2.5)
乐山市,理工大学,103.7311,29.5628,2025-02-03T2300,32,45,0.5,27,5,24,70,46,
丽江市,西南郊,100.2143,26.8576,2025-02-03T2300,45,53,0.6,4,5,86,91,63,细颗粒物(PM2.5)
丽江市,丽江古城,100.2497,26.8802,2025-02-03T2300,34,44,0.7,10,10,73,85,49,
丽江市,市中心,100.2203,26.8906,2025-02-03T2300,28,28,0.6,10,10,78,83,40,
丽水市,监测站大楼,119.914,28.4514,2025-02-03T2300,55,56,0.8,10,3,35,70,75,细颗粒物(PM2.5)
丽水市,莲都小学,119.93,28.4586,2025-02-03T2300,58,77,0.6,12,5,34,72,79,细颗粒物(PM2.5)
丽水市,余庄前,119.879,28.4231,2025-02-03T2300,43,58,0.7,8,4,15,67,60,细颗粒物(PM2.5)
连云港市,市环境监测站,119.176,34.5885,2025-02-03T2300,17,36,1.4,15,13,68,84,36,
连云港市,德源药业,119.3581,34.6972,2025-02-03T2300,19,34,0.4,14,7,70,82,34,
连云港市,新城一中,119.178,34.844,2025-02-03T2300,16,43,1.2,26,15,60,84,43,
连云港市,胡沟管理处,119.3608,34.7519,2025-02-03T2300,7,19,0.4,11,6,70,79,22,
连云港市,矿山设计院,119.1478,34.5911,2025-02-03T2300,19,46,1.2,17,8,68,88,46,
连云港市,工贸学校,119.2413,34.6539,2025-02-03T2300,15,25,0.9,15,13,70,86,25,
连云港市,连云街道,119.4172,34.7341,2025-02-03T2300,13,24,0.5,11,7,66,76,24,
凉山彝族自治州,青龙寺,102.3431,27.8099,2025-02-03T2300,3,12,0.9,3,2,44,62,14,
凉山彝族自治州,邛海宾馆,102.2721,27.8415,2025-02-03T2300,6,9,0.7,4,6,59,62,19,
凉山彝族自治州,西昌市政府,102.2625,27.898,2025-02-03T2300,12,13,0.8,8,6,50,60,18,
凉山彝族自治州,凉山州政府,102.2685,27.8851,2025-02-03T2300,12,14,0.7,6,7,56,61,18,
凉山彝族自治州,长安,102.237,27.8914,2025-02-03T2300,12,16,0.7,6,8,58,64,19,
辽阳市,宏伟区,123.2,41.1953,2025-02-03T2300,25,,0.8,15,7,56,79,36,
辽阳市,新华园,123.1683,41.2495,2025-02-03T2300,55,78,1.7,68,10,17,69,75,细颗粒物(PM2.5)
辽阳市,滨河路,123.2354,41.2639,2025-02-03T2300,30,55,0.6,24,10,46,74,53,颗粒物(PM10)
辽阳市,铁西工业园,123.149,41.2991,2025-02-03T2300,66,72,1.6,50,4,9,71,89,细颗粒物(PM2.5)
辽源市,环保局,125.1358,42.8845,2025-02-03T2300,37,65,1.3,26,7,48,76,58,颗粒物(PM10)
辽源市,银鹰制药,125.0764,42.9078,2025-02-03T2300,47,57,0.9,42,4,24,78,65,细颗粒物(PM2.5)
聊城市,区政府,115.9848,36.4372,2025-02-03T2300,31,59,0.8,39,12,40,86,55,颗粒物(PM10)
聊城市,聊大东校,116.0072,36.4343,2025-02-03T2300,42,61,0.9,41,9,44,84,59,细颗粒物(PM2.5)
聊城市,监控中心,115.9819,36.4978,2025-02-03T2300,51,75,1.0,60,15,20,87,70,细颗粒物(PM2.5)
聊城市,九州社区,116.0445,36.4361,2025-02-03T2300,28,46,0.7,23,12,67,88,46,
聊城市,星美广场,116.0567,36.4608,2025-02-03T2300,34,47,0.6,18,11,61,85,49,
林芝市,林芝监测站,94.3681,29.6376,2025-02-03T2300,14,32,0.3,2,6,80,91,32,
林芝市,林芝人民医院,94.3616,29.6616,2025-02-03T2300,14,38,0.5,1,6,78,90,38,
临沧市,市环保局,100.0781,23.8982,2025-02-03T2300,91,,0.6,16,16,60,102,120,细颗粒物(PM2.5)
临沧市,市气象局,100.0894,23.8822,2025-02-03T2300,63,73,0.7,15,20,57,100,85,细颗粒物(PM2.5)
临汾市,临钢医院,111.5531,36.0783,2025-02-03T2300,14,61,0.6,40,4,21,78,56,颗粒物(PM10)
临汾市,技工学校,111.5028,36.0714,2025-02-03T2300,23,40,0.4,24,6,42,76,40,
临汾市,市委,111.5018,36.0855,2025-02-03T2300,13,46,0.3,30,4,40,79,46,
临汾市,唐尧大酒店,111.505,36.1014,2025-02-03T2300,23,62,0.5,37,6,24,77,56,颗粒物(PM10)
临汾市,启星学校,111.4879,36.0530,2025-02-03T2300,26,45,0.6,24,3,37,81,45,
临夏回族自治州,环保局,103.2069,35.5993,2025-02-03T2300,18,120,1.2,17,10,42,74,85,颗粒物(PM10)
临夏回族自治州,建设大厦,103.2417,35.6057,2025-02-03T2300,45,121,1.1,17,14,47,86,86,颗粒物(PM10)
临沂市,沂河小区,118.3429,35.0532,2025-02-03T2300,27,41,0.5,12,14,61,83,41,
临沂市,鲁南制药厂,118.295,35.0583,2025-02-03T2300,22,39,0.4,19,14,53,85,39,
临沂市,新光毛纺厂,118.2794,34.9976,2025-02-03T2300,25,41,0.5,27,17,46,83,41,
临沂市,河东保险公司,118.3956,35.0888,2025-02-03T2300,22,34,0.8,15,12,63,90,34,
临沂市,十里堡居委,118.3564,35.0215,2025-02-03T2300,24,36,0.6,12,12,70,88,36,
临沂市,南坊新区,118.3604,35.1084,2025-02-03T2300,19,36,0.3,21,12,66,92,36,
临沂市,皇山花园小区,118.3920,35.0300,2025-02-03T2300,16,36,0.3,11,11,64,89,36,
柳州市,柳东小学,109.4856,24.3895,2025-02-03T2300,29,37,0.7,10,9,58,60,42,
柳州市,环保监测站,109.4157,24.3277,2025-02-03T2300,29,44,0.7,7,10,61,62,44,
柳州市,河西水厂,109.389,24.341,2025-02-03T2300,33,40,0.8,10,9,57,56,48,
柳州市,市四中,109.4311,24.2921,2025-02-03T2300,20,38,0.6,8,7,61,64,38,
柳州市,市九中,109.4006,24.3631,2025-02-03T2300,29,45,0.6,8,5,61,62,45,
柳州市,古亭山,109.4958,24.3134,2025-02-03T2300,19,27,0.7,5,11,59,64,28,
柳州市,市二中,109.5422,24.3996,2025-02-03T2300,36,,0.8,7,9,48,54,52,细颗粒物(PM2.5)
六安市,监测大楼,116.5079,31.737,2025-02-03T2300,104,108,0.9,11,4,47,60,137,细颗粒物(PM2.5)
六安市,皖西学院,116.4738,31.7643,2025-02-03T2300,99,116,1.1,15,3,43,59,130,细颗粒物(PM2.5)
六安市,朝阳厂,116.4996,31.7905,2025-02-03T2300,92,110,0.9,11,3,45,58,122,细颗粒物(PM2.5)
六安市,开发区,116.5567,31.7886,2025-02-03T2300,99,128,1.2,14,3,48,61,130,细颗粒物(PM2.5)
六盘水市,窑上,104.8,26.5892,2025-02-03T2300,25,40,0.7,14,6,38,58,40,
六盘水市,黄土坡,104.83,26.5917,2025-02-03T2300,21,29,0.7,10,12,45,56,30,
六盘水市,水钢,104.89,26.5939,2025-02-03T2300,37,,0.7,9,11,43,55,53,细颗粒物(PM2.5)
六盘水市,民中,104.8475,26.5894,2025-02-03T2300,24,35,0.8,15,14,36,53,35,
六盘水市,双水,104.9544,26.5506,2025-02-03T2300,33,,0.6,10,11,41,57,48,
龙岩市,龙岩师专,117.0189,25.1181,2025-02-03T2300,,,,,,,,,
龙岩市,龙岩市监测站,117.0217,25.1033,2025-02-03T2300,3,6,0.4,8,3,30,29,10,
龙岩市,闽西职业技术学院,117.0258,25.0661,2025-02-03T2300,3,,0.5,2,2,33,30,11,
龙岩市,龙岩学院,117.0196,25.0306,2025-02-03T2300,3,6,0.4,4,4,35,29,11,
陇南市,汉王镇固水子,105.0822,33.3261,2025-02-03T2300,,,,,,,,,
陇南市,滨江中学,104.9339,33.3826,2025-02-03T2300,40,81,1.5,39,15,23,72,66,颗粒物(PM10)
陇南市,市总工会,104.955,33.371,2025-02-03T2300,21,42,0.3,7,5,59,79,42,
娄底市,电视发射台,111.9589,27.8901,2025-02-03T2300,36,45,0.6,6,6,52,85,52,细颗粒物(PM2.5)
娄底市,市监测站,111.9975,27.725,2025-02-03T2300,68,80,0.6,24,14,68,89,92,细颗粒物(PM2.5)
娄底市,市委党校,112.0194,27.7314,2025-02-03T2300,70,95,0.8,29,7,49,87,94,细颗粒物(PM2.5)
娄底市,涟钢,111.9561,27.7569,2025-02-03T2300,70,104,0.7,8,1,48,86,94,细颗粒物(PM2.5)
娄底市,市政府,111.9892,27.7044,2025-02-03T2300,88,107,0.8,23,5,36,86,117,细颗粒物(PM2.5)
泸州市,九狮山,105.4324,28.9634,2025-02-03T2300,,,,,,,,,
泸州市,小市上码头,105.4427,28.9063,2025-02-03T2300,28,31,0.5,18,2,32,37,40,
泸州市,兰田宪桥,105.4241,28.8573,2025-02-03T2300,36,38,1.0,29,2,7,35,52,细颗粒物(PM2.5)
泸州市,市环监站,105.4379,28.8833,2025-02-03T2300,,,,,,,25,,
泸州市,纳溪区环保局,105.3617,28.7703,2025-02-03T2300,38,55,1.2,15,5,5,34,54,细颗粒物(PM2.5)
吕梁市,环保局,111.1406,37.5211,2025-02-03T2300,47,56,0.2,24,4,35,69,65,细颗粒物(PM2.5)
吕梁市,自来水公司,111.1297,37.5136,2025-02-03T2300,17,33,0.3,12,3,61,71,33,
吕梁市,马茂庄小学,111.1283,37.51,2025-02-03T2300,15,36,0,10,5,65,68,36,
洛阳市,市委党校,112.3931,34.6516,2025-02-03T2300,24,40,0.4,24,5,53,75,40,
洛阳市,河南林校,112.494,34.6886,2025-02-03T2300,27,38,0.5,28,4,45,76,39,
洛阳市,开发区管委会,112.3844,34.623,2025-02-03T2300,27,31,0.6,17,1,60,85,39,
洛阳市,市委新办公区,112.4267,34.6258,2025-02-03T2300,23,38,0.3,14,4,58,81,38,
洛阳市,伊滨,112.6005,34.6326,2025-02-03T2300,18,26,0.5,8,4,63,78,26,
洛阳市,中移产业园,112.4951,34.6332,2025-02-03T2300,17,29,0.4,17,4,71,87,29,
洛阳市,吉利监测站,112.5736,34.8993,2025-02-03T2300,17,49,0.3,35,6,38,74,49,
洛阳市,河科大西苑校区,112.3677,34.662,2025-02-03T2300,22,49,0.7,33,3,40,84,49,
洛阳市,英才小学,112.4388,34.6781,2025-02-03T2300,22,39,0.6,32,4,52,84,39,
洛阳市,春都路1号院,112.4600,34.6949,2025-02-03T2300,27,50,0.3,31,5,43,68,50,
漯河市,三五一五工厂,114.051,33.5699,2025-02-03T2300,24,42,0.3,10,5,71,91,42,
漯河市,漯河大学,114.0055,33.5698,2025-02-03T2300,17,40,0.3,15,5,69,88,40,
漯河市,市水利局,114.0138,33.5828,2025-02-03T2300,24,41,0.4,12,4,66,87,41,
漯河市,市广电局,114.0261,33.5698,2025-02-03T2300,24,37,0.3,12,5,72,90,37,
漯河市,市图书馆,113.9749,33.5664,2025-02-03T2300,21,46,0.5,9,4,71,88,46,
漯河市,召陵区卫健委,114.0967,33.5906,2025-02-03T2300,26,51,0.3,14,5,69,87,51,颗粒物(PM10)
马鞍山市,湖东路四小,118.5092,31.6837,2025-02-03T2300,59,85,3.1,33,28,52,82,80,细颗粒物(PM2.5)
马鞍山市,开发区,118.5024,31.6449,2025-02-03T2300,73,75,0.8,19,8,68,88,98,细颗粒物(PM2.5)
马鞍山市,濮塘,118.6245,31.7241,2025-02-03T2300,62,77,0.6,17,7,75,96,84,细颗粒物(PM2.5)
马鞍山市,雨山,118.4918,31.6809,2025-02-03T2300,69,118,0.8,14,13,71,85,93,细颗粒物(PM2.5)
马鞍山市,慈湖高新区,118.5274,31.72227,2025-02-03T2300,61,86,0.9,12,30,77,90,83,细颗粒物(PM2.5)
茂名市,电白南海,111.0286,21.4688,2025-02-03T2300,7,22,0.7,4,4,32,46,22,
茂名市,茂石化七小,110.9294,21.6533,2025-02-03T2300,14,22,0.7,4,7,32,39,22,
茂名市,健康路,110.9107,21.6687,2025-02-03T2300,12,17,0.9,5,4,34,39,18,
茂名市,高岭,110.8592,21.6828,2025-02-03T2300,9,22,0.9,6,9,31,37,22,
茂名市,电白水东,111.01,21.5165,2025-02-03T2300,12,17,0.8,5,3,32,40,18,
眉山市,黑龙滩水库,104.0308,30.0478,2025-02-03T2300,,,,,,,,,
眉山市,气象局,103.8416,30.0874,2025-02-03T2300,46,57,0.7,18,5,53,81,64,细颗粒物(PM2.5)
眉山市,市委党校,103.8578,30.0744,2025-02-03T2300,29,48,0.6,24,6,49,76,48,
眉山市,区人社局,103.8291,30.0564,2025-02-03T2300,29,48,0.7,30,5,50,74,48,
梅州市,梅江月梅,116.1231,24.3284,2025-02-03T2300,3,6,0.5,5,7,46,43,15,
梅州市,梅县新城,116.0797,24.2719,2025-02-03T2300,6,8,0.6,5,4,39,39,13,
梅州市,环境监控中心,116.1248,24.2654,2025-02-03T2300,3,6,0.5,5,4,44,40,14,
梅州市,梅龙,116.1233,24.2991,2025-02-03T2300,6,9,0.6,7,6,46,42,15,
绵阳市,富乐山,104.7778,31.4741,2025-02-03T2300,24,42,0.6,13,2,52,72,42,
绵阳市,高新区自来水公司,104.6697,31.4668,2025-02-03T2300,44,,0.4,34,3,22,75,62,细颗粒物(PM2.5)
绵阳市,三水厂,104.7287,31.5075,2025-02-03T2300,44,73,0.8,39,6,16,74,62,"颗粒物(PM10),细颗粒物(PM2.5)"
绵阳市,西科大附属小学,104.69,31.5322,2025-02-03T2300,53,77,0.6,25,6,34,74,73,细颗粒物(PM2.5)
绵阳市,安州区旅游局,104.5648,31.5343,2025-02-03T2300,51,76,0.4,25,4,28,74,70,细颗粒物(PM2.5)
绵阳市,绵阳市气象局,104.7651,31.4531,2025-02-03T2300,38,69,0.7,63,5,4,72,60,颗粒物(PM10)
牡丹江市,环保大楼,129.61,44.561,2025-02-03T2300,34,46,0.7,14,8,70,78,49,
牡丹江市,文化广场,129.6115,44.5782,2025-02-03T2300,55,57,0.5,13,9,81,83,75,细颗粒物(PM2.5)
牡丹江市,第一医院,129.5904,44.5963,2025-02-03T2300,50,58,0.6,10,11,78,82,69,细颗粒物(PM2.5)
牡丹江市,机车工厂,129.6364,44.6075,2025-02-03T2300,39,61,0.6,9,8,73,79,56,颗粒物(PM10)
牡丹江市,第一中学,129.6386,44.5462,2025-02-03T2300,42,49,0.7,11,8,72,80,59,细颗粒物(PM2.5)
内江市,市监测站,105.0703,29.61,2025-02-03T2300,51,,0.4,21,5,30,53,70,细颗粒物(PM2.5)
内江市,东兴区政府,105.0717,29.5947,2025-02-03T2300,44,44,0.6,18,3,35,60,62,细颗粒物(PM2.5)
内江市,内江二中,105.0653,29.5817,2025-02-03T2300,45,54,0.8,14,6,38,60,63,细颗粒物(PM2.5)
内江市,内江日报社,105.0406,29.5822,2025-02-03T2300,40,55,0.6,22,6,31,57,57,细颗粒物(PM2.5)
那曲市,那曲监测站,92.0657,31.4846,2025-02-03T2300,74,109,3.1,61,18,16,76,99,细颗粒物(PM2.5)
那曲市,那曲会议中心,92.0506,31.4797,2025-02-03T2300,32,71,1.4,16,4,50,98,61,颗粒物(PM10)
南昌市,省外办,115.8931,28.6843,2025-02-03T2300,41,50,0.7,18,5,33,66,58,细颗粒物(PM2.5)
南昌市,省林业公司,115.8886,28.7003,2025-02-03T2300,31,31,0.6,10,6,37,63,45,
南昌市,林科所,115.8126,28.7442,2025-02-03T2300,19,31,0.8,16,2,32,65,31,
南昌市,建工学校,115.8518,28.687,2025-02-03T2300,44,48,1.2,15,8,38,63,62,细颗粒物(PM2.5)
南昌市,象湖,115.8921,28.6424,2025-02-03T2300,41,42,1.1,15,5,40,71,58,细颗粒物(PM2.5)
南昌市,武术学校,115.7423,28.7996,2025-02-03T2300,28,,0.7,8,2,4,46,40,
南昌市,机电学校,115.9084,28.6062,2025-02-03T2300,39,52,0.9,17,6,36,67,55,细颗粒物(PM2.5)
南昌市,外国语学校,115.9721,28.7031,2025-02-03T2300,45,,0.7,13,3,28,63,63,细颗粒物(PM2.5)
南昌市,南京东路235号,115.9316,28.68677,2025-02-03T2300,46,47,0.8,16,4,36,65,64,细颗粒物(PM2.5)
南充市,西山风景区,106.056,30.8064,2025-02-03T2300,29,37,0.7,13,1,27,77,42,
南充市,南充市委,106.0789,30.8023,2025-02-03T2300,34,41,0.7,22,5,26,73,49,
南充市,南充炼油厂,106.1031,30.8217,2025-02-03T2300,34,36,0.9,21,5,26,66,49,
南充市,嘉陵区环保局,106.0642,30.7636,2025-02-03T2300,31,43,0.9,21,5,25,67,45,
南充市,市环境监测站,106.1087,30.8388,2025-02-03T2300,27,49,0.8,27,7,21,65,49,
南充市,梨树横街98号,106.1083,30.7884,2025-02-03T2300,33,39,0.8,22,6,29,67,48,
南京市,迈皋桥,118.8086,32.1065,2025-02-03T2300,46,64,0.8,20,11,78,94,64,细颗粒物(PM2.5)
南京市,草场门,118.7538,32.0551,2025-02-03T2300,51,70,0.5,13,5,77,86,70,细颗粒物(PM2.5)
南京市,山西路,118.7794,32.0745,2025-02-03T2300,51,78,0.4,1,3,76,87,70,细颗粒物(PM2.5)
南京市,中华门,118.7752,32.0023,2025-02-03T2300,46,58,0.7,15,4,69,70,64,细颗粒物(PM2.5)
南京市,瑞金路,118.8109,32.0309,2025-02-03T2300,44,61,0.7,12,6,75,82,62,细颗粒物(PM2.5)
南京市,玄武湖,118.7997,32.0754,2025-02-03T2300,47,64,0.5,8,7,77,89,65,细颗粒物(PM2.5)
南京市,浦口,118.6414,32.0931,2025-02-03T2300,51,66,0.8,12,8,76,87,70,细颗粒物(PM2.5)
南京市,奥体中心,118.7356,31.9996,2025-02-03T2300,44,63,0.7,16,7,79,87,62,细颗粒物(PM2.5)
南京市,仙林大学城,118.9125,32.1028,2025-02-03T2300,61,83,0.7,21,8,38,82,83,细颗粒物(PM2.5)
南京市,江宁彩虹桥,118.8436,31.9198,2025-02-03T2300,41,61,0.5,7,7,81,90,58,细颗粒物(PM2.5)
南京市,溧水永阳,119.0138,31.6494,2025-02-03T2300,60,63,0.7,27,4,43,86,82,细颗粒物(PM2.5)
南京市,六合雄州,118.8554,32.3578,2025-02-03T2300,43,73,0.7,10,3,69,85,62,颗粒物(PM10)
南京市,汶溪路181号,118.8708,31.3402,2025-02-03T2300,62,78,0.6,8,2,70,84,84,细颗粒物(PM2.5)
南宁市,二十一中,108.3103,22.7881,2025-02-03T2300,,,,,,,45,,
南宁市,北湖,108.3141,22.8528,2025-02-03T2300,19,29,0.6,14,6,46,58,29,
南宁市,市监测站,108.3206,22.8225,2025-02-03T2300,18,21,0.8,16,7,48,57,26,
南宁市,大自然花园,108.3829,22.8037,2025-02-03T2300,10,14,0.7,8,5,66,64,21,
南宁市,仙葫,108.4394,22.7904,2025-02-03T2300,22,,0.5,4,6,66,62,32,
南宁市,区农职院,108.2397,22.8467,2025-02-03T2300,10,19,0.5,4,6,58,60,19,
南宁市,英华嘉园,108.3275,22.735,2025-02-03T2300,3,20,0.6,6,6,66,64,21,
南宁市,红星社区,108.4834,22.7618,2025-02-03T2300,15,,0.5,3,7,66,60,22,
南宁市,乐贤路16号,108.2177,22.7774,2025-02-03T2300,16,,0.8,8,7,54,57,23,
南平市,茫荡山,118.0966,26.6761,2025-02-03T2300,,,,,,,,,
南平市,南平市监测站,118.1681,26.6369,2025-02-03T2300,11,24,0.3,4,6,40,51,24,
南平市,南平铝业有限公司,118.1825,26.6489,2025-02-03T2300,14,16,0.5,4,5,46,54,20,
南平市,南平七中,118.1756,26.6272,2025-02-03T2300,10,,0.4,5,6,27,53,15,
南通市,狼山街道,120.9098,31.9663,2025-02-03T2300,40,52,0.7,14,5,63,84,57,细颗粒物(PM2.5)
南通市,虹桥,120.86,32.0005,2025-02-03T2300,34,47,0.9,19,5,75,84,49,
南通市,城中,120.87,32.02,2025-02-03T2300,42,63,0.7,12,6,79,86,59,细颗粒物(PM2.5)
南通市,星湖花园,120.94,31.93,2025-02-03T2300,43,54,0.7,19,5,57,80,60,细颗粒物(PM2.5)
南通市,紫琅学院,120.81,32.0417,2025-02-03T2300,41,59,0.5,17,3,65,86,58,细颗粒物(PM2.5)
南通市,通州监测站,121.067,32.062,2025-02-03T2300,39,53,0.8,15,2,74,90,55,细颗粒物(PM2.5)
南通市,环境教育馆,120.9348,31.9883,2025-02-03T2300,48,53,0.5,11,3,63,92,67,细颗粒物(PM2.5)
南阳市,瓦房庄,112.5224,33.0122,2025-02-03T2300,71,88,1.1,38,7,31,79,95,细颗粒物(PM2.5)
南阳市,汉画馆,112.5003,32.9735,2025-02-03T2300,108,139,1.3,51,6,7,82,142,细颗粒物(PM2.5)
南阳市,气象站,112.5573,33.027,2025-02-03T2300,31,55,0.5,12,6,77,84,53,颗粒物(PM10)
南阳市,理工学院,112.5481,32.9689,2025-02-03T2300,55,72,0.5,21,7,63,88,75,细颗粒物(PM2.5)
南阳市,卧龙区政府,112.5234,32.9922,2025-02-03T2300,76,105,1.2,56,7,10,77,102,细颗粒物(PM2.5)
宁波市,区环保大楼,121.8358,29.911,2025-02-03T2300,35,51,1.0,31,5,34,79,51,颗粒物(PM10)
宁波市,万里学院,121.56,29.82,2025-02-03T2300,44,55,0.8,15,4,60,82,62,细颗粒物(PM2.5)
宁波市,龙赛医院,121.713,29.9572,2025-02-03T2300,34,53,0.6,15,8,56,82,52,颗粒物(PM10)
宁波市,钱湖水厂,121.633,29.7733,2025-02-03T2300,39,53,0.6,10,4,54,85,55,细颗粒物(PM2.5)
宁波市,太古小学,121.5856,29.8635,2025-02-03T2300,37,55,0.8,26,7,56,84,53,"颗粒物(PM10),细颗粒物(PM2.5)"
宁波市,市环境监测中心,121.524,29.8674,2025-02-03T2300,38,59,0.8,21,5,62,83,55,颗粒物(PM10)
宁波市,万里国际学校,121.6147,29.9017,2025-02-03T2300,30,54,0.6,14,6,60,83,52,颗粒物(PM10)
宁波市,白沙活动中心,121.5594,29.8975,2025-02-03T2300,38,52,0.8,24,5,55,88,54,细颗粒物(PM2.5)
宁德市,金涵水库,119.5001,26.6946,2025-02-03T2300,,,,,,,,,
宁德市,宁德市监测站,119.5388,26.6612,2025-02-03T2300,20,28,0.5,7,4,43,69,29,
宁德市,宁德一中,119.5231,26.6562,2025-02-03T2300,24,29,0.4,2,3,44,71,35,
怒江傈僳族自治州,州监测站,98.8601,25.8567,2025-02-03T2300,43,61,0.5,9,5,63,88,60,细颗粒物(PM2.5)
怒江傈僳族自治州,泸水一中,98.8546,25.8417,2025-02-03T2300,73,73,0.7,23,6,31,75,98,细颗粒物(PM2.5)
攀枝花市,弄弄坪,101.6891,26.571,2025-02-03T2300,11,28,0.7,17,14,44,54,28,
攀枝花市,河门口,101.5769,26.5928,2025-02-03T2300,15,30,1.4,19,37,43,52,30,
攀枝花市,炳草岗,101.7169,26.585,2025-02-03T2300,11,34,0.7,15,17,44,55,34,
攀枝花市,仁和,101.7369,26.5008,2025-02-03T2300,23,44,0.7,14,7,27,58,44,
攀枝花市,四十中小,101.7227,26.567,2025-02-03T2300,10,26,0.7,10,17,46,56,26,
盘锦市,开发区,122.0303,41.1489,2025-02-03T2300,16,45,0.6,11,7,62,77,45,
盘锦市,兴隆台,122.0485,41.0883,2025-02-03T2300,18,49,0.5,12,5,58,74,49,
盘锦市,新生街道,121.8297,41.1028,2025-02-03T2300,18,25,0.9,66,12,10,74,33,
平顶山市,新华旅馆,113.3257,33.742,2025-02-03T2300,32,58,0.4,26,4,53,90,54,颗粒物(PM10)
平顶山市,规划设计院,113.2919,33.737,2025-02-03T2300,29,41,0.4,18,6,60,86,42,
平顶山市,平顶山工学院,113.182,33.774,2025-02-03T2300,17,27,0.4,8,4,70,79,27,
平顶山市,规划局,113.3025,33.73,2025-02-03T2300,45,75,0.4,15,9,62,81,63,"颗粒物(PM10),细颗粒物(PM2.5)"
平顶山市,石龙区,112.8867,33.9116,2025-02-03T2300,13,28,0.3,11,4,71,85,28,
平凉市,聚贤嘉苑,106.6692,35.5461,2025-02-03T2300,32,71,0.7,24,16,8,15,61,颗粒物(PM10)
平凉市,博物馆,106.7021,35.5307,2025-02-03T2300,47,76,0.9,28,14,54,94,65,细颗粒物(PM2.5)
萍乡市,武功山,114.0997,27.5002,2025-02-03T2300,40,,0.6,6,3,16,39,57,细颗粒物(PM2.5)
萍乡市,中医院,113.8385,27.6434,2025-02-03T2300,47,66,1.3,18,7,10,24,65,细颗粒物(PM2.5)
萍乡市,市政府车库,113.8493,27.6253,2025-02-03T2300,60,61,1.1,19,8,7,24,82,细颗粒物(PM2.5)
萍乡市,市环保局,113.8676,27.6435,2025-02-03T2300,58,75,1.4,25,8,6,22,79,细颗粒物(PM2.5)
萍乡市,安源区政府,113.866,27.6198,2025-02-03T2300,95,,1.3,12,9,4,21,125,细颗粒物(PM2.5)
莆田市,荔城区仓后路,119.0141,25.4325,2025-02-03T2300,31,,0.5,4,2,75,72,45,
莆田市,莆田市监测站,119.0015,25.4553,2025-02-03T2300,27,,0.6,4,3,72,72,39,
莆田市,涵江区六中,119.1119,25.4561,2025-02-03T2300,37,37,0.7,4,2,76,77,53,细颗粒物(PM2.5)
莆田市,秀屿区政府,119.1013,25.3215,2025-02-03T2300,38,,0.6,4,4,75,81,54,细颗粒物(PM2.5)
莆田市,东圳水库,118.981,25.4792,2025-02-03T2300,,,,,,,,,
濮阳市,环保局,115.0312,35.7636,2025-02-03T2300,66,116,0.9,39,7,39,87,89,细颗粒物(PM2.5)
濮阳市,油田运输公司,115.0574,35.7609,2025-02-03T2300,66,106,1.0,30,9,45,86,89,细颗粒物(PM2.5)
濮阳市,濮水河管理处,115,35.7668,2025-02-03T2300,70,105,1.0,29,5,40,95,94,细颗粒物(PM2.5)
濮阳市,任丘路479号,115.0924,35.7686,2025-02-03T2300,68,124,0.8,32,10,44,90,92,细颗粒物(PM2.5)
普洱市,市环保局,100.98,22.7633,2025-02-03T2300,40,60,0.5,8,5,56,98,57,细颗粒物(PM2.5)
普洱市,普洱第二中学,100.9817,22.8322,2025-02-03T2300,69,72,0.6,36,3,18,92,93,细颗粒物(PM2.5)
七台河市,新一中,131.0518,45.8751,2025-02-03T2300,49,,1.4,9,11,104,106,68,细颗粒物(PM2.5)
七台河市,中波台,131.0577,45.7879,2025-02-03T2300,60,64,0.6,16,7,71,84,82,细颗粒物(PM2.5)
七台河市,人民广场,131.0176,45.7761,2025-02-03T2300,81,102,0.7,36,10,59,88,108,细颗粒物(PM2.5)
七台河市,新建矿广场,130.8781,45.8222,2025-02-03T2300,71,80,0.6,24,14,64,93,95,细颗粒物(PM2.5)
齐齐哈尔市,安居小区,123.9305,47.3636,2025-02-03T2300,44,,1.2,12,6,58,67,62,细颗粒物(PM2.5)
齐齐哈尔市,中心广场,123.9488,47.3386,2025-02-03T2300,29,48,0.7,10,4,57,61,48,
齐齐哈尔市,农牧车辆厂,123.9483,47.3227,2025-02-03T2300,30,,0.4,8,6,62,66,43,
齐齐哈尔市,市环境监测站,123.945,47.2988,2025-02-03T2300,35,,0.6,7,2,62,64,50,
齐齐哈尔市,富区青少年活动中心,123.6333,47.2075,2025-02-03T2300,25,,0.5,12,8,60,65,36,
黔东南苗族侗族自治州,市环境监测站,107.9783,26.5747,2025-02-03T2300,40,48,0.7,17,8,44,78,57,细颗粒物(PM2.5)
黔东南苗族侗族自治州,凯里学院,107.8908,26.5311,2025-02-03T2300,30,39,0.8,19,4,32,77,43,
黔南布依族苗族自治州,小围寨,107.5228,26.2403,2025-02-03T2300,24,34,0.7,6,5,58,71,35,
黔南布依族苗族自治州,沙坝,107.5175,26.2978,2025-02-03T2300,27,36,0.8,5,8,40,75,39,
黔西南布依族苗族自治州,场坝街,104.9022,25.0925,2025-02-03T2300,28,35,0.5,10,3,43,43,40,
黔西南布依族苗族自治州,坪东大道,104.8811,25.0992,2025-02-03T2300,34,,0.7,14,6,35,38,49,
钦州市,市环保站,108.6236,21.9667,2025-02-03T2300,12,17,0.7,9,6,60,58,19,
钦州市,沙埠小学,108.6549,21.9481,2025-02-03T2300,10,16,0.6,8,6,62,60,20,
钦州市,港区一小,108.5989,21.7431,2025-02-03T2300,13,26,0.7,11,7,60,52,26,
钦州市,北职校,108.5959,21.9633,2025-02-03T2300,16,21,0.8,8,6,62,58,23,
秦皇岛市,第一关,119.7493,40.0116,2025-02-03T2300,39,55,0.7,62,7,22,84,55,细颗粒物(PM2.5)
秦皇岛市,监测站,119.5897,39.9499,2025-02-03T2300,18,45,0.5,21,4,51,84,45,
秦皇岛市,建设大厦,119.5251,39.9041,2025-02-03T2300,24,45,0.4,24,4,50,81,45,
秦皇岛市,文明里,119.610547,39.943889,2025-02-03T2300,22,36,0.2,27,5,57,81,36,
秦皇岛市,北戴河轮滑馆,119.5090,39.8253,2025-02-03T2300,14,27,0.2,5,9,66,80,27,
青岛市,仰口,120.6659,36.2403,2025-02-03T2300,14,23,0.3,4,3,86,88,27,
青岛市,市南区东部子站,120.4134,36.0658,2025-02-03T2300,14,29,0.5,14,8,68,84,29,
青岛市,四方区子站,120.3664,36.1032,2025-02-03T2300,17,29,0.6,18,4,62,88,29,
青岛市,市南区西部子站,120.2994,36.054,2025-02-03T2300,3,22,0.4,10,7,75,83,24,
青岛市,崂山区子站,120.4581,36.0858,2025-02-03T2300,9,19,0.6,12,10,72,88,23,
青岛市,黄岛区子站,120.1983,35.9608,2025-02-03T2300,12,22,0.6,15,7,69,84,22,
青岛市,城阳区子站,120.3999,36.3083,2025-02-03T2300,20,34,0.8,15,11,64,87,34,
青岛市,黄岛区4号,120.0405,35.8735,2025-02-03T2300,3,24,0.7,11,8,71,88,24,
青岛市,即墨2号,120.5014,36.4034,2025-02-03T2300,13,27,0.7,9,9,72,86,27,
青岛市,市北区南部,120.3503,36.0736,2025-02-03T2300,12,22,0.6,16,8,63,78,22,
青岛市,李沧区北部,120.3948,36.1805,2025-02-03T2300,22,29,0.7,20,13,61,84,32,
清远市,环保大楼,113.0426,23.691,2025-02-03T2300,,7,0.9,6,3,33,31,,
清远市,凤城街办,113.0208,23.7106,2025-02-03T2300,7,7,0.9,7,5,32,28,10,
清远市,技师学院,113.0477,23.6344,2025-02-03T2300,6,7,1.1,7,6,35,32,11,
清远市,清新太和,112.9903,23.7403,2025-02-03T2300,11,,1.1,6,3,32,31,16,
清远市,清城东城,113.076,23.7198,2025-02-03T2300,3,7,1.2,5,5,32,32,12,
庆阳市,庆阳五中,107.6325,35.7357,2025-02-03T2300,22,39,0.4,9,7,75,79,39,
庆阳市,市环保局,107.6364,35.7067,2025-02-03T2300,20,47,0.5,11,9,71,82,47,
曲靖市,环境监测站,103.7897,25.5035,2025-02-03T2300,20,26,0.7,12,4,40,48,29,
曲靖市,烟厂办公区,103.8,25.5364,2025-02-03T2300,18,23,0.6,9,4,43,50,26,
曲靖市,南苑二区,103.7947,25.462,2025-02-03T2300,19,28,0.7,10,4,45,55,28,
曲靖市,曲靖师范学院,103.7444,25.5261,2025-02-03T2300,17,23,0.6,9,5,44,49,25,
衢州市,环保大楼,118.8692,28.9398,2025-02-03T2300,54,74,0.7,16,3,28,68,74,细颗粒物(PM2.5)
衢州市,实验学校,118.8709,28.9666,2025-02-03T2300,51,65,0.6,17,6,34,71,70,细颗粒物(PM2.5)
衢州市,衢州学院,118.8621,28.9808,2025-02-03T2300,50,61,0.6,18,1,30,68,69,细颗粒物(PM2.5)
泉州市,涂山街,118.5819,24.9117,2025-02-03T2300,19,21,0.5,6,4,76,71,28,
泉州市,津头埔,118.5972,24.8978,2025-02-03T2300,23,,0.5,5,2,75,68,33,
泉州市,万安,118.6663,24.9424,2025-02-03T2300,22,25,0.6,4,3,81,78,32,
泉州市,清源山,118.6117,24.9604,2025-02-03T2300,,,,,,,,,
泉州市,城华南路,118.6333,24.9264,2025-02-03T2300,24,26,0.5,1,2,76,71,35,
日喀则市,日喀则监测站,88.8876,29.2718,2025-02-03T2300,19,30,0.8,26,4,67,102,30,
日喀则市,林业技术推广中心,88.8781,29.2426,2025-02-03T2300,20,30,0.6,14,10,51,100,30,
日照市,监测站,119.471,35.4209,2025-02-03T2300,11,29,0.5,10,6,74,86,29,
日照市,市政府广场,119.523,35.4216,2025-02-03T2300,12,22,0.5,5,3,75,88,24,
日照市,港务局,119.5587,35.4044,2025-02-03T2300,17,31,0.5,8,5,76,89,31,
日照市,职业技术学院,119.5328,35.4625,2025-02-03T2300,12,29,0.6,10,4,71,88,29,
日照市,岚山环保分局,119.3266,35.1044,2025-02-03T2300,19,46,0.7,19,7,67,91,46,
三门峡市,市政府,111.1922,34.7752,2025-02-03T2300,21,43,0.7,24,10,41,87,43,
三门峡市,开发区,111.1587,34.7942,2025-02-03T2300,19,42,0.6,18,3,41,85,42,
三门峡市,风景区,111.143,34.7955,2025-02-03T2300,26,50,0.5,21,7,43,83,50,
三门峡市,三门峡市第一小学,111.1911,34.7829,2025-02-03T2300,20,44,0.9,25,10,42,84,44,
三门峡市,富达温泉假日酒店,111.1,34.7167,2025-02-03T2300,22,52,0.8,35,7,28,79,51,颗粒物(PM10)
三明市,三钢,117.6211,26.2625,2025-02-03T2300,30,,0.5,7,14,49,52,43,
三明市,三明二中,117.635,26.2714,2025-02-03T2300,12,26,0.2,5,10,50,50,26,
三明市,三元区政府,117.6028,26.2378,2025-02-03T2300,11,20,0.3,4,10,57,57,20,
三明市,洋溪,117.7275,26.3108,2025-02-03T2300,,,,,,,,,
三亚市,河东子站,109.5078,18.2489,2025-02-03T2300,3,6,1.0,8,2,26,72,10,
三亚市,河西子站,109.4964,18.2681,2025-02-03T2300,3,7,0.7,7,3,26,71,9,
三亚市,君悦子站,109.7348,18.3443,2025-02-03T2300,3,17,0.8,6,3,36,73,17,
山南市,山南监测站,91.7608,29.2313,2025-02-03T2300,13,26,0.7,17,5,65,99,26,
山南市,山南人民医院,91.7706,29.2436,2025-02-03T2300,11,27,0.6,6,2,83,98,27,
汕头市,金平子站,116.6794,23.3667,2025-02-03T2300,16,20,0.6,10,6,25,71,23,
汕头市,龙湖子站,116.7244,23.3633,2025-02-03T2300,7,14,0.6,6,2,20,65,14,
汕头市,濠江子站,116.7258,23.2775,2025-02-03T2300,,,,,,,68,,
汕头市,澄海子站,116.7519,23.4714,2025-02-03T2300,7,8,0.6,8,2,21,64,10,
汕头市,潮阳子站,116.6092,23.2539,2025-02-03T2300,3,14,0.8,2,6,26,68,14,
汕头市,潮南峡山,116.454,23.2684,2025-02-03T2300,7,14,0.4,5,8,24,54,14,
汕头市,潮南子站,116.4069,23.2533,2025-02-03T2300,15,25,0.6,8,7,26,59,25,
汕尾市,市环保局,115.3653,22.775,2025-02-03T2300,10,,0.7,3,8,30,40,,
汕尾市,市政府,115.3706,22.7898,2025-02-03T2300,6,6,0.3,4,9,40,48,13,
汕尾市,新城中学,115.3622,22.7925,2025-02-03T2300,3,6,0.6,4,8,37,45,12,
商洛市,监测站,109.9154,33.8715,2025-02-03T2300,21,33,0.4,10,4,59,85,33,
商洛市,商州区中学,109.9643,33.8471,2025-02-03T2300,23,33,0.7,19,6,47,88,33,
商丘市,环境监测站,115.6702,34.4285,2025-02-03T2300,100,113,0.7,14,3,65,71,132,细颗粒物(PM2.5)
商丘市,粮食局,115.6458,34.4045,2025-02-03T2300,88,92,0.7,18,3,80,87,117,细颗粒物(PM2.5)
商丘市,睢阳区环保局,115.6293,34.3948,2025-02-03T2300,105,137,0.6,17,5,73,81,138,细颗粒物(PM2.5)
商丘市,梁园区档案局,115.6071,34.4465,2025-02-03T2300,97,,0.7,11,3,78,87,128,细颗粒物(PM2.5)
上海市,普陀,121.4,31.238,2025-02-03T2300,38,54,0.9,26,6,61,79,54,细颗粒物(PM2.5)
上海市,十五厂,121.478,31.2036,2025-02-03T2300,39,52,1.0,45,8,40,75,55,细颗粒物(PM2.5)
上海市,虹口,121.467,31.3008,2025-02-03T2300,33,51,0.9,30,7,66,84,51,颗粒物(PM10)
上海市,静安监测站,121.425,31.2261,2025-02-03T2300,40,53,1.3,32,12,60,82,57,细颗粒物(PM2.5)
上海市,浦东川沙,121.703,31.1907,2025-02-03T2300,35,56,0.6,24,6,69,83,53,颗粒物(PM10)
上海市,浦东新区监测站,121.533,31.2284,2025-02-03T2300,32,50,0.9,40,7,55,83,50,
上海市,浦东张江,121.577,31.2071,2025-02-03T2300,26,47,0.8,19,6,74,81,47,
上海市,宝山庙行,121.4316,31.3322,2025-02-03T2300,37,58,1.0,25,8,67,85,54,颗粒物(PM10)
上海市,崇明上实东滩,121.8791,31.4662,2025-02-03T2300,34,46,0.7,9,8,68,92,49,
上海市,嘉定南翔,121.3162,31.2838,2025-02-03T2300,70,84,0.9,28,8,56,79,94,细颗粒物(PM2.5)
上海市,金山新城,121.3359,30.7456,2025-02-03T2300,49,56,0.7,12,3,77,88,68,细颗粒物(PM2.5)
上海市,闵行浦江,121.4996,31.0739,2025-02-03T2300,36,50,0.6,28,5,58,86,52,细颗粒物(PM2.5)
上海市,青浦徐泾,121.2886,31.1663,2025-02-03T2300,61,76,1.1,38,18,41,86,83,细颗粒物(PM2.5)
上海市,松江图书馆,121.2186,31.0378,2025-02-03T2300,47,58,0.9,24,7,57,85,65,细颗粒物(PM2.5)
上海市,长宁仙霞,121.3902,31.2059,2025-02-03T2300,34,51,1.2,28,7,60,87,51,颗粒物(PM10)
上海市,浦东惠南,121.7965,31.0507,2025-02-03T2300,27,49,0.9,26,6,71,84,49,
上海市,奉贤南桥新城,121.4891,30.925,2025-02-03T2300,54,74,1.0,18,8,66,83,74,细颗粒物(PM2.5)
上海市,冠生园路458号,121.4174,31.16637,2025-02-03T2300,38,55,1.0,22,6,51,82,54,细颗粒物(PM2.5)
上海市,宁武路151号,121.5419,31.2683,2025-02-03T2300,32,53,0.6,28,5,59,81,52,颗粒物(PM10)
上饶市,百草园,118.005,28.4572,2025-02-03T2300,30,47,0.8,4,3,23,70,47,
上饶市,市监测站,117.9756,28.4436,2025-02-03T2300,24,44,0.7,16,5,25,77,44,
上饶市,凤凰光学,117.9519,28.4628,2025-02-03T2300,20,37,0.4,13,6,32,82,37,
上饶市,双创科技城,117.897,28.4315,2025-02-03T2300,29,41,0.7,20,11,26,77,42,
上饶市,裕丰大道,118.1904,28.4448,2025-02-03T2300,50,61,0.6,18,6,30,77,69,细颗粒物(PM2.5)
韶关市,市八中,113.5824,24.7733,2025-02-03T2300,9,12,0.8,6,5,25,25,13,
韶关市,园林处,113.5917,24.7972,2025-02-03T2300,12,13,0.8,11,4,25,27,18,
韶关市,韶关学院,113.6735,24.7791,2025-02-03T2300,16,,0.6,6,6,34,20,23,
韶关市,曲江监测站,113.5971,24.6863,2025-02-03T2300,9,12,0.8,13,4,20,22,13,
韶关市,碧湖山庄,113.5556,24.8082,2025-02-03T2300,10,13,0.9,10,5,21,22,15,
邵阳市,市水土所,111.5239,27.3033,2025-02-03T2300,,,,,,,,,
邵阳市,市化工厂,111.5283,27.2442,2025-02-03T2300,87,117,1.3,31,5,12,79,115,细颗粒物(PM2.5)
邵阳市,市环保局,111.4328,27.2272,2025-02-03T2300,99,124,1.6,38,6,18,79,130,细颗粒物(PM2.5)
邵阳市,邵阳卫生学校,111.4399,27.2495,2025-02-03T2300,119,120,1.3,17,10,20,76,156,细颗粒物(PM2.5)
邵阳市,邵阳市第二中学图书馆,111.4684,27.2316,2025-02-03T2300,113,126,1.4,42,9,16,84,148,细颗粒物(PM2.5)
绍兴市,城东开发委,120.6053,29.9928,2025-02-03T2300,37,,0.7,13,5,43,84,53,细颗粒物(PM2.5)
绍兴市,树下王站,120.5483,30.0003,2025-02-03T2300,39,52,0.7,16,5,37,80,55,细颗粒物(PM2.5)
绍兴市,绍兴中专,120.5683,29.9361,2025-02-03T2300,30,40,0.5,12,2,48,78,43,
绍兴市,柯桥区政府,120.4906,30.0861,2025-02-03T2300,41,66,0.7,20,6,58,83,58,"颗粒物(PM10),细颗粒物(PM2.5)"
绍兴市,重华小学,120.8752,30.0249,2025-02-03T2300,42,53,0.7,14,5,47,81,59,细颗粒物(PM2.5)
绍兴市,上虞中学,120.8369,30.0137,2025-02-03T2300,47,58,0.7,13,6,40,84,65,细颗粒物(PM2.5)
绍兴市,柯桥妇保,120.4722,30.0415,2025-02-03T2300,35,50,0.6,13,5,45,76,50,
绍兴市,袍江中学,120.6153,30.0764,2025-02-03T2300,39,45,0.5,20,2,63,78,55,细颗粒物(PM2.5)
深圳市,通心岭子站,114.1063,22.5545,2025-02-03T2300,3,8,0.5,6,6,51,50,16,
深圳市,洪湖,114.117,22.5625,2025-02-03T2300,3,9,0.4,6,5,48,46,15,
深圳市,华侨城,113.987,22.5417,2025-02-03T2300,3,9,0.5,4,6,53,51,17,
深圳市,南海子站,113.9181,22.5171,2025-02-03T2300,3,11,0.5,8,6,54,54,17,
深圳市,盐田,114.2458,22.5689,2025-02-03T2300,3,11,0.7,5,6,48,52,15,
深圳市,龙岗,114.2283,22.7244,2025-02-03T2300,3,6,0.6,6,7,50,50,16,
深圳市,南澳,114.494,22.5422,2025-02-03T2300,3,6,0.6,3,7,46,57,15,
深圳市,葵涌,114.41,22.6342,2025-02-03T2300,3,8,0.7,6,4,48,57,15,
深圳市,梅沙,114.297,22.5978,2025-02-03T2300,3,7,0.6,4,5,51,58,16,
深圳市,观澜,114.0678,22.738,2025-02-03T2300,3,6,0.5,3,6,51,53,16,
深圳市,莲花,114.0731,22.559,2025-02-03T2300,3,7,0.8,6,3,52,49,17,
深圳市,民治,114.0261,22.6198,2025-02-03T2300,6,9,0.5,7,5,52,52,17,
深圳市,横岗,114.1871,22.6451,2025-02-03T2300,3,9,0.5,3,5,48,48,15,
深圳市,坪山,114.3551,22.7151,2025-02-03T2300,3,7,0.6,5,5,48,57,15,
深圳市,西乡,113.8953,22.5861,2025-02-03T2300,3,9,0.6,5,8,57,57,18,
沈阳市,森林路,123.6836,41.9339,2025-02-03T2300,,,,,,,,,
沈阳市,浑南东路,123.505,41.7406,2025-02-03T2300,44,60,1.2,64,8,16,74,62,细颗粒物(PM2.5)
沈阳市,新秀街,123.4231,41.6989,2025-02-03T2300,32,48,0.7,47,7,24,69,48,
沈阳市,东陵路,123.5903,41.8411,2025-02-03T2300,28,36,0.8,49,5,22,68,40,
沈阳市,陵东街,123.4264,41.8467,2025-02-03T2300,19,32,0.8,33,8,40,71,32,
沈阳市,文化路,123.4114,41.7653,2025-02-03T2300,13,25,0.6,30,39,46,70,25,
沈阳市,小河沿,123.4678,41.7867,2025-02-03T2300,24,34,0.6,29,10,45,70,35,
沈阳市,太原街,123.4017,41.7972,2025-02-03T2300,34,,0.7,28,19,48,67,49,
沈阳市,京沈街,123.3783,41.9228,2025-02-03T2300,56,,0.9,41,12,29,69,77,细颗粒物(PM2.5)
沈阳市,沈辽西路,123.2444,41.7347,2025-02-03T2300,34,71,0.8,54,11,19,71,61,颗粒物(PM10)
沈阳市,裕农路,123.5953,41.9086,2025-02-03T2300,21,29,0.6,18,7,57,70,30,
十堰市,武当山,111.0419,32.395,2025-02-03T2300,11,20,0.5,5,9,82,101,26,
十堰市,滨河新村,110.78,32.6494,2025-02-03T2300,73,109,1.1,37,8,7,76,98,细颗粒物(PM2.5)
十堰市,刘家沟,110.7258,32.6389,2025-02-03T2300,25,34,0.7,12,7,35,63,36,
十堰市,铁二处,110.8839,32.5714,2025-02-03T2300,26,27,0.6,8,8,40,76,38,
十堰市,郧阳区金沙路,110.8054,32.8401,2025-02-03T2300,27,36,0.7,6,4,54,62,39,
石河子市,艾青诗歌馆,86.0497,44.2967,2025-02-03T2300,38,49,0.6,27,7,60,79,54,细颗粒物(PM2.5)
石河子市,南区管委会,86.047,44.2331,2025-02-03T2300,32,40,0.6,17,6,72,82,46,
石河子市,世纪广场,86.0791,44.3017,2025-02-03T2300,31,46,0.8,26,5,58,80,46,
石家庄市,职工医院,114.4422,38.0444,2025-02-03T2300,39,,0.3,8,5,70,71,55,细颗粒物(PM2.5)
石家庄市,高新区,114.6063,38.0266,2025-02-03T2300,23,44,0.3,9,5,76,77,44,
石家庄市,西北水源,114.4898,38.1328,2025-02-03T2300,12,31,0.3,4,4,67,74,31,
石家庄市,西南高教,114.4586,38.0058,2025-02-03T2300,14,29,0.1,14,4,70,77,29,
石家庄市,世纪公园,114.5331,38.0178,2025-02-03T2300,37,51,0.3,7,4,76,74,53,细颗粒物(PM2.5)
石家庄市,人民会堂,114.509,38.0457,2025-02-03T2300,13,45,0.3,2,5,72,70,45,
石家庄市,封龙山,114.3524,37.8911,2025-02-03T2300,15,29,0.3,7,11,76,80,29,
石家庄市,22中南校区,114.5481,38.0378,2025-02-03T2300,35,,0.3,4,5,73,72,50,
石家庄市,鹿泉一中,114.289,38.0906,2025-02-03T2300,35,55,0.4,13,4,57,77,53,颗粒物(PM10)
石家庄市,藁城区实验学校,114.8506765,38.0322033,2025-02-03T2300,20,47,0.5,13,4,61,76,47,
石家庄市,井陉矿区区委大楼,114.0504658,38.0591645,2025-02-03T2300,3,18,0.4,15,5,55,59,18,
石家庄市,栾城区星河路,114.6549,37.9020,2025-02-03T2300,32,67,0.6,9,14,72,85,59,颗粒物(PM10)
石嘴山市,沙湖旅游区,106.3394,38.817,2025-02-03T2300,,,,,,,,,
石嘴山市,大武口朝阳西街,106.3668,39.0145,2025-02-03T2300,10,27,0.7,3,9,87,87,28,
石嘴山市,惠农南大街,106.7704,39.2282,2025-02-03T2300,11,,0.9,40,20,31,74,,
石嘴山市,红果子镇惠新街,106.7099,39.1325,2025-02-03T2300,12,32,0.7,24,10,56,84,32,
石嘴山市,妇女儿童医院,106.3495,38.9836,2025-02-03T2300,9,20,0.1,5,2,86,89,27,
石嘴山市,石大公路,106.7492,39.2069,2025-02-03T2300,23,36,0.8,39,10,36,83,36,
双鸭山市,双合村,131.1511,46.6937,2025-02-03T2300,119,134,1.0,31,8,41,67,156,细颗粒物(PM2.5)
双鸭山市,南小市,131.1652,46.6191,2025-02-03T2300,69,73,0.8,15,10,80,74,93,细颗粒物(PM2.5)
双鸭山市,环保局,131.1524,46.6554,2025-02-03T2300,135,156,1.1,42,10,38,74,179,细颗粒物(PM2.5)
双鸭山市,苗圃,131.12,46.5656,2025-02-03T2300,,,,,,,,,
朔州市,平朔,112.4397,39.3522,2025-02-03T2300,66,78,0.8,29,17,23,72,89,细颗粒物(PM2.5)
朔州市,朔唯,112.4575,39.3617,2025-02-03T2300,17,35,0.5,14,13,46,70,35,
朔州市,区政府,112.4258,39.3197,2025-02-03T2300,36,54,0.9,28,25,32,70,52,"颗粒物(PM10),细颗粒物(PM2.5)"
朔州市,市环保局,112.4072,39.3278,2025-02-03T2300,18,73,0.7,21,21,37,64,62,颗粒物(PM10)
朔州市,市二中,112.4272,39.3681,2025-02-03T2300,14,61,0.6,27,17,28,72,56,颗粒物(PM10)
朔州市,一水厂,112.2931,39.53,2025-02-03T2300,12,25,0.4,9,6,60,74,25,
四平市,一商场,124.4002,43.1713,2025-02-03T2300,62,80,0.6,35,5,44,76,84,细颗粒物(PM2.5)
四平市,境园,124.388,43.193,2025-02-03T2300,71,95,1.0,49,6,26,79,95,细颗粒物(PM2.5)
四平市,植物园,124.4036,43.1411,2025-02-03T2300,61,81,1.0,57,4,22,76,83,细颗粒物(PM2.5)
四平市,世纪城,124.3419,43.1666,2025-02-03T2300,130,154,1.3,66,8,25,79,172,细颗粒物(PM2.5)
松原市,江南,124.8006,45.1214,2025-02-03T2300,39,53,0.7,18,5,51,65,55,细颗粒物(PM2.5)
松原市,江北,124.7965,45.1722,2025-02-03T2300,45,45,0.7,20,2,44,69,63,细颗粒物(PM2.5)
苏州市,上方山,120.561,31.2472,2025-02-03T2300,,,,,,,,,
苏州市,彩香,120.591,31.3019,2025-02-03T2300,33,43,0.7,21,9,67,85,48,
苏州市,轧钢厂,120.596,31.3264,2025-02-03T2300,34,47,0.6,38,7,41,82,49,
苏州市,吴中区,120.613,31.2703,2025-02-03T2300,31,44,0.7,17,6,74,88,45,
苏州市,苏州新区,120.543,31.2994,2025-02-03T2300,34,44,0.7,23,4,70,91,49,
苏州市,苏州工业园区,120.669,31.3097,2025-02-03T2300,38,48,0.9,22,8,55,74,54,细颗粒物(PM2.5)
苏州市,相城区,120.641,31.3708,2025-02-03T2300,32,49,0.9,15,7,78,89,49,
苏州市,方洲路,120.743,31.3188,2025-02-03T2300,36,48,0.8,13,5,76,90,52,细颗粒物(PM2.5)
苏州市,木渎中学,120.5031,31.2774,2025-02-03T2300,28,39,0.5,13,8,76,87,40,
苏州市,越秀幼儿园,120.624,31.1733,2025-02-03T2300,32,59,0.7,21,7,71,88,55,颗粒物(PM10)
苏州市,高铁新城,120.6505,31.416,2025-02-03T2300,35,47,0.8,34,8,51,87,50,
宿迁市,宿迁学院,118.293,33.9528,2025-02-03T2300,68,87,0.7,9,3,77,91,92,细颗粒物(PM2.5)
宿迁市,宿迁中学,118.2442,33.9592,2025-02-03T2300,83,102,0.8,17,4,68,89,110,细颗粒物(PM2.5)
宿迁市,市供电局,118.283,33.965,2025-02-03T2300,76,90,0.9,11,3,76,94,102,细颗粒物(PM2.5)
宿迁市,宿豫区政府,118.3225,33.9447,2025-02-03T2300,74,88,0.7,22,3,66,89,99,细颗粒物(PM2.5)
宿州市,远航博物馆,116.9509,33.666,2025-02-03T2300,89,121,0.8,39,1,42,88,118,细颗粒物(PM2.5)
宿州市,社会福利中心,116.9708,33.591,2025-02-03T2300,79,111,0.7,38,7,50,82,105,细颗粒物(PM2.5)
宿州市,宿州学院,116.9884,33.6305,2025-02-03T2300,100,124,0.7,35,3,41,83,132,细颗粒物(PM2.5)
宿州市,皖北煤电集团,116.9648,33.6252,2025-02-03T2300,100,129,1.0,51,3,24,87,132,细颗粒物(PM2.5)
绥化市,人和东街,126.9785,46.6365,2025-02-03T2300,68,77,0.8,18,2,67,85,92,细颗粒物(PM2.5)
绥化市,党政办公中心,126.964,46.6528,2025-02-03T2300,71,83,0.8,18,3,72,90,95,细颗粒物(PM2.5)
随州市,市委党校,113.3583,31.7275,2025-02-03T2300,59,77,0.8,17,10,72,86,80,细颗粒物(PM2.5)
随州市,市林业局,113.3833,31.6908,2025-02-03T2300,59,63,1.1,11,13,79,93,80,细颗粒物(PM2.5)
随州市,市立交桥水厂,113.3983,31.7308,2025-02-03T2300,58,74,0.8,36,10,43,87,79,细颗粒物(PM2.5)
遂宁市,石溪浩,105.5453,30.5678,2025-02-03T2300,42,91,0.6,26,2,8,68,71,颗粒物(PM10)
遂宁市,市监测站,105.5582,30.5232,2025-02-03T2300,28,53,0.5,32,6,20,76,52,颗粒物(PM10)
遂宁市,行政中心,105.5861,30.5366,2025-02-03T2300,41,57,0.6,41,9,19,74,58,细颗粒物(PM2.5)
遂宁市,美宁食品公司,105.5918,30.4728,2025-02-03T2300,35,,0.5,13,5,17,76,50,
塔城地区,东门外小游园,82.9994,46.7432,2025-02-03T2300,12,16,0.2,,4,36,43,,
台州市,黄岩环保大楼,121.273,28.6459,2025-02-03T2300,55,71,0.9,19,3,43,73,75,细颗粒物(PM2.5)
台州市,台州环保大楼,121.419,28.6542,2025-02-03T2300,56,67,0.7,14,3,58,74,77,细颗粒物(PM2.5)
台州市,路桥田洋王,121.377,28.5773,2025-02-03T2300,66,79,0.7,14,2,57,71,89,细颗粒物(PM2.5)
台州市,台州科技职业学院,121.2568,28.6681,2025-02-03T2300,52,75,1.0,10,4,52,73,72,细颗粒物(PM2.5)
太原市,尖草坪,112.522,37.8873,2025-02-03T2300,20,42,0.5,41,7,30,74,42,
太原市,上兰,112.434,38.0108,2025-02-03T2300,31,,0.3,12,3,60,74,45,
太原市,晋源,112.469,37.7124,2025-02-03T2300,19,42,0.4,20,8,48,77,42,
太原市,小店,112.5583,37.7394,2025-02-03T2300,20,39,0.5,38,6,34,76,39,
太原市,桃园,112.5369,37.8692,2025-02-03T2300,22,46,0.5,25,5,42,74,46,
太原市,坞城,112.57,37.8195,2025-02-03T2300,28,43,0.5,15,6,55,75,43,
太原市,南寨,112.549,37.9854,2025-02-03T2300,25,43,0.7,40,8,13,76,43,
太原市,金胜,112.4719,37.7831,2025-02-03T2300,12,38,0.4,13,9,54,77,38,
太原市,育英中学,112.5608,37.8807,2025-02-03T2300,20,45,0.6,19,10,48,75,45,
泰安市,监测站,117.1437,36.1937,2025-02-03T2300,37,46,0.8,29,10,52,88,53,细颗粒物(PM2.5)
泰安市,人口学校,117.0885,36.2017,2025-02-03T2300,21,41,0.5,17,8,55,75,41,
泰安市,电力学校,117.1089,36.1758,2025-02-03T2300,31,46,0.6,56,12,24,90,46,
泰安市,国网新校,117.1812,36.2275,2025-02-03T2300,29,44,0.7,16,7,56,88,44,
泰安市,交通技校,117.0313,36.2018,2025-02-03T2300,23,32,0.6,10,5,70,84,33,
泰安市,山东第一医科大学,117.0829,36.13,2025-02-03T2300,18,41,0.9,31,9,58,82,41,
泰州市,公园路,119.905,32.4878,2025-02-03T2300,70,80,0.6,17,10,71,96,94,细颗粒物(PM2.5)
泰州市,莲花,119.9189,32.4625,2025-02-03T2300,70,81,0.8,19,8,69,90,94,细颗粒物(PM2.5)
泰州市,留学生创业园,119.888,32.4639,2025-02-03T2300,70,83,0.6,23,8,66,99,94,细颗粒物(PM2.5)
泰州市,王营,119.8767,32.3289,2025-02-03T2300,83,92,0.7,22,6,62,85,110,细颗粒物(PM2.5)
泰州市,姜堰区政府广场,120.1259,32.5099,2025-02-03T2300,62,71,0.6,12,6,80,96,84,细颗粒物(PM2.5)
泰州市,周山河街区,119.9192,32.4322,2025-02-03T2300,53,83,0.8,16,8,71,88,73,细颗粒物(PM2.5)
唐山市,物资局,118.1725,39.6334,2025-02-03T2300,7,19,0.3,6,5,69,81,22,
唐山市,十二中,118.1705,39.6506,2025-02-03T2300,18,18,0.3,11,3,66,79,26,
唐山市,小山,118.1869,39.622,2025-02-03T2300,15,16,0.3,2,3,70,82,22,
唐山市,冀东油田职工医院,118.4359,39.2762,2025-02-03T2300,7,24,0.4,6,9,66,80,24,
唐山市,正泰大街热力站,118.09279,39.58089,2025-02-03T2300,15,,0.3,3,2,64,72,22,
唐山市,丰润区政府,118.1562,39.8322,2025-02-03T2300,11,14,0.2,2,4,80,83,25,
唐山市,金山小学,118.43673,39.73809,2025-02-03T2300,3,22,0.4,2,4,76,82,24,
唐山市,政府服务中心,118.24498,39.66941,2025-02-03T2300,3,14,0.2,2,3,78,85,25,
唐山市,消防缸窑路中队,118.2059,39.6585,2025-02-03T2300,6,16,0.3,8,3,72,83,23,
唐山市,路南电大,118.1436,39.6202,2025-02-03T2300,12,30,0.3,9,3,66,77,30,
唐山市,友谊北路34号,118.1309,39.6360,2025-02-03T2300,3,14,0.4,8,4,72,84,23,
天津市,勤俭道,117.1444,39.1661,2025-02-03T2300,3,12,0.2,2,4,78,80,25,
天津市,前进道,117.202,39.0927,2025-02-03T2300,3,11,0.2,3,4,78,81,25,
天津市,淮河道,117.1837,39.2133,2025-02-03T2300,3,12,0.0,4,3,80,84,25,
天津市,跃进路,117.307,39.0877,2025-02-03T2300,3,12,0.3,3,1,83,85,26,
天津市,第四大街,117.707,39.0343,2025-02-03T2300,7,16,0.5,8,4,70,74,22,
天津市,永明路,117.457,38.8394,2025-02-03T2300,3,13,0.3,3,4,79,82,25,
天津市,汉北路,117.764,39.1587,2025-02-03T2300,9,18,0.4,5,3,66,79,21,
天津市,团泊洼,117.157,38.9194,2025-02-03T2300,,,,,,,,,
天津市,河西一经路,117.7918,39.2474,2025-02-03T2300,8,14,0.4,5,4,68,79,22,
天津市,津沽路,117.3747,38.9846,2025-02-03T2300,3,11,0.4,5,1,81,87,26,
天津市,宾水西道,117.1589,39.0845,2025-02-03T2300,3,8,0.3,9,2,66,70,21,
天津市,大理道,117.1941,39.1067,2025-02-03T2300,3,10,0.4,5,3,79,83,25,
天津市,中山北路,117.2101,39.1699,2025-02-03T2300,3,10,0.0,8,1,75,80,24,
天津市,西四道,117.3876,39.1488,2025-02-03T2300,3,11,0.2,4,5,80,84,25,
天津市,雍阳西道,117.0365,39.3828,2025-02-03T2300,3,9,0,3,2,84,86,27,
天津市,辛老路,117.0296,39.0605,2025-02-03T2300,3,15,0.3,4,2,77,84,25,
天津市,地纬路,116.9638,38.9375,2025-02-03T2300,6,12,0.6,6,4,71,79,23,
天津市,北环路,117.4067,40.0583,2025-02-03T2300,3,6,0.3,2,3,76,78,24,
天津市,建设路,117.3045,39.7169,2025-02-03T2300,7,16,0.0,3,6,77,83,25,
天津市,滨水东路,117.8199,39.3521,2025-02-03T2300,12,27,0.3,1,5,66,80,27,
天津市,光华路,117.2437,39.1029,2025-02-03T2300,3,9,0.4,4,3,83,88,26,
天水市,麦积山,106.0055,34.343,2025-02-03T2300,,,,,,,,,
天水市,公园小学,105.7205,34.5786,2025-02-03T2300,56,81,0.8,25,14,43,92,77,细颗粒物(PM2.5)
天水市,麦积国土局,105.8945,34.5538,2025-02-03T2300,48,86,1.1,43,14,31,90,68,颗粒物(PM10)
铁岭市,汇工街西,123.8139,42.3022,2025-02-03T2300,94,109,1.6,64,11,7,71,124,细颗粒物(PM2.5)
铁岭市,水上乐园,123.8649,42.2923,2025-02-03T2300,39,,0.7,10,2,61,70,55,细颗粒物(PM2.5)
铁岭市,银州路东段,123.8486,42.2867,2025-02-03T2300,53,55,0.9,22,4,49,67,73,细颗粒物(PM2.5)
铁岭市,金沙江路北,123.7153,42.2217,2025-02-03T2300,51,71,0.9,49,3,26,73,70,细颗粒物(PM2.5)
通化市,光明,125.9358,41.7173,2025-02-03T2300,25,36,1.0,17,8,55,71,36,
通化市,铁路,125.9446,41.7325,2025-02-03T2300,37,69,0.6,24,12,51,73,60,颗粒物(PM10)
通辽市,艺术职业学校,122.2532,43.6801,2025-02-03T2300,8,40,0.4,8,9,63,70,40,
通辽市,老干部活动中心,122.2584,43.6333,2025-02-03T2300,19,40,0.3,11,8,60,68,40,
通辽市,东方明珠社区,122.2922,43.6189,2025-02-03T2300,25,41,0.3,10,11,63,69,41,
铜川市,党校,109.0656,35.0994,2025-02-03T2300,,,,,,,,,
铜川市,王益区政府,109.0697,35.0697,2025-02-03T2300,25,41,0.5,28,6,30,78,41,
铜川市,新区管委会,108.9344,34.9058,2025-02-03T2300,28,45,0.4,20,12,47,78,45,
铜川市,旺旺集团,108.9543,34.8732,2025-02-03T2300,33,53,0.6,21,23,54,87,52,颗粒物(PM10)
铜陵市,市第四中学,117.8177,30.9412,2025-02-03T2300,95,139,0.7,18,9,58,69,125,细颗粒物(PM2.5)
铜陵市,市公路局,117.8059,30.9273,2025-02-03T2300,71,101,0.9,18,6,56,67,95,细颗粒物(PM2.5)
铜陵市,市新民污水厂,117.7807,30.9413,2025-02-03T2300,74,119,0.8,14,7,53,66,99,细颗粒物(PM2.5)
铜陵市,市第九中学,117.7439,30.8792,2025-02-03T2300,74,94,0.7,13,4,68,64,99,细颗粒物(PM2.5)
铜陵市,车站新区,117.846,30.9413,2025-02-03T2300,90,136,0.8,22,10,48,69,119,细颗粒物(PM2.5)
铜陵市,市职教基地,117.8483,30.97,2025-02-03T2300,75,101,1.0,13,6,51,67,100,细颗粒物(PM2.5)
铜仁市,铜仁卫校,109.1839,27.7344,2025-02-03T2300,54,71,1.0,25,1,15,73,74,细颗粒物(PM2.5)
铜仁市,铜仁七中,109.1753,27.6944,2025-02-03T2300,44,46,0.5,8,2,33,74,62,细颗粒物(PM2.5)
吐鲁番市,市环保局,89.1904,42.9418,2025-02-03T2300,89,195,2.1,84,8,15,80,123,颗粒物(PM10)
吐鲁番市,地区环保局,89.1673,42.9559,2025-02-03T2300,77,179,1.6,41,4,33,80,115,颗粒物(PM10)
威海市,华夏技校,122.1214,37.4236,2025-02-03T2300,3,14,0.2,6,4,83,83,26,
威海市,山大分校,122.0508,37.5236,2025-02-03T2300,3,17,0.3,8,6,84,84,27,
威海市,市监测站,122.1067,37.5072,2025-02-03T2300,3,15,0.3,10,3,80,78,25,
威海市,文登开发区,122.0693,37.2174,2025-02-03T2300,9,14,0.0,1,3,82,81,26,
威海市,临港区管委会,122.1379,37.3414,2025-02-03T2300,3,14,0.1,5,1,79,78,25,
潍坊市,环保局,119.1437,36.7023,2025-02-03T2300,9,24,0.2,17,8,59,82,24,
潍坊市,坊子邮政,119.1641,36.6523,2025-02-03T2300,24,39,0.7,10,7,62,84,39,
潍坊市,潍坊七中,119.0587,36.721,2025-02-03T2300,26,39,0.4,20,9,46,82,39,
潍坊市,高新实验学校,119.1977,36.6872,2025-02-03T2300,13,29,0.5,7,9,78,84,29,
潍坊市,潍坊学院,119.1755,36.7149,2025-02-03T2300,10,29,0.7,9,12,73,90,29,
潍坊市,寒亭区实验一小,119.2041,36.7699,2025-02-03T2300,22,36,0.3,26,12,54,83,36,
渭南市,农科所,109.5293,34.5101,2025-02-03T2300,,,,,,,,,
渭南市,体育馆,109.4636,34.493,2025-02-03T2300,10,31,0.4,17,4,66,84,31,
渭南市,高新一小,109.4259,34.5023,2025-02-03T2300,19,53,0.6,21,5,51,83,52,颗粒物(PM10)
渭南市,渭花路4号,109.5051,34.4921,2025-02-03T2300,23,36,0.6,41,4,37,85,36,
温州市,瓯海,120.634,28.0089,2025-02-03T2300,58,74,0.6,14,6,55,67,79,细颗粒物(PM2.5)
温州市,南浦,120.6748,27.9939,2025-02-03T2300,58,65,0.7,10,5,65,73,79,细颗粒物(PM2.5)
温州市,龙湾,120.76,27.9747,2025-02-03T2300,62,73,0.7,21,4,47,76,84,细颗粒物(PM2.5)
温州市,市站,120.6709,28.0167,2025-02-03T2300,64,73,0.7,12,7,56,66,87,细颗粒物(PM2.5)
温州市,茶山,120.6985,27.9251,2025-02-03T2300,58,71,0.7,6,5,56,73,79,细颗粒物(PM2.5)
文山壮族苗族自治州,州水务局,104.2533,23.3594,2025-02-03T2300,15,18,0.5,6,3,35,33,22,
文山壮族苗族自治州,市便民服务中心,104.2319,23.3892,2025-02-03T2300,15,21,0.7,6,4,35,32,22,
乌海市,市林业局,106.8174,39.6973,2025-02-03T2300,21,34,0.5,9,9,65,78,34,
乌海市,中海勃湾学校,106.7907,39.6667,2025-02-03T2300,25,32,0.6,7,8,70,81,36,
乌海市,海北新区,106.813,39.7274,2025-02-03T2300,24,50,0.9,34,16,26,84,50,
乌海市,聚英学校,106.8288,39.6778,2025-02-03T2300,19,30,0.4,12,17,63,79,30,
乌兰察布市,集宁新区,113.1306,40.9923,2025-02-03T2300,10,10,0.4,3,5,81,87,26,
乌兰察布市,光明街小学,113.1076,41.0385,2025-02-03T2300,12,22,0.4,9,12,76,89,24,
乌兰察布市,北京八中,113.1376,40.9509,2025-02-03T2300,10,20,0.6,15,14,72,94,23,
乌兰察布市,市委党校,113.1775,40.9779,2025-02-03T2300,14,24,0.3,4,7,82,92,26,
乌鲁木齐市,监测站,87.5801,43.8303,2025-02-03T2300,48,70,0.8,74,2,15,44,67,细颗粒物(PM2.5)
乌鲁木齐市,收费所,87.6046,43.768,2025-02-03T2300,63,66,1.3,56,3,3,32,85,细颗粒物(PM2.5)
乌鲁木齐市,新疆农科院农场,87.4754,43.9469,2025-02-03T2300,39,41,0.9,87,7,6,77,55,细颗粒物(PM2.5)
乌鲁木齐市,铁路局,87.5525,43.8711,2025-02-03T2300,70,,0.9,67,2,21,61,94,细颗粒物(PM2.5)
乌鲁木齐市,三十一中学,87.6432,43.831,2025-02-03T2300,76,101,1.0,43,3,23,37,102,细颗粒物(PM2.5)
乌鲁木齐市,米东区环保局,87.7216,44.1747,2025-02-03T2300,96,,0.8,55,4,38,68,127,细颗粒物(PM2.5)
乌鲁木齐市,培训基地,87.4651,43.4569,2025-02-03T2300,3,6,0.5,5,3,79,86,25,
乌鲁木齐市,达坂城区环保局,88.3118,43.3658,2025-02-03T2300,36,45,0.7,40,6,40,77,52,细颗粒物(PM2.5)
乌鲁木齐市,红光山片区,87.6162,43.8801,2025-02-03T2300,58,,0.6,51,2,27,48,79,细颗粒物(PM2.5)
乌鲁木齐市,新师大温泉校区,87.7024,43.8004,2025-02-03T2300,62,68,0.7,48,3,27,60,84,细颗粒物(PM2.5)
乌鲁木齐市,大绿谷,87.4921,43.8411,2025-02-03T2300,38,53,0.6,88,1,8,54,54,细颗粒物(PM2.5)
无锡市,雪浪,120.269,31.4867,2025-02-03T2300,34,48,0.5,12,9,73,90,49,
无锡市,黄巷,120.275,31.6219,2025-02-03T2300,44,56,0.9,23,6,56,86,62,细颗粒物(PM2.5)
无锡市,曹张,120.294,31.56,2025-02-03T2300,39,57,1.1,21,3,72,88,55,细颗粒物(PM2.5)
无锡市,漆塘,120.242,31.5031,2025-02-03T2300,31,44,0.6,15,7,65,89,45,
无锡市,东亭,120.3489,31.5863,2025-02-03T2300,44,53,0.9,26,5,65,87,62,细颗粒物(PM2.5)
无锡市,旺庄,120.354,31.5475,2025-02-03T2300,34,48,0.9,22,3,70,85,49,
无锡市,荣巷,120.245,31.5631,2025-02-03T2300,36,46,0.8,30,4,50,87,52,细颗粒物(PM2.5)
无锡市,堰桥,120.299,31.6817,2025-02-03T2300,36,53,0.9,15,6,68,88,52,"颗粒物(PM10),细颗粒物(PM2.5)"
无锡市,华庄,120.3142,31.4753,2025-02-03T2300,31,45,0.6,14,10,70,86,45,
吴忠市,教育园区,106.1532,37.9648,2025-02-03T2300,14,38,0.4,12,9,62,82,38,
吴忠市,新区二泵站,106.1856,37.9956,2025-02-03T2300,17,37,0.5,15,6,61,81,37,
吴忠市,文卫南街,106.2112,37.9768,2025-02-03T2300,29,53,0.6,13,9,66,83,52,颗粒物(PM10)
芜湖市,监测站,118.3606,31.3519,2025-02-03T2300,91,111,0.9,18,4,52,69,120,细颗粒物(PM2.5)
芜湖市,科创中心,118.3714,31.4134,2025-02-03T2300,81,95,0.6,13,5,70,80,108,细颗粒物(PM2.5)
芜湖市,四水厂,118.3673,31.3131,2025-02-03T2300,86,111,0.6,21,5,59,70,114,细颗粒物(PM2.5)
芜湖市,市气象局,118.4209,31.3707,2025-02-03T2300,81,100,0.8,13,6,60,76,108,细颗粒物(PM2.5)
芜湖市,清苑社区,118.4781,31.3225,2025-02-03T2300,75,99,0.8,21,7,58,74,100,细颗粒物(PM2.5)
芜湖市,扬子职业技术学院,118.2746,31.2326,2025-02-03T2300,93,124,0.8,21,5,54,70,123,细颗粒物(PM2.5)
梧州市,市逸夫小学,111.3014,23.4832,2025-02-03T2300,15,21,0.9,9,7,50,45,22,
梧州市,市十一中,111.3239,23.4794,2025-02-03T2300,7,17,1.0,6,8,44,39,17,
梧州市,龙新,111.2711,23.4835,2025-02-03T2300,17,,0.9,3,9,48,42,25,
梧州市,政贤路18号,111.2419,23.4154,2025-02-03T2300,14,,1.1,2,9,53,45,20,
五家渠市,农水大厦,87.5475,44.1756,2025-02-03T2300,35,46,0.6,26,3,56,78,50,
五家渠市,经开区管委会,87.546,44.1912,2025-02-03T2300,37,45,0.6,12,3,64,79,53,细颗粒物(PM2.5)
武汉市,东湖梨园,114.3677,30.5584,2025-02-03T2300,71,80,0.8,16,9,54,87,95,细颗粒物(PM2.5)
武汉市,汉阳月湖,114.2529,30.558,2025-02-03T2300,80,80,1.1,30,7,44,82,107,细颗粒物(PM2.5)
武汉市,汉口花桥,114.282,30.6189,2025-02-03T2300,76,87,0.9,23,6,59,83,102,细颗粒物(PM2.5)
武汉市,武昌紫阳,114.3025,30.5332,2025-02-03T2300,74,91,1.4,42,13,39,87,99,细颗粒物(PM2.5)
武汉市,青山钢花,114.3646,30.6217,2025-02-03T2300,90,91,1.0,34,7,44,84,119,细颗粒物(PM2.5)
武汉市,沌口新区,114.1566,30.4825,2025-02-03T2300,68,68,0.8,20,10,59,76,92,细颗粒物(PM2.5)
武汉市,汉口江滩,114.3014,30.5944,2025-02-03T2300,77,93,0.7,22,6,66,97,103,细颗粒物(PM2.5)
武汉市,吴家山,114.135,30.6319,2025-02-03T2300,95,104,1.0,27,12,63,89,125,细颗粒物(PM2.5)
武汉市,沉湖七壕,113.8454,30.2917,2025-02-03T2300,60,90,1.0,20,3,47,91,82,细颗粒物(PM2.5)
武汉市,民族大道182号,114.3877,30.4908,2025-02-03T2300,76,94,0.7,20,10,63,88,102,细颗粒物(PM2.5)
武威市,监测站,102.6201,37.9251,2025-02-03T2300,39,61,0.8,20,7,43,82,56,颗粒物(PM10)
武威市,东关招商场,102.6486,37.9325,2025-02-03T2300,90,96,1.2,30,7,23,78,119,细颗粒物(PM2.5)
西安市,兴庆小区,108.993,34.2629,2025-02-03T2300,20,42,0.5,22,7,54,82,42,
西安市,纺织城,109.06,34.2572,2025-02-03T2300,32,92,0.5,54,7,15,84,71,颗粒物(PM10)
西安市,小寨,108.9356,34.2173,2025-02-03T2300,27,41,1.0,40,4,36,85,41,
西安市,市人民体育场,108.954,34.2713,2025-02-03T2300,28,46,0.9,40,4,41,86,46,
西安市,高新西区,108.8922,34.2322,2025-02-03T2300,27,35,0.4,45,6,42,85,39,
西安市,经开区,108.935,34.3474,2025-02-03T2300,25,53,0.7,65,4,16,82,52,颗粒物(PM10)
西安市,长安区,108.906,34.1546,2025-02-03T2300,30,56,0.6,26,7,42,85,53,颗粒物(PM10)
西安市,临潼区,109.2186,34.3731,2025-02-03T2300,22,56,0.6,43,7,39,82,53,颗粒物(PM10)
西安市,草滩,108.869,34.378,2025-02-03T2300,16,53,0.6,78,3,0,83,52,颗粒物(PM10)
西安市,曲江文化产业集团,108.985,34.1978,2025-02-03T2300,26,49,0.5,29,8,46,84,49,
西安市,广运潭,109.051,34.3213,2025-02-03T2300,22,47,0.8,24,4,49,79,47,
西安市,文体局,108.6116,34.1164,2025-02-03T2300,41,42,0.7,23,8,47,90,58,细颗粒物(PM2.5)
西安市,无线电监控中心,109.09,34.5236,2025-02-03T2300,32,63,0.6,42,12,35,83,57,颗粒物(PM10)
西安市,行知小学,108.8869,34.2662,2025-02-03T2300,28,53,0.7,46,7,39,83,52,颗粒物(PM10)
西宁市,第五水厂,101.524,36.6867,2025-02-03T2300,,,,,,,,,
西宁市,城北区政府,101.7775,36.6428,2025-02-03T2300,35,50,0.4,18,17,79,81,50,
西宁市,世纪职校,101.8305,36.5786,2025-02-03T2300,27,40,0.4,14,17,83,81,40,
西宁市,师大城西校区,101.7413,36.6397,2025-02-03T2300,28,52,0.5,13,19,73,69,51,颗粒物(PM10)
西双版纳傣族自治州,景洪市江南,100.7939,22.0019,2025-02-03T2300,92,133,1.1,31,3,41,96,122,细颗粒物(PM2.5)
西双版纳傣族自治州,景洪市江北,100.8017,22.0225,2025-02-03T2300,42,57,0.5,11,10,66,105,59,细颗粒物(PM2.5)
西咸新区,北杜,108.7108,34.46,2025-02-03T2300,30,46,0.5,38,6,41,85,46,
西咸新区,同德佳苑,108.7096,34.2956,2025-02-03T2300,52,66,0.8,31,8,39,84,72,细颗粒物(PM2.5)
西咸新区,崇文塔,108.8558,34.4978,2025-02-03T2300,40,63,0.6,38,5,34,79,57,"颗粒物(PM10),细颗粒物(PM2.5)"
锡林郭勒盟,市环保监测站,116.1042,43.9317,2025-02-03T2300,14,16,0.3,8,9,65,74,21,
锡林郭勒盟,市政府,116.0781,43.9311,2025-02-03T2300,20,25,0.2,13,13,62,75,29,
厦门市,溪东,118.1608,24.8169,2025-02-03T2300,,,,,,,,,
厦门市,洪文,118.1514,24.4767,2025-02-03T2300,14,19,0.4,2,1,62,62,20,
厦门市,鼓浪屿,118.0661,24.4444,2025-02-03T2300,20,,0.5,3,3,63,63,29,
厦门市,湖里中学,118.0936,24.5058,2025-02-03T2300,11,15,0.5,6,3,64,60,20,
厦门市,集美中学,118.0958,24.5688,2025-02-03T2300,10,14,0.6,5,1,66,64,21,
厦门市,同安二实小,118.1493,24.7245,2025-02-03T2300,8,,0.5,7,1,59,55,19,
咸宁市,森林公园,114.3175,29.8142,2025-02-03T2300,54,57,1.3,6,4,69,67,74,细颗粒物(PM2.5)
咸宁市,市发改委,114.3107,29.8454,2025-02-03T2300,80,103,0.2,23,5,18,61,107,细颗粒物(PM2.5)
咸宁市,咸安区政府,114.2936,29.8566,2025-02-03T2300,76,93,0.8,18,7,38,65,102,细颗粒物(PM2.5)
咸宁市,长江产业园,114.3375,29.8683,2025-02-03T2300,99,111,1.0,16,6,23,69,130,细颗粒物(PM2.5)
咸阳市,气象站,108.7197,34.3956,2025-02-03T2300,,,,,,,,,
咸阳市,实验中学,108.673,34.3155,2025-02-03T2300,38,65,0.6,48,3,24,82,58,颗粒物(PM10)
咸阳市,师范学院,108.7233,34.3617,2025-02-03T2300,27,71,0.6,40,2,41,84,61,颗粒物(PM10)
咸阳市,两寺渡,108.6594,34.2969,2025-02-03T2300,56,84,0.5,35,4,39,80,77,细颗粒物(PM2.5)
咸阳市,奥体中心,108.6396,34.4078,2025-02-03T2300,29,48,0.8,20,6,70,84,48,
湘潭市,板塘,112.9433,27.8614,2025-02-03T2300,66,87,0.9,17,5,68,70,89,细颗粒物(PM2.5)
