area,positionname,longitude,latitude,timepoint,pm2_5,pm10,co,no2,so2,o3,o3_8h,aqi,primarypollutant
阿坝藏族羌族自治州,州农科所,102.1879,31.914,2025-03-25T1300,3,14,0.2,4,9,86,55,27,
阿坝藏族羌族自治州,马师校,102.2502,31.8896,2025-03-25T1300,9,,0.4,7,4,99,59,31,
阿坝藏族羌族自治州,马尔康中学西区,102.2165,31.9024,2025-03-25T1300,6,6,0.3,6,5,103,67,33,
阿克苏地区,电视台,80.292,41.1694,2025-03-25T1300,59,174,0.7,34,7,85,60,112,颗粒物(PM10)
阿克苏地区,艺术中心,80.2613,41.1551,2025-03-25T1300,62,184,0.9,39,4,73,58,117,颗粒物(PM10)
阿拉善盟,西城区西花园,105.6467,38.8363,2025-03-25T1300,134,583,0.8,6,10,106,104,483,颗粒物(PM10)
阿拉善盟,蒙二幼,105.6985,38.8411,2025-03-25T1300,148,728,0.5,9,6,93,93,500,颗粒物(PM10)
阿拉善盟,环保局新楼,105.724,38.8516,2025-03-25T1300,172,601,0.3,4,10,99,105,500,颗粒物(PM10)
阿勒泰地区,市站,88.1264,47.8517,2025-03-25T1300,6,99,0.4,2,1,73,79,75,颗粒物(PM10)
阿里地区,阿里监测站,80.1161,32.5,2025-03-25T1300,11,21,0.5,10,13,82,60,26,
阿里地区,阿里藏医院,80.0903,32.5028,2025-03-25T1300,10,17,0.4,8,16,87,68,28,
安康市,香溪洞,109.0318,32.6537,2025-03-25T1300,25,46,0.6,9,10,123,97,46,
安康市,汉滨区检察院,109.0072,32.6975,2025-03-25T1300,24,51,0.4,13,13,126,65,51,颗粒物(PM10)
安康市,市邮政管理局,109.0325,32.6913,2025-03-25T1300,23,,0.5,,10,127,63,,
安庆市,环科院,117.0809,30.5177,2025-03-25T1300,32,65,0.5,15,12,162,111,58,颗粒物(PM10)
安庆市,马山宾馆,117.0331,30.5119,2025-03-25T1300,32,68,0.4,14,9,164,80,59,颗粒物(PM10)
安庆市,安庆大学,116.9896,30.6145,2025-03-25T1300,31,78,0.4,11,9,170,124,64,颗粒物(PM10)
安庆市,市人大,117.0598,30.5351,2025-03-25T1300,29,65,0.5,9,12,171,110,64,臭氧1小时
安顺市,伍家关,105.9606,26.2611,2025-03-25T1300,37,,0.5,7,8,136,78,,
安顺市,凤凰山,105.9408,26.2431,2025-03-25T1300,25,42,0.4,10,11,143,66,45,
安顺市,金钟山,105.9439,26.2564,2025-03-25T1300,23,43,0.5,8,10,143,90,45,
安顺市,娄家坡,105.8983,26.2481,2025-03-25T1300,28,38,0.5,8,9,144,100,45,
安阳市,棉研所,114.4839,36.0621,2025-03-25T1300,,,,,,,,,
安阳市,红庙街,114.3551,36.1017,2025-03-25T1300,107,457,,5,2,88,56,347,颗粒物(PM10)
安阳市,银杏小区,114.361,36.0681,2025-03-25T1300,85,422,0.4,,2,94,67,303,颗粒物(PM10)
安阳市,信访局,114.3922,36.0878,2025-03-25T1300,72,419,0.4,10,4,102,70,299,颗粒物(PM10)
安阳市,左辅环卫站,114.4705,36.0637,2025-03-25T1300,68,472,0.3,5,5,111,73,365,颗粒物(PM10)
安阳市,安钢职工学校,114.2917,36.0949,2025-03-25T1300,76,423,0.4,13,4,91,56,304,颗粒物(PM10)
鞍山市,深沟寺,123.044,41.1196,2025-03-25T1300,27,95,0.6,15,12,95,72,73,颗粒物(PM10)
鞍山市,太阳城,123.011,41.0931,2025-03-25T1300,29,92,0.8,19,9,94,75,71,颗粒物(PM10)
鞍山市,太平,123.0485,41.1442,2025-03-25T1300,29,104,1.7,27,21,81,64,77,颗粒物(PM10)
鞍山市,铁西三道街,122.9642,41.0971,2025-03-25T1300,26,96,0.6,24,6,92,66,73,颗粒物(PM10)
鞍山市,明达新区,123.022,41.0821,2025-03-25T1300,31,86,0.4,25,8,84,73,68,颗粒物(PM10)
鞍山市,千山,123.1289,41.0228,2025-03-25T1300,,,,,,,79,,
鞍山市,兴盛南路290号,122.9446,41.0826,2025-03-25T1300,28,115,0.8,26,11,90,66,83,颗粒物(PM10)
巴彦淖尔市,附二中,107.4212,40.761,2025-03-25T1300,16,207,0.5,4,10,89,79,129,颗粒物(PM10)
巴彦淖尔市,市环保大楼,107.37,40.7372,2025-03-25T1300,29,213,0.4,5,,87,84,132,颗粒物(PM10)
巴音郭楞蒙古自治州,孔雀公园,86.1472,41.7538,2025-03-25T1300,,,,,,,58,,
巴音郭楞蒙古自治州,棉纺厂,86.1972,41.7166,2025-03-25T1300,20,183,0.3,11,4,93,84,117,颗粒物(PM10)
巴音郭楞蒙古自治州,经济开发区,86.2357,41.7173,2025-03-25T1300,18,158,0.2,6,6,98,97,104,颗粒物(PM10)
巴中市,苏山坪,106.7677,31.8794,2025-03-25T1300,31,59,0.4,13,6,147,121,55,颗粒物(PM10)
巴中市,市五中,106.7768,31.8526,2025-03-25T1300,28,54,0.6,18,8,138,52,52,颗粒物(PM10)
巴中市,圣泉水务公司,106.7418,31.8654,2025-03-25T1300,27,48,0.5,11,10,152,75,48,
巴中市,市中心医院,106.7616,31.8344,2025-03-25T1300,32,42,0.6,9,10,136,44,46,
白城市,洮北区环保局,122.7911,45.6077,2025-03-25T1300,57,64,0.6,13,2,96,75,78,细颗粒物(PM2.5)
白城市,市环保局,122.8738,45.5725,2025-03-25T1300,48,68,0.8,9,5,102,85,67,细颗粒物(PM2.5)
白山市,喜丰,126.4219,41.9171,2025-03-25T1300,48,83,1.4,34,14,92,76,67,"颗粒物(PM10),细颗粒物(PM2.5)"
白山市,环保局,126.4077,41.9419,2025-03-25T1300,58,104,1.7,56,9,44,60,79,细颗粒物(PM2.5)
白银市,第三小学,104.1724,36.5446,2025-03-25T1300,112,571,0.2,9,17,98,64,471,颗粒物(PM10)
白银市,动力公司,104.1465,36.5482,2025-03-25T1300,131,561,0.3,9,13,100,64,461,颗粒物(PM10)
百色市,市监测站,106.6103,23.9011,2025-03-25T1300,116,147,1.4,33,43,156,82,152,细颗粒物(PM2.5)
百色市,市中心血站,106.6538,23.8859,2025-03-25T1300,129,183,1.5,36,66,149,62,170,细颗粒物(PM2.5)
百色市,祈福高中,106.6085,23.8798,2025-03-25T1300,,,1.3,,,141,54,,
蚌埠市,工人疗养院,117.396,32.939,2025-03-25T1300,31,87,0.6,19,6,163,129,69,颗粒物(PM10)
蚌埠市,百货大楼,117.3605,32.9427,2025-03-25T1300,32,83,0.4,14,7,154,120,67,颗粒物(PM10)
蚌埠市,蚌埠学院,117.4185,32.8911,2025-03-25T1300,29,73,0.5,9,6,156,116,62,颗粒物(PM10)
蚌埠市,淮上区政府,117.3533,32.9673,2025-03-25T1300,37,75,0.4,11,7,161,126,63,颗粒物(PM10)
蚌埠市,高新区,117.3145,32.8977,2025-03-25T1300,32,80,0.5,10,7,157,114,65,颗粒物(PM10)
蚌埠市,蚌埠田家炳中学,117.3092,32.9314,2025-03-25T1300,33,84,0.4,16,8,158,115,67,颗粒物(PM10)
包头市,市环境监测站,109.8756,40.6532,2025-03-25T1300,29,39,0.5,10,16,96,82,42,
包头市,包头八中,109.9991,40.5842,2025-03-25T1300,29,52,0.4,11,11,101,82,51,颗粒物(PM10)
包头市,青山宾馆,109.8538,40.6821,2025-03-25T1300,18,37,0.5,8,12,94,76,37,
包头市,惠龙物流,109.8642,40.6288,2025-03-25T1300,10,52,0.6,12,13,97,86,51,颗粒物(PM10)
包头市,东河鸿龙湾,110.0377,40.5546,2025-03-25T1300,20,55,0.5,11,10,111,80,53,颗粒物(PM10)
包头市,滨河大厦,109.9154,40.5685,2025-03-25T1300,19,46,0.7,14,16,102,82,46,
包头市,包头市委党校,109.9447,40.6261,2025-03-25T1300,,,0.5,9,10,98,77,,
包头市,昆区政府,109.8331,40.6576,2025-03-25T1300,20,47,0.6,13,11,94,80,47,
宝鸡市,庙沟村,107.185,34.3063,2025-03-25T1300,18,36,0.3,5,7,135,116,43,
宝鸡市,竹园沟,107.0708,34.3017,2025-03-25T1300,19,48,0.4,9,7,134,98,48,
宝鸡市,三陆医院,107.1906,34.3672,2025-03-25T1300,20,36,0.4,10,4,136,73,43,
宝鸡市,监测站,107.1431,34.3547,2025-03-25T1300,,,,8,8,130,84,,
宝鸡市,技工学校,107.1186,34.3739,2025-03-25T1300,21,75,0.5,,5,130,99,,
宝鸡市,陈仓区环保局家属楼,107.3906,34.3528,2025-03-25T1300,20,51,0.6,1,14,133,79,51,颗粒物(PM10)
宝鸡市,文理学院,107.2058,34.3497,2025-03-25T1300,20,40,0.4,6,5,137,85,43,
宝鸡市,三迪小学,107.2386,34.3622,2025-03-25T1300,27,43,0.4,13,7,136,70,43,
保定市,游泳馆,115.493,38.8632,2025-03-25T1300,3,35,0.1,5,4,108,81,35,
保定市,华电二区,115.5213,38.8959,2025-03-25T1300,7,29,0.1,2,3,112,93,35,
保定市,接待中心,115.4713,38.9108,2025-03-25T1300,14,45,0.2,8,2,106,88,45,
保定市,地表水厂,115.4612,38.8416,2025-03-25T1300,3,50,0.3,6,3,109,82,50,
保定市,满城区生态环境分局,115.31981,38.95208,2025-03-25T1300,3,44,0.2,2,2,108,91,44,
保定市,清苑区第二中学,115.47694,38.76408,2025-03-25T1300,8,53,0.2,3,10,107,68,52,颗粒物(PM10)
保定市,徐水物探局,115.62909,39.02311,2025-03-25T1300,7,34,0.1,4,7,117,90,37,
保定市,双鹰农机,115.4202,38.8656,2025-03-25T1300,10,35,0.2,2,2,108,81,35,
保定市,植保所站,115.5150,38.8590,2025-03-25T1300,7,34,0.3,2,3,108,76,34,
保山市,市环境监测站,99.1678,25.1081,2025-03-25T1300,34,41,0.4,11,6,106,61,49,
保山市,市环保局,99.1711,25.1328,2025-03-25T1300,23,47,0.5,10,4,119,72,47,
北海市,牛尾岭水库,109.2262,21.588,2025-03-25T1300,20,30,0.4,,5,82,62,,
北海市,海滩公园,109.1436,21.4086,2025-03-25T1300,12,24,0.6,7,6,94,85,30,
北海市,新市环保局,109.0981,21.4661,2025-03-25T1300,17,31,0.5,10,3,87,82,31,
北海市,北海工业园,109.1778,21.5233,2025-03-25T1300,17,34,0.4,8,7,94,77,34,
北海市,龙潭自来水厂,109.1911,21.4415,2025-03-25T1300,26,30,0.4,5,6,91,74,38,
北京市,万寿西宫,116.3621,39.8784,2025-03-25T1300,3,26,0.2,5,3,93,86,30,
北京市,定陵,116.2202,40.2915,2025-03-25T1300,,,,,,,,,
北京市,东四,116.4174,39.9289,2025-03-25T1300,7,34,0.2,6,5,92,82,34,
北京市,天坛,116.4072,39.8863,2025-03-25T1300,7,32,0.4,6,3,91,81,32,
北京市,农展馆,116.462,39.9365,2025-03-25T1300,3,30,0.3,2,5,86,77,30,
北京市,官园,116.3392,39.9295,2025-03-25T1300,3,32,0.4,4,5,84,76,32,
北京市,海淀万柳,116.2878,39.9611,2025-03-25T1300,3,23,0.5,4,3,80,68,25,
北京市,顺义新城,116.6636,40.135,2025-03-25T1300,3,15,0.2,1,4,92,80,29,
北京市,怀柔镇,116.6275,40.3275,2025-03-25T1300,3,9,0.2,2,,82,76,,
北京市,昌平镇,116.2296,40.217,2025-03-25T1300,,,,,,,95,,
北京市,奥体中心,116.3966,39.9821,2025-03-25T1300,6,33,0.4,5,3,84,76,33,
北京市,延庆夏都,115.9718,40.4529,2025-03-25T1300,3,14,0.4,2,5,87,80,28,
北京市,密云新城,116.8336,40.4095,2025-03-25T1300,3,12,0.3,1,3,86,76,27,
北京市,门头沟三家店,116.088,39.9726,2025-03-25T1300,14,37,0.2,2,4,78,71,37,
北京市,丰台云岗,116.1541,39.8204,2025-03-25T1300,3,24,0.4,1,4,102,96,32,
北京市,通州东关,116.6804,39.9081,2025-03-25T1300,3,40,0.2,6,4,87,78,40,
北京市,房山燕山,115.9577,39.7603,2025-03-25T1300,3,21,0.2,2,3,86,80,27,
北京市,大兴旧宫,116.4672,39.7733,2025-03-25T1300,3,25,0.1,3,1,84,72,27,
北京市,延庆石河营,115.986,40.4563,2025-03-25T1300,3,13,0.3,2,4,88,80,28,
北京市,怀柔新城,116.6151,40.3053,2025-03-25T1300,3,9,0.3,2,4,84,79,27,
北京市,丰台小屯,116.2545,39.8768,2025-03-25T1300,3,30,0.2,6,1,84,72,30,
北京市,密云镇,116.84,40.3844,2025-03-25T1300,3,13,0.2,4,4,89,76,28,
北京市,八角北路9号,116.1942,39.9158,2025-03-25T1300,3,31,0.2,2,3,96,83,31,
北京市,洳河巡河路,117.0790,40.1518,2025-03-25T1300,3,7,0.2,6,1,87,76,28,
本溪市,大峪,123.8275,41.3064,2025-03-25T1300,31,104,0.7,12,12,101,96,77,颗粒物(PM10)
本溪市,溪湖,123.7567,41.3325,2025-03-25T1300,34,103,,22,,98,96,,
本溪市,彩屯,123.7169,41.3094,2025-03-25T1300,36,116,1.1,24,16,97,94,83,颗粒物(PM10)
本溪市,东明,123.7669,41.2864,2025-03-25T1300,32,122,1.1,21,12,96,97,86,颗粒物(PM10)
本溪市,新立屯,123.7992,41.2664,2025-03-25T1300,32,108,0.8,19,10,104,107,79,颗粒物(PM10)
本溪市,威宁,123.8142,41.3472,2025-03-25T1300,34,119,0.6,14,9,98,80,85,颗粒物(PM10)
毕节市,八中,105.2864,27.3125,2025-03-25T1300,13,21,0.4,,11,121,64,,
毕节市,师专,105.31,27.2944,2025-03-25T1300,13,21,0.4,10,8,132,60,42,
毕节市,工业大道,105.3688,27.3598,2025-03-25T1300,13,24,0.5,10,8,132,64,42,
滨州市,第二水厂,118.0018,37.3617,2025-03-25T1300,22,163,1.5,11,8,102,66,107,颗粒物(PM10)
滨州市,北中新校,117.9776,37.393,2025-03-25T1300,24,132,0.2,10,11,110,69,91,颗粒物(PM10)
滨州市,中海酒店,117.9378,37.3956,2025-03-25T1300,31,117,0.3,10,10,113,70,84,颗粒物(PM10)
滨州市,开发区一中,117.9378,37.3553,2025-03-25T1300,56,156,0.2,16,14,104,65,103,颗粒物(PM10)
滨州市,金海六路,118.0917,37.694,2025-03-25T1300,14,117,0.6,12,5,104,67,84,颗粒物(PM10)
滨州市,滨州市西街道办事处,117.9956,37.3753,2025-03-25T1300,53,144,0.1,10,7,111,71,97,颗粒物(PM10)
亳州市,污水处理厂,115.8072,33.8399,2025-03-25T1300,23,64,0.3,10,5,136,116,57,颗粒物(PM10)
亳州市,三国揽胜宫,115.7789,33.8518,2025-03-25T1300,26,71,0.3,5,7,128,109,61,颗粒物(PM10)
亳州市,亳州学院,115.7633,33.8034,2025-03-25T1300,27,58,0.4,6,5,126,107,54,颗粒物(PM10)
博尔塔拉蒙古自治州,市党校,82.0485,44.8556,2025-03-25T1300,69,1012,0,71,3,66,93,500,颗粒物(PM10)
博尔塔拉蒙古自治州,市环保局,82.0806,44.8969,2025-03-25T1300,51,1027,0.5,11,3,85,96,500,颗粒物(PM10)
沧州市,沧县城建局,116.8842,38.2991,2025-03-25T1300,16,146,0.2,8,3,98,64,98,颗粒物(PM10)
沧州市,电视转播站,116.8584,38.3254,2025-03-25T1300,17,66,0.3,10,6,108,66,58,颗粒物(PM10)
沧州市,市环保局,116.8709,38.3228,2025-03-25T1300,19,57,0.2,8,9,105,66,54,颗粒物(PM10)
沧州市,河北水利电力学院,116.8136,38.3004,2025-03-25T1300,12,80,0.1,7,6,102,61,65,颗粒物(PM10)
昌都市,昌都监测站,97.1806,31.1273,2025-03-25T1300,9,,0.4,2,6,91,63,29,
昌都市,昌都会议中心,97.1714,31.1406,2025-03-25T1300,3,12,0.4,5,2,108,80,34,
昌吉回族自治州,天山天池,88.1236,43.8886,2025-03-25T1300,3,6,0.5,4,5,92,93,29,
昌吉回族自治州,新区政务中心,87.2717,44.0297,2025-03-25T1300,3,10,0.5,11,7,80,93,25,
昌吉回族自治州,亚心广场,87.3095,44.0142,2025-03-25T1300,,,,,,,93,,
长春市,食品厂,125.3325,43.9166,2025-03-25T1300,147,,0.9,34,8,89,78,196,细颗粒物(PM2.5)
长春市,客车厂,125.2863,43.9027,2025-03-25T1300,154,,0.9,39,6,76,72,204,细颗粒物(PM2.5)
长春市,邮电学院,125.2841,43.8463,2025-03-25T1300,168,,0.8,33,,82,84,218,细颗粒物(PM2.5)
长春市,劳动公园,125.3716,43.8772,2025-03-25T1300,176,,0.8,33,9,85,78,226,细颗粒物(PM2.5)
长春市,园林处,125.3297,43.8805,2025-03-25T1300,146,,0.8,34,7,81,81,195,细颗粒物(PM2.5)
长春市,净月潭,125.4605,43.79,2025-03-25T1300,196,,0.9,30,7,84,82,246,细颗粒物(PM2.5)
长春市,甩湾子,125.7194,43.515,2025-03-25T1300,105,,0.9,17,2,65,,138,细颗粒物(PM2.5)
长春市,经开区环卫处,125.3863,43.8447,2025-03-25T1300,177,,0.9,37,7,76,71,227,细颗粒物(PM2.5)
长春市,高新区管委会,125.245,43.7783,2025-03-25T1300,160,,0.9,39,8,74,76,210,细颗粒物(PM2.5)
长春市,岱山公园,125.1761,43.8325,2025-03-25T1300,143,,1.1,41,4,82,74,190,细颗粒物(PM2.5)
长沙市,经开区环保局,113.0833,28.2325,2025-03-25T1300,45,90,0.9,16,12,172,85,70,颗粒物(PM10)
长沙市,高开区环保局,112.8872,28.2189,2025-03-25T1300,45,86,0.8,9,13,165,76,68,颗粒物(PM10)
长沙市,马坡岭,113.0792,28.2053,2025-03-25T1300,49,86,0.8,,15,,61,,
长沙市,湖南师范大学,112.9394,28.19,2025-03-25T1300,49,98,1.2,14,17,163,67,74,颗粒物(PM10)
长沙市,雨花区环保局,113.0178,28.1322,2025-03-25T1300,47,89,1.1,18,20,162,58,70,颗粒物(PM10)
长沙市,伍家岭,112.9792,28.2597,2025-03-25T1300,44,98,0.9,21,14,158,49,74,颗粒物(PM10)
长沙市,火车新站,113.0014,28.1944,2025-03-25T1300,53,90,1.0,20,17,162,59,73,细颗粒物(PM2.5)
长沙市,天心区环保局,112.9844,28.1178,2025-03-25T1300,49,96,1.4,20,16,172,72,73,颗粒物(PM10)
长沙市,湖南中医药大学,112.8908,28.1308,2025-03-25T1300,29,92,0.9,8,10,161,56,71,颗粒物(PM10)
长沙市,沙坪,112.9581,28.3611,2025-03-25T1300,46,59,1.0,17,13,145,81,64,细颗粒物(PM2.5)
长治市,清华站,113.1147,36.1547,2025-03-25T1300,132,291,0.3,7,4,108,78,175,细颗粒物(PM2.5)
长治市,审计局,113.0886,36.2125,2025-03-25T1300,83,264,0.2,10,7,114,86,157,颗粒物(PM10)
长治市,长治八中,113.0844,36.1856,2025-03-25T1300,94,320,,,8,112,80,185,颗粒物(PM10)
长治市,德盛苑,113.1569,36.1911,2025-03-25T1300,80,283,0.3,10,5,116,97,167,颗粒物(PM10)
长治市,向阳小学,113.06,36.0464,2025-03-25T1300,84,291,0.3,9,12,102,80,171,颗粒物(PM10)
长治市,屯留一中,112.8792,36.3144,2025-03-25T1300,85,245,0.5,12,8,112,63,148,颗粒物(PM10)
长治市,英华南巷50号,113.1131,36.19948,2025-03-25T1300,90,295,0.5,14,10,114,82,173,颗粒物(PM10)
长治市,学府街1号,113.2367,36.3344,2025-03-25T1300,78,295,0.5,2,5,122,89,173,颗粒物(PM10)
常德市,市二中,111.6975,28.9703,2025-03-25T1300,38,58,0.5,7,6,141,92,54,"颗粒物(PM10),细颗粒物(PM2.5)"
常德市,白鹤山,111.7158,29.1456,2025-03-25T1300,,,,,,,,,
常德市,武陵区永安,111.7153,29.0289,2025-03-25T1300,41,65,0.5,,6,139,77,,
常德市,鼎城区玉霞,111.6892,28.9881,2025-03-25T1300,40,61,0.6,3,6,155,91,57,细颗粒物(PM2.5)
常德市,武陵区长庚,111.6625,29.0531,2025-03-25T1300,38,63,0.5,1,6,142,84,57,颗粒物(PM10)
常州市,市监测站,119.9633,31.762,2025-03-25T1300,30,70,0.5,10,2,156,87,60,颗粒物(PM10)
常州市,武进监测站,119.9468,31.7069,2025-03-25T1300,31,75,0.5,15,5,155,89,63,颗粒物(PM10)
常州市,安家,119.9255,31.9087,2025-03-25T1300,32,83,0.4,17,12,154,81,67,颗粒物(PM10)
常州市,行政中心,119.9805,31.8174,2025-03-25T1300,26,59,0.4,12,18,143,94,55,颗粒物(PM10)
常州市,经开区,120.0522,31.7748,2025-03-25T1300,21,94,0.5,17,12,161,91,72,颗粒物(PM10)
常州市,钟楼,119.9025,31.7964,2025-03-25T1300,27,76,0.7,13,9,152,95,63,颗粒物(PM10)
常州市,武进经发区,119.8598,31.7066,2025-03-25T1300,30,79,0.8,15,12,157,88,65,颗粒物(PM10)
常州市,金坛城区,119.5826,31.7245,2025-03-25T1300,33,68,,11,9,163,93,,
朝阳市,西梁,120.4318,41.5881,2025-03-25T1300,73,207,0.6,8,10,86,85,129,颗粒物(PM10)
朝阳市,河畔小区,120.4521,41.5646,2025-03-25T1300,47,166,0.6,10,7,88,91,108,颗粒物(PM10)
朝阳市,八里堡,120.4176,41.5648,2025-03-25T1300,50,,0.5,7,5,84,80,,
朝阳市,农业园区,120.3806,41.5969,2025-03-25T1300,92,315,0.6,8,7,91,90,183,颗粒物(PM10)
潮州市,西园路,116.6367,23.6719,2025-03-25T1300,37,80,0.6,24,9,202,104,101,臭氧1小时
潮州市,市政府,116.6183,23.6608,2025-03-25T1300,33,87,0.7,27,10,198,86,98,臭氧1小时
潮州市,金山,116.6461,23.6761,2025-03-25T1300,33,103,0.7,21,11,208,101,104,臭氧1小时
郴州市,马头岭,113.0073,25.9061,2025-03-25T1300,36,72,0.6,13,14,154,100,61,颗粒物(PM10)
郴州市,市职中,113.0116,25.8226,2025-03-25T1300,51,70,0.7,11,12,190,80,88,臭氧1小时
郴州市,市审计局,113.0383,25.8071,2025-03-25T1300,50,79,0.6,11,6,184,85,80,臭氧1小时
郴州市,市环保局,113.0348,25.7759,2025-03-25T1300,45,69,0.6,11,9,172,82,65,臭氧1小时
郴州市,好美居路49号,113.0138,25.8011,2025-03-25T1300,54,65,0.7,10,12,188,87,85,臭氧1小时
成都市,金泉两河,103.9728,30.7236,2025-03-25T1300,19,72,0.8,24,4,128,44,61,颗粒物(PM10)
成都市,十里店,104.176,30.6872,2025-03-25T1300,24,59,0.5,34,,130,39,,
成都市,三瓦窑,104.079,30.5706,2025-03-25T1300,16,57,0.8,33,6,149,42,54,颗粒物(PM10)
成都市,沙河铺,104.1114,30.63,2025-03-25T1300,42,73,0.7,32,7,130,34,62,颗粒物(PM10)
成都市,君平街,104.0786,30.6531,2025-03-25T1300,41,59,0.8,35,8,124,42,58,细颗粒物(PM2.5)
成都市,灵岩寺,103.613,31.0283,2025-03-25T1300,,,,,,,,,
成都市,大石西路,104.0239,30.65639,2025-03-25T1300,28,64,0.8,45,6,142,43,57,颗粒物(PM10)
成都市,龙泉驿区区政府,104.2725,30.5589,2025-03-25T1300,34,61,0.6,19,6,160,99,56,颗粒物(PM10)
成都市,金博路,104.0106,30.6931,2025-03-25T1300,18,55,0.7,31,8,124,40,53,颗粒物(PM10)
成都市,华阳,104.0578,30.5225,2025-03-25T1300,39,,0.7,27,7,140,48,,
成都市,青白江技师分院,104.3853,30.7453,2025-03-25T1300,27,65,0.5,,,151,52,,
成都市,科学城,104.0789,30.4072,2025-03-25T1300,35,54,0.6,15,6,142,57,52,颗粒物(PM10)
成都市,光华大道三段,103.8506,30.6947,2025-03-25T1300,9,61,0.6,20,6,153,66,56,颗粒物(PM10)
成都市,鲸龙路1057号,104.2433,30.5353,2025-03-25T1300,41,67,0.7,18,6,154,71,59,颗粒物(PM10)
承德市,铁路,117.9531,40.9081,2025-03-25T1300,3,24,0.2,4,6,91,80,29,
承德市,中国银行,117.9392,40.9763,2025-03-25T1300,3,14,,1,3,90,82,,
承德市,开发区,117.9503,40.928,2025-03-25T1300,10,33,0.2,5,7,93,85,33,
承德市,文化中心,117.8051,40.9655,2025-03-25T1300,3,25,0.2,4,3,90,80,29,
承德市,离宫,117.9268,41.0026,2025-03-25T1300,10,16,0.2,3,20,66,60,21,
池州市,池州学院,117.47,30.6618,2025-03-25T1300,29,58,0.5,10,7,147,113,54,颗粒物(PM10)
池州市,展览馆,117.4918,30.6617,2025-03-25T1300,28,58,0.5,7,7,156,112,54,颗粒物(PM10)
池州市,第八中学,117.5627,30.695,2025-03-25T1300,29,63,0.3,,7,158,116,,
池州市,第十二中学,117.5038,30.6243,2025-03-25T1300,31,61,0.3,8,9,161,113,56,颗粒物(PM10)
赤峰市,松山一中,118.9233,42.2816,2025-03-25T1300,,,,8,7,81,79,,
赤峰市,哈达街,118.9576,42.2728,2025-03-25T1300,7,110,0.7,12,12,62,69,80,颗粒物(PM10)
赤峰市,天义路,118.8788,42.2554,2025-03-25T1300,18,100,0.3,11,7,77,71,75,颗粒物(PM10)
赤峰市,银河街,119.2658,42.0353,2025-03-25T1300,36,,0.6,13,12,74,70,,
赤峰市,桥北物流园区,118.9359,42.3147,2025-03-25T1300,34,66,0.7,6,6,80,77,58,颗粒物(PM10)
崇左市,市环保局江州分局,107.3476,22.4136,2025-03-25T1300,34,48,0.7,8,12,124,83,49,
崇左市,石景林东路7号,107.3750,22.3736,2025-03-25T1300,32,69,0.6,10,11,130,84,60,颗粒物(PM10)
滁州市,老年大学,118.3093,32.3153,2025-03-25T1300,28,72,0.6,13,7,161,140,61,颗粒物(PM10)
滁州市,人大宾馆,118.3244,32.2786,2025-03-25T1300,33,70,0.4,16,11,157,132,60,颗粒物(PM10)
滁州市,市政府原办公楼,118.3118,32.3038,2025-03-25T1300,32,60,0.3,7,7,161,140,55,颗粒物(PM10)
滁州市,图书馆,118.3267,32.2634,2025-03-25T1300,22,74,0.4,10,10,155,134,62,颗粒物(PM10)
楚雄彝族自治州,州环境监测站,101.5482,25.0441,2025-03-25T1300,15,25,0.4,8,7,142,74,45,
楚雄彝族自治州,市经济开发区,101.538,25.0492,2025-03-25T1300,15,16,0.4,6,6,144,75,45,
达州市,达州职业技术学院,107.5277,31.2827,2025-03-25T1300,29,56,0.2,9,9,130,58,53,颗粒物(PM10)
达州市,市环境监测站,107.5086,31.2186,2025-03-25T1300,29,58,0.6,27,8,125,56,54,颗粒物(PM10)
达州市,凤凰小区,107.4988,31.2132,2025-03-25T1300,31,63,0.5,21,10,128,65,57,颗粒物(PM10)
达州市,达县机关宾馆,107.5082,31.1986,2025-03-25T1300,21,61,0.7,22,8,128,57,56,颗粒物(PM10)
达州市,市政中心,107.4644,31.2124,2025-03-25T1300,27,72,0.9,22,10,130,55,61,颗粒物(PM10)
大理白族自治州,大理市环境监测站,100.1542,25.7054,2025-03-25T1300,25,,0.6,8,6,116,83,37,
大理白族自治州,大理古城,100.2171,25.5811,2025-03-25T1300,7,23,0.4,7,7,120,86,38,
大连市,甘井子,121.612,38.9741,2025-03-25T1300,26,222,0.7,19,6,91,86,136,颗粒物(PM10)
大连市,周水子,121.565,38.9511,2025-03-25T1300,40,374,0.4,16,7,86,82,235,颗粒物(PM10)
大连市,星海三站,121.5637,38.8845,2025-03-25T1300,21,174,0.5,7,7,92,87,112,颗粒物(PM10)
大连市,青泥洼桥,121.6302,38.9117,2025-03-25T1300,25,283,0.4,5,8,96,92,167,颗粒物(PM10)
大连市,傅家庄,121.6251,38.8638,2025-03-25T1300,27,159,0.5,16,9,89,85,105,颗粒物(PM10)
大连市,七贤岭,121.5213,38.8661,2025-03-25T1300,19,195,0.5,11,6,83,82,123,颗粒物(PM10)
大连市,旅顺,121.2529,38.8061,2025-03-25T1300,21,145,0.5,18,8,69,73,98,颗粒物(PM10)
大连市,金州,121.7485,39.1311,2025-03-25T1300,24,194,1.1,21,8,82,86,122,颗粒物(PM10)
大连市,开发区,121.7811,39.0496,2025-03-25T1300,28,209,0.7,23,10,74,78,130,颗粒物(PM10)
大连市,双D港,121.9762,39.0631,2025-03-25T1300,21,316,0.7,23,7,99,91,183,颗粒物(PM10)
大庆市,大同区,124.81117,46.03138,2025-03-25T1300,,,0.5,,5,,55,,
大庆市,龙凤区,125.129,46.533,2025-03-25T1300,26,28,0.4,13,6,85,58,38,
大庆市,红岗区,124.902,46.408,2025-03-25T1300,17,31,0.4,5,6,87,55,31,
大庆市,萨尔图区,125.153,46.586,2025-03-25T1300,11,26,0.3,7,9,83,60,26,
大庆市,让胡路区,124.9042,46.6215,2025-03-25T1300,19,28,0.2,7,7,78,49,28,
大庆市,萨区政府监测点,125.141,46.634,2025-03-25T1300,9,23,0.3,4,5,89,63,28,
大同市,果树场,113.3819,40.1097,2025-03-25T1300,7,43,0.5,5,8,92,79,43,
大同市,云冈宾馆,113.2994,40.0758,2025-03-25T1300,7,57,0.4,11,10,96,95,54,颗粒物(PM10)
大同市,大同大学,113.3444,40.0917,2025-03-25T1300,6,35,0.3,4,15,95,91,35,
大同市,安家小村,113.2661,40.1269,2025-03-25T1300,3,50,0.2,2,9,95,85,50,
大同市,教育学院,113.2711,40.0844,2025-03-25T1300,12,32,0.3,9,9,96,93,32,
大同市,大同市卫生学校,113.3397,40.0597,2025-03-25T1300,33,35,0.3,11,9,91,90,48,
大同市,云冈站,113.1367,40.1122,2025-03-25T1300,12,35,0.3,6,10,93,88,35,
大同市,图书馆,113.1186,40.2556,2025-03-25T1300,3,30,0.6,5,9,91,80,30,
大同市,区一中,113.5931,40.0461,2025-03-25T1300,18,39,0.3,10,14,94,88,39,
大同市,魏都大道141号,113.2798,40.0997,2025-03-25T1300,6,33,0.3,7,12,101,94,33,
大兴安岭地区,科技局,124.1069,50.4097,2025-03-25T1300,8,10,0.3,2,6,81,68,26,
大兴安岭地区,红旗社区,124.1164,50.4278,2025-03-25T1300,3,6,0.4,1,4,82,59,26,
丹东市,江湾东路,124.3303,40.0625,2025-03-25T1300,50,127,0.6,18,10,116,92,89,颗粒物(PM10)
丹东市,临江后街,124.4256,40.1503,2025-03-25T1300,55,184,0.8,13,12,110,84,117,颗粒物(PM10)
丹东市,元宝山,124.3933,40.1461,2025-03-25T1300,50,144,0.6,17,9,105,83,97,颗粒物(PM10)
丹东市,民主桥,124.3633,40.1092,2025-03-25T1300,49,128,0.6,13,10,112,84,89,颗粒物(PM10)
儋州市,第一中学子站,109.5726,19.5167,2025-03-25T1300,26,47,0.6,6,5,102,68,47,
儋州市,东坡学校子站,109.5567,19.5187,2025-03-25T1300,26,46,0.7,6,6,108,70,46,
德宏傣族景颇族自治州,德宏州监测站,98.5842,24.428,2025-03-25T1300,49,68,0.7,18,8,78,28,68,细颗粒物(PM2.5)
德宏傣族景颇族自治州,芒市人民政府综合楼,98.5881,24.4368,2025-03-25T1300,48,72,0.5,17,9,83,33,67,细颗粒物(PM2.5)
德阳市,东山公园,104.4239,31.1208,2025-03-25T1300,29,67,0.5,19,7,142,90,59,颗粒物(PM10)
德阳市,西小区,104.3826,31.1317,2025-03-25T1300,56,90,0.6,33,9,133,57,77,细颗粒物(PM2.5)
德阳市,耐火材料厂,104.3553,31.1091,2025-03-25T1300,59,73,0.5,24,,151,71,,
德阳市,市教育局,104.4019,31.1244,2025-03-25T1300,50,69,0.5,24,9,152,56,69,细颗粒物(PM2.5)
德州市,儿童乐园,116.3032,37.4674,2025-03-25T1300,27,124,0.5,9,7,106,70,87,颗粒物(PM10)
德州市,监理站,116.2991,37.4451,2025-03-25T1300,19,122,0.5,11,22,97,71,86,颗粒物(PM10)
德州市,九衢泉纯净水厂,116.2721,37.4379,2025-03-25T1300,17,114,0.6,18,11,100,73,82,颗粒物(PM10)
德州市,开发区人民医院,116.3728,37.4403,2025-03-25T1300,17,129,0.3,10,6,107,71,90,颗粒物(PM10)
德州市,太阳城中学,116.3572,37.4094,2025-03-25T1300,17,124,0.3,13,6,108,76,87,颗粒物(PM10)
德州市,陵城艺术中心,116.5652,37.3319,2025-03-25T1300,19,136,0.5,10,5,103,69,93,颗粒物(PM10)
迪庆藏族自治州,迪庆州站,99.7056,27.8317,2025-03-25T1300,11,19,0.3,8,8,104,71,33,
迪庆藏族自治州,质量技术监督局,99.7136,27.8094,2025-03-25T1300,7,19,,,9,110,63,,
定西市,将台街,104.6092,35.5962,2025-03-25T1300,13,49,0.5,11,10,106,42,49,
定西市,正龙路62号,104.6159,35.5701,2025-03-25T1300,16,49,0.3,5,10,110,57,49,
东莞市,莞城梨川,113.7547,23.0494,2025-03-25T1300,38,56,0.5,29,10,191,100,89,臭氧1小时
东莞市,东城石井,113.7944,23.0128,2025-03-25T1300,36,55,0.6,23,10,197,89,97,臭氧1小时
东莞市,南城西平,113.7383,22.9658,2025-03-25T1300,29,52,0.7,26,10,177,74,72,臭氧1小时
东莞市,万江金泰,113.7338,23.0381,2025-03-25T1300,34,61,0.8,28,10,199,96,99,臭氧1小时
东莞市,南城元岭,113.7533,23.0202,2025-03-25T1300,36,62,0.7,29,9,194,83,93,臭氧1小时
东莞市,东城主山,113.7875,23.0457,2025-03-25T1300,31,77,0.7,28,11,210,95,105,臭氧1小时
东营市,市环保局,118.6614,37.4309,2025-03-25T1300,3,102,0.4,14,7,112,75,76,颗粒物(PM10)
东营市,开发区管委会,118.6904,37.4338,2025-03-25T1300,19,134,,,6,104,66,,
东营市,垦利区民丰路,118.5719,37.565,2025-03-25T1300,29,112,0.5,11,2,101,69,81,颗粒物(PM10)
东营市,河口城区,118.5055,37.8612,2025-03-25T1300,3,110,0.7,14,6,102,80,80,颗粒物(PM10)
东营市,胜利站,118.4978,37.4623,2025-03-25T1300,19,120,0.7,17,8,112,73,85,颗粒物(PM10)
东营市,理想之城,118.35,37.26,2025-03-25T1300,27,112,0.3,16,8,112,70,81,颗粒物(PM10)
鄂尔多斯市,综合楼,110.0023,39.8129,2025-03-25T1300,46,312,0.4,14,7,89,85,181,颗粒物(PM10)
鄂尔多斯市,巴音孟克林场办事处,109.9486,39.8261,2025-03-25T1300,56,300,0.3,13,9,89,85,175,颗粒物(PM10)
鄂尔多斯市,康泽苑,109.7736,39.5986,2025-03-25T1300,58,378,0.2,9,3,92,88,240,颗粒物(PM10)
鄂尔多斯市,华泰汽车城,109.8119,39.5989,2025-03-25T1300,61,354,0.3,8,3,95,82,206,颗粒物(PM10)
鄂尔多斯市,奥林花园,109.9734,39.7884,2025-03-25T1300,46,300,0.3,10,5,94,85,175,颗粒物(PM10)
鄂州市,市政府,114.8938,30.3994,2025-03-25T1300,34,62,1.3,6,8,136,68,56,颗粒物(PM10)
鄂州市,赵家坝,114.8989,30.3714,2025-03-25T1300,22,82,0.9,2,4,152,88,66,颗粒物(PM10)
鄂州市,精准医疗中心,114.8094,30.4089,2025-03-25T1300,,,0.4,2,4,166,76,,
恩施土家族苗族自治州,湖北民院,109.4978,30.2981,2025-03-25T1300,33,51,0.1,19,2,107,48,51,颗粒物(PM10)
恩施土家族苗族自治州,州电力总公司,109.4707,30.2798,2025-03-25T1300,31,41,0.1,18,10,98,41,45,
恩施土家族苗族自治州,龙凤新区,109.5061,30.3772,2025-03-25T1300,30,52,0.4,10,6,118,55,51,颗粒物(PM10)
防城港市,沙万,108.3411,21.6158,2025-03-25T1300,,,0.4,,10,69,64,,
防城港市,防城档案局,108.3514,21.7731,2025-03-25T1300,16,39,0.2,6,3,81,55,39,
防城港市,大海花园,108.3506,21.6414,2025-03-25T1300,16,25,0.5,1,5,75,70,25,
佛山市,湾梁,113.1294,23.0067,2025-03-25T1300,32,88,0.9,38,10,180,86,75,臭氧1小时
佛山市,华材职中,113.1083,23.0478,2025-03-25T1300,38,75,0.6,30,9,218,110,109,臭氧1小时
佛山市,南海气象局,113.144,23.0453,2025-03-25T1300,36,80,0.7,29,8,141,66,65,颗粒物(PM10)
佛山市,顺德苏岗,113.2881,22.8094,2025-03-25T1300,31,81,0.7,31,20,147,60,66,颗粒物(PM10)
佛山市,高明孔堂,112.8383,22.8678,2025-03-25T1300,36,50,0.4,11,8,164,111,55,臭氧1小时
佛山市,三水监测站,112.8836,23.1588,2025-03-25T1300,43,78,0.6,25,8,151,76,64,颗粒物(PM10)
佛山市,三水云东海,112.867,23.185,2025-03-25T1300,38,67,0.5,23,8,,72,,
佛山市,容桂街道办,113.2544,22.7642,2025-03-25T1300,31,68,0.7,33,23,156,81,59,颗粒物(PM10)
福州市,鼓山,119.3903,26.0543,2025-03-25T1300,,,,,,,166,,
福州市,师大,119.2681,26.0504,2025-03-25T1300,56,97,0.5,22,8,234,125,117,臭氧1小时
福州市,五四北路,119.2984,26.1028,2025-03-25T1300,56,81,0.7,25,7,225,115,113,臭氧1小时
福州市,杨桥西路,119.2648,26.0768,2025-03-25T1300,57,92,0.6,22,8,228,118,114,臭氧1小时
福州市,紫阳,119.317,26.0746,2025-03-25T1300,56,90,0.4,24,8,223,112,112,臭氧1小时
福州市,九龙,119.5799,26.0936,2025-03-25T1300,84,101,0.7,24,10,204,89,112,细颗粒物(PM2.5)
福州市,吴航,119.5189,25.9664,2025-03-25T1300,45,73,0.6,16,7,218,122,109,臭氧1小时
抚顺市,望花区,123.7977,41.8491,2025-03-25T1300,42,147,0.8,23,12,101,78,99,颗粒物(PM10)
抚顺市,顺城区,123.9161,41.8822,2025-03-25T1300,30,105,0.7,22,9,104,77,78,颗粒物(PM10)
抚顺市,东洲区,124.0436,41.8611,2025-03-25T1300,26,86,0.6,16,7,105,79,68,颗粒物(PM10)
抚顺市,新抚区,123.9247,41.8642,2025-03-25T1300,34,111,0.6,18,6,102,70,81,颗粒物(PM10)
抚顺市,大伙房水库,124.0972,41.8961,2025-03-25T1300,38,90,0.6,9,7,105,91,70,颗粒物(PM10)
抚顺市,沈抚新城,123.7086,41.8391,2025-03-25T1300,33,167,0.9,23,9,100,75,109,颗粒物(PM10)
抚州市,桐源党溪,116.2127,28.0814,2025-03-25T1300,36,56,0.4,2,6,131,64,53,颗粒物(PM10)
抚州市,市站,116.3544,27.9831,2025-03-25T1300,24,67,0.9,8,7,133,79,59,颗粒物(PM10)
抚州市,血防站,116.3565,27.963,2025-03-25T1300,32,57,1.1,7,15,134,72,54,颗粒物(PM10)
抚州市,采茶剧团,116.3564,28.0007,2025-03-25T1300,30,62,0,5,3,107,59,56,颗粒物(PM10)
抚州市,医学分院,116.385,27.9647,2025-03-25T1300,28,60,1.1,7,5,104,62,55,颗粒物(PM10)
阜新市,工业园区,121.6094,41.998,2025-03-25T1300,62,138,0.6,14,8,79,73,94,颗粒物(PM10)
阜新市,长青街,121.6697,42.0279,2025-03-25T1300,65,167,0.6,14,6,82,77,109,颗粒物(PM10)
阜新市,农业园区,121.6673,42.0705,2025-03-25T1300,56,106,,13,7,80,89,,
阜新市,东苑,121.6717,42.0224,2025-03-25T1300,76,143,0.6,14,7,82,78,102,细颗粒物(PM2.5)
阜新市,玉龙新城,121.6506,42.0498,2025-03-25T1300,63,122,0.6,16,7,78,73,86,颗粒物(PM10)
阜阳市,市监测站,115.8277,32.8929,2025-03-25T1300,32,65,0.4,11,9,142,123,58,颗粒物(PM10)
阜阳市,开发区,115.8554,32.8605,2025-03-25T1300,26,71,0.4,8,8,150,118,61,颗粒物(PM10)
阜阳市,阜阳职业技术学院,115.784,32.8892,2025-03-25T1300,31,66,0.6,10,10,138,114,58,颗粒物(PM10)
阜阳市,市规划展馆,115.7901,32.8613,2025-03-25T1300,33,78,0.5,10,9,154,128,64,颗粒物(PM10)
阜阳市,枣园社区,115.836,32.9183,2025-03-25T1300,34,73,0.6,8,10,154,133,62,颗粒物(PM10)
甘南藏族自治州,州政府,102.9099,34.9841,2025-03-25T1300,12,21,0.2,4,8,92,39,29,
甘南藏族自治州,甘肃民族师范学院,102.8914,34.9617,2025-03-25T1300,12,,0.2,2,7,100,39,32,
甘孜藏族自治州,水桥子,101.9603,30.0475,2025-03-25T1300,3,13,0.7,10,4,103,49,33,
甘孜藏族自治州,州环保局,101.9533,29.9972,2025-03-25T1300,3,28,0.3,9,4,105,78,33,
赣江新区,桑海产业园,115.8347,28.932,2025-03-25T1300,32,68,0.5,20,20,144,62,59,颗粒物(PM10)
赣州市,通天岩,114.9017,25.9149,2025-03-25T1300,14,74,1.0,9,23,231,185,116,臭氧1小时
赣州市,地委,114.9367,25.8664,2025-03-25T1300,54,73,1.3,13,3,184,87,80,臭氧1小时
赣州市,气象台,114.9461,25.8481,2025-03-25T1300,51,85,0.7,,,188,87,,
赣州市,市图书馆,114.9322,25.8333,2025-03-25T1300,56,70,1.2,18,9,185,81,82,臭氧1小时
赣州市,华坚鞋城,114.8905,25.8471,2025-03-25T1300,50,86,0.9,44,15,203,98,102,臭氧1小时
赣州市,赣县区卫计委,115.0093,25.8613,2025-03-25T1300,42,90,0.8,9,11,182,88,78,臭氧1小时
固原市,马园,106.2319,36.1417,2025-03-25T1300,55,370,0.6,10,5,104,48,229,颗粒物(PM10)
固原市,监测站,106.2792,36.0022,2025-03-25T1300,42,174,0.3,11,7,111,74,112,颗粒物(PM10)
固原市,新区,106.2375,36.0211,2025-03-25T1300,40,248,0.2,6,8,109,56,149,颗粒物(PM10)
固原市,原州区十五小,106.2177,35.9959,2025-03-25T1300,26,67,0.3,7,7,107,82,59,颗粒物(PM10)
广安市,小平旧居,106.6308,30.5278,2025-03-25T1300,,,,,,,,,
广安市,市委,106.6303,30.4576,2025-03-25T1300,32,55,0.4,15,13,135,74,53,颗粒物(PM10)
广安市,友谊中学,106.6271,30.4663,2025-03-25T1300,32,68,0.6,21,7,147,78,59,颗粒物(PM10)
广安市,广电花园,106.6388,30.4551,2025-03-25T1300,30,53,0.4,18,9,136,66,52,颗粒物(PM10)
广安市,北辰小学,106.6351,30.4865,2025-03-25T1300,36,61,0.5,14,13,160,79,56,颗粒物(PM10)
广元市,黑石坡,105.8945,32.4535,2025-03-25T1300,14,89,0.4,,4,142,84,,
广元市,老城,105.821,32.4444,2025-03-25T1300,35,53,0.9,19,1,129,47,52,颗粒物(PM10)
广元市,监测站,105.8628,32.4287,2025-03-25T1300,6,45,0.9,30,,116,66,,
广元市,经开区,105.8047,32.4166,2025-03-25T1300,66,98,1.2,27,34,107,36,89,细颗粒物(PM2.5)
广州市,广雅中学,113.2347,23.1423,2025-03-25T1300,33,71,0.7,26,7,152,68,61,颗粒物(PM10)
广州市,市五中,113.2612,23.105,2025-03-25T1300,36,70,0.6,28,5,167,69,60,颗粒物(PM10)
广州市,广东商学院,113.3478,23.0916,2025-03-25T1300,41,76,0.7,30,7,185,68,82,臭氧1小时
广州市,市八十六中,113.4332,23.1047,2025-03-25T1300,40,81,0.6,44,7,153,60,66,颗粒物(PM10)
广州市,番禺中学,113.3505,22.9483,2025-03-25T1300,31,63,0.4,20,7,188,82,85,臭氧1小时
广州市,花都师范,113.2146,23.3916,2025-03-25T1300,59,100,0.5,30,9,186,59,83,臭氧1小时
广州市,市监测站,113.2597,23.1331,2025-03-25T1300,32,70,0.6,32,8,150,68,60,颗粒物(PM10)
广州市,九龙镇镇龙,113.5618,23.312,2025-03-25T1300,42,82,0.6,42,8,152,55,66,颗粒物(PM10)
广州市,麓湖,113.2765,23.1544,2025-03-25T1300,36,76,,29,7,167,70,,
广州市,帽峰山森林公园,113.443,23.3035,2025-03-25T1300,27,60,0.6,21,8,173,83,67,臭氧1小时
广州市,体育西,113.3221,23.1322,2025-03-25T1300,39,73,0.6,14,7,186,79,83,臭氧1小时
广州市,从化街口,113.5717,23.5491,2025-03-25T1300,40,68,0.7,28,12,197,91,97,臭氧1小时
广州市,白云竹料,113.3472,23.3692,2025-03-25T1300,42,86,0.5,34,10,200,71,100,臭氧1小时
广州市,白云嘉禾,113.2981,23.237,2025-03-25T1300,40,79,0.4,40,7,163,61,65,颗粒物(PM10)
广州市,黄埔科学城,113.4256,23.1716,2025-03-25T1300,36,66,0.5,29,9,182,65,78,臭氧1小时
广州市,番禺大学城,113.3942,23.0483,2025-03-25T1300,30,66,0.5,36,12,186,74,83,臭氧1小时
广州市,南沙黄阁,113.4922,22.8168,2025-03-25T1300,42,93,0.7,35,9,189,82,87,臭氧1小时
广州市,南沙街,113.5342,22.7896,2025-03-25T1300,38,69,0.7,32,7,179,91,74,臭氧1小时
广州市,花都梯面,113.2902,23.5544,2025-03-25T1300,53,98,0.7,35,8,164,67,74,颗粒物(PM10)
广州市,从化良口,113.7858,23.7478,2025-03-25T1300,39,55,0.6,10,10,198,106,98,臭氧1小时
广州市,增城荔城,113.8051,23.2614,2025-03-25T1300,54,82,0.7,,13,185,79,,
贵港市,德智高中,109.568,23.1478,2025-03-25T1300,,,,,,,,,
贵港市,江南子站,109.6047,23.0666,2025-03-25T1300,28,58,0.7,10,5,130,88,54,颗粒物(PM10)
贵港市,贵城子站,109.6014,23.0948,2025-03-25T1300,29,56,0.7,10,7,121,84,53,颗粒物(PM10)
贵港市,荷城子站,109.5669,23.1065,2025-03-25T1300,27,58,0.4,12,11,109,78,54,颗粒物(PM10)
贵港市,新世纪学校,109.5886,23.1172,2025-03-25T1300,31,63,0.6,13,10,,82,,
贵阳市,马鞍山,106.6899,26.5998,2025-03-25T1300,41,73,0.7,20,13,157,57,62,颗粒物(PM10)
贵阳市,鉴湖路,106.6243,26.6266,2025-03-25T1300,31,58,0.4,10,12,138,70,54,颗粒物(PM10)
贵阳市,燕子冲,106.7487,26.6343,2025-03-25T1300,56,78,0.6,21,26,170,64,77,细颗粒物(PM2.5)
贵阳市,碧云窝,106.6555,26.4365,2025-03-25T1300,39,75,0.5,14,14,163,68,63,颗粒物(PM10)
贵阳市,红边门,106.7109,26.6027,2025-03-25T1300,53,83,0.7,19,13,161,55,73,细颗粒物(PM2.5)
贵阳市,新华路,106.7164,26.5699,2025-03-25T1300,48,78,0.6,13,38,169,56,67,细颗粒物(PM2.5)
贵阳市,太慈桥,106.674,26.5424,2025-03-25T1300,41,73,0.6,20,15,165,62,62,颗粒物(PM10)
贵阳市,桐木岭,106.805,26.3003,2025-03-25T1300,46,80,0.5,6,25,139,125,65,颗粒物(PM10)
贵阳市,花果园大街66号,106.6882,26.5695,2025-03-25T1300,46,70,0.3,20,14,140,39,64,细颗粒物(PM2.5)
贵阳市,漓江路57号,106.6873,26.5169,2025-03-25T1300,41,73,0.4,14,17,155,56,62,颗粒物(PM10)
桂林市,电子科大尧山校区,110.4144,25.3167,2025-03-25T1300,,,,,,,,,
桂林市,龙隐路小学,110.3089,25.2708,2025-03-25T1300,52,91,0.6,10,12,169,81,72,细颗粒物(PM2.5)
桂林市,八中,110.2869,25.2178,2025-03-25T1300,60,80,0.8,15,11,157,74,82,细颗粒物(PM2.5)
桂林市,旅游学院,110.296,25.1253,2025-03-25T1300,48,70,0.6,10,16,156,63,67,细颗粒物(PM2.5)
桂林市,环湖路276号,110.1835,25.2444,2025-03-25T1300,53,78,0.5,12,9,150,62,73,细颗粒物(PM2.5)
桂林市,信义路13号,110.2803,25.2773,2025-03-25T1300,,,,12,,165,69,,
果洛藏族自治州,玛沁县大武镇,100.2561,34.4714,2025-03-25T1300,,,0.3,1,13,114,59,,
哈尔滨市,岭北,126.5422,45.755,2025-03-25T1300,10,13,0.8,14,20,102,73,32,
哈尔滨市,松北商大,126.561,45.8167,2025-03-25T1300,19,36,,15,52,73,47,,
哈尔滨市,阿城会宁,126.979,45.5419,2025-03-25T1300,38,77,0.6,13,6,76,47,64,颗粒物(PM10)
哈尔滨市,南岗学府路,126.599,45.7222,2025-03-25T1300,14,84,0.5,20,8,71,42,67,颗粒物(PM10)
哈尔滨市,太平宏伟公园,126.689,45.7733,2025-03-25T1300,21,53,0.8,12,5,75,42,52,颗粒物(PM10)
哈尔滨市,道外承德广场,126.635,45.7667,2025-03-25T1300,19,58,,25,6,57,35,,
哈尔滨市,香坊红旗大街,126.685,45.7319,2025-03-25T1300,13,58,0.7,22,15,68,41,54,颗粒物(PM10)
哈尔滨市,动力和平路,126.6411,45.7258,2025-03-25T1300,25,62,0.4,18,12,72,49,56,颗粒物(PM10)
哈尔滨市,道里建国路,126.593,45.7478,2025-03-25T1300,14,39,0,18,148,18,73,50,
哈尔滨市,平房东轻厂,126.615,45.61,2025-03-25T1300,54,92,0.8,19,9,63,30,74,细颗粒物(PM2.5)
哈尔滨市,呼兰师专,126.595,45.9855,2025-03-25T1300,7,31,0.3,14,6,74,55,31,
哈尔滨市,省农科院,126.6206,45.6842,2025-03-25T1300,31,76,0.7,22,13,67,37,63,颗粒物(PM10)
哈密市,地区监测站,93.5128,42.8172,2025-03-25T1300,16,88,0.2,13,14,66,43,69,颗粒物(PM10)
哈密市,哈密师范学校,93.4961,42.8328,2025-03-25T1300,13,71,0.2,18,6,64,37,61,颗粒物(PM10)
海北藏族自治州,海晏县西海镇,100.9048,36.9639,2025-03-25T1300,6,15,,1,,104,68,,
海东市,平安区公安北苑,102.0738,36.5056,2025-03-25T1300,9,28,1.1,8,15,99,48,31,
海口市,东寨港,110.576,19.9507,2025-03-25T1300,,32,0.1,4,4,90,55,,
海口市,海南大学,110.3232,20.0574,2025-03-25T1300,30,46,0.4,7,3,115,74,46,
海口市,秀英海南医院,110.283,20.0053,2025-03-25T1300,27,35,0.4,11,5,100,70,39,
海口市,海南师范大学,110.338,19.9969,2025-03-25T1300,24,38,0.3,6,4,118,83,38,
海口市,龙华路环保局宿舍,110.33,20.0356,2025-03-25T1300,25,35,0.4,4,5,114,71,36,
海口市,桂林洋子站,110.5111,19.9736,2025-03-25T1300,21,34,0.3,5,4,105,70,34,
海南藏族自治州,共和县恰卜恰镇,100.6188,36.2866,2025-03-25T1300,25,31,0.3,3,12,101,61,36,
海西蒙古族藏族自治州,德令哈市,97.3731,37.3753,2025-03-25T1300,8,22,0.4,2,14,98,84,31,
邯郸市,东污水处理厂,114.5302,36.6116,2025-03-25T1300,31,209,0.4,,4,84,50,130,颗粒物(PM10)
邯郸市,矿院,114.4918,36.5713,2025-03-25T1300,41,249,0.3,14,4,82,58,150,颗粒物(PM10)
邯郸市,丛台公园,114.484,36.6133,2025-03-25T1300,51,212,0.3,16,6,85,58,131,颗粒物(PM10)
邯郸市,香泉濮院小区,114.7895,36.5593,2025-03-25T1300,27,270,0.3,3,3,100,63,160,颗粒物(PM10)
邯郸市,永年区实验高中,114.50634,36.77178,2025-03-25T1300,40,219,0.3,,7,83,50,135,颗粒物(PM10)
邯郸市,峰峰矿区临水派出所,114.20016,36.44293,2025-03-25T1300,79,294,0.8,6,12,100,73,172,颗粒物(PM10)
汉中市,汉川机床厂子校,106.9893,33.1842,2025-03-25T1300,32,51,0.6,5,11,144,77,51,颗粒物(PM10)
汉中市,市监测站,107.0154,33.0706,2025-03-25T1300,33,57,0.9,17,11,130,69,54,颗粒物(PM10)
汉中市,鑫源开发区,107.0089,33.1138,2025-03-25T1300,33,71,0.8,18,10,130,65,61,颗粒物(PM10)
汉中市,南郑大河坎水厂,107.007,33.0323,2025-03-25T1300,30,61,0.7,14,10,134,68,56,颗粒物(PM10)
杭州市,滨江,120.2072,30.2111,2025-03-25T1300,24,63,0.4,12,7,154,96,57,颗粒物(PM10)
杭州市,西溪,120.0633,30.2747,2025-03-25T1300,26,50,0.1,17,7,145,74,50,
杭州市,下沙,120.3417,30.3150,2025-03-25T1300,23,58,0.4,17,7,148,96,54,颗粒物(PM10)
杭州市,卧龙桥,120.1269,30.2456,2025-03-25T1300,26,51,0.3,8,8,151,82,51,颗粒物(PM10)
杭州市,浙江农大,120.1903,30.2692,2025-03-25T1300,25,53,0.4,11,4,151,87,52,颗粒物(PM10)
杭州市,和睦小学,120.1197,30.3119,2025-03-25T1300,25,92,0.4,9,8,145,76,71,颗粒物(PM10)
杭州市,临平镇,120.3019,30.4183,2025-03-25T1300,19,49,0.2,14,7,150,84,49,
杭州市,城厢镇,120.2753,30.1839,2025-03-25T1300,26,58,0.4,21,8,153,97,54,颗粒物(PM10)
杭州市,云栖,120.0883,30.1808,2025-03-25T1300,22,49,0.4,14,10,152,75,49,
杭州市,镇二中,119.9464,30.0494,2025-03-25T1300,25,43,0.4,15,7,143,69,45,
杭州市,市府大楼,119.7183,30.2367,2025-03-25T1300,24,49,0.4,11,9,136,80,49,
杭州市,消防大队,120.1556,30.2864,2025-03-25T1300,,,0.3,20,,88,60,,
合肥市,明珠广场,117.1959,31.7848,2025-03-25T1300,24,58,0.3,12,4,150,103,54,颗粒物(PM10)
合肥市,三里街,117.3072,31.8764,2025-03-25T1300,29,73,0.5,23,7,142,73,62,颗粒物(PM10)
合肥市,琥珀山庄,117.2588,31.8707,2025-03-25T1300,31,68,0.3,,,149,101,,
合肥市,董铺水库,117.1604,31.9052,2025-03-25T1300,27,78,0.3,8,2,145,108,64,颗粒物(PM10)
合肥市,长江中路,117.25,31.8571,2025-03-25T1300,29,66,0.4,13,8,145,113,58,颗粒物(PM10)
合肥市,庐阳区,117.266,31.9436,2025-03-25T1300,19,66,0.4,15,6,141,102,58,颗粒物(PM10)
合肥市,瑶海区,117.3453,31.8616,2025-03-25T1300,,,0.5,,8,155,90,,
合肥市,包河区,117.3027,31.7964,2025-03-25T1300,31,63,0.5,10,6,158,97,57,颗粒物(PM10)
合肥市,滨湖新区,117.2776,31.7385,2025-03-25T1300,31,61,0.4,11,12,158,118,56,颗粒物(PM10)
合肥市,高新区,117.1318,31.8403,2025-03-25T1300,22,53,0.5,6,3,135,100,52,颗粒物(PM10)
合肥市,高教基地,117.3803,31.9147,2025-03-25T1300,28,78,0.4,16,10,177,113,72,臭氧1小时
和田地区,地区环保局,79.924,37.0877,2025-03-25T1300,24,212,0.9,10,1,85,61,131,颗粒物(PM10)
和田地区,市环保局,79.9131,37.113,2025-03-25T1300,33,199,0.6,6,1,95,57,125,颗粒物(PM10)
河池市,东仁乐园,108.2011,24.715,2025-03-25T1300,69,117,0.9,14,17,154,66,93,细颗粒物(PM2.5)
河池市,市环保站,108.0497,24.6947,2025-03-25T1300,61,99,,12,19,148,62,,
河池市,市疾控中心,108.0983,24.6989,2025-03-25T1300,59,,0.9,8,16,160,70,80,细颗粒物(PM2.5)
河源市,源西,114.6778,23.7569,2025-03-25T1300,39,74,0.9,17,8,184,89,80,臭氧1小时
河源市,东埔,114.6944,23.7586,2025-03-25T1300,45,74,0.8,23,8,205,119,103,臭氧1小时
河源市,老城,114.6892,23.7233,2025-03-25T1300,44,82,0.7,21,8,202,105,101,臭氧1小时
菏泽市,气象局,115.4208,35.2464,2025-03-25T1300,96,580,,,,86,76,480,颗粒物(PM10)
菏泽市,定陶老年大学,115.5564,35.0891,2025-03-25T1300,56,320,0.5,17,8,107,82,185,颗粒物(PM10)
菏泽市,永昌路1号,115.4797,35.24401,2025-03-25T1300,101,,0.2,10,6,108,85,133,细颗粒物(PM2.5)
菏泽市,长城路999号,115.4715,35.2800,2025-03-25T1300,95,622,0.5,15,15,102,85,500,颗粒物(PM10)
贺州市,环保小区,111.5264,24.4172,2025-03-25T1300,64,73,0.8,16,13,173,114,87,细颗粒物(PM2.5)
贺州市,政协大楼,111.5608,24.4078,2025-03-25T1300,52,70,0.9,13,12,176,117,72,细颗粒物(PM2.5)
贺州市,西湾,111.4744,24.4553,2025-03-25T1300,62,94,0.7,14,11,158,91,84,细颗粒物(PM2.5)
鹤壁市,市监测站,114.17,35.9019,2025-03-25T1300,146,495,,17,9,95,58,394,颗粒物(PM10)
鹤壁市,市交警支队,114.2956,35.7511,2025-03-25T1300,87,467,0.3,11,8,89,62,359,颗粒物(PM10)
鹤壁市,迎宾馆,114.2878,35.7306,2025-03-25T1300,58,564,0.4,12,3,94,65,464,颗粒物(PM10)
鹤壁市,大新区,114.2617,35.6822,2025-03-25T1300,92,477,0.6,14,6,91,62,372,颗粒物(PM10)
鹤壁市,南山宾馆,114.1572,35.9603,2025-03-25T1300,65,500,0.5,13,5,101,68,400,颗粒物(PM10)
鹤岗市,哈啤分公司,130.2537,47.3416,2025-03-25T1300,8,10,0.3,2,14,79,71,25,
鹤岗市,斯达机电,130.2684,47.3086,2025-03-25T1300,15,16,0.3,6,19,71,68,23,
鹤岗市,东山纸板厂,130.3114,47.3388,2025-03-25T1300,7,12,0.2,8,15,75,61,24,
鹤岗市,五号水库,130.1097,47.3382,2025-03-25T1300,,,,,,,,,
黑河市,交通局,127.4833,50.2524,2025-03-25T1300,22,,0.4,4,7,74,75,,
黑河市,环保局,127.5144,50.2341,2025-03-25T1300,10,,0.2,4,4,82,80,26,
黑河市,大黑河岛,127.5291,50.2472,2025-03-25T1300,3,6,,15,3,6,6,,
衡水市,电机北厂,115.6838,37.7541,2025-03-25T1300,25,141,0.3,15,,104,63,,
衡水市,市监测站,115.6303,37.7316,2025-03-25T1300,16,98,0.3,10,8,106,70,74,颗粒物(PM10)
衡水市,市城管局,115.6683,37.7217,2025-03-25T1300,12,104,0.3,13,8,100,68,77,颗粒物(PM10)
衡水市,地表水厂,115.5989,37.5491,2025-03-25T1300,34,119,0.2,12,10,112,71,85,颗粒物(PM10)
衡阳市,原169医院,112.5003,26.9167,2025-03-25T1300,44,95,0.6,12,18,130,50,73,颗粒物(PM10)
衡阳市,衡阳化工总厂,112.6194,26.9258,2025-03-25T1300,56,108,0.9,11,18,167,63,79,颗粒物(PM10)
衡阳市,珠晖区环保局,112.6211,26.8956,2025-03-25T1300,52,97,1.0,10,17,166,59,74,颗粒物(PM10)
衡阳市,市委党校,112.6197,26.8733,2025-03-25T1300,54,94,1.0,10,15,166,65,74,细颗粒物(PM2.5)
衡阳市,市监测站,112.6006,26.8919,2025-03-25T1300,62,89,0.9,14,20,159,59,84,细颗粒物(PM2.5)
衡阳市,真空机电公司,112.5664,26.9056,2025-03-25T1300,58,112,1.0,,23,168,57,,
衡阳市,师范学院,112.6703,26.882,2025-03-25T1300,56,88,0.8,22,17,157,76,77,细颗粒物(PM2.5)
红河哈尼族彝族自治州,污水处理厂,103.3772,23.3993,2025-03-25T1300,39,41,0.4,6,12,136,69,55,细颗粒物(PM2.5)
红河哈尼族彝族自治州,监测站,103.3861,23.35,2025-03-25T1300,34,51,0.3,8,15,142,86,51,颗粒物(PM10)
红河哈尼族彝族自治州,州图书馆,103.3758,23.368,2025-03-25T1300,38,43,0.3,7,,137,74,,
呼和浩特市,呼市一监,111.6507,40.7517,2025-03-25T1300,26,48,0.3,4,8,100,82,48,
呼和浩特市,小召,111.6572,40.8033,2025-03-25T1300,23,53,0.4,13,4,96,80,52,颗粒物(PM10)
呼和浩特市,如意水处理厂,111.7516,40.8369,2025-03-25T1300,27,55,0.3,5,6,93,75,53,颗粒物(PM10)
呼和浩特市,二十九中,111.7276,40.8062,2025-03-25T1300,21,26,0.4,5,4,98,80,31,
呼和浩特市,工大金川校区,111.5512,40.7866,2025-03-25T1300,16,40,0.4,8,8,97,87,40,
呼和浩特市,化肥厂生活区,111.717,40.7612,2025-03-25T1300,21,70,0.3,,7,100,82,,
呼和浩特市,红旗小学,111.5968,40.8178,2025-03-25T1300,17,44,0.4,10,9,96,81,44,
呼和浩特市,海东办,111.6518,40.8389,2025-03-25T1300,24,48,0.5,7,8,90,76,48,
呼伦贝尔市,区环保局,119.7594,49.2261,2025-03-25T1300,17,31,0.3,7,6,88,71,31,
呼伦贝尔市,国华电力东,119.7512,49.1577,2025-03-25T1300,8,19,0.2,4,5,90,75,29,
湖州市,城西水厂,120.0751,30.8669,2025-03-25T1300,28,83,0.2,31,7,117,54,67,颗粒物(PM10)
湖州市,仁皇山新区,120.0830,30.8929,2025-03-25T1300,25,80,0.4,13,4,138,59,65,颗粒物(PM10)
湖州市,吴兴区站,120.1844,30.8596,2025-03-25T1300,34,74,0.3,19,7,137,72,62,颗粒物(PM10)
湖州市,南浔区站,120.4148,30.8538,2025-03-25T1300,27,64,0.2,16,4,157,89,57,颗粒物(PM10)
葫芦岛市,龙港区,120.9049,40.7211,2025-03-25T1300,35,611,0.4,9,6,78,78,500,颗粒物(PM10)
葫芦岛市,化工街,120.8392,40.7514,2025-03-25T1300,34,791,0.4,8,12,82,76,500,颗粒物(PM10)
葫芦岛市,新区,120.8341,40.7073,2025-03-25T1300,27,607,0.5,10,7,87,83,500,颗粒物(PM10)
葫芦岛市,东城区,120.8695,40.7677,2025-03-25T1300,27,605,0.4,10,3,80,74,500,颗粒物(PM10)
怀化市,林科所,109.5981,27.5721,2025-03-25T1300,51,84,0.2,16,7,141,64,70,细颗粒物(PM2.5)
怀化市,河西地税局,109.9453,27.5444,2025-03-25T1300,47,77,0.6,10,11,139,52,65,细颗粒物(PM2.5)
怀化市,市四医院,109.9781,27.5342,2025-03-25T1300,55,106,0.6,11,10,145,56,78,颗粒物(PM10)
怀化市,监测楼,109.9972,27.5578,2025-03-25T1300,51,81,0.5,9,12,149,56,70,细颗粒物(PM2.5)
怀化市,市委党校,110.0394,27.583,2025-03-25T1300,,,0.8,8,6,,43,,
淮安市,钵池山,119.036,33.5981,2025-03-25T1300,45,73,1.1,13,12,149,112,63,细颗粒物(PM2.5)
淮安市,北京南路,119.007,33.575,2025-03-25T1300,44,83,1.5,23,19,148,97,67,颗粒物(PM10)
淮安市,市监测站,118.989,33.6067,2025-03-25T1300,31,78,0.6,20,11,156,114,64,颗粒物(PM10)
淮安市,楚州区监测站,119.135,33.5039,2025-03-25T1300,45,491,0.4,6,9,151,93,389,颗粒物(PM10)
淮安市,新华书店,118.8755,33.2894,2025-03-25T1300,35,76,0.8,10,9,151,105,63,颗粒物(PM10)
淮安市,承德北路606号,119.0288,33.6319,2025-03-25T1300,43,78,0.6,16,9,153,111,64,颗粒物(PM10)
淮北市,监测站,116.8004,33.975,2025-03-25T1300,37,88,0.5,11,8,136,109,69,颗粒物(PM10)
淮北市,烈山区政府,116.8091,33.9007,2025-03-25T1300,31,66,0.7,9,7,142,103,58,颗粒物(PM10)
淮北市,杜集区检察院,116.8873,33.9836,2025-03-25T1300,36,87,0.7,14,9,146,112,69,颗粒物(PM10)
淮北市,市博物馆,116.7923,33.9535,2025-03-25T1300,35,84,0.9,10,10,142,112,67,颗粒物(PM10)
淮南市,潘集区政府,116.8305,32.7727,2025-03-25T1300,39,93,0.6,11,7,154,124,72,颗粒物(PM10)
淮南市,谢家集区政府,116.8569,32.5951,2025-03-25T1300,30,67,0.4,8,8,155,115,59,颗粒物(PM10)
淮南市,八公山区政府,116.8281,32.633,2025-03-25T1300,32,69,0.3,7,5,153,130,60,颗粒物(PM10)
淮南市,焦岗湖风景区管理处,116.6325,32.6201,2025-03-25T1300,25,59,0.6,6,9,78,76,55,颗粒物(PM10)
淮南市,经济技术开发区消防队,117.0566,32.6531,2025-03-25T1300,26,89,0.3,7,7,160,143,70,颗粒物(PM10)
淮南市,山南新区,117.0108,32.5893,2025-03-25T1300,33,79,0.5,1,8,157,129,65,颗粒物(PM10)
淮南市,国庆中路369号,117.0031,32.6445,2025-03-25T1300,29,73,0.5,11,12,158,134,62,颗粒物(PM10)
黄冈市,职工中心,114.9028,30.4742,2025-03-25T1300,28,43,0.6,9,9,162,94,53,臭氧1小时
黄冈市,红卫路,114.8858,30.4519,2025-03-25T1300,28,55,0.7,10,7,169,99,62,臭氧1小时
黄冈市,市林业局,114.9136,30.4445,2025-03-25T1300,35,51,0.7,12,11,168,94,60,臭氧1小时
黄南藏族自治州,同仁县隆务镇,102.0199,35.5102,2025-03-25T1300,12,30,0.3,8,14,92,67,30,
黄山市,延安路89号,118.2903,29.6963,2025-03-25T1300,35,50,0.3,4,7,153,74,50,
黄山市,黄山区政府5号楼,118.1371,30.2756,2025-03-25T1300,22,56,0.6,2,,146,60,,
黄山市,滨江东路7-2号,118.3354,29.7203,2025-03-25T1300,22,60,0.4,4,7,153,68,55,颗粒物(PM10)
黄石市,沈家营,115.0601,30.2313,2025-03-25T1300,33,100,1.0,20,10,171,65,75,颗粒物(PM10)
黄石市,铁山,114.8988,30.2019,2025-03-25T1300,20,56,1.1,7,20,147,105,53,颗粒物(PM10)
黄石市,团城山,115.0307,30.2092,2025-03-25T1300,22,83,,9,,,41,,
黄石市,笔架山北路,115.0235,30.1578,2025-03-25T1300,15,44,0.7,6,11,161,85,52,臭氧1小时
黄石市,磁湖东路29号,115.0780,30.21118,2025-03-25T1300,34,92,0.9,20,9,168,61,71,颗粒物(PM10)
惠州市,河南岸金山湖子站,114.4183,23.0528,2025-03-25T1300,32,57,0.7,26,11,194,89,93,臭氧1小时
惠州市,下埔横江三路子站,114.4053,23.0822,2025-03-25T1300,29,54,0.6,20,11,211,100,106,臭氧1小时
惠州市,江北云山西路子站,114.4103,23.1142,2025-03-25T1300,32,59,0.6,25,11,223,114,112,臭氧1小时
惠州市,惠阳区承修路船湖子站,114.4645,22.7833,2025-03-25T1300,27,55,0.6,33,11,151,69,53,颗粒物(PM10)
惠州市,大亚湾管委会子站,114.5317,22.7422,2025-03-25T1300,20,51,0.5,29,9,146,66,51,颗粒物(PM10)
惠州市,惠阳秋长,114.4338,22.8134,2025-03-25T1300,32,73,0.7,24,18,169,75,62,"颗粒物(PM10),臭氧1小时"
惠州市,大亚湾霞涌,114.6517,22.775,2025-03-25T1300,,,0.6,,10,164,108,,
鸡西市,环保局,130.9762,45.3001,2025-03-25T1300,41,72,0.5,15,11,86,41,61,颗粒物(PM10)
鸡西市,第一中学,130.9429,45.3039,2025-03-25T1300,23,37,0.4,15,11,84,56,37,
鸡西市,欧美日汽修厂,131.0207,45.3073,2025-03-25T1300,40,57,0.8,14,12,96,30,57,细颗粒物(PM2.5)
鸡西市,市政设施管理处,130.9967,45.3106,2025-03-25T1300,46,115,0.5,21,10,80,34,83,颗粒物(PM10)
吉安市,红声器材厂,114.9754,27.0803,2025-03-25T1300,44,69,0.6,14,15,165,91,62,细颗粒物(PM2.5)
吉安市,市森林工业局,114.9658,27.0999,2025-03-25T1300,49,78,0.5,18,14,169,100,68,细颗粒物(PM2.5)
吉安市,市环境监测站,114.99,27.1312,2025-03-25T1300,48,83,0.4,13,19,177,88,72,臭氧1小时
吉安市,青原区法院,115.0093,27.0968,2025-03-25T1300,48,70,0.4,13,15,184,86,80,臭氧1小时
吉林市,哈达湾,126.54,43.8622,2025-03-25T1300,85,139,0.8,22,6,79,79,113,细颗粒物(PM2.5)
吉林市,东局子,126.5844,43.8358,2025-03-25T1300,87,119,0.7,22,5,81,86,115,细颗粒物(PM2.5)
吉林市,电力学院,126.5052,43.8245,2025-03-25T1300,82,99,0.4,19,4,87,79,109,细颗粒物(PM2.5)
吉林市,江北,126.6133,43.8972,2025-03-25T1300,75,111,0.7,18,,70,86,,
吉林市,江南公园,126.555,43.8306,2025-03-25T1300,90,116,0.4,19,5,84,83,119,细颗粒物(PM2.5)
吉林市,丰满,126.7061,43.7133,2025-03-25T1300,81,92,1.0,12,5,100,114,108,细颗粒物(PM2.5)
吉林市,九站,126.4739,43.953,2025-03-25T1300,,,,,,,94,,
济南市,科干所,116.9862,36.6114,2025-03-25T1300,34,195,0.3,11,6,,,123,颗粒物(PM10)
济南市,农科所,116.9376,36.665,2025-03-25T1300,32,190,0.3,12,7,105,84,120,颗粒物(PM10)
济南市,开发区,117.1265,36.6734,2025-03-25T1300,54,166,0.4,11,6,109,100,108,颗粒物(PM10)
济南市,省种子仓库,117.0624,36.6868,2025-03-25T1300,24,190,0.5,8,4,109,94,120,颗粒物(PM10)
济南市,机床二厂,116.9489,36.6447,2025-03-25T1300,27,227,0.6,14,8,107,83,139,颗粒物(PM10)
济南市,市监测站,117.0495,36.663,2025-03-25T1300,24,190,0.3,12,7,103,92,120,颗粒物(PM10)
济南市,长清党校,116.7675,36.5484,2025-03-25T1300,51,266,0.6,19,5,112,86,158,颗粒物(PM10)
济南市,技术学院,117.6795,36.229,2025-03-25T1300,53,415,0.3,11,9,112,87,293,颗粒物(PM10)
济南市,东山小学,117.532,36.6868,2025-03-25T1300,22,181,0.6,,6,115,85,116,颗粒物(PM10)
济南市,泰兴公司,117.7161,36.2049,2025-03-25T1300,58,383,0.4,10,7,110,78,248,颗粒物(PM10)
济南市,莱芜战役纪念馆,117.6867,36.2171,2025-03-25T1300,56,371,0.3,14,6,111,83,230,颗粒物(PM10)
济南市,济阳区政府,117.1673,36.9782,2025-03-25T1300,20,142,0.2,,9,104,70,,
济南市,锦屏中学,117.1171,36.63,2025-03-25T1300,29,220,0.2,11,8,102,97,135,颗粒物(PM10)
济南市,济南四建,116.9814,36.6819,2025-03-25T1300,29,175,0.2,12,5,102,84,113,颗粒物(PM10)
济宁市,火炬城,116.6251,35.4302,2025-03-25T1300,70,356,0.3,12,12,106,90,209,颗粒物(PM10)
济宁市,电化厂,116.5491,35.4042,2025-03-25T1300,83,497,0.4,13,12,101,84,397,颗粒物(PM10)
济宁市,北湖一中,116.5814,35.3707,2025-03-25T1300,63,353,0.4,15,16,103,82,205,颗粒物(PM10)
济宁市,服务中心,116.8249,35.5593,2025-03-25T1300,65,310,,17,,99,77,180,颗粒物(PM10)
济宁市,市第七中学,116.5907,35.4054,2025-03-25T1300,75,402,0.3,12,6,102,85,275,颗粒物(PM10)
佳木斯市,佳纺,130.2751,46.8028,2025-03-25T1300,21,52,0.3,15,6,59,39,51,颗粒物(PM10)
佳木斯市,发电厂,130.3995,46.8307,2025-03-25T1300,17,37,0.5,14,8,63,49,37,
佳木斯市,环保局,130.3258,46.7975,2025-03-25T1300,18,44,0.3,21,4,58,49,44,
佳木斯市,十一中,130.3648,46.8032,2025-03-25T1300,21,42,0.4,,4,60,41,,
佳木斯市,四丰,130.3794,46.7588,2025-03-25T1300,13,21,0.7,5,1,65,60,21,
嘉兴市,清河小学,120.7436,30.778,2025-03-25T1300,18,56,0.5,17,5,125,73,53,颗粒物(PM10)
嘉兴市,嘉兴学院,120.726,30.7478,2025-03-25T1300,18,65,0.4,18,8,,63,,
嘉兴市,南湖区残联,120.7846,30.7525,2025-03-25T1300,17,79,0.1,10,9,146,97,65,颗粒物(PM10)
嘉兴市,秀洲住建,120.6916,30.7739,2025-03-25T1300,24,42,0.3,12,6,150,86,47,
嘉峪关市,气象局,98.2908,39.7711,2025-03-25T1300,61,600,1.3,18,25,79,53,500,颗粒物(PM10)
嘉峪关市,酒钢宾馆,98.2672,39.7978,2025-03-25T1300,68,522,0.4,6,58,94,64,422,颗粒物(PM10)
嘉峪关市,雄关区,98.2643,39.7724,2025-03-25T1300,40,238,0.6,11,24,92,56,144,颗粒物(PM10)
江门市,北街,113.1064,22.6058,2025-03-25T1300,22,62,0.5,7,4,148,84,56,颗粒物(PM10)
江门市,西区,113.0731,22.5835,2025-03-25T1300,34,,0.4,14,9,156,101,49,
江门市,圭峰西,113.0219,22.5311,2025-03-25T1300,26,81,,,8,128,56,,
江门市,东湖,113.0828,22.5947,2025-03-25T1300,26,51,0.4,11,10,160,102,51,颗粒物(PM10)
江门市,江海富民,113.1075,22.5647,2025-03-25T1300,22,57,0.5,11,8,153,91,54,颗粒物(PM10)
江门市,新会银湖,113.05,22.4667,2025-03-25T1300,29,57,0.4,17,8,139,63,54,颗粒物(PM10)
焦作市,影视城,113.1992,35.2590,2025-03-25T1300,,,,,,,,,
焦作市,太极体育中心,113.2725,35.2067,2025-03-25T1300,78,279,0.5,29,18,90,66,165,颗粒物(PM10)
焦作市,马村街道办,113.3137,35.2641,2025-03-25T1300,96,295,0.9,27,18,80,58,173,颗粒物(PM10)
焦作市,焦作技师学院,113.2465,35.2373,2025-03-25T1300,68,316,0.7,22,12,93,67,183,颗粒物(PM10)
焦作市,中站许衡医院,113.1656,35.2539,2025-03-25T1300,74,314,0.7,14,13,111,75,182,颗粒物(PM10)
焦作市,原李万街道办,113.2449,35.1803,2025-03-25T1300,70,251,0.5,19,20,104,63,151,颗粒物(PM10)
焦作市,新安路1731号,113.2340,35.2190,2025-03-25T1300,79,279,0.8,17,13,95,67,165,颗粒物(PM10)
揭阳市,新兴,116.3701,23.5345,2025-03-25T1300,35,81,0.6,21,8,187,102,84,臭氧1小时
揭阳市,西马,116.3264,23.5443,2025-03-25T1300,23,43,0.6,15,9,180,92,75,臭氧1小时
揭阳市,东兴,116.3611,23.5626,2025-03-25T1300,31,88,0.7,9,6,188,96,85,臭氧1小时
揭阳市,渔湖,116.4151,23.5294,2025-03-25T1300,32,47,0.6,16,10,187,107,84,臭氧1小时
揭阳市,曲溪,116.403,23.5699,2025-03-25T1300,37,64,0.6,18,5,216,108,108,臭氧1小时
金昌市,天庆家园,102.1692,38.5167,2025-03-25T1300,124,344,0.8,13,38,90,70,197,颗粒物(PM10)
金昌市,金川区人防中心,102.1647,38.5371,2025-03-25T1300,132,498,0.4,,40,88,71,398,颗粒物(PM10)
金昌市,长春路96号,102.1930,38.5319,2025-03-25T1300,132,594,0.5,13,39,86,72,494,颗粒物(PM10)
金华市,十五中,119.647,29.077,2025-03-25T1300,32,72,0.5,21,11,157,88,61,颗粒物(PM10)
金华市,监测站,119.686,29.1029,2025-03-25T1300,36,66,0.3,20,11,158,91,58,颗粒物(PM10)
金华市,气象局,119.656,29.1131,2025-03-25T1300,30,52,0.4,19,11,160,74,51,颗粒物(PM10)
锦州市,南山,121.1115,41.0879,2025-03-25T1300,44,700,0.6,9,7,83,76,500,颗粒物(PM10)
锦州市,开发区,121.0604,40.8428,2025-03-25T1300,73,1158,0.6,10,8,74,72,500,颗粒物(PM10)
锦州市,百股街道,121.1836,41.1119,2025-03-25T1300,31,701,0.5,10,3,83,78,500,颗粒物(PM10)
锦州市,天安街道,121.1178,41.1222,2025-03-25T1300,38,655,0.4,11,7,76,75,500,颗粒物(PM10)
锦州市,北湖公园,121.1303,41.1386,2025-03-25T1300,33,538,0.4,8,6,82,76,438,颗粒物(PM10)
晋城市,自来水公司,112.85,35.5051,2025-03-25T1300,90,359,0.6,10,7,106,51,213,颗粒物(PM10)
晋城市,白云商贸,112.8318,35.4936,2025-03-25T1300,95,391,0.5,12,6,106,54,259,颗粒物(PM10)
晋城市,市环保局,112.8508,35.4887,2025-03-25T1300,90,358,0.4,9,5,107,55,212,颗粒物(PM10)
晋城市,技术学院,112.8676,35.4897,2025-03-25T1300,102,356,,10,6,106,46,209,颗粒物(PM10)
晋城市,白马寺,112.8453,35.546,2025-03-25T1300,,,,,,,,,
晋城市,泽州一中,112.8271,35.4828,2025-03-25T1300,139,426,0.5,10,9,104,62,308,颗粒物(PM10)
晋中市,南都小区,112.7249,37.7067,2025-03-25T1300,66,460,0.4,8,2,103,100,350,颗粒物(PM10)
晋中市,榆次区政府,112.6991,37.6982,2025-03-25T1300,55,447,0.3,9,3,103,99,334,颗粒物(PM10)
晋中市,榆次三中,112.7195,37.6828,2025-03-25T1300,80,464,0.2,6,1,105,103,355,颗粒物(PM10)
晋中市,迎宾街26号,112.7478,37.6954,2025-03-25T1300,85,508,0.3,7,2,108,105,408,颗粒物(PM10)
荆门市,竹园小学,112.2014,31.0481,2025-03-25T1300,22,53,0.3,8,6,143,106,52,颗粒物(PM10)
荆门市,掇刀,112.1969,30.9891,2025-03-25T1300,24,62,0.1,7,6,135,102,56,颗粒物(PM10)
荆门市,石化一小,112.2213,31.0386,2025-03-25T1300,20,49,0.1,11,13,139,84,49,
荆门市,西山林语,112.1849,31.0362,2025-03-25T1300,27,48,0.1,7,5,142,102,48,
荆门市,龙泉中学南校,112.1632,31.0138,2025-03-25T1300,34,59,0.4,5,8,134,90,55,颗粒物(PM10)
荆州市,市图书馆,112.2494,30.3197,2025-03-25T1300,34,36,0.4,14,5,140,82,49,
荆州市,市委党校,112.2008,30.3544,2025-03-25T1300,35,48,0.4,11,7,136,82,50,
荆州市,管委会,112.2747,30.3122,2025-03-25T1300,34,,0.4,,7,142,87,,
荆州市,学苑路85号,112.1722,30.3366,2025-03-25T1300,26,41,0.4,6,9,140,75,44,
景德镇市,王港中学,117.3102,29.3867,2025-03-25T1300,,,,,,,,,
景德镇市,老干部活动中心,117.2117,29.2933,2025-03-25T1300,35,66,0.4,13,14,158,73,58,颗粒物(PM10)
景德镇市,兽医站,117.1894,29.2789,2025-03-25T1300,40,82,0.5,9,10,157,76,66,颗粒物(PM10)
景德镇市,台达陶瓷,117.1547,29.2617,2025-03-25T1300,46,107,0.8,25,15,147,78,79,颗粒物(PM10)
景德镇市,陶研所,117.2461,29.2956,2025-03-25T1300,39,72,0.8,21,,152,59,,
九江市,十里,115.9872,29.6815,2025-03-25T1300,24,56,0.3,5,5,154,83,53,颗粒物(PM10)
九江市,茅山头,115.9584,29.7046,2025-03-25T1300,27,62,,13,8,142,86,,
九江市,西园,115.9877,29.7295,2025-03-25T1300,28,54,0.6,6,8,153,80,52,颗粒物(PM10)
九江市,综合工业园,115.9114,29.6038,2025-03-25T1300,32,53,0.6,17,12,156,102,52,颗粒物(PM10)
九江市,石化总厂,116.0721,29.7535,2025-03-25T1300,31,,,15,19,159,95,,
九江市,庐山气象台,115.9773,29.5698,2025-03-25T1300,20,39,0.6,2,6,126,129,40,
九江市,外国语学校,116.0254,29.6994,2025-03-25T1300,18,59,0.5,10,4,136,81,55,颗粒物(PM10)
九江市,莲花大道8号,116.0102,29.6594,2025-03-25T1300,32,64,0.4,2,10,144,91,57,颗粒物(PM10)
酒泉市,玉门东路5号,98.4958,39.7339,2025-03-25T1300,59,407,0.2,3,9,89,69,282,颗粒物(PM10)
酒泉市,北大街108号,98.5099,39.7506,2025-03-25T1300,40,356,0.4,5,10,87,64,209,颗粒物(PM10)
喀什地区,巡警大队,76.0072,39.4467,2025-03-25T1300,7,208,0.4,12,4,77,48,129,颗粒物(PM10)
喀什地区,吾办,75.9755,39.4694,2025-03-25T1300,19,246,0.4,12,3,79,55,148,颗粒物(PM10)
喀什地区,老干局,75.9483,39.4689,2025-03-25T1300,15,103,0.4,9,4,84,59,77,颗粒物(PM10)
开封市,肿瘤医院,114.3389,34.7781,2025-03-25T1300,62,198,0.8,21,15,98,72,124,颗粒物(PM10)
开封市,世纪星幼儿园,114.2885,34.7965,2025-03-25T1300,78,222,0.8,28,13,100,76,136,颗粒物(PM10)
开封市,龙亭公园,114.3438,34.8106,2025-03-25T1300,47,244,1.2,29,,92,74,147,颗粒物(PM10)
开封市,汴京公园,114.3644,34.7964,2025-03-25T1300,65,218,0.9,31,14,92,75,134,颗粒物(PM10)
开封市,技师学院,114.2485,34.8306,2025-03-25T1300,65,262,1.1,30,21,85,80,156,颗粒物(PM10)
开封市,祥符区生态环境局,114.4644,34.7556,2025-03-25T1300,,,1.3,32,,80,73,,
克拉玛依市,长征新村,84.895,45.6094,2025-03-25T1300,13,35,0.2,6,7,92,98,35,
克拉玛依市,南林小区,84.8988,45.5893,2025-03-25T1300,12,30,0.3,2,3,93,94,30,
克拉玛依市,独山子区,84.905,44.3396,2025-03-25T1300,13,,0.3,5,5,73,81,,
克拉玛依市,乌尔禾区商贸楼,85.6979,46.098,2025-03-25T1300,3,25,0.3,2,4,94,84,30,
克拉玛依市,白碱滩区新站,85.1045,45.6899,2025-03-25T1300,9,,,2,,86,88,,
克孜勒苏柯尔克孜自治州,市人民政府,76.1454,39.7142,2025-03-25T1300,13,95,0.5,1,5,92,89,73,颗粒物(PM10)
克孜勒苏柯尔克孜自治州,克州文化中心,76.1658,39.7157,2025-03-25T1300,8,33,0.4,2,7,92,91,33,
昆明市,呈贡新区,102.8204,24.8886,2025-03-25T1300,16,24,0.3,11,14,155,90,49,
昆明市,西山森林公园,102.6251,24.9608,2025-03-25T1300,,,,,,,,,
昆明市,龙泉镇,102.7252,25.0902,2025-03-25T1300,10,,0.3,6,9,154,77,,
昆明市,东风东路,102.7266,25.0375,2025-03-25T1300,12,24,0.3,,7,152,74,,
昆明市,金鼎山,102.6742,25.0669,2025-03-25T1300,7,39,0.4,9,,153,98,,
昆明市,碧鸡广场,102.6644,25.0401,2025-03-25T1300,12,23,0.3,9,6,157,100,50,
昆明市,官渡区博物馆,102.7494,25.0119,2025-03-25T1300,12,23,0.3,9,7,155,69,49,
昆明市,青年创业园,102.8017,24.8336,2025-03-25T1300,20,24,0.4,8,11,152,83,48,
昆明市,昆明学院,102.7997,24.9786,2025-03-25T1300,16,29,0.3,10,7,155,71,49,
昆明市,晋宁区生态环境分局,102.5967,24.6736,2025-03-25T1300,17,22,0.3,6,10,157,137,50,
昆明市,云天化总部,102.6678,24.9856,2025-03-25T1300,13,20,0.1,9,8,161,109,52,臭氧1小时
拉萨市,八廓街,91.1319,29.6514,2025-03-25T1300,3,12,0.3,7,8,103,75,33,
拉萨市,市环保局,91.1221,29.6747,2025-03-25T1300,6,15,0.5,13,8,94,63,30,
拉萨市,区监测站,91.0874,29.6475,2025-03-25T1300,8,10,0.4,18,8,85,64,27,
拉萨市,西藏大学,91.1774,29.6541,2025-03-25T1300,6,6,0.5,13,10,91,68,29,
拉萨市,区辐射站,90.9798,29.6588,2025-03-25T1300,,,,14,8,92,73,,
拉萨市,拉萨火车站,91.0834,29.6292,2025-03-25T1300,6,11,0.3,18,6,77,64,25,
来宾市,来宾技工学校,109.2203,23.7256,2025-03-25T1300,56,82,0.8,10,10,133,87,77,细颗粒物(PM2.5)
来宾市,兴宾区政府,109.1781,23.7297,2025-03-25T1300,41,60,0.9,9,13,136,97,58,细颗粒物(PM2.5)
来宾市,中南小学,109.2416,23.7461,2025-03-25T1300,50,80,0.8,8,7,125,76,69,细颗粒物(PM2.5)
兰州市,榆中兰大校区,104.1373,35.9454,2025-03-25T1300,,,,,,,,,
兰州市,铁路设计院,103.831,36.0464,2025-03-25T1300,74,302,1.2,70,29,74,30,176,颗粒物(PM10)
兰州市,百合公园,103.7439,36.0842,2025-03-25T1300,60,254,1.0,32,38,109,38,152,颗粒物(PM10)
兰州市,和平,103.9611,35.998,2025-03-25T1300,98,369,0.7,22,20,102,62,228,颗粒物(PM10)
兰州市,庄浪东路808号,103.6293,36.0938,2025-03-25T1300,85,261,1.1,50,46,160,60,156,颗粒物(PM10)
兰州市,安宁西路88号,103.7251,36.1043,2025-03-25T1300,84,304,0.8,32,37,108,42,177,颗粒物(PM10)
兰州市,北滨河东路1号,103.8470,36.0676,2025-03-25T1300,83,289,1.4,67,32,76,25,170,颗粒物(PM10)
兰州新区,新区管委会,103.6633,36.533,2025-03-25T1300,91,346,0.4,7,18,95,59,198,颗粒物(PM10)
兰州新区,舟曲中学,103.6975,36.4789,2025-03-25T1300,87,367,0.4,4,14,95,57,225,颗粒物(PM10)
廊坊市,药材公司,116.6708,39.5111,2025-03-25T1300,3,28,0.3,6,2,90,69,29,
廊坊市,开发区,116.7214,39.5589,2025-03-25T1300,9,42,0.2,7,2,93,73,42,
廊坊市,北华航天学院,116.7244,39.5269,2025-03-25T1300,10,32,0.2,6,4,88,71,32,
廊坊市,河北工业大学,116.7022,39.5453,2025-03-25T1300,3,29,0.2,3,4,95,76,30,
乐山市,花湖湾,103.7723,29.5462,2025-03-25T1300,44,66,0.7,23,10,112,44,62,细颗粒物(PM2.5)
乐山市,牛耳桥,103.7627,29.5844,2025-03-25T1300,54,56,0.7,27,10,122,39,74,细颗粒物(PM2.5)
乐山市,市第三水厂,103.7508,29.6006,2025-03-25T1300,43,68,0.5,16,8,134,45,60,细颗粒物(PM2.5)
乐山市,市监测站,103.7571,29.5664,2025-03-25T1300,56,71,0.7,26,9,110,33,77,细颗粒物(PM2.5)
乐山市,理工大学,103.7311,29.5628,2025-03-25T1300,45,71,0.6,22,8,127,37,63,细颗粒物(PM2.5)
丽江市,西南郊,100.2143,26.8576,2025-03-25T1300,,,,,,,,,
丽江市,丽江古城,100.2497,26.8802,2025-03-25T1300,10,18,0.4,8,8,100,92,32,
丽江市,市中心,100.2203,26.8906,2025-03-25T1300,9,19,0.6,18,8,94,75,30,
丽水市,监测站大楼,119.914,28.4514,2025-03-25T1300,41,67,0.6,18,5,161,74,59,颗粒物(PM10)
丽水市,莲都小学,119.93,28.4586,2025-03-25T1300,35,80,0.6,26,5,128,61,65,颗粒物(PM10)
丽水市,余庄前,119.879,28.4231,2025-03-25T1300,37,71,0.6,19,8,165,69,61,颗粒物(PM10)
连云港市,市环境监测站,119.176,34.5885,2025-03-25T1300,36,95,0.5,15,19,132,107,73,颗粒物(PM10)
连云港市,德源药业,119.3581,34.6972,2025-03-25T1300,31,90,0.4,12,12,135,119,70,颗粒物(PM10)
连云港市,新城一中,119.178,34.844,2025-03-25T1300,50,128,0.9,15,11,133,93,89,颗粒物(PM10)
连云港市,胡沟管理处,119.3608,34.7519,2025-03-25T1300,31,70,0.6,17,13,133,116,60,颗粒物(PM10)
连云港市,矿山设计院,119.1478,34.5911,2025-03-25T1300,31,92,0.5,27,19,128,110,71,颗粒物(PM10)
连云港市,工贸学校,119.2413,34.6539,2025-03-25T1300,45,122,0.7,15,12,135,108,86,颗粒物(PM10)
连云港市,连云街道,119.4172,34.7341,2025-03-25T1300,49,128,0.8,20,10,128,120,89,颗粒物(PM10)
凉山彝族自治州,青龙寺,102.3431,27.8099,2025-03-25T1300,3,16,0.9,5,10,125,72,40,
凉山彝族自治州,邛海宾馆,102.2721,27.8415,2025-03-25T1300,23,39,0.8,11,10,107,62,39,
凉山彝族自治州,西昌市政府,102.2625,27.898,2025-03-25T1300,24,30,0.8,14,10,99,67,35,
凉山彝族自治州,凉山州政府,102.2685,27.8851,2025-03-25T1300,20,31,0.6,14,10,103,67,33,
凉山彝族自治州,凯乐南路30号,102.2342,27.8859,2025-03-25T1300,22,38,0.8,22,11,93,42,38,
辽阳市,宏伟区,123.2,41.1953,2025-03-25T1300,36,108,1.0,13,14,104,79,79,颗粒物(PM10)
辽阳市,新华园,123.1683,41.2495,2025-03-25T1300,37,99,0.9,20,15,95,69,75,颗粒物(PM10)
辽阳市,滨河路,123.2354,41.2639,2025-03-25T1300,30,123,0.7,22,13,99,75,87,颗粒物(PM10)
辽阳市,铁西工业园,123.149,41.2991,2025-03-25T1300,32,141,0.7,25,14,94,72,96,颗粒物(PM10)
辽源市,环保局,125.1358,42.8845,2025-03-25T1300,,,0.9,29,7,80,80,,
辽源市,银鹰制药,125.0764,42.9078,2025-03-25T1300,63,70,1.1,30,52,83,80,85,细颗粒物(PM2.5)
聊城市,区政府,115.9848,36.4372,2025-03-25T1300,35,235,0.4,15,10,105,72,143,颗粒物(PM10)
聊城市,聊大东校,116.0072,36.4343,2025-03-25T1300,47,310,0.6,17,13,103,72,180,颗粒物(PM10)
聊城市,监控中心,115.9819,36.4978,2025-03-25T1300,34,246,0.5,12,13,102,67,148,颗粒物(PM10)
聊城市,九州社区,116.0445,36.4361,2025-03-25T1300,34,275,0.7,18,20,109,71,163,颗粒物(PM10)
聊城市,星美广场,116.0567,36.4608,2025-03-25T1300,33,243,0.6,26,16,103,66,147,颗粒物(PM10)
林芝市,林芝监测站,94.3681,29.6376,2025-03-25T1300,3,6,0.1,5,5,100,78,32,
林芝市,林芝人民医院,94.3616,29.6616,2025-03-25T1300,3,10,0.1,4,7,93,72,30,
临沧市,市环保局,100.0781,23.8982,2025-03-25T1300,17,48,0.5,12,9,117,59,48,
临沧市,市气象局,100.0894,23.8822,2025-03-25T1300,34,44,,16,8,118,60,,
临汾市,临钢医院,111.5531,36.0783,2025-03-25T1300,147,757,0.3,2,3,104,56,500,颗粒物(PM10)
临汾市,技工学校,111.5028,36.0714,2025-03-25T1300,129,624,0.4,5,5,105,70,500,颗粒物(PM10)
临汾市,市委,111.5018,36.0855,2025-03-25T1300,216,713,0.2,6,2,105,71,500,颗粒物(PM10)
临汾市,唐尧大酒店,111.505,36.1014,2025-03-25T1300,140,644,0.3,4,5,104,62,500,颗粒物(PM10)
临汾市,启星学校,111.4879,36.0530,2025-03-25T1300,164,721,0.3,2,2,103,65,500,颗粒物(PM10)
临夏回族自治州,滨河东路1号,103.2464,35.6123,2025-03-25T1300,48,135,0.5,17,10,106,42,93,颗粒物(PM10)
临夏回族自治州,新华街21号,103.2093,35.5995,2025-03-25T1300,47,105,0.4,15,12,113,38,78,颗粒物(PM10)
临沂市,沂河小区,118.3429,35.0532,2025-03-25T1300,47,144,0.6,14,12,128,86,97,颗粒物(PM10)
临沂市,鲁南制药厂,118.295,35.0583,2025-03-25T1300,45,136,0.4,23,14,140,92,93,颗粒物(PM10)
临沂市,新光毛纺厂,118.2794,34.9976,2025-03-25T1300,39,90,0.6,22,9,134,87,70,颗粒物(PM10)
临沂市,河东保险公司,118.3956,35.0888,2025-03-25T1300,48,127,0.3,19,9,137,95,89,颗粒物(PM10)
临沂市,十里堡居委,118.3564,35.0215,2025-03-25T1300,39,122,0.6,20,14,136,88,86,颗粒物(PM10)
临沂市,南坊新区,118.3604,35.1084,2025-03-25T1300,46,153,0.6,15,10,128,90,102,颗粒物(PM10)
临沂市,皇山花园小区,118.3920,35.0300,2025-03-25T1300,42,141,0.5,16,12,138,92,96,颗粒物(PM10)
柳州市,柳东小学,109.4856,24.3895,2025-03-25T1300,45,60,0.5,16,15,133,77,63,细颗粒物(PM2.5)
柳州市,环保监测站,109.4157,24.3277,2025-03-25T1300,50,74,0.8,11,12,125,90,69,细颗粒物(PM2.5)
柳州市,河西水厂,109.389,24.341,2025-03-25T1300,44,84,0.6,12,12,135,98,67,颗粒物(PM10)
柳州市,市四中,109.4311,24.2921,2025-03-25T1300,47,88,0.7,13,13,138,95,69,颗粒物(PM10)
柳州市,市九中,109.4006,24.3631,2025-03-25T1300,41,78,0.8,11,13,140,88,64,颗粒物(PM10)
柳州市,古亭山,109.4958,24.3134,2025-03-25T1300,55,82,0.7,11,12,140,72,75,细颗粒物(PM2.5)
柳州市,市二中,109.5422,24.3996,2025-03-25T1300,45,65,0.3,12,20,146,69,63,细颗粒物(PM2.5)
六安市,监测大楼,116.5079,31.737,2025-03-25T1300,33,53,0.6,17,6,134,130,52,颗粒物(PM10)
六安市,皖西学院,116.4738,31.7643,2025-03-25T1300,19,53,0.4,7,4,136,132,52,颗粒物(PM10)
六安市,朝阳厂,116.4996,31.7905,2025-03-25T1300,17,45,0.5,9,4,129,128,45,
六安市,开发区,116.5567,31.7886,2025-03-25T1300,25,45,0.5,11,4,138,112,45,
六盘水市,窑上,104.8,26.5892,2025-03-25T1300,14,31,0.4,4,6,121,79,38,
六盘水市,黄土坡,104.83,26.5917,2025-03-25T1300,17,,0.3,7,8,121,71,38,
六盘水市,水钢,104.89,26.5939,2025-03-25T1300,12,27,0.5,8,11,114,60,36,
六盘水市,民中,104.8475,26.5894,2025-03-25T1300,9,22,0.3,6,8,116,61,37,
六盘水市,双水,104.9544,26.5506,2025-03-25T1300,3,27,0.4,12,10,114,58,36,
龙岩市,龙岩师专,117.0189,25.1181,2025-03-25T1300,,,,,,,,,
龙岩市,龙岩市监测站,117.0217,25.1033,2025-03-25T1300,,,,,,,,,
龙岩市,闽西职业技术学院,117.0258,25.0661,2025-03-25T1300,41,59,0.4,11,9,190,122,88,臭氧1小时
龙岩市,龙岩学院,117.0196,25.0306,2025-03-25T1300,36,66,0.7,9,3,200,141,100,臭氧1小时
陇南市,汉王镇固水子,105.0822,33.3261,2025-03-25T1300,,,,,,,,,
陇南市,滨江中学,104.9339,33.3826,2025-03-25T1300,19,49,0.4,6,8,102,57,49,
陇南市,市总工会,104.955,33.371,2025-03-25T1300,20,40,0.3,4,9,108,67,40,
娄底市,电视发射台,111.9589,27.8901,2025-03-25T1300,44,63,1.6,18,27,148,96,62,细颗粒物(PM2.5)
娄底市,市监测站,111.9975,27.725,2025-03-25T1300,,100,,23,23,150,48,,
娄底市,市委党校,112.0194,27.7314,2025-03-25T1300,52,88,0.5,18,13,148,55,72,细颗粒物(PM2.5)
娄底市,涟钢,111.9561,27.7569,2025-03-25T1300,68,125,2.2,43,52,117,49,92,细颗粒物(PM2.5)
娄底市,市政府,111.9892,27.7044,2025-03-25T1300,65,94,0.5,14,11,146,57,88,细颗粒物(PM2.5)
泸州市,九狮山,105.4324,28.9634,2025-03-25T1300,,,,,,,,,
泸州市,小市上码头,105.4427,28.9063,2025-03-25T1300,58,94,0.6,35,12,144,51,79,细颗粒物(PM2.5)
泸州市,兰田宪桥,105.4241,28.8573,2025-03-25T1300,50,67,0.6,17,14,151,58,69,细颗粒物(PM2.5)
泸州市,市环监站,105.4379,28.8833,2025-03-25T1300,,,,,,,,,
泸州市,纳溪中医医院,105.3689,28.7783,2025-03-25T1300,38,74,0.6,14,,156,49,,
吕梁市,环保局,111.1406,37.5211,2025-03-25T1300,115,603,0.2,7,2,100,94,500,颗粒物(PM10)
吕梁市,自来水公司,111.1297,37.5136,2025-03-25T1300,109,583,0.2,7,1,102,87,483,颗粒物(PM10)
吕梁市,马茂庄小学,111.1283,37.51,2025-03-25T1300,112,640,0.2,9,1,101,94,500,颗粒物(PM10)
洛阳市,市委党校,112.3931,34.6516,2025-03-25T1300,56,151,0.5,22,7,119,44,101,颗粒物(PM10)
洛阳市,河南林校,112.494,34.6886,2025-03-25T1300,95,132,0.6,12,7,129,51,125,细颗粒物(PM2.5)
洛阳市,开发区管委会,112.3844,34.623,2025-03-25T1300,47,149,0.3,15,8,128,62,100,颗粒物(PM10)
洛阳市,市委新办公区,112.4267,34.6258,2025-03-25T1300,55,149,0.8,11,6,127,68,100,颗粒物(PM10)
洛阳市,伊滨,112.6005,34.6326,2025-03-25T1300,35,94,0.5,13,7,134,76,72,颗粒物(PM10)
洛阳市,中移产业园,112.4951,34.6332,2025-03-25T1300,55,113,0.7,12,9,125,64,82,颗粒物(PM10)
洛阳市,吉利监测站,112.5736,34.8993,2025-03-25T1300,74,247,0.4,10,9,128,78,149,颗粒物(PM10)
洛阳市,河科大西苑校区,112.3677,34.662,2025-03-25T1300,41,189,0.7,16,11,128,50,120,颗粒物(PM10)
洛阳市,英才小学,112.4388,34.6781,2025-03-25T1300,46,115,0.5,18,14,127,51,83,颗粒物(PM10)
洛阳市,春都路1号院,112.4600,34.6949,2025-03-25T1300,38,153,0.6,19,11,132,55,102,颗粒物(PM10)
漯河市,三五一五工厂,114.051,33.5699,2025-03-25T1300,52,81,0.4,8,7,130,107,72,细颗粒物(PM2.5)
漯河市,漯河大学,114.0055,33.5698,2025-03-25T1300,36,77,0.5,10,9,130,107,64,颗粒物(PM10)
漯河市,市水利局,114.0138,33.5828,2025-03-25T1300,36,66,0.3,9,6,131,113,58,颗粒物(PM10)
漯河市,市广电局,114.0261,33.5698,2025-03-25T1300,42,71,0.5,8,7,132,110,61,颗粒物(PM10)
漯河市,市图书馆,113.9749,33.5664,2025-03-25T1300,40,70,0.5,12,,131,105,,
漯河市,韶山路11号,114.0892,33.5882,2025-03-25T1300,34,73,0.5,7,6,141,118,62,颗粒物(PM10)
马鞍山市,湖东路四小,118.5092,31.6837,2025-03-25T1300,21,68,0.6,10,9,171,96,64,臭氧1小时
马鞍山市,开发区,118.5024,31.6449,2025-03-25T1300,31,83,0.6,19,6,166,90,67,颗粒物(PM10)
马鞍山市,濮塘,118.6245,31.7241,2025-03-25T1300,32,77,0.5,7,10,176,124,70,臭氧1小时
马鞍山市,雨山,118.4918,31.6809,2025-03-25T1300,30,81,0.7,7,11,168,88,66,颗粒物(PM10)
马鞍山市,慈湖高新区,118.5274,31.72227,2025-03-25T1300,34,67,0.6,14,8,162,88,59,颗粒物(PM10)
茂名市,电白南海,111.0286,21.4688,2025-03-25T1300,46,66,0.8,11,11,108,65,64,细颗粒物(PM2.5)
茂名市,茂石化七小,110.9294,21.6533,2025-03-25T1300,31,58,0.6,10,4,112,62,54,颗粒物(PM10)
茂名市,健康路,110.9107,21.6687,2025-03-25T1300,36,58,0.6,10,8,131,78,54,颗粒物(PM10)
茂名市,高岭,110.8592,21.6828,2025-03-25T1300,36,75,0.6,11,9,121,61,63,颗粒物(PM10)
茂名市,电白水东,111.01,21.5165,2025-03-25T1300,31,56,0.4,5,9,115,70,53,颗粒物(PM10)
眉山市,黑龙滩水库,104.0308,30.0478,2025-03-25T1300,16,31,0.6,3,5,134,67,42,
眉山市,气象局,103.8416,30.0874,2025-03-25T1300,41,65,0.5,,9,123,34,,
眉山市,市委党校,103.8578,30.0744,2025-03-25T1300,29,51,0.4,19,14,131,39,51,颗粒物(PM10)
眉山市,区人社局,103.8291,30.0564,2025-03-25T1300,29,49,0.6,20,15,144,42,49,
梅州市,梅江月梅,116.1231,24.3284,2025-03-25T1300,40,73,0.6,17,7,226,110,113,臭氧1小时
梅州市,梅县新城,116.0797,24.2719,2025-03-25T1300,39,68,0.6,18,8,227,101,114,臭氧1小时
梅州市,环境监控中心,116.1248,24.2654,2025-03-25T1300,41,76,0.7,18,9,222,106,111,臭氧1小时
梅州市,梅龙,116.1233,24.2991,2025-03-25T1300,40,73,0.6,17,9,220,104,110,臭氧1小时
绵阳市,富乐山,104.7778,31.4741,2025-03-25T1300,32,58,0.6,26,7,132,58,54,颗粒物(PM10)
绵阳市,高新区自来水公司,104.6697,31.4668,2025-03-25T1300,,,,22,6,127,41,,
绵阳市,三水厂,104.7287,31.5075,2025-03-25T1300,53,83,0.6,25,8,137,47,73,细颗粒物(PM2.5)
绵阳市,西科大附属小学,104.69,31.5322,2025-03-25T1300,51,95,0.7,29,9,130,58,73,颗粒物(PM10)
绵阳市,安州区旅游局,104.5648,31.5343,2025-03-25T1300,29,71,0.4,25,9,114,52,61,颗粒物(PM10)
绵阳市,绵阳市气象局,104.7651,31.4531,2025-03-25T1300,35,74,0.5,27,4,112,39,62,颗粒物(PM10)
牡丹江市,环保大楼,129.61,44.561,2025-03-25T1300,9,37,0.2,7,6,87,52,37,
牡丹江市,文化广场,129.6115,44.5782,2025-03-25T1300,23,38,0.3,10,10,81,48,38,
牡丹江市,第一医院,129.5904,44.5963,2025-03-25T1300,18,27,0,8,9,85,55,27,
牡丹江市,机车工厂,129.6364,44.6075,2025-03-25T1300,13,50,0.3,4,6,87,51,50,
牡丹江市,第一中学,129.6386,44.5462,2025-03-25T1300,21,21,0.3,4,7,91,58,30,
内江市,市监测站,105.0703,29.61,2025-03-25T1300,44,47,0.3,36,10,143,52,62,细颗粒物(PM2.5)
内江市,东兴区政府,105.0717,29.5947,2025-03-25T1300,40,53,0.6,28,9,144,44,57,细颗粒物(PM2.5)
内江市,内江二中,105.0653,29.5817,2025-03-25T1300,46,56,0.4,23,12,151,41,64,细颗粒物(PM2.5)
内江市,内江日报社,105.0406,29.5822,2025-03-25T1300,52,54,0.6,30,9,138,48,72,细颗粒物(PM2.5)
那曲市,那曲监测站,92.0657,31.4846,2025-03-25T1300,16,26,0.4,9,7,88,49,28,
那曲市,那曲会议中心,92.0506,31.4797,2025-03-25T1300,,,,,,,,,
南昌市,省外办,115.8931,28.6843,2025-03-25T1300,48,80,0.8,104,21,132,49,67,细颗粒物(PM2.5)
南昌市,省林业公司,115.8886,28.7003,2025-03-25T1300,46,75,0.1,21,21,140,56,64,细颗粒物(PM2.5)
南昌市,林科所,115.8126,28.7442,2025-03-25T1300,39,75,0.3,15,10,168,34,63,颗粒物(PM10)
南昌市,建工学校,115.8518,28.687,2025-03-25T1300,37,90,0.6,21,22,138,53,70,颗粒物(PM10)
南昌市,象湖,115.8921,28.6424,2025-03-25T1300,51,77,0.7,17,26,151,57,70,细颗粒物(PM2.5)
南昌市,武术学校,115.7423,28.7996,2025-03-25T1300,18,39,0.7,7,16,165,82,57,臭氧1小时
南昌市,机电学校,115.9084,28.6062,2025-03-25T1300,48,87,0.6,24,26,136,58,69,颗粒物(PM10)
南昌市,外国语学校,115.9721,28.7031,2025-03-25T1300,42,86,0.2,16,14,149,56,68,颗粒物(PM10)
南昌市,南京东路235号,115.9316,28.68677,2025-03-25T1300,48,91,0.5,27,20,138,54,71,颗粒物(PM10)
南充市,西山风景区,106.056,30.8064,2025-03-25T1300,26,42,0.8,14,5,150,108,47,
南充市,南充市委,106.0789,30.8023,2025-03-25T1300,37,69,0.6,18,6,154,63,60,颗粒物(PM10)
南充市,南充炼油厂,106.1031,30.8217,2025-03-25T1300,30,,0.4,,6,135,54,,
南充市,嘉陵区环保局,106.0642,30.7636,2025-03-25T1300,34,57,0.4,13,6,144,60,54,颗粒物(PM10)
南充市,梨树横街98号,106.1083,30.7884,2025-03-25T1300,21,64,0.4,17,8,142,61,57,颗粒物(PM10)
南充市,清泉寺北路188号,106.1172,30.843,2025-03-25T1300,31,66,0.3,15,9,153,78,58,颗粒物(PM10)
南京市,迈皋桥,118.8086,32.1065,2025-03-25T1300,31,65,0.3,19,4,170,105,63,臭氧1小时
南京市,草场门,118.7538,32.0551,2025-03-25T1300,29,80,0.6,15,11,154,89,65,颗粒物(PM10)
南京市,山西路,118.7794,32.0745,2025-03-25T1300,24,102,0.7,14,9,157,93,76,颗粒物(PM10)
南京市,中华门,118.7752,32.0023,2025-03-25T1300,27,73,,18,8,138,88,,
南京市,瑞金路,118.8109,32.0309,2025-03-25T1300,31,78,0.7,3,7,158,91,64,颗粒物(PM10)
南京市,玄武湖,118.7997,32.0754,2025-03-25T1300,22,91,0.6,16,12,153,93,71,颗粒物(PM10)
南京市,浦口,118.6414,32.0931,2025-03-25T1300,26,,0.5,13,9,170,107,63,臭氧1小时
南京市,奥体中心,118.7356,31.9996,2025-03-25T1300,36,78,1.0,18,17,161,99,64,颗粒物(PM10)
南京市,仙林大学城,118.9125,32.1028,2025-03-25T1300,27,88,1.0,14,16,152,98,69,颗粒物(PM10)
南京市,江宁彩虹桥,118.8436,31.9198,2025-03-25T1300,29,81,0.4,6,3,161,96,66,颗粒物(PM10)
南京市,溧水永阳,119.0138,31.6494,2025-03-25T1300,30,58,0.4,12,6,171,121,64,臭氧1小时
南京市,六合雄州,118.8554,32.3578,2025-03-25T1300,20,66,0.4,2,7,149,95,58,颗粒物(PM10)
南京市,汶溪路181号,118.8708,31.3402,2025-03-25T1300,39,50,0.6,,4,164,119,,
南宁市,二十一中,108.3103,22.7881,2025-03-25T1300,66,109,0.8,,13,120,71,,
南宁市,北湖,108.3141,22.8528,2025-03-25T1300,63,68,0.7,23,13,124,68,85,细颗粒物(PM2.5)
南宁市,市监测站,108.3206,22.8225,2025-03-25T1300,63,114,1.0,25,15,119,75,85,细颗粒物(PM2.5)
南宁市,大自然花园,108.3829,22.8037,2025-03-25T1300,57,91,0.8,18,15,122,72,78,细颗粒物(PM2.5)
南宁市,仙葫,108.4394,22.7904,2025-03-25T1300,69,80,0.7,12,10,116,60,93,细颗粒物(PM2.5)
南宁市,区农职院,108.2397,22.8467,2025-03-25T1300,48,82,0.9,17,10,122,59,67,细颗粒物(PM2.5)
南宁市,英华嘉园,108.3275,22.735,2025-03-25T1300,58,94,0.7,17,14,126,73,79,细颗粒物(PM2.5)
南宁市,红星社区,108.4834,22.7618,2025-03-25T1300,66,,0.9,11,17,130,61,89,细颗粒物(PM2.5)
南宁市,乐贤路16号,108.2177,22.7774,2025-03-25T1300,48,65,0.8,13,13,117,51,67,细颗粒物(PM2.5)
南平市,茫荡山,118.0966,26.6761,2025-03-25T1300,,,,,,,,,
南平市,南平市监测站,118.1681,26.6369,2025-03-25T1300,45,68,0.9,15,3,168,83,63,细颗粒物(PM2.5)
南平市,南平铝业有限公司,118.1825,26.6489,2025-03-25T1300,37,63,0.8,11,9,172,83,65,臭氧1小时
南平市,南平七中,118.1756,26.6272,2025-03-25T1300,38,75,0.7,11,9,177,74,72,臭氧1小时
南通市,狼山街道,120.9098,31.9663,2025-03-25T1300,,,0.5,33,8,138,60,,
南通市,虹桥,120.86,32.0005,2025-03-25T1300,32,93,0.5,34,7,140,62,72,颗粒物(PM10)
南通市,城中,120.87,32.02,2025-03-25T1300,33,121,0.6,29,8,141,70,86,颗粒物(PM10)
南通市,星湖花园,120.94,31.93,2025-03-25T1300,,,0.3,,,142,59,,
南通市,紫琅学院,120.81,32.0417,2025-03-25T1300,33,113,0.7,40,5,136,49,82,颗粒物(PM10)
南通市,通州监测站,121.067,32.062,2025-03-25T1300,31,124,0.7,31,7,159,79,87,颗粒物(PM10)
南通市,环境教育馆,120.9348,31.9883,2025-03-25T1300,31,156,0.5,34,9,153,70,103,颗粒物(PM10)
南阳市,瓦房庄,112.5224,33.0122,2025-03-25T1300,31,71,0.5,10,5,116,78,61,颗粒物(PM10)
南阳市,汉画馆,112.5003,32.9735,2025-03-25T1300,29,63,0.4,12,6,118,73,57,颗粒物(PM10)
南阳市,气象站,112.5573,33.027,2025-03-25T1300,22,73,0.5,10,8,119,86,62,颗粒物(PM10)
南阳市,理工学院,112.5481,32.9689,2025-03-25T1300,26,61,0.4,8,6,122,83,56,颗粒物(PM10)
南阳市,卧龙区政府,112.5234,32.9922,2025-03-25T1300,,,,9,7,119,72,,
宁波市,区环保大楼,121.8358,29.911,2025-03-25T1300,36,103,0.8,82,20,125,47,77,颗粒物(PM10)
宁波市,万里学院,121.56,29.82,2025-03-25T1300,35,60,0.5,14,15,181,110,77,臭氧1小时
宁波市,龙赛医院,121.713,29.9572,2025-03-25T1300,36,63,0.6,9,9,182,115,78,臭氧1小时
宁波市,钱湖水厂,121.633,29.7733,2025-03-25T1300,,,,10,9,175,141,,
宁波市,太古小学,121.5856,29.8635,2025-03-25T1300,32,59,0.6,10,10,178,127,73,臭氧1小时
宁波市,市环境监测中心,121.524,29.8674,2025-03-25T1300,25,56,0.8,29,10,179,119,74,臭氧1小时
宁波市,万里国际学校,121.6147,29.9017,2025-03-25T1300,36,55,0.5,11,9,183,142,79,臭氧1小时
宁波市,白沙活动中心,121.5594,29.8975,2025-03-25T1300,30,53,0.5,10,8,189,118,87,臭氧1小时
宁德市,金涵水库,119.5001,26.6946,2025-03-25T1300,,,,,,,,,
宁德市,宁德市监测站,119.5388,26.6612,2025-03-25T1300,56,79,1.7,21,12,201,96,101,臭氧1小时
宁德市,宁德一中,119.5231,26.6562,2025-03-25T1300,63,80,1.1,21,10,184,104,85,细颗粒物(PM2.5)
怒江傈僳族自治州,州监测站,98.8601,25.8567,2025-03-25T1300,9,18,0.3,3,5,98,73,31,
怒江傈僳族自治州,泸水一中,98.8546,25.8417,2025-03-25T1300,33,,0.3,6,6,88,49,48,
攀枝花市,弄弄坪,101.6891,26.571,2025-03-25T1300,19,39,1.0,20,21,115,70,39,
攀枝花市,河门口,101.5769,26.5928,2025-03-25T1300,18,35,0.9,14,16,124,58,39,
攀枝花市,炳草岗,101.7169,26.585,2025-03-25T1300,14,31,0.7,15,28,126,60,40,
攀枝花市,仁和,101.7369,26.5008,2025-03-25T1300,18,23,0.5,11,14,130,70,41,
攀枝花市,四十中小,101.7227,26.567,2025-03-25T1300,13,36,0.1,12,20,124,90,39,
盘锦市,开发区,122.0303,41.1489,2025-03-25T1300,42,720,0.5,10,10,80,79,500,颗粒物(PM10)
盘锦市,兴隆台,122.0485,41.0883,2025-03-25T1300,41,418,0.5,13,4,73,69,298,颗粒物(PM10)
盘锦市,新生街道,121.8297,41.1028,2025-03-25T1300,40,870,0.5,14,6,78,76,500,颗粒物(PM10)
平顶山市,新华旅馆,113.3257,33.742,2025-03-25T1300,29,71,,22,6,129,99,,
平顶山市,规划设计院,113.2919,33.737,2025-03-25T1300,36,76,0.4,13,8,134,98,63,颗粒物(PM10)
平顶山市,平顶山工学院,113.182,33.774,2025-03-25T1300,34,75,0.6,5,10,138,104,63,颗粒物(PM10)
平顶山市,规划局,113.3025,33.73,2025-03-25T1300,43,75,0.5,13,7,135,100,63,颗粒物(PM10)
平顶山市,石龙区,112.8867,33.9116,2025-03-25T1300,32,87,0.3,20,14,156,81,69,颗粒物(PM10)
平凉市,聚贤嘉苑,106.6692,35.5461,2025-03-25T1300,56,300,0.7,12,13,102,73,175,颗粒物(PM10)
平凉市,博物馆,106.7021,35.5307,2025-03-25T1300,58,257,0.6,12,22,104,72,154,颗粒物(PM10)
萍乡市,武功山,114.0997,27.5002,2025-03-25T1300,31,59,0.5,8,13,136,80,55,颗粒物(PM10)
萍乡市,中医院,113.8385,27.6434,2025-03-25T1300,30,82,0.9,7,14,171,63,66,颗粒物(PM10)
萍乡市,市政府车库,113.8493,27.6253,2025-03-25T1300,43,69,0.6,9,10,168,65,60,"颗粒物(PM10),细颗粒物(PM2.5),臭氧1小时"
萍乡市,市环保局,113.8676,27.6435,2025-03-25T1300,63,81,0.8,10,11,169,60,85,细颗粒物(PM2.5)
萍乡市,安源区政府,113.866,27.6198,2025-03-25T1300,36,79,0.6,7,16,169,67,65,颗粒物(PM10)
莆田市,荔城区仓后路,119.0141,25.4325,2025-03-25T1300,93,134,0.9,33,8,215,97,123,细颗粒物(PM2.5)
莆田市,莆田市监测站,119.0015,25.4553,2025-03-25T1300,108,145,0.7,34,11,230,114,142,细颗粒物(PM2.5)
莆田市,涵江区六中,119.1119,25.4561,2025-03-25T1300,85,110,0.5,24,6,157,93,113,细颗粒物(PM2.5)
莆田市,秀屿区政府,119.1013,25.3215,2025-03-25T1300,39,42,0.5,17,6,133,71,55,细颗粒物(PM2.5)
莆田市,东圳水库,118.981,25.4792,2025-03-25T1300,,,,,,,,,
濮阳市,环保局,115.0312,35.7636,2025-03-25T1300,75,461,0.5,14,4,98,80,352,颗粒物(PM10)
濮阳市,油田运输公司,115.0574,35.7609,2025-03-25T1300,66,483,0.8,11,4,103,84,379,颗粒物(PM10)
濮阳市,濮水河管理处,115,35.7668,2025-03-25T1300,68,550,0.6,18,4,100,74,450,颗粒物(PM10)
濮阳市,任丘路479号,115.0924,35.7686,2025-03-25T1300,67,501,0.7,10,5,108,89,401,颗粒物(PM10)
普洱市,市环保局,100.98,22.7633,2025-03-25T1300,25,60,0.6,10,4,122,66,55,颗粒物(PM10)
普洱市,普洱第二中学,100.9817,22.8322,2025-03-25T1300,23,,0.4,11,6,104,46,,
七台河市,新一中,131.0518,45.8751,2025-03-25T1300,6,10,0.6,9,12,82,59,26,
七台河市,中波台,131.0577,45.7879,2025-03-25T1300,19,47,0.5,11,6,75,48,47,
七台河市,人民广场,131.0176,45.7761,2025-03-25T1300,11,45,0.7,9,7,74,38,45,
七台河市,新建矿广场,130.8781,45.8222,2025-03-25T1300,22,46,0.6,18,20,63,32,46,
齐齐哈尔市,安居小区,123.9305,47.3636,2025-03-25T1300,10,32,0.3,8,8,82,62,32,
齐齐哈尔市,中心广场,123.9488,47.3386,2025-03-25T1300,18,42,0.4,12,6,73,62,42,
齐齐哈尔市,农牧车辆厂,123.9483,47.3227,2025-03-25T1300,16,31,0.4,9,5,81,66,31,
齐齐哈尔市,市环境监测站,123.945,47.2988,2025-03-25T1300,20,34,0.3,7,2,84,63,34,
齐齐哈尔市,富区青少年活动中心,123.6333,47.2075,2025-03-25T1300,12,23,0.3,6,6,83,63,26,
黔东南苗族侗族自治州,市环境监测站,107.9783,26.5747,2025-03-25T1300,47,68,0.6,13,6,151,55,65,细颗粒物(PM2.5)
黔东南苗族侗族自治州,凯里学院,107.8908,26.5311,2025-03-25T1300,44,63,0.7,3,6,169,70,62,"细颗粒物(PM2.5),臭氧1小时"
黔南布依族苗族自治州,小围寨,107.5228,26.2403,2025-03-25T1300,34,48,0.9,6,63,169,96,62,臭氧1小时
黔南布依族苗族自治州,沙坝,107.5175,26.2978,2025-03-25T1300,39,58,0.6,20,7,150,74,55,细颗粒物(PM2.5)
黔西南布依族苗族自治州,场坝街,104.9022,25.0925,2025-03-25T1300,7,21,0.2,8,4,151,79,48,
黔西南布依族苗族自治州,坪东大道,104.8811,25.0992,2025-03-25T1300,6,14,0.2,10,3,144,83,45,
钦州市,市环保站,108.6236,21.9667,2025-03-25T1300,22,53,0.8,14,10,92,52,52,颗粒物(PM10)
钦州市,沙埠小学,108.6549,21.9481,2025-03-25T1300,24,86,0.8,16,10,92,47,68,颗粒物(PM10)
钦州市,港区一小,108.5989,21.7431,2025-03-25T1300,21,64,0.8,14,8,78,61,57,颗粒物(PM10)
钦州市,北职校,108.5959,21.9633,2025-03-25T1300,19,53,0.9,15,11,88,55,52,颗粒物(PM10)
秦皇岛市,第一关,119.7493,40.0116,2025-03-25T1300,19,127,0.2,6,4,91,75,89,颗粒物(PM10)
秦皇岛市,监测站,119.5897,39.9499,2025-03-25T1300,12,52,0.2,2,3,97,81,51,颗粒物(PM10)
秦皇岛市,建设大厦,119.5251,39.9041,2025-03-25T1300,16,153,0.2,,3,90,73,102,颗粒物(PM10)
秦皇岛市,文明里,119.610547,39.943889,2025-03-25T1300,11,95,0.2,4,3,91,76,73,颗粒物(PM10)
秦皇岛市,北戴河轮滑馆,119.5090,39.8253,2025-03-25T1300,13,170,0.2,2,5,91,77,110,颗粒物(PM10)
青岛市,仰口,120.6659,36.2403,2025-03-25T1300,,205,0.4,5,4,107,114,,
青岛市,市南区东部子站,120.4134,36.0658,2025-03-25T1300,29,246,0.5,12,10,102,78,148,颗粒物(PM10)
青岛市,四方区子站,120.3664,36.1032,2025-03-25T1300,31,207,0.6,15,7,111,87,129,颗粒物(PM10)
青岛市,市南区西部子站,120.2994,36.054,2025-03-25T1300,22,232,0.6,24,10,94,71,141,颗粒物(PM10)
青岛市,崂山区子站,120.4581,36.0858,2025-03-25T1300,27,232,0.6,13,9,112,87,141,颗粒物(PM10)
青岛市,城阳区子站,120.3999,36.3083,2025-03-25T1300,22,215,0.6,14,8,110,86,133,颗粒物(PM10)
青岛市,黄岛区4号,120.0405,35.8735,2025-03-25T1300,,273,0.6,,9,112,83,162,颗粒物(PM10)
青岛市,即墨2号,120.5014,36.4034,2025-03-25T1300,40,205,0.6,10,9,104,84,128,颗粒物(PM10)
青岛市,市北区南部,120.3503,36.0736,2025-03-25T1300,27,242,0.5,13,7,92,68,146,颗粒物(PM10)
青岛市,李沧区北部,120.3948,36.1805,2025-03-25T1300,31,249,0.5,13,9,109,86,150,颗粒物(PM10)
青岛市,珠江路669号,120.1969,35.9546,2025-03-25T1300,37,280,0.7,14,8,109,81,165,颗粒物(PM10)
清远市,环保大楼,113.0426,23.691,2025-03-25T1300,59,89,0.9,33,7,189,84,87,臭氧1小时
清远市,凤城街办,113.0208,23.7106,2025-03-25T1300,54,90,0.7,42,13,179,80,74,"细颗粒物(PM2.5),臭氧1小时"
清远市,技师学院,113.0477,23.6344,2025-03-25T1300,46,85,0.7,34,,198,60,,
清远市,清新太和,112.9903,23.7403,2025-03-25T1300,65,112,0.7,35,17,214,95,107,臭氧1小时
清远市,清城东城,113.076,23.7198,2025-03-25T1300,51,90,0.5,33,10,184,84,80,臭氧1小时
庆阳市,庆阳五中,107.6325,35.7357,2025-03-25T1300,110,384,0.5,11,6,112,81,249,颗粒物(PM10)
庆阳市,市环保局,107.6364,35.7067,2025-03-25T1300,77,274,0.5,12,10,112,83,162,颗粒物(PM10)
曲靖市,环境监测站,103.7897,25.5035,2025-03-25T1300,15,28,0.5,9,7,136,83,43,
曲靖市,烟厂办公区,103.8,25.5364,2025-03-25T1300,3,23,0.3,6,4,142,73,45,
曲靖市,南苑二区,103.7947,25.462,2025-03-25T1300,11,20,0.3,8,6,131,96,41,
曲靖市,曲靖师范学院,103.7444,25.5261,2025-03-25T1300,19,,0.2,10,8,140,89,44,
衢州市,环保大楼,118.8692,28.9398,2025-03-25T1300,38,73,0.4,11,6,164,81,62,颗粒物(PM10)
衢州市,实验学校,118.8709,28.9666,2025-03-25T1300,29,56,0.5,9,5,161,74,53,颗粒物(PM10)
衢州市,衢州学院,118.8621,28.9808,2025-03-25T1300,28,57,0.3,10,6,146,68,54,颗粒物(PM10)
泉州市,涂山街,118.5819,24.9117,2025-03-25T1300,55,80,0.8,29,8,216,95,108,臭氧1小时
泉州市,津头埔,118.5972,24.8978,2025-03-25T1300,48,70,0.7,30,7,196,84,95,臭氧1小时
泉州市,万安,118.6663,24.9424,2025-03-25T1300,40,78,0.7,21,8,172,70,65,臭氧1小时
泉州市,清源山,118.6117,24.9604,2025-03-25T1300,,,,,,,,,
泉州市,城华南路,118.6333,24.9264,2025-03-25T1300,43,88,0.6,26,7,212,92,106,臭氧1小时
日喀则市,日喀则监测站,88.8876,29.2718,2025-03-25T1300,6,13,0.7,5,1,98,53,31,
日喀则市,林业技术推广中心,88.8781,29.2426,2025-03-25T1300,3,17,0.5,4,7,86,49,27,
日照市,监测站,119.471,35.4209,2025-03-25T1300,68,329,0.7,22,12,125,77,190,颗粒物(PM10)
日照市,市政府广场,119.523,35.4216,2025-03-25T1300,68,322,0.7,15,9,113,75,186,颗粒物(PM10)
日照市,港务局,119.5587,35.4044,2025-03-25T1300,60,359,0.7,,,124,67,213,颗粒物(PM10)
日照市,职业技术学院,119.5328,35.4625,2025-03-25T1300,61,376,0.8,20,8,120,80,238,颗粒物(PM10)
日照市,岚山环保分局,119.3266,35.1044,2025-03-25T1300,50,207,0.8,17,12,136,79,129,颗粒物(PM10)
三门峡市,市政府,111.1922,34.7752,2025-03-25T1300,43,88,0.6,20,17,131,58,69,颗粒物(PM10)
三门峡市,开发区,111.1587,34.7942,2025-03-25T1300,49,108,0.5,27,39,115,58,79,颗粒物(PM10)
三门峡市,风景区,111.143,34.7955,2025-03-25T1300,46,97,0.5,19,29,112,55,74,颗粒物(PM10)
三门峡市,三门峡市第一小学,111.1911,34.7829,2025-03-25T1300,40,95,0.5,18,18,135,67,73,颗粒物(PM10)
三门峡市,富达温泉假日酒店,111.1,34.7167,2025-03-25T1300,49,63,0.6,33,18,117,48,68,细颗粒物(PM2.5)
三明市,三钢,117.6211,26.2625,2025-03-25T1300,39,65,0.9,16,14,185,82,82,臭氧1小时
三明市,三明二中,117.635,26.2714,2025-03-25T1300,42,,0.8,14,10,182,84,,
三明市,三元区政府,117.6028,26.2378,2025-03-25T1300,39,79,0.7,16,13,187,81,84,臭氧1小时
三明市,洋溪,117.7275,26.3108,2025-03-25T1300,,,,,,,,,
三亚市,河东子站,109.5078,18.2489,2025-03-25T1300,14,32,0.5,6,4,104,62,33,
三亚市,河西子站,109.4964,18.2681,2025-03-25T1300,14,,,,3,101,50,,
三亚市,君悦子站,109.7348,18.3443,2025-03-25T1300,11,27,0.3,5,4,97,58,31,
山南市,山南监测站,91.7608,29.2313,2025-03-25T1300,38,,0.2,5,6,100,64,54,细颗粒物(PM2.5)
山南市,山南人民医院,91.7706,29.2436,2025-03-25T1300,14,64,0.3,,4,91,69,,
汕头市,金平子站,116.6794,23.3667,2025-03-25T1300,32,76,0.7,17,8,160,88,63,颗粒物(PM10)
汕头市,龙湖子站,116.7244,23.3633,2025-03-25T1300,17,86,0.9,9,7,159,98,68,颗粒物(PM10)
汕头市,濠江子站,116.7258,23.2775,2025-03-25T1300,23,62,0.7,12,5,126,95,56,颗粒物(PM10)
汕头市,澄海子站,116.7519,23.4714,2025-03-25T1300,36,75,0.8,27,7,165,91,63,颗粒物(PM10)
汕头市,潮阳子站,116.6092,23.2539,2025-03-25T1300,23,49,0.6,10,8,140,101,49,
汕头市,潮南峡山,116.454,23.2684,2025-03-25T1300,45,62,0.6,7,10,184,106,80,臭氧1小时
汕头市,潮南子站,116.4069,23.2533,2025-03-25T1300,28,69,0.7,15,9,173,99,67,臭氧1小时
汕尾市,市环保局,115.3653,22.775,2025-03-25T1300,20,38,0.6,17,9,145,93,46,
汕尾市,市政府,115.3706,22.7898,2025-03-25T1300,22,38,0.5,18,7,139,97,44,
汕尾市,新城中学,115.3622,22.7925,2025-03-25T1300,18,44,0.6,14,10,141,91,45,
商洛市,监测站,109.9154,33.8715,2025-03-25T1300,27,55,0.6,15,14,141,73,53,颗粒物(PM10)
商洛市,商州区中学,109.9643,33.8471,2025-03-25T1300,27,56,0.7,12,16,137,60,53,颗粒物(PM10)
商丘市,环境监测站,115.6702,34.4285,2025-03-25T1300,33,89,0.3,5,8,119,98,70,颗粒物(PM10)
商丘市,粮食局,115.6458,34.4045,2025-03-25T1300,38,89,0.2,12,5,118,94,70,颗粒物(PM10)
商丘市,睢阳区环保局,115.6293,34.3948,2025-03-25T1300,35,87,0.3,6,3,119,89,69,颗粒物(PM10)
商丘市,梁园区档案局,115.6071,34.4465,2025-03-25T1300,35,95,0.4,12,5,111,91,73,颗粒物(PM10)
上海市,普陀,121.4,31.238,2025-03-25T1300,35,80,0.5,22,8,152,106,65,颗粒物(PM10)
上海市,十五厂,121.478,31.2036,2025-03-25T1300,33,79,0.6,16,9,155,94,65,颗粒物(PM10)
上海市,虹口,121.467,31.3008,2025-03-25T1300,29,76,0.5,26,11,167,111,63,颗粒物(PM10)
上海市,静安监测站,121.425,31.2261,2025-03-25T1300,28,81,0.3,26,10,154,104,66,颗粒物(PM10)
上海市,浦东川沙,121.703,31.1907,2025-03-25T1300,32,61,0.5,22,10,175,125,69,臭氧1小时
上海市,浦东新区监测站,121.533,31.2284,2025-03-25T1300,0,,,26,8,165,103,,
上海市,浦东张江,121.577,31.2071,2025-03-25T1300,20,85,0.7,22,,169,84,,
上海市,宝山庙行,121.4316,31.3322,2025-03-25T1300,23,76,0.5,22,10,158,108,63,颗粒物(PM10)
上海市,崇明上实东滩,121.8791,31.4662,2025-03-25T1300,26,64,0.5,37,7,167,107,59,臭氧1小时
上海市,嘉定南翔,121.3162,31.2838,2025-03-25T1300,36,69,0.5,25,8,144,91,60,颗粒物(PM10)
上海市,金山新城,121.3359,30.7456,2025-03-25T1300,55,110,0.7,41,6,193,124,92,臭氧1小时
上海市,闵行浦江,121.4996,31.0739,2025-03-25T1300,36,82,0.7,26,8,175,105,69,臭氧1小时
上海市,青浦徐泾,121.2886,31.1663,2025-03-25T1300,36,66,0.5,24,7,144,84,58,颗粒物(PM10)
上海市,松江图书馆,121.2186,31.0378,2025-03-25T1300,32,55,0.7,21,8,142,101,53,颗粒物(PM10)
上海市,长宁仙霞,121.3902,31.2059,2025-03-25T1300,36,78,0.5,24,7,152,103,64,颗粒物(PM10)
上海市,浦东惠南,121.7965,31.0507,2025-03-25T1300,36,66,0.8,22,10,194,115,93,臭氧1小时
上海市,奉贤南桥新城,121.4891,30.925,2025-03-25T1300,38,71,0.7,24,9,181,119,77,臭氧1小时
上海市,冠生园路458号,121.4174,31.16637,2025-03-25T1300,33,67,0.7,21,11,147,88,59,颗粒物(PM10)
上海市,宁武路151号,121.5419,31.2683,2025-03-25T1300,34,98,0.5,27,9,160,89,74,颗粒物(PM10)
上饶市,百草园,118.005,28.4572,2025-03-25T1300,,,,,,,,,
上饶市,市监测站,117.9756,28.4436,2025-03-25T1300,35,62,0.6,13,10,164,93,56,颗粒物(PM10)
上饶市,凤凰光学,117.9519,28.4628,2025-03-25T1300,31,61,0.9,12,13,155,82,56,颗粒物(PM10)
上饶市,双创科技城,117.897,28.4315,2025-03-25T1300,25,70,0.6,15,13,154,80,60,颗粒物(PM10)
上饶市,裕丰大道,118.1904,28.4448,2025-03-25T1300,34,95,0.6,7,,154,91,,
韶关市,市八中,113.5824,24.7733,2025-03-25T1300,54,88,0.7,22,,201,97,101,臭氧1小时
韶关市,园林处,113.5917,24.7972,2025-03-25T1300,41,51,0.7,20,19,196,89,95,臭氧1小时
韶关市,韶关学院,113.6735,24.7791,2025-03-25T1300,46,72,0.9,15,22,194,85,93,臭氧1小时
韶关市,曲江监测站,113.5971,24.6863,2025-03-25T1300,46,84,0.8,25,18,193,106,92,臭氧1小时
韶关市,碧湖山庄,113.5556,24.8082,2025-03-25T1300,52,86,0.7,16,16,201,95,101,臭氧1小时
邵阳市,市水土所,111.5239,27.3033,2025-03-25T1300,,,,,,,,,
邵阳市,市化工厂,111.5283,27.2442,2025-03-25T1300,61,82,0.8,14,15,164,62,83,细颗粒物(PM2.5)
邵阳市,市环保局,111.4328,27.2272,2025-03-25T1300,50,92,0.9,13,18,161,64,71,颗粒物(PM10)
邵阳市,北塔二期4-26地块,111.4460,27.2472,2025-03-25T1300,50,96,0.7,15,18,155,64,73,颗粒物(PM10)
邵阳市,邵水西路287号,111.4739,27.2282,2025-03-25T1300,62,109,0.9,24,18,139,50,84,细颗粒物(PM2.5)
绍兴市,城东开发委,120.6053,29.9928,2025-03-25T1300,35,37,0.3,9,9,152,102,50,
绍兴市,树下王站,120.5483,30.0003,2025-03-25T1300,30,59,0.7,7,8,166,109,58,臭氧1小时
绍兴市,绍兴中专,120.5683,29.9361,2025-03-25T1300,38,66,0.7,5,9,157,99,58,颗粒物(PM10)
绍兴市,柯桥区政府,120.4906,30.0861,2025-03-25T1300,31,73,0.4,10,9,155,108,62,颗粒物(PM10)
绍兴市,重华小学,120.8752,30.0249,2025-03-25T1300,29,46,0.3,10,10,151,103,48,
绍兴市,上虞中学,120.8369,30.0137,2025-03-25T1300,27,42,0.4,6,8,147,110,46,
绍兴市,柯桥妇保,120.4722,30.0415,2025-03-25T1300,31,64,0.3,13,8,168,110,60,臭氧1小时
绍兴市,袍江中学,120.6153,30.0764,2025-03-25T1300,28,56,0.4,9,5,156,104,53,颗粒物(PM10)
深圳市,通心岭子站,114.1063,22.5545,2025-03-25T1300,32,54,0.6,21,8,157,72,52,颗粒物(PM10)
深圳市,洪湖,114.117,22.5625,2025-03-25T1300,26,50,0.5,16,8,170,66,63,臭氧1小时
深圳市,华侨城,113.987,22.5417,2025-03-25T1300,29,43,0.4,29,9,131,76,43,
深圳市,南海子站,113.9181,22.5171,2025-03-25T1300,22,49,0.6,42,11,117,67,49,
深圳市,盐田,114.2458,22.5689,2025-03-25T1300,28,53,0.5,84,10,60,40,52,颗粒物(PM10)
深圳市,龙岗,114.2283,22.7244,2025-03-25T1300,28,63,0.6,34,8,156,61,57,颗粒物(PM10)
深圳市,南澳,114.494,22.5422,2025-03-25T1300,23,42,0.5,20,8,141,81,45,
深圳市,葵涌,114.41,22.6342,2025-03-25T1300,24,54,0.6,39,8,117,66,52,颗粒物(PM10)
深圳市,梅沙,114.297,22.5978,2025-03-25T1300,24,45,0.5,40,9,113,79,45,
深圳市,观澜,114.0678,22.738,2025-03-25T1300,35,72,0.6,30,,146,61,,
深圳市,莲花,114.0731,22.559,2025-03-25T1300,24,45,0.6,17,7,155,78,49,
深圳市,民治,114.0261,22.6198,2025-03-25T1300,38,62,0.6,34,9,130,97,56,颗粒物(PM10)
深圳市,横岗,114.1871,22.6451,2025-03-25T1300,30,55,0.6,16,8,172,65,65,臭氧1小时
深圳市,坪山,114.3551,22.7151,2025-03-25T1300,40,80,0.6,22,8,177,77,72,臭氧1小时
深圳市,西乡,113.8953,22.5861,2025-03-25T1300,29,73,0.6,26,10,166,78,62,颗粒物(PM10)
沈阳市,森林路,123.6836,41.9339,2025-03-25T1300,,,,,,,,,
沈阳市,浑南东路,123.505,41.7406,2025-03-25T1300,45,103,0.8,20,18,92,62,77,颗粒物(PM10)
沈阳市,新秀街,123.4231,41.6989,2025-03-25T1300,36,99,0.8,29,12,86,62,75,颗粒物(PM10)
沈阳市,东陵路,123.5903,41.8411,2025-03-25T1300,38,138,0.8,28,12,91,67,94,颗粒物(PM10)
沈阳市,陵东街,123.4264,41.8467,2025-03-25T1300,28,73,0.8,26,12,92,73,62,颗粒物(PM10)
沈阳市,文化路,123.4114,41.7653,2025-03-25T1300,34,86,0.8,22,12,93,75,68,颗粒物(PM10)
沈阳市,小河沿,123.4678,41.7867,2025-03-25T1300,34,89,0.8,26,12,96,76,70,颗粒物(PM10)
沈阳市,太原街,123.4017,41.7972,2025-03-25T1300,46,79,0.8,31,11,88,74,65,颗粒物(PM10)
沈阳市,京沈街,123.3783,41.9228,2025-03-25T1300,27,86,0.6,15,8,90,74,68,颗粒物(PM10)
沈阳市,沈辽西路,123.2444,41.7347,2025-03-25T1300,35,82,0.6,22,11,104,80,66,颗粒物(PM10)
沈阳市,裕农路,123.5953,41.9086,2025-03-25T1300,28,80,0.8,28,10,94,80,65,颗粒物(PM10)
十堰市,武当山,111.0419,32.395,2025-03-25T1300,8,10,0.5,5,8,120,120,38,
十堰市,滨河新村,110.78,32.6494,2025-03-25T1300,18,37,0.5,7,8,118,70,37,
十堰市,刘家沟,110.7258,32.6389,2025-03-25T1300,26,60,0.3,8,20,115,71,55,颗粒物(PM10)
十堰市,铁二处,110.8839,32.5714,2025-03-25T1300,26,32,0.8,5,12,132,54,42,
十堰市,郧阳区金沙路,110.8054,32.8401,2025-03-25T1300,22,,0.4,2,5,130,85,41,
石河子市,艾青诗歌馆,86.0497,44.2967,2025-03-25T1300,3,11,0.2,12,5,73,82,23,
石河子市,南区管委会,86.047,44.2331,2025-03-25T1300,11,,0.3,7,8,88,89,28,
石河子市,世纪广场,86.0791,44.3017,2025-03-25T1300,,,0.1,4,7,78,86,,
石家庄市,职工医院,114.4422,38.0444,2025-03-25T1300,24,170,0.3,10,2,,46,110,颗粒物(PM10)
石家庄市,高新区,114.6063,38.0266,2025-03-25T1300,24,109,0.2,6,3,107,87,80,颗粒物(PM10)
石家庄市,西北水源,114.4898,38.1328,2025-03-25T1300,17,103,0.2,11,2,100,77,77,颗粒物(PM10)
石家庄市,西南高教,114.4586,38.0058,2025-03-25T1300,56,205,0.2,13,2,95,80,128,颗粒物(PM10)
石家庄市,世纪公园,114.5331,38.0178,2025-03-25T1300,24,121,0.2,3,4,86,72,86,颗粒物(PM10)
石家庄市,人民会堂,114.509,38.0457,2025-03-25T1300,23,99,0.2,4,3,106,84,75,颗粒物(PM10)
石家庄市,封龙山,114.3524,37.8911,2025-03-25T1300,,,,,,,,,
石家庄市,22中南校区,114.5481,38.0378,2025-03-25T1300,27,117,0.2,4,1,101,84,84,颗粒物(PM10)
石家庄市,鹿泉一中,114.289,38.0906,2025-03-25T1300,37,237,0.3,25,2,94,101,144,颗粒物(PM10)
石家庄市,藁城区实验学校,114.8506765,38.0322033,2025-03-25T1300,13,121,0.2,2,4,107,67,86,颗粒物(PM10)
石家庄市,井陉矿区区委大楼,114.0504658,38.0591645,2025-03-25T1300,20,160,0.2,11,2,107,82,105,颗粒物(PM10)
石家庄市,栾城区星河路,114.6549,37.9020,2025-03-25T1300,16,146,0.2,3,4,108,80,98,颗粒物(PM10)
石嘴山市,沙湖旅游区,106.3394,38.817,2025-03-25T1300,,,,,,,,,
石嘴山市,大武口朝阳西街,106.3668,39.0145,2025-03-25T1300,144,715,0.9,11,53,105,94,500,颗粒物(PM10)
石嘴山市,惠农南大街,106.7704,39.2282,2025-03-25T1300,127,603,0.3,13,13,92,85,500,颗粒物(PM10)
石嘴山市,红果子镇惠新街,106.7099,39.1325,2025-03-25T1300,121,632,0.7,11,5,92,84,500,颗粒物(PM10)
石嘴山市,妇女儿童医院,106.3495,38.9836,2025-03-25T1300,114,485,0.6,12,50,96,85,382,颗粒物(PM10)
石嘴山市,石大公路,106.7492,39.2069,2025-03-25T1300,141,594,0.4,,6,99,89,494,颗粒物(PM10)
双鸭山市,双合村,131.1511,46.6937,2025-03-25T1300,,43,0.2,,10,78,59,,
双鸭山市,南小市,131.1652,46.6191,2025-03-25T1300,8,24,0.2,7,13,81,60,26,
双鸭山市,环保局,131.1524,46.6554,2025-03-25T1300,23,32,0.2,8,10,77,51,33,
双鸭山市,苗圃,131.12,46.5656,2025-03-25T1300,,,,,,,,,
朔州市,平朔,112.4397,39.3522,2025-03-25T1300,20,83,0.6,8,6,107,89,67,颗粒物(PM10)
朔州市,朔唯,112.4575,39.3617,2025-03-25T1300,25,84,0.5,9,6,98,84,67,颗粒物(PM10)
朔州市,区政府,112.4258,39.3197,2025-03-25T1300,15,101,0.6,8,4,106,94,76,颗粒物(PM10)
朔州市,市环保局,112.4072,39.3278,2025-03-25T1300,17,106,0.6,7,4,103,89,78,颗粒物(PM10)
朔州市,市二中,112.4272,39.3681,2025-03-25T1300,23,80,,10,6,96,85,,
朔州市,一水厂,112.2931,39.53,2025-03-25T1300,18,41,0.5,9,6,94,94,41,
四平市,一商场,124.4002,43.1713,2025-03-25T1300,96,180,0.8,34,4,68,75,127,细颗粒物(PM2.5)
四平市,境园,124.388,43.193,2025-03-25T1300,150,,1.0,35,4,68,71,200,细颗粒物(PM2.5)
四平市,植物园,124.4036,43.1411,2025-03-25T1300,88,124,0.8,40,6,74,80,117,细颗粒物(PM2.5)
四平市,世纪城,124.3419,43.1666,2025-03-25T1300,142,153,1.0,30,5,76,74,189,细颗粒物(PM2.5)
松原市,江南,124.8006,45.1214,2025-03-25T1300,124,164,0.4,29,9,88,62,163,细颗粒物(PM2.5)
松原市,江北,124.7965,45.1722,2025-03-25T1300,100,224,0.6,33,8,73,60,137,颗粒物(PM10)
苏州市,上方山,120.561,31.2472,2025-03-25T1300,,,,,,,,,
苏州市,彩香,120.591,31.3019,2025-03-25T1300,,,,11,5,144,70,,
苏州市,轧钢厂,120.596,31.3264,2025-03-25T1300,24,91,0.6,10,8,149,74,71,颗粒物(PM10)
苏州市,吴中区,120.613,31.2703,2025-03-25T1300,27,84,0.4,13,8,142,77,67,颗粒物(PM10)
苏州市,苏州新区,120.543,31.2994,2025-03-25T1300,36,90,0.5,13,6,154,78,70,颗粒物(PM10)
苏州市,苏州工业园区,120.669,31.3097,2025-03-25T1300,24,88,0.5,17,8,141,76,69,颗粒物(PM10)
苏州市,相城区,120.641,31.3708,2025-03-25T1300,26,98,0.4,11,9,155,74,74,颗粒物(PM10)
苏州市,方洲路,120.743,31.3188,2025-03-25T1300,31,81,0.6,21,8,156,72,66,颗粒物(PM10)
苏州市,木渎中学,120.5031,31.2774,2025-03-25T1300,32,77,0.4,17,8,161,88,64,颗粒物(PM10)
苏州市,越秀幼儿园,120.624,31.1733,2025-03-25T1300,24,86,0.5,17,8,150,69,68,颗粒物(PM10)
苏州市,高铁新城,120.6505,31.416,2025-03-25T1300,30,104,0.5,22,9,138,69,77,颗粒物(PM10)
宿迁市,宿迁学院,118.293,33.9528,2025-03-25T1300,43,98,0.6,4,3,147,109,74,颗粒物(PM10)
宿迁市,宿迁中学,118.2442,33.9592,2025-03-25T1300,33,95,0.5,7,9,136,102,73,颗粒物(PM10)
宿迁市,市供电局,118.283,33.965,2025-03-25T1300,29,82,0.7,8,4,144,106,66,颗粒物(PM10)
宿迁市,宿豫区政府,118.3225,33.9447,2025-03-25T1300,38,96,0.6,6,6,141,106,73,颗粒物(PM10)
宿州市,远航博物馆,116.9509,33.666,2025-03-25T1300,36,75,0.2,6,5,146,117,63,颗粒物(PM10)
宿州市,社会福利中心,116.9708,33.591,2025-03-25T1300,29,70,0.3,8,6,136,100,60,颗粒物(PM10)
宿州市,宿州学院,116.9884,33.6305,2025-03-25T1300,36,82,0.5,8,5,146,115,66,颗粒物(PM10)
宿州市,皖北煤电集团,116.9648,33.6252,2025-03-25T1300,33,77,0.7,6,6,139,109,64,颗粒物(PM10)
绥化市,人和东街,126.9785,46.6365,2025-03-25T1300,8,21,0.6,17,5,66,67,21,
绥化市,党政办公中心,126.964,46.6528,2025-03-25T1300,7,23,0.4,13,5,73,66,23,
随州市,市委党校,113.3583,31.7275,2025-03-25T1300,42,64,0.8,13,12,147,86,59,细颗粒物(PM2.5)
随州市,市林业局,113.3833,31.6908,2025-03-25T1300,41,60,0.7,14,13,148,91,58,细颗粒物(PM2.5)
随州市,市立交桥水厂,113.3983,31.7308,2025-03-25T1300,41,59,0.8,10,14,156,87,58,细颗粒物(PM2.5)
遂宁市,石溪浩,105.5453,30.5678,2025-03-25T1300,32,121,0.4,18,7,150,50,86,颗粒物(PM10)
遂宁市,市监测站,105.5582,30.5232,2025-03-25T1300,35,82,0.4,25,8,155,54,66,颗粒物(PM10)
遂宁市,行政中心,105.5861,30.5366,2025-03-25T1300,24,63,0.4,16,13,181,57,77,臭氧1小时
遂宁市,美宁食品公司,105.5918,30.4728,2025-03-25T1300,40,78,0.4,19,33,157,59,64,颗粒物(PM10)
塔城地区,东门外小游园,82.9994,46.7432,2025-03-25T1300,3,27,0.1,3,4,89,79,28,
台州市,黄岩环保大楼,121.273,28.6459,2025-03-25T1300,67,131,0.8,38,10,237,118,119,臭氧1小时
台州市,台州环保大楼,121.419,28.6542,2025-03-25T1300,38,67,0.7,15,10,213,110,107,臭氧1小时
台州市,路桥田洋王,121.377,28.5773,2025-03-25T1300,43,62,0.8,15,11,206,105,103,臭氧1小时
台州市,台州科技职业学院,121.2568,28.6681,2025-03-25T1300,52,112,0.9,33,8,230,110,115,臭氧1小时
太原市,尖草坪,112.522,37.8873,2025-03-25T1300,84,392,0.4,7,6,102,96,260,颗粒物(PM10)
太原市,上兰,112.434,38.0108,2025-03-25T1300,59,275,0.3,18,7,92,99,163,颗粒物(PM10)
太原市,晋源,112.469,37.7124,2025-03-25T1300,110,578,0.3,10,7,103,100,478,颗粒物(PM10)
太原市,小店,112.5583,37.7394,2025-03-25T1300,88,502,0.3,11,3,106,99,402,颗粒物(PM10)
太原市,桃园,112.5369,37.8692,2025-03-25T1300,62,376,,4,8,104,100,238,颗粒物(PM10)
太原市,坞城,112.57,37.8195,2025-03-25T1300,65,297,0.4,,,104,101,174,颗粒物(PM10)
太原市,南寨,112.549,37.9854,2025-03-25T1300,67,300,0.6,12,9,99,97,175,颗粒物(PM10)
太原市,金胜,112.4719,37.7831,2025-03-25T1300,88,494,0.3,7,6,102,98,393,颗粒物(PM10)
太原市,育英中学,112.5608,37.8807,2025-03-25T1300,72,305,0.4,7,7,102,96,178,颗粒物(PM10)
泰安市,监测站,117.1437,36.1937,2025-03-25T1300,80,517,0.4,12,8,109,80,417,颗粒物(PM10)
泰安市,人口学校,117.0885,36.2017,2025-03-25T1300,72,500,0.4,10,6,101,83,400,颗粒物(PM10)
泰安市,电力学校,117.1089,36.1758,2025-03-25T1300,75,478,0.2,8,6,100,74,373,颗粒物(PM10)
泰安市,国网新校,117.1812,36.2275,2025-03-25T1300,48,347,0.4,,5,106,90,199,颗粒物(PM10)
泰安市,交通技校,117.0313,36.2018,2025-03-25T1300,61,281,0.3,6,4,105,86,166,颗粒物(PM10)
泰安市,山东第一医科大学,117.0829,36.13,2025-03-25T1300,114,415,,7,5,103,75,293,颗粒物(PM10)
泰州市,公园路,119.905,32.4878,2025-03-25T1300,31,85,0.6,13,8,163,107,68,颗粒物(PM10)
泰州市,莲花,119.9189,32.4625,2025-03-25T1300,36,90,0.6,20,11,162,115,70,颗粒物(PM10)
泰州市,留学生创业园,119.888,32.4639,2025-03-25T1300,,,0.6,16,10,156,99,,
泰州市,王营,119.8767,32.3289,2025-03-25T1300,29,73,0.4,20,10,145,86,62,颗粒物(PM10)
泰州市,姜堰区政府广场,120.1259,32.5099,2025-03-25T1300,38,91,0.6,18,13,154,94,71,颗粒物(PM10)
泰州市,周山河街区,119.9192,32.4322,2025-03-25T1300,30,76,0.3,18,12,158,110,63,颗粒物(PM10)
唐山市,物资局,118.1725,39.6334,2025-03-25T1300,28,51,0.2,5,3,92,70,51,颗粒物(PM10)
唐山市,十二中,118.1705,39.6506,2025-03-25T1300,11,46,0.2,2,1,89,67,46,
唐山市,小山,118.1869,39.622,2025-03-25T1300,3,41,0.2,2,3,97,74,41,
唐山市,冀东油田职工医院,118.4359,39.2762,2025-03-25T1300,3,51,0.2,7,2,89,66,51,颗粒物(PM10)
唐山市,正泰大街热力站,118.09279,39.58089,2025-03-25T1300,14,40,0.4,2,3,82,56,40,
唐山市,丰润区政府,118.1562,39.8322,2025-03-25T1300,3,44,0.2,3,6,91,68,44,
唐山市,金山小学,118.43673,39.73809,2025-03-25T1300,11,51,0.2,2,1,89,66,51,颗粒物(PM10)
唐山市,政府服务中心,118.24498,39.66941,2025-03-25T1300,15,41,0.2,2,2,86,65,41,
唐山市,消防缸窑路中队,118.2059,39.6585,2025-03-25T1300,14,56,0.2,4,8,97,76,53,颗粒物(PM10)
唐山市,路南电大,118.1436,39.6202,2025-03-25T1300,3,70,0.2,,4,83,61,,
唐山市,友谊北路34号,118.1309,39.6360,2025-03-25T1300,6,43,,12,1,91,66,,
天津市,勤俭道,117.1444,39.1661,2025-03-25T1300,6,47,0.3,6,3,92,64,47,
天津市,前进道,117.202,39.0927,2025-03-25T1300,7,64,0.4,5,4,98,73,57,颗粒物(PM10)
天津市,淮河道,117.1837,39.2133,2025-03-25T1300,6,37,0.3,5,5,98,58,37,
天津市,跃进路,117.3083,39.0884,2025-03-25T1300,6,68,0.3,8,4,96,70,59,颗粒物(PM10)
天津市,第四大街,117.707,39.0343,2025-03-25T1300,10,69,0.2,7,6,95,66,60,颗粒物(PM10)
天津市,永明路,117.457,38.8394,2025-03-25T1300,,,,,6,96,66,,
天津市,汉北路,117.764,39.1587,2025-03-25T1300,7,86,0.2,6,4,96,63,68,颗粒物(PM10)
天津市,团泊洼,117.157,38.9194,2025-03-25T1300,,,,,,,,,
天津市,河西一经路,117.7918,39.2474,2025-03-25T1300,11,68,0.3,8,4,98,69,59,颗粒物(PM10)
天津市,津沽路,117.3747,38.9846,2025-03-25T1300,10,70,0.3,2,2,92,67,60,颗粒物(PM10)
天津市,宾水西道,117.1589,39.0845,2025-03-25T1300,6,44,0.2,4,2,102,75,44,
天津市,大理道,117.1941,39.1067,2025-03-25T1300,11,40,0.2,3,4,99,75,40,
天津市,中山北路,117.2101,39.1699,2025-03-25T1300,6,49,,,4,65,57,,
天津市,西四道,117.3876,39.1488,2025-03-25T1300,7,55,0.3,6,6,93,61,53,颗粒物(PM10)
天津市,雍阳西道,117.0365,39.3828,2025-03-25T1300,20,47,0,6,3,89,67,47,
天津市,辛老路,117.0296,39.0605,2025-03-25T1300,7,61,0.3,4,4,98,68,56,颗粒物(PM10)
天津市,地纬路,116.9638,38.9375,2025-03-25T1300,8,52,0.1,5,6,104,70,51,颗粒物(PM10)
天津市,北环路,117.4067,40.0583,2025-03-25T1300,3,16,0.3,5,4,86,74,27,
天津市,建设路,117.3045,39.7169,2025-03-25T1300,3,36,0.4,8,7,93,76,36,
天津市,滨水东路,117.8199,39.3521,2025-03-25T1300,12,39,0.2,7,6,94,68,39,
天津市,光华路,117.2437,39.1029,2025-03-25T1300,10,41,0.6,6,5,108,80,41,
天水市,麦积山,106.0055,34.343,2025-03-25T1300,,,,,,,,,
天水市,公园小学,105.7205,34.5786,2025-03-25T1300,20,41,0.4,12,9,157,89,50,
天水市,麦积国土局,105.8945,34.5538,2025-03-25T1300,17,36,0.6,8,8,143,77,45,
铁岭市,汇工街西,123.8139,42.3022,2025-03-25T1300,43,111,0.5,16,8,94,85,81,颗粒物(PM10)
铁岭市,水上乐园,123.8649,42.2923,2025-03-25T1300,39,119,0.7,16,7,92,75,85,颗粒物(PM10)
铁岭市,银州路东段,123.8486,42.2867,2025-03-25T1300,35,109,0.5,21,9,89,80,80,颗粒物(PM10)
铁岭市,金沙江路北,123.7153,42.2217,2025-03-25T1300,39,117,0.7,24,8,86,71,84,颗粒物(PM10)
通化市,光明,125.9358,41.7173,2025-03-25T1300,51,90,1.2,52,11,46,37,70,"颗粒物(PM10),细颗粒物(PM2.5)"
通化市,铁路,125.9446,41.7325,2025-03-25T1300,,,1.1,52,12,43,34,,
通辽市,艺术职业学校,122.2532,43.6801,2025-03-25T1300,37,59,0.4,9,10,89,81,55,颗粒物(PM10)
通辽市,老干部活动中心,122.2584,43.6333,2025-03-25T1300,60,64,0.7,12,7,90,80,82,细颗粒物(PM2.5)
通辽市,东方明珠社区,122.2922,43.6189,2025-03-25T1300,70,74,0.4,10,5,89,80,94,细颗粒物(PM2.5)
铜川市,党校,109.0656,35.0994,2025-03-25T1300,,,,,,,,,
铜川市,王益区政府,109.0697,35.0697,2025-03-25T1300,34,95,0.7,19,6,111,50,73,颗粒物(PM10)
铜川市,新区管委会,108.9344,34.9058,2025-03-25T1300,38,92,0.7,21,12,112,75,71,颗粒物(PM10)
铜川市,大唐三路,108.9497,34.8705,2025-03-25T1300,42,100,0.4,25,12,108,85,75,颗粒物(PM10)
铜陵市,市第四中学,117.8177,30.9412,2025-03-25T1300,30,92,0.5,12,14,153,98,71,颗粒物(PM10)
铜陵市,市公路局,117.8059,30.9273,2025-03-25T1300,,,0.9,11,7,148,95,,
铜陵市,市新民污水厂,117.7807,30.9413,2025-03-25T1300,35,67,0.8,21,16,144,81,59,颗粒物(PM10)
铜陵市,市第九中学,117.7439,30.8792,2025-03-25T1300,38,109,0.7,22,10,146,71,80,颗粒物(PM10)
铜陵市,车站新区,117.846,30.9413,2025-03-25T1300,30,68,0.7,11,11,154,106,59,颗粒物(PM10)
铜陵市,市职教基地,117.8483,30.97,2025-03-25T1300,28,59,0.6,13,13,156,100,55,颗粒物(PM10)
铜仁市,铜仁卫校,109.1839,27.7344,2025-03-25T1300,13,37,0.4,18,4,122,44,39,
铜仁市,铜仁七中,109.1753,27.6944,2025-03-25T1300,9,22,0.4,18,11,138,64,44,
吐鲁番市,市环保局,89.1904,42.9418,2025-03-25T1300,53,238,0.7,10,7,80,75,144,颗粒物(PM10)
吐鲁番市,地区环保局,89.1673,42.9559,2025-03-25T1300,53,219,0.5,10,4,81,63,135,颗粒物(PM10)
威海市,华夏技校,122.1214,37.4236,2025-03-25T1300,8,158,0.3,9,4,96,102,104,颗粒物(PM10)
威海市,山大分校,122.0508,37.5236,2025-03-25T1300,12,115,0.2,8,8,102,112,83,颗粒物(PM10)
威海市,市监测站,122.1067,37.5072,2025-03-25T1300,12,161,0.4,15,2,91,105,106,颗粒物(PM10)
威海市,文登开发区,122.0693,37.2174,2025-03-25T1300,9,120,0.2,13,5,100,104,85,颗粒物(PM10)
威海市,临港区管委会,122.1379,37.3414,2025-03-25T1300,7,110,0.3,9,8,97,97,80,颗粒物(PM10)
潍坊市,环保局,119.1437,36.7023,2025-03-25T1300,29,197,0.3,13,15,115,80,124,颗粒物(PM10)
潍坊市,坊子邮政,119.1641,36.6523,2025-03-25T1300,36,193,0.7,21,20,113,80,122,颗粒物(PM10)
潍坊市,潍坊七中,119.0587,36.721,2025-03-25T1300,40,207,0.6,10,18,115,77,129,颗粒物(PM10)
潍坊市,高新实验学校,119.1977,36.6872,2025-03-25T1300,28,222,0.4,12,,119,86,136,颗粒物(PM10)
潍坊市,潍坊学院,119.1755,36.7149,2025-03-25T1300,32,200,0.6,13,7,115,83,125,颗粒物(PM10)
潍坊市,寒亭区实验一小,119.2041,36.7699,2025-03-25T1300,36,188,0.4,10,10,112,81,119,颗粒物(PM10)
渭南市,农科所,109.5293,34.5101,2025-03-25T1300,,,,,,,,,
渭南市,体育馆,109.4636,34.493,2025-03-25T1300,39,88,0.6,35,8,97,40,69,颗粒物(PM10)
渭南市,高新一小,109.4259,34.5023,2025-03-25T1300,34,99,0.4,35,7,96,37,75,颗粒物(PM10)
渭南市,渭花路4号,109.5051,34.4921,2025-03-25T1300,31,73,0.5,28,8,94,45,62,颗粒物(PM10)
温州市,瓯海,120.634,28.0089,2025-03-25T1300,56,97,0.7,36,10,201,91,101,臭氧1小时
温州市,南浦,120.6748,27.9939,2025-03-25T1300,90,144,0.8,47,10,233,102,119,细颗粒物(PM2.5)
温州市,龙湾,120.76,27.9747,2025-03-25T1300,84,144,0.8,39,8,183,76,112,细颗粒物(PM2.5)
温州市,市站,120.6709,28.0167,2025-03-25T1300,69,149,0.9,42,8,215,75,108,臭氧1小时
温州市,茶山,120.6985,27.9251,2025-03-25T1300,69,118,,43,,225,97,113,臭氧1小时
文山壮族苗族自治州,州水务局,104.2533,23.3594,2025-03-25T1300,,32,0.4,,11,130,65,,
文山壮族苗族自治州,市便民服务中心,104.2319,23.3892,2025-03-25T1300,41,57,0.4,8,9,122,58,58,细颗粒物(PM2.5)
乌海市,市林业局,106.8174,39.6973,2025-03-25T1300,89,542,0.8,18,25,88,90,442,颗粒物(PM10)
乌海市,中海勃湾学校,106.7907,39.6667,2025-03-25T1300,97,579,0.6,10,18,98,90,479,颗粒物(PM10)
乌海市,海北新区,106.813,39.7274,2025-03-25T1300,96,656,0.6,,,86,90,500,颗粒物(PM10)
乌海市,聚英学校,106.8288,39.6778,2025-03-25T1300,111,726,0.6,15,28,90,89,500,颗粒物(PM10)
乌兰察布市,集宁新区,113.1306,40.9923,2025-03-25T1300,10,20,0.2,4,5,96,86,30,
乌兰察布市,光明街小学,113.1076,41.0385,2025-03-25T1300,20,21,,7,8,96,88,,
乌兰察布市,北京八中,113.1376,40.9509,2025-03-25T1300,14,95,0.3,6,12,92,86,73,颗粒物(PM10)
乌兰察布市,市委党校,113.1775,40.9779,2025-03-25T1300,7,15,0.3,4,8,99,89,31,
乌鲁木齐市,监测站,87.5801,43.8303,2025-03-25T1300,,3,0.3,11,3,79,86,,
乌鲁木齐市,收费所,87.6046,43.768,2025-03-25T1300,8,10,0.2,3,2,75,83,24,
乌鲁木齐市,新疆农科院农场,87.4754,43.9469,2025-03-25T1300,6,,0.6,9,8,81,88,26,
乌鲁木齐市,铁路局,87.5525,43.8711,2025-03-25T1300,10,,0.4,18,2,80,92,25,
乌鲁木齐市,三十一中学,87.6432,43.831,2025-03-25T1300,3,14,0.3,15,6,75,81,24,
乌鲁木齐市,米东区环保局,87.7216,44.1747,2025-03-25T1300,9,10,0.2,2,8,81,93,26,
乌鲁木齐市,培训基地,87.4651,43.4569,2025-03-25T1300,3,6,0.3,6,2,94,96,30,
乌鲁木齐市,达坂城区环保局,88.3118,43.3658,2025-03-25T1300,34,,0.2,3,8,86,88,,
乌鲁木齐市,红光山片区,87.6162,43.8801,2025-03-25T1300,7,,0.2,17,7,76,84,24,
乌鲁木齐市,新师大温泉校区,87.7024,43.8004,2025-03-25T1300,7,,0.1,4,1,85,92,27,
乌鲁木齐市,大绿谷,87.4921,43.8411,2025-03-25T1300,11,,0.3,16,4,76,86,24,
无锡市,雪浪,120.269,31.4867,2025-03-25T1300,22,92,0.6,12,9,156,87,71,颗粒物(PM10)
无锡市,黄巷,120.275,31.6219,2025-03-25T1300,31,95,0.8,18,8,142,83,73,颗粒物(PM10)
无锡市,曹张,120.294,31.56,2025-03-25T1300,22,84,0.7,17,6,154,72,67,颗粒物(PM10)
无锡市,漆塘,120.242,31.5031,2025-03-25T1300,31,97,0.5,14,8,155,89,74,颗粒物(PM10)
无锡市,东亭,120.3489,31.5863,2025-03-25T1300,,105,,,7,153,65,,
无锡市,旺庄,120.354,31.5475,2025-03-25T1300,31,83,0.6,14,5,148,80,67,颗粒物(PM10)
无锡市,荣巷,120.245,31.5631,2025-03-25T1300,29,78,0.4,24,6,158,79,64,颗粒物(PM10)
无锡市,堰桥,120.299,31.6817,2025-03-25T1300,34,100,0.6,25,9,145,72,75,颗粒物(PM10)
无锡市,华庄,120.3142,31.4753,2025-03-25T1300,35,76,0.5,14,9,152,82,63,颗粒物(PM10)
吴忠市,教育园区,106.1532,37.9648,2025-03-25T1300,205,731,0.6,13,23,85,79,500,颗粒物(PM10)
吴忠市,新区二泵站,106.1856,37.9956,2025-03-25T1300,193,729,0.6,13,17,93,83,500,颗粒物(PM10)
吴忠市,文卫南街,106.2112,37.9768,2025-03-25T1300,155,721,0.5,11,12,90,78,500,颗粒物(PM10)
芜湖市,监测站,118.3606,31.3519,2025-03-25T1300,54,213,1.0,23,11,151,94,132,颗粒物(PM10)
芜湖市,科创中心,118.3714,31.4134,2025-03-25T1300,33,113,0.4,22,9,152,67,82,颗粒物(PM10)
芜湖市,四水厂,118.3673,31.3131,2025-03-25T1300,34,82,0.8,41,7,141,125,66,颗粒物(PM10)
芜湖市,市气象局,118.4209,31.3707,2025-03-25T1300,38,98,0.9,14,11,158,93,74,颗粒物(PM10)
芜湖市,清苑社区,118.4781,31.3225,2025-03-25T1300,29,96,0.4,11,9,169,104,73,颗粒物(PM10)
芜湖市,扬子职业技术学院,118.2746,31.2326,2025-03-25T1300,34,63,0.5,11,9,162,118,57,颗粒物(PM10)
梧州市,市逸夫小学,111.3014,23.4832,2025-03-25T1300,,,,18,21,144,42,,
梧州市,市十一中,111.3239,23.4794,2025-03-25T1300,53,71,0.8,10,16,153,56,73,细颗粒物(PM2.5)
梧州市,龙新,111.2711,23.4835,2025-03-25T1300,72,107,0.3,28,21,137,44,97,细颗粒物(PM2.5)
梧州市,政贤路18号,111.2419,23.4154,2025-03-25T1300,57,108,1.1,26,20,139,58,79,颗粒物(PM10)
五家渠市,农水大厦,87.5475,44.1756,2025-03-25T1300,6,8,0,2,4,76,88,24,
五家渠市,经开区管委会,87.546,44.1912,2025-03-25T1300,3,6,0.3,2,5,74,85,24,
武汉市,东湖梨园,114.3677,30.5584,2025-03-25T1300,29,48,0.5,9,9,152,80,48,
武汉市,汉阳月湖,114.2529,30.558,2025-03-25T1300,24,42,0.4,13,6,148,93,47,
武汉市,汉口花桥,114.282,30.6189,2025-03-25T1300,,,0.5,12,,136,104,,
武汉市,武昌紫阳,114.3025,30.5332,2025-03-25T1300,27,62,0.4,10,10,161,103,56,颗粒物(PM10)
武汉市,青山钢花,114.3646,30.6217,2025-03-25T1300,31,50,0.7,10,9,143,88,50,
武汉市,沌口新区,114.1566,30.4825,2025-03-25T1300,24,44,0.4,5,8,117,63,44,
武汉市,汉口江滩,114.3014,30.5944,2025-03-25T1300,31,56,0.4,43,9,126,91,53,颗粒物(PM10)
武汉市,吴家山,114.135,30.6319,2025-03-25T1300,,,,8,8,107,92,,
武汉市,沉湖七壕,113.8454,30.2917,2025-03-25T1300,26,48,0.3,11,8,141,77,48,
武汉市,民族大道182号,114.3877,30.4908,2025-03-25T1300,32,55,0.5,13,7,144,89,53,颗粒物(PM10)
