area,positionname,longitude,latitude,timepoint,pm2_5,pm10,co,no2,so2,o3,o3_8h,aqi,primarypollutant
阿坝藏族羌族自治州,州农科所,102.1879,31.914,2025-01-03T1400,12,22,0.7,6,5,80,54,25,
阿坝藏族羌族自治州,马师校,102.2502,31.8896,2025-01-03T1400,6,7,0.3,7,5,71,43,23,
阿坝藏族羌族自治州,马尔康中学西区,102.2165,31.9024,2025-01-03T1400,,,0.3,,5,105,59,,
阿克苏地区,电视台,80.292,41.1694,2025-01-03T1400,92,140,1.6,45,3,43,26,122,细颗粒物(PM2.5)
阿克苏地区,艺术中心,80.2613,41.1551,2025-01-03T1400,95,154,1.5,48,6,37,33,125,细颗粒物(PM2.5)
阿拉善盟,西城区西花园,105.6467,38.8363,2025-01-03T1400,21,58,0.9,10,10,87,78,54,颗粒物(PM10)
阿拉善盟,蒙二幼,105.6985,38.8411,2025-01-03T1400,16,43,0.4,11,5,85,75,43,
阿拉善盟,环保局新楼,105.724,38.8516,2025-01-03T1400,15,41,0.7,8,8,86,83,41,
阿勒泰地区,市站,88.1264,47.8517,2025-01-03T1400,6,12,0.1,27,10,50,51,16,
阿里地区,阿里监测站,80.1161,32.5,2025-01-03T1400,3,7,0.4,4,7,67,66,21,
阿里地区,阿里藏医院,80.0903,32.5028,2025-01-03T1400,15,16,0.6,6,9,76,64,24,
安康市,香溪洞,109.0318,32.6537,2025-01-03T1400,74,78,0.8,,10,33,53,,
安康市,汉滨区检察院,109.0072,32.6975,2025-01-03T1400,82,99,0.9,42,6,28,27,109,细颗粒物(PM2.5)
安康市,市邮政管理局,109.0325,32.6913,2025-01-03T1400,84,114,0.9,38,7,26,20,112,细颗粒物(PM2.5)
安庆市,环科院,117.0809,30.5177,2025-01-03T1400,120,188,1.2,34,11,101,49,158,细颗粒物(PM2.5)
安庆市,马山宾馆,117.0331,30.5119,2025-01-03T1400,120,174,1.0,23,13,102,49,158,细颗粒物(PM2.5)
安庆市,安庆大学,116.9896,30.6145,2025-01-03T1400,150,196,1.1,39,16,100,55,200,细颗粒物(PM2.5)
安庆市,市人大,117.0598,30.5351,2025-01-03T1400,112,164,0.9,38,11,105,50,147,细颗粒物(PM2.5)
安顺市,伍家关,105.9606,26.2611,2025-01-03T1400,45,53,0.9,12,13,91,72,63,细颗粒物(PM2.5)
安顺市,凤凰山,105.9408,26.2431,2025-01-03T1400,42,51,0.7,13,12,82,67,59,细颗粒物(PM2.5)
安顺市,金钟山,105.9439,26.2564,2025-01-03T1400,50,54,0.8,11,19,81,66,69,细颗粒物(PM2.5)
安顺市,娄家坡,105.8983,26.2481,2025-01-03T1400,48,50,0.7,14,10,80,63,67,细颗粒物(PM2.5)
安阳市,棉研所,114.4839,36.0621,2025-01-03T1400,40,83,0.5,23,12,63,27,67,颗粒物(PM10)
安阳市,红庙街,114.3551,36.1017,2025-01-03T1400,43,50,0.6,11,5,62,29,60,细颗粒物(PM2.5)
安阳市,银杏小区,114.361,36.0681,2025-01-03T1400,40,51,0.4,18,4,59,27,57,细颗粒物(PM2.5)
安阳市,信访局,114.3922,36.0878,2025-01-03T1400,44,54,0.4,20,4,60,27,62,细颗粒物(PM2.5)
安阳市,左辅环卫站,114.4705,36.0637,2025-01-03T1400,38,72,0.6,19,9,66,32,61,颗粒物(PM10)
安阳市,安钢职工学校,114.2917,36.0949,2025-01-03T1400,48,78,0.6,20,6,62,32,67,细颗粒物(PM2.5)
鞍山市,深沟寺,123.044,41.1196,2025-01-03T1400,13,45,0.7,16,14,64,40,45,
鞍山市,太阳城,123.011,41.0931,2025-01-03T1400,24,41,0.5,18,12,69,37,41,
鞍山市,太平,123.0485,41.1442,2025-01-03T1400,26,48,1.0,23,21,62,33,48,
鞍山市,铁西三道街,122.9642,41.0971,2025-01-03T1400,22,45,0.6,21,10,64,34,45,
鞍山市,铁西工业园区,122.9341,41.0833,2025-01-03T1400,16,37,0.4,18,10,71,42,37,
鞍山市,明达新区,123.022,41.0821,2025-01-03T1400,22,36,0.5,12,13,67,42,36,
鞍山市,千山,123.1289,41.0228,2025-01-03T1400,,,,,,,41,,
巴彦淖尔市,附二中,107.4212,40.761,2025-01-03T1400,20,34,0.4,18,6,52,33,34,
巴彦淖尔市,市环保大楼,107.37,40.7372,2025-01-03T1400,17,50,0.5,16,6,54,28,50,
巴音郭楞蒙古自治州,孔雀公园,86.1472,41.7538,2025-01-03T1400,62,98,1.1,40,6,58,25,84,细颗粒物(PM2.5)
巴音郭楞蒙古自治州,棉纺厂,86.1972,41.7166,2025-01-03T1400,67,145,1.0,42,7,46,16,98,颗粒物(PM10)
巴音郭楞蒙古自治州,经济开发区,86.2357,41.7173,2025-01-03T1400,70,106,1.0,54,8,43,35,94,细颗粒物(PM2.5)
巴中市,苏山坪,106.7677,31.8794,2025-01-03T1400,94,107,0.8,15,7,56,69,124,细颗粒物(PM2.5)
巴中市,丽阳花园,106.7656,31.8545,2025-01-03T1400,80,112,1.3,52,4,6,4,107,细颗粒物(PM2.5)
巴中市,圣泉水务公司,106.7418,31.8654,2025-01-03T1400,72,85,0.7,40,4,12,10,97,细颗粒物(PM2.5)
巴中市,市中心医院,106.7616,31.8344,2025-01-03T1400,95,113,1.3,52,5,6,4,125,细颗粒物(PM2.5)
白城市,洮北区环保局,122.7911,45.6077,2025-01-03T1400,19,30,0.5,9,4,68,52,30,
白城市,市环保局,122.8738,45.5725,2025-01-03T1400,16,27,0.4,7,6,62,39,27,
白山市,喜丰,126.4219,41.9171,2025-01-03T1400,28,53,0.8,15,20,59,30,52,颗粒物(PM10)
白山市,环保局,126.4077,41.9419,2025-01-03T1400,23,59,0.9,17,15,56,27,55,颗粒物(PM10)
白银市,第三小学,104.1724,36.5446,2025-01-03T1400,62,96,1.3,47,,,34,,
白银市,动力公司,104.1465,36.5482,2025-01-03T1400,46,87,0.9,45,95,93,62,69,颗粒物(PM10)
百色市,市监测站,106.6103,23.9011,2025-01-03T1400,63,77,1.1,18,10,102,40,85,细颗粒物(PM2.5)
百色市,市中心血站,106.6538,23.8859,2025-01-03T1400,69,86,1.0,17,10,98,35,93,细颗粒物(PM2.5)
百色市,祈福高中,106.6085,23.8798,2025-01-03T1400,56,87,1.0,15,6,101,37,77,细颗粒物(PM2.5)
蚌埠市,工人疗养院,117.396,32.939,2025-01-03T1400,65,104,0.6,26,8,81,35,88,细颗粒物(PM2.5)
蚌埠市,百货大楼,117.3605,32.9427,2025-01-03T1400,63,104,0.7,22,9,78,35,85,细颗粒物(PM2.5)
蚌埠市,蚌埠学院,117.4185,32.8911,2025-01-03T1400,59,90,0.6,14,11,94,43,80,细颗粒物(PM2.5)
蚌埠市,淮上区政府,117.3533,32.9673,2025-01-03T1400,73,114,0.7,28,10,75,34,98,细颗粒物(PM2.5)
蚌埠市,高新区,117.3145,32.8977,2025-01-03T1400,60,90,0.7,22,10,91,46,82,细颗粒物(PM2.5)
蚌埠市,蚌埠田家炳中学,117.3092,32.9314,2025-01-03T1400,65,108,0.7,18,8,92,41,88,细颗粒物(PM2.5)
包头市,市环境监测站,109.8756,40.6532,2025-01-03T1400,38,66,1.5,40,38,46,33,58,颗粒物(PM10)
包头市,包头八中,109.9991,40.5842,2025-01-03T1400,27,87,0.9,33,24,49,20,69,颗粒物(PM10)
包头市,青山宾馆,109.8538,40.6821,2025-01-03T1400,50,82,2.8,57,57,35,32,69,细颗粒物(PM2.5)
包头市,惠龙物流,109.8642,40.6288,2025-01-03T1400,38,70,1.3,39,28,43,21,60,颗粒物(PM10)
包头市,东河鸿龙湾,110.0377,40.5546,2025-01-03T1400,19,61,1.1,29,31,47,20,56,颗粒物(PM10)
包头市,滨河大厦,109.9154,40.5685,2025-01-03T1400,24,43,0.5,26,13,57,24,43,
包头市,包头市委党校,109.9447,40.6261,2025-01-03T1400,57,85,1.1,33,22,53,22,78,细颗粒物(PM2.5)
包头市,昆区政府,109.8331,40.6576,2025-01-03T1400,50,80,2.6,57,58,32,42,69,细颗粒物(PM2.5)
宝鸡市,庙沟村,107.185,34.3063,2025-01-03T1400,64,85,0.8,34,12,55,40,87,细颗粒物(PM2.5)
宝鸡市,竹园沟,107.0708,34.3017,2025-01-03T1400,52,89,0.7,27,11,64,35,72,细颗粒物(PM2.5)
宝鸡市,三陆医院,107.1906,34.3672,2025-01-03T1400,85,138,,43,,40,20,113,细颗粒物(PM2.5)
宝鸡市,监测站,107.1431,34.3547,2025-01-03T1400,61,112,0.9,43,12,46,22,83,细颗粒物(PM2.5)
宝鸡市,技工学校,107.1186,34.3739,2025-01-03T1400,70,132,0.8,41,11,45,22,94,细颗粒物(PM2.5)
宝鸡市,陈仓区环保局家属楼,107.3906,34.3528,2025-01-03T1400,54,104,0.7,29,16,58,26,77,颗粒物(PM10)
宝鸡市,文理学院,107.2058,34.3497,2025-01-03T1400,66,106,0.8,35,12,51,25,89,细颗粒物(PM2.5)
宝鸡市,三迪小学,107.2386,34.3622,2025-01-03T1400,68,107,0.8,33,32,51,20,92,细颗粒物(PM2.5)
保定市,游泳馆,115.493,38.8632,2025-01-03T1400,23,34,0.3,17,4,62,28,34,
保定市,华电二区,115.5213,38.8959,2025-01-03T1400,13,33,0.1,15,3,63,26,33,
保定市,接待中心,115.4713,38.9108,2025-01-03T1400,18,39,0.6,13,4,62,30,39,
保定市,地表水厂,115.4612,38.8416,2025-01-03T1400,25,171,0.3,15,2,69,35,111,颗粒物(PM10)
保定市,满城区生态环境分局,115.31981,38.95208,2025-01-03T1400,27,51,0.1,19,2,68,33,51,颗粒物(PM10)
保定市,清苑区第二中学,115.47694,38.76408,2025-01-03T1400,21,50,0.5,22,6,56,26,50,
保定市,徐水物探局,115.62909,39.02311,2025-01-03T1400,7,29,0.3,13,5,65,27,29,
保定市,双鹰农机,115.4202,38.8656,2025-01-03T1400,20,43,0.4,18,6,64,33,43,
保定市,植保所站,115.5150,38.8590,2025-01-03T1400,29,34,0.4,14,2,26,10,42,
保山市,市环境监测站,99.1678,25.1081,2025-01-03T1400,3,26,0.3,8,5,90,39,29,
保山市,市环保局,99.1711,25.1328,2025-01-03T1400,14,28,0.5,6,6,91,50,29,
北海市,牛尾岭水库,109.2262,21.588,2025-01-03T1400,47,58,0.4,,6,126,81,,
北海市,海滩公园,109.1436,21.4086,2025-01-03T1400,42,59,0.8,15,10,138,108,59,细颗粒物(PM2.5)
北海市,新市环保局,109.0981,21.4661,2025-01-03T1400,51,71,0.6,17,10,143,100,70,细颗粒物(PM2.5)
北海市,北海工业园,109.1778,21.5233,2025-01-03T1400,49,66,0.8,11,10,137,98,68,细颗粒物(PM2.5)
北海市,龙潭自来水厂,109.1911,21.4415,2025-01-03T1400,47,56,0.6,13,10,132,89,65,细颗粒物(PM2.5)
北京市,万寿西宫,116.3621,39.8784,2025-01-03T1400,17,37,0.2,24,4,53,35,37,
北京市,定陵,116.2202,40.2915,2025-01-03T1400,,,,,,,,,
北京市,东四,116.4174,39.9289,2025-01-03T1400,17,47,0.2,21,2,50,37,47,
北京市,天坛,116.4072,39.8863,2025-01-03T1400,18,46,0.3,22,1,56,36,46,
北京市,农展馆,116.462,39.9365,2025-01-03T1400,26,54,0.4,29,2,56,39,52,颗粒物(PM10)
北京市,官园,116.3392,39.9295,2025-01-03T1400,20,41,0.4,21,4,51,33,41,
北京市,海淀万柳,116.2878,39.9611,2025-01-03T1400,17,42,0.4,20,3,52,34,42,
北京市,顺义新城,116.6636,40.135,2025-01-03T1400,13,39,0.4,35,2,45,46,39,
北京市,怀柔镇,116.6275,40.3275,2025-01-03T1400,19,21,0.2,19,2,57,45,28,
北京市,昌平镇,116.2296,40.217,2025-01-03T1400,11,33,0.5,22,2,55,51,33,
北京市,奥体中心,116.3966,39.9821,2025-01-03T1400,18,46,0.3,2,4,49,30,46,
北京市,古城,116.184,39.9136,2025-01-03T1400,,,,,,,49,,
北京市,延庆夏都,115.9718,40.4529,2025-01-03T1400,6,20,0.2,11,2,61,53,20,
北京市,平谷新城,117.0709,40.1465,2025-01-03T1400,11,31,0.3,23,2,44,35,31,
北京市,密云新城,116.8336,40.4095,2025-01-03T1400,8,23,0.2,17,2,51,50,23,
北京市,门头沟三家店,116.088,39.9726,2025-01-03T1400,15,50,0.2,19,7,52,27,50,
北京市,丰台云岗,116.1541,39.8204,2025-01-03T1400,19,48,0.2,16,3,53,42,48,
北京市,通州东关,116.6804,39.9081,2025-01-03T1400,21,50,0.3,18,3,55,32,50,
北京市,房山燕山,115.9577,39.7603,2025-01-03T1400,12,30,0.3,19,1,59,43,30,
北京市,大兴旧宫,116.4672,39.7733,2025-01-03T1400,17,46,0.2,17,1,53,29,46,
北京市,延庆石河营,115.986,40.4563,2025-01-03T1400,7,20,0.2,8,2,63,45,20,
北京市,怀柔新城,116.6151,40.3053,2025-01-03T1400,9,22,0.2,18,2,54,53,22,
北京市,丰台小屯,116.2545,39.8768,2025-01-03T1400,17,39,0.3,17,4,54,35,39,
北京市,密云镇,116.84,40.3844,2025-01-03T1400,8,22,0.3,16,2,53,28,22,
本溪市,大峪,123.8275,41.3064,2025-01-03T1400,24,33,0.9,19,16,63,31,35,
本溪市,溪湖,123.7567,41.3325,2025-01-03T1400,18,47,0.8,17,17,62,31,47,
本溪市,彩屯,123.7169,41.3094,2025-01-03T1400,24,30,0.7,19,15,62,35,35,
本溪市,东明,123.7669,41.2864,2025-01-03T1400,17,40,0.9,27,19,58,32,40,
本溪市,新立屯,123.7992,41.2664,2025-01-03T1400,20,34,1.0,24,17,62,37,34,
本溪市,威宁,123.8142,41.3472,2025-01-03T1400,12,37,0.6,14,8,71,33,37,
毕节市,八中,105.2864,27.3125,2025-01-03T1400,36,44,0.7,16,12,88,41,52,细颗粒物(PM2.5)
毕节市,师专,105.31,27.2944,2025-01-03T1400,36,48,0.8,17,12,80,37,52,细颗粒物(PM2.5)
毕节市,长征村,105.3631,27.3533,2025-01-03T1400,47,54,0.8,13,14,97,53,65,细颗粒物(PM2.5)
滨州市,第二水厂,118.0018,37.3617,2025-01-03T1400,34,58,0.3,23,11,66,30,54,颗粒物(PM10)
滨州市,北中新校,117.9776,37.393,2025-01-03T1400,41,73,0.6,35,20,56,30,62,颗粒物(PM10)
滨州市,中海酒店,117.9378,37.3956,2025-01-03T1400,41,73,0.7,28,18,60,33,62,颗粒物(PM10)
滨州市,开发区一中,117.9378,37.3553,2025-01-03T1400,36,61,0.5,26,9,66,29,56,颗粒物(PM10)
滨州市,金海六路,118.0917,37.694,2025-01-03T1400,34,51,0.4,18,6,72,32,51,颗粒物(PM10)
滨州市,滨州市西街道办事处,117.9956,37.3753,2025-01-03T1400,44,61,0.7,25,12,62,30,62,细颗粒物(PM2.5)
亳州市,污水处理厂,115.8072,33.8399,2025-01-03T1400,70,112,0.7,18,8,80,34,94,细颗粒物(PM2.5)
亳州市,三国揽胜宫,115.7789,33.8518,2025-01-03T1400,70,131,0.6,22,7,86,40,94,细颗粒物(PM2.5)
亳州市,亳州学院,115.7633,33.8034,2025-01-03T1400,77,118,0.8,20,6,80,36,103,细颗粒物(PM2.5)
博尔塔拉蒙古自治州,市党校,82.0485,44.8556,2025-01-03T1400,15,29,1.1,16,8,59,60,29,
博尔塔拉蒙古自治州,市环保局,82.0806,44.8969,2025-01-03T1400,50,81,1.6,32,11,64,56,69,细颗粒物(PM2.5)
沧州市,沧县城建局,116.8842,38.2991,2025-01-03T1400,32,55,0.4,23,5,61,28,53,颗粒物(PM10)
沧州市,电视转播站,116.8584,38.3254,2025-01-03T1400,19,42,0.5,27,9,68,31,42,
沧州市,市环保局,116.8709,38.3228,2025-01-03T1400,33,51,0.5,22,4,65,30,51,颗粒物(PM10)
沧州市,河北水利电力学院,116.8136,38.3004,2025-01-03T1400,18,34,0.3,16,8,62,26,34,
昌都市,昌都监测站,97.1806,31.1273,2025-01-03T1400,3,17,0.6,8,6,73,56,23,
昌都市,昌都会议中心,97.1714,31.1406,2025-01-03T1400,3,7,0.8,8,6,70,57,22,
昌吉回族自治州,天山天池,88.1236,43.8886,2025-01-03T1400,7,9,0.4,3,7,100,96,32,
昌吉回族自治州,新区政务中心,87.2717,44.0297,2025-01-03T1400,142,219,1.9,59,5,37,8,189,细颗粒物(PM2.5)
昌吉回族自治州,亚心广场,87.3095,44.0142,2025-01-03T1400,212,241,2.3,67,10,40,18,262,细颗粒物(PM2.5)
长春市,食品厂,125.3325,43.9166,2025-01-03T1400,14,26,0.2,13,8,56,41,26,
长春市,客车厂,125.2863,43.9027,2025-01-03T1400,17,19,0.3,9,8,56,40,25,
长春市,邮电学院,125.2841,43.8463,2025-01-03T1400,9,30,0.2,7,,,35,,
长春市,劳动公园,125.3716,43.8772,2025-01-03T1400,9,37,0.2,8,12,64,44,37,
长春市,园林处,125.3297,43.8805,2025-01-03T1400,13,21,0.4,7,12,58,41,21,
长春市,净月潭,125.4605,43.79,2025-01-03T1400,8,19,0.2,6,9,62,43,20,
长春市,甩湾子,125.7194,43.515,2025-01-03T1400,,,,,,,,,
长春市,经开区环卫处,125.3863,43.8447,2025-01-03T1400,9,25,0.2,9,14,57,36,25,
长春市,高新区管委会,125.245,43.7783,2025-01-03T1400,6,20,0.3,6,7,60,40,20,
长春市,岱山公园,125.1761,43.8325,2025-01-03T1400,8,13,0.3,6,7,60,46,19,
长沙市,经开区环保局,113.0833,28.2325,2025-01-03T1400,145,221,0.9,38,8,114,65,193,细颗粒物(PM2.5)
长沙市,高开区环保局,112.8872,28.2189,2025-01-03T1400,135,193,1.0,26,10,122,71,179,细颗粒物(PM2.5)
长沙市,马坡岭,113.0792,28.2053,2025-01-03T1400,141,198,1.0,36,8,123,68,188,细颗粒物(PM2.5)
长沙市,湖南师范大学,112.9394,28.19,2025-01-03T1400,156,224,1.2,36,9,110,74,206,细颗粒物(PM2.5)
长沙市,雨花区环保局,113.0178,28.1322,2025-01-03T1400,128,189,1.0,36,10,127,75,169,细颗粒物(PM2.5)
长沙市,伍家岭,112.9792,28.2597,2025-01-03T1400,151,218,1.0,34,8,111,66,201,细颗粒物(PM2.5)
长沙市,火车新站,113.0014,28.1944,2025-01-03T1400,139,198,1.0,34,8,130,80,185,细颗粒物(PM2.5)
长沙市,天心区环保局,112.9844,28.1178,2025-01-03T1400,118,216,1.4,33,8,130,77,155,细颗粒物(PM2.5)
长沙市,湖南中医药大学,112.8908,28.1308,2025-01-03T1400,118,193,0.9,30,11,136,78,155,细颗粒物(PM2.5)
长沙市,沙坪,112.9581,28.3611,2025-01-03T1400,152,,1.5,26,11,118,67,202,细颗粒物(PM2.5)
长治市,清华站,113.1147,36.1547,2025-01-03T1400,53,101,1.3,43,26,46,20,76,颗粒物(PM10)
长治市,监测站,113.1031,36.1989,2025-01-03T1400,,,1.3,33,25,57,21,,
长治市,审计局,113.0886,36.2125,2025-01-03T1400,39,64,0.9,31,23,58,24,57,颗粒物(PM10)
长治市,长治八中,113.0844,36.1856,2025-01-03T1400,55,81,0.9,28,23,58,23,75,细颗粒物(PM2.5)
长治市,德盛苑,113.1569,36.1911,2025-01-03T1400,63,95,1.6,40,27,54,27,85,细颗粒物(PM2.5)
长治市,向阳小学,113.06,36.0464,2025-01-03T1400,,,1.1,40,29,52,38,,
长治市,屯留一中,112.8792,36.3144,2025-01-03T1400,18,40,0.9,40,16,65,30,40,
长治市,潞城四中,113.235,36.3489,2025-01-03T1400,72,144,3.7,56,93,47,29,97,"颗粒物(PM10),细颗粒物(PM2.5)"
常德市,市二中,111.6975,28.9703,2025-01-03T1400,150,190,1.1,26,19,112,56,200,细颗粒物(PM2.5)
常德市,白鹤山,111.7158,29.1456,2025-01-03T1400,,,,,,,,,
常德市,武陵区永安,111.7153,29.0289,2025-01-03T1400,149,207,1.2,20,15,121,58,199,细颗粒物(PM2.5)
常德市,鼎城区玉霞,111.6892,28.9881,2025-01-03T1400,153,216,1.0,24,19,110,41,203,细颗粒物(PM2.5)
常德市,武陵区长庚,111.6625,29.0531,2025-01-03T1400,152,216,1.1,25,14,115,51,202,细颗粒物(PM2.5)
常州市,市监测站,119.9633,31.762,2025-01-03T1400,42,76,0.8,28,10,87,59,63,颗粒物(PM10)
常州市,武进监测站,119.9468,31.7069,2025-01-03T1400,40,71,0.7,28,10,88,63,61,颗粒物(PM10)
常州市,安家,119.9255,31.9087,2025-01-03T1400,46,77,0.8,25,14,95,53,64,"颗粒物(PM10),细颗粒物(PM2.5)"
常州市,行政中心,119.9805,31.8174,2025-01-03T1400,45,70,0.5,19,9,93,57,63,细颗粒物(PM2.5)
常州市,经开区,120.0522,31.7748,2025-01-03T1400,39,78,0.5,20,10,102,55,64,颗粒物(PM10)
常州市,钟楼,119.9025,31.7964,2025-01-03T1400,40,77,0.7,23,10,94,59,64,颗粒物(PM10)
常州市,武进经发区,119.8598,31.7066,2025-01-03T1400,48,89,0.6,31,7,89,53,70,颗粒物(PM10)
常州市,金坛城区,119.5826,31.7245,2025-01-03T1400,47,78,0.6,12,10,103,55,65,细颗粒物(PM2.5)
朝阳市,西梁,120.4318,41.5881,2025-01-03T1400,9,28,0.5,10,3,69,50,28,
朝阳市,河畔小区,120.4521,41.5646,2025-01-03T1400,9,33,0.8,9,8,67,56,33,
朝阳市,八里堡,120.4176,41.5648,2025-01-03T1400,,,0.1,,9,57,46,,
朝阳市,农业园区,120.3806,41.5969,2025-01-03T1400,9,22,0.4,3,5,76,59,24,
潮州市,西园路,116.6367,23.6719,2025-01-03T1400,30,56,0.3,14,6,116,69,53,颗粒物(PM10)
潮州市,市政府,116.6183,23.6608,2025-01-03T1400,31,58,0.4,12,6,116,79,54,颗粒物(PM10)
潮州市,金山,116.6461,23.6761,2025-01-03T1400,35,66,0.7,12,8,109,59,58,颗粒物(PM10)
郴州市,马头岭,113.0073,25.9061,2025-01-03T1400,101,173,0.9,37,14,130,88,133,细颗粒物(PM2.5)
郴州市,市职中,113.0116,25.8226,2025-01-03T1400,112,131,0.9,21,12,150,79,147,细颗粒物(PM2.5)
郴州市,兴隆步行街,113.0161,25.8001,2025-01-03T1400,118,156,1.0,25,13,150,100,155,细颗粒物(PM2.5)
郴州市,市审计局,113.0383,25.8071,2025-01-03T1400,116,139,0.9,23,11,144,84,152,细颗粒物(PM2.5)
郴州市,市环保局,113.0348,25.7759,2025-01-03T1400,117,150,1.0,23,14,145,76,153,细颗粒物(PM2.5)
成都市,金泉两河,103.9728,30.7236,2025-01-03T1400,97,122,0.8,54,6,64,21,128,细颗粒物(PM2.5)
成都市,十里店,104.176,30.6872,2025-01-03T1400,111,133,0.8,66,6,53,17,145,细颗粒物(PM2.5)
成都市,三瓦窑,104.079,30.5706,2025-01-03T1400,108,137,1.0,70,2,56,15,142,细颗粒物(PM2.5)
成都市,沙河铺,104.1114,30.63,2025-01-03T1400,109,135,0.9,81,3,31,9,143,细颗粒物(PM2.5)
成都市,君平街,104.0786,30.6531,2025-01-03T1400,95,131,1.1,73,7,45,14,125,细颗粒物(PM2.5)
成都市,灵岩寺,103.613,31.0283,2025-01-03T1400,,,,,,,,,
成都市,大石西路,104.0239,30.65639,2025-01-03T1400,101,123,1.1,74,5,44,11,133,细颗粒物(PM2.5)
成都市,龙泉驿区区政府,104.2725,30.5589,2025-01-03T1400,122,144,0.7,41,5,82,76,160,细颗粒物(PM2.5)
成都市,金博路,104.0106,30.6931,2025-01-03T1400,87,125,1.1,66,5,50,16,115,细颗粒物(PM2.5)
成都市,华阳,104.0578,30.5225,2025-01-03T1400,97,136,0.9,43,2,75,26,128,细颗粒物(PM2.5)
成都市,车城东七路,104.2394,30.5319,2025-01-03T1400,126,150,1.0,49,4,71,42,166,细颗粒物(PM2.5)
成都市,青白江技师分院,104.3853,30.7453,2025-01-03T1400,115,131,0.7,36,2,89,28,150,细颗粒物(PM2.5)
成都市,科学城,104.0789,30.4072,2025-01-03T1400,121,154,0.8,21,6,97,30,159,细颗粒物(PM2.5)
成都市,光华大道三段,103.8506,30.6947,2025-01-03T1400,88,134,0.8,44,4,71,21,117,细颗粒物(PM2.5)
承德市,铁路,117.9531,40.9081,2025-01-03T1400,3,20,0.7,18,23,51,37,20,
承德市,中国银行,117.9392,40.9763,2025-01-03T1400,3,17,0.5,9,12,60,32,19,
承德市,开发区,117.9503,40.928,2025-01-03T1400,19,30,0.8,20,24,56,35,30,
承德市,文化中心,117.8051,40.9655,2025-01-03T1400,7,33,,15,34,61,27,,
承德市,离宫,117.9268,41.0026,2025-01-03T1400,13,,0.4,12,9,59,46,19,
池州市,池州学院,117.47,30.6618,2025-01-03T1400,142,205,0.9,41,11,73,31,189,细颗粒物(PM2.5)
池州市,展览馆,117.4918,30.6617,2025-01-03T1400,132,185,1.1,43,13,70,31,175,细颗粒物(PM2.5)
池州市,第八中学,117.5627,30.695,2025-01-03T1400,138,192,1.1,40,10,75,32,183,细颗粒物(PM2.5)
池州市,第十二中学,117.5038,30.6243,2025-01-03T1400,148,193,1.0,43,8,75,39,198,细颗粒物(PM2.5)
赤峰市,松山一中,118.9233,42.2816,2025-01-03T1400,3,6,0.6,12,8,65,50,21,
赤峰市,哈达街,118.9576,42.2728,2025-01-03T1400,3,7,0.5,14,4,71,54,23,
赤峰市,天义路,118.8788,42.2554,2025-01-03T1400,3,19,0.5,9,7,66,53,21,
赤峰市,银河街,119.2658,42.0353,2025-01-03T1400,15,24,0.4,10,12,64,38,24,
赤峰市,桥北物流园区,118.9359,42.3147,2025-01-03T1400,,,,,,,48,,
崇左市,市环保局江州分局,107.3476,22.4136,2025-01-03T1400,,,,,,,136,,
崇左市,城南新区,107.3702,22.3707,2025-01-03T1400,62,91,0.9,17,12,150,68,84,细颗粒物(PM2.5)
滁州市,老年大学,118.3093,32.3153,2025-01-03T1400,58,98,0.7,21,,99,60,,
滁州市,人大宾馆,118.3244,32.2786,2025-01-03T1400,58,82,0.5,22,12,99,60,79,细颗粒物(PM2.5)
滁州市,市政府原办公楼,118.3118,32.3038,2025-01-03T1400,52,77,0.3,20,8,96,54,72,细颗粒物(PM2.5)
滁州市,图书馆,118.3267,32.2634,2025-01-03T1400,49,88,1.2,17,10,100,64,69,颗粒物(PM10)
楚雄彝族自治州,州环境监测站,101.5482,25.0441,2025-01-03T1400,17,32,0.4,4,4,70,28,32,
楚雄彝族自治州,市经济开发区,101.538,25.0492,2025-01-03T1400,17,19,0.5,6,5,68,29,25,
达州市,达州职业技术学院,107.5277,31.2827,2025-01-03T1400,133,140,1.0,21,12,11,8,176,细颗粒物(PM2.5)
达州市,市环境监测站,107.5086,31.2186,2025-01-03T1400,114,141,0.9,50,16,7,5,149,细颗粒物(PM2.5)
达州市,凤凰小区,107.4988,31.2132,2025-01-03T1400,114,144,0.9,49,19,8,6,149,细颗粒物(PM2.5)
达州市,达县机关宾馆,107.5082,31.1986,2025-01-03T1400,103,132,1.4,46,14,12,7,135,细颗粒物(PM2.5)
达州市,市政中心,107.4644,31.2124,2025-01-03T1400,127,162,1.6,61,13,6,5,168,细颗粒物(PM2.5)
大理白族自治州,大理市环境监测站,100.1542,25.7054,2025-01-03T1400,18,22,0.6,8,6,78,54,26,
大理白族自治州,大理古城,100.2171,25.5811,2025-01-03T1400,18,21,0.5,8,5,90,57,29,
大连市,甘井子,121.612,38.9741,2025-01-03T1400,3,26,0.5,9,6,80,63,26,
大连市,周水子,121.565,38.9511,2025-01-03T1400,3,25,0.3,14,12,69,50,25,
大连市,星海三站,121.5637,38.8845,2025-01-03T1400,3,19,0.3,3,7,76,58,24,
大连市,青泥洼桥,121.6302,38.9117,2025-01-03T1400,7,16,0.4,10,11,62,53,20,
大连市,傅家庄,121.6251,38.8638,2025-01-03T1400,6,19,0.3,5,10,74,62,24,
大连市,七贤岭,121.5213,38.8661,2025-01-03T1400,3,10,0.5,4,10,76,59,24,
大连市,旅顺,121.2529,38.8061,2025-01-03T1400,3,11,0.5,6,8,79,67,25,
大连市,金州,121.7485,39.1311,2025-01-03T1400,6,19,0.5,7,6,73,64,23,
大连市,开发区,121.7811,39.0496,2025-01-03T1400,7,18,0.4,10,8,70,65,22,
大连市,双D港,121.9762,39.0631,2025-01-03T1400,3,15,0.5,7,8,82,75,26,
大庆市,大同区,124.81117,46.03138,2025-01-03T1400,31,38,0.5,12,8,47,28,45,
大庆市,龙凤区,125.129,46.533,2025-01-03T1400,28,36,0.5,,,58,36,,
大庆市,红岗区,124.902,46.408,2025-01-03T1400,13,20,0.3,7,6,55,35,20,
大庆市,萨尔图区,125.153,46.586,2025-01-03T1400,18,27,0.4,23,5,53,36,27,
大庆市,让胡路区,124.9042,46.6215,2025-01-03T1400,27,33,0.4,12,7,60,45,39,
大庆市,萨区政府监测点,125.141,46.634,2025-01-03T1400,9,20,0.4,8,6,60,33,20,
大同市,果树场,113.3819,40.1097,2025-01-03T1400,11,63,0.7,36,24,52,29,57,颗粒物(PM10)
大同市,云冈宾馆,113.2994,40.0758,2025-01-03T1400,32,74,0.9,35,23,54,29,62,颗粒物(PM10)
大同市,大同大学,113.3444,40.0917,2025-01-03T1400,30,62,0.9,31,26,49,30,56,颗粒物(PM10)
大同市,安家小村,113.2661,40.1269,2025-01-03T1400,27,69,0.8,29,34,50,27,60,颗粒物(PM10)
大同市,教育学院,113.2711,40.0844,2025-01-03T1400,26,75,0.8,39,26,49,26,63,颗粒物(PM10)
大同市,大同市卫生学校,113.3397,40.0597,2025-01-03T1400,35,84,0.8,42,20,44,23,67,颗粒物(PM10)
大同市,云冈站,113.1367,40.1122,2025-01-03T1400,28,77,0.8,28,27,54,30,64,颗粒物(PM10)
大同市,图书馆,113.1186,40.2556,2025-01-03T1400,23,40,0.6,16,34,66,39,40,
大同市,区一中,113.5931,40.0461,2025-01-03T1400,8,48,0.6,23,31,56,36,48,
大同市,第二人民医院,113.2802,40.0995,2025-01-03T1400,27,91,0.8,36,28,51,28,71,颗粒物(PM10)
大兴安岭地区,科技局,124.1069,50.4097,2025-01-03T1400,11,16,,4,5,61,53,,
大兴安岭地区,红旗社区,124.1164,50.4278,2025-01-03T1400,3,9,0.2,5,2,58,39,19,
丹东市,江湾东路,124.3303,40.0625,2025-01-03T1400,24,45,0.4,11,11,66,34,45,
丹东市,临江后街,124.4256,40.1503,2025-01-03T1400,27,,0.5,8,7,70,37,39,
丹东市,元宝山,124.3933,40.1461,2025-01-03T1400,18,26,0.7,8,8,50,25,26,
丹东市,民主桥,124.3633,40.1092,2025-01-03T1400,18,45,0.6,12,10,65,33,45,
儋州市,第一中学子站,109.5726,19.5167,2025-01-03T1400,34,52,0.7,14,10,156,120,51,颗粒物(PM10)
儋州市,东坡学校子站,109.5567,19.5187,2025-01-03T1400,35,53,0.7,15,10,172,133,65,臭氧1小时
德宏傣族景颇族自治州,德宏州监测站,98.5842,24.428,2025-01-03T1400,35,66,0.5,22,14,83,37,58,颗粒物(PM10)
德宏傣族景颇族自治州,芒市人民政府综合楼,98.5881,24.4368,2025-01-03T1400,30,50,0.5,15,9,83,31,50,
德阳市,东山公园,104.4239,31.1208,2025-01-03T1400,120,133,1.0,30,4,78,46,158,细颗粒物(PM2.5)
德阳市,西小区,104.3826,31.1317,2025-01-03T1400,127,149,0.9,31,3,75,20,168,细颗粒物(PM2.5)
德阳市,耐火材料厂,104.3553,31.1091,2025-01-03T1400,116,133,0.9,37,6,72,20,152,细颗粒物(PM2.5)
德阳市,市教育局,104.4019,31.1244,2025-01-03T1400,123,133,0.9,29,5,79,26,162,细颗粒物(PM2.5)
德州市,儿童乐园,116.3032,37.4674,2025-01-03T1400,39,63,0.9,19,10,63,34,57,颗粒物(PM10)
德州市,监理站,116.2991,37.4451,2025-01-03T1400,34,63,0.8,30,16,70,38,57,颗粒物(PM10)
德州市,九衢泉纯净水厂,116.2721,37.4379,2025-01-03T1400,39,66,0.8,31,16,68,35,58,颗粒物(PM10)
德州市,开发区人民医院,116.3728,37.4403,2025-01-03T1400,39,63,0.8,25,,72,44,,
德州市,太阳城中学,116.3572,37.4094,2025-01-03T1400,41,68,0.8,25,15,76,40,59,颗粒物(PM10)
德州市,陵城艺术中心,116.5652,37.3319,2025-01-03T1400,31,56,0.9,23,14,68,40,53,颗粒物(PM10)
迪庆藏族自治州,迪庆州站,99.7056,27.8317,2025-01-03T1400,22,,0.6,12,8,95,62,32,
迪庆藏族自治州,质量技术监督局,99.7136,27.8094,2025-01-03T1400,3,31,0.5,13,8,90,52,31,
定西市,东关小学,104.6241,35.5734,2025-01-03T1400,17,53,0.7,18,19,61,23,52,颗粒物(PM10)
定西市,供电公司,104.6194,35.5934,2025-01-03T1400,26,62,1.0,18,17,69,21,56,颗粒物(PM10)
东莞市,莞城梨川,113.7547,23.0494,2025-01-03T1400,19,33,0.5,13,6,118,99,37,
东莞市,东城石井,113.7944,23.0128,2025-01-03T1400,23,39,0.4,14,7,118,96,39,
东莞市,南城西平,113.7383,22.9658,2025-01-03T1400,22,42,0.5,16,6,125,97,42,
东莞市,万江金泰,113.7338,23.0381,2025-01-03T1400,19,37,0.6,11,8,111,89,37,
东莞市,南城元岭,113.7533,23.0202,2025-01-03T1400,21,37,0.4,9,7,126,106,40,
东莞市,东城主山,113.7875,23.0457,2025-01-03T1400,20,39,0.6,9,10,115,93,39,
东营市,市环保局,118.6614,37.4309,2025-01-03T1400,29,53,0.6,20,10,73,38,52,颗粒物(PM10)
东营市,开发区管委会,118.6904,37.4338,2025-01-03T1400,31,56,0.6,28,8,74,40,53,颗粒物(PM10)
东营市,垦利区民丰路,118.5719,37.565,2025-01-03T1400,24,46,0.4,20,14,69,37,46,
东营市,河口城区,118.5055,37.8612,2025-01-03T1400,7,24,0.3,15,3,78,42,25,
东营市,胜利站,118.4978,37.4623,2025-01-03T1400,22,84,0.6,,8,63,32,,
东营市,理想之城,118.35,37.26,2025-01-03T1400,27,53,0,26,9,75,39,52,颗粒物(PM10)
鄂尔多斯市,综合楼,110.0023,39.8129,2025-01-03T1400,9,41,0.4,19,18,73,50,41,
鄂尔多斯市,巴音孟克林场办事处,109.9486,39.8261,2025-01-03T1400,14,34,0.4,10,12,83,57,34,
鄂尔多斯市,康泽苑,109.7736,39.5986,2025-01-03T1400,19,51,0.5,11,9,75,39,51,颗粒物(PM10)
鄂尔多斯市,华泰汽车城,109.8119,39.5989,2025-01-03T1400,22,46,0.5,14,11,78,31,46,
鄂尔多斯市,奥林花园,109.9734,39.7884,2025-01-03T1400,9,41,0.5,12,9,81,38,41,
鄂州市,市政府,114.8938,30.3994,2025-01-03T1400,,,,,,,,,
鄂州市,赵家坝,114.8989,30.3714,2025-01-03T1400,180,214,1.4,63,17,75,32,230,细颗粒物(PM2.5)
鄂州市,精准医疗中心,114.8094,30.4089,2025-01-03T1400,181,208,1.6,64,8,82,46,231,细颗粒物(PM2.5)
恩施土家族苗族自治州,湖北民院,109.4978,30.2981,2025-01-03T1400,136,,1.2,20,7,29,17,180,细颗粒物(PM2.5)
恩施土家族苗族自治州,州电力总公司,109.4707,30.2798,2025-01-03T1400,136,148,1.5,30,7,20,11,180,细颗粒物(PM2.5)
恩施土家族苗族自治州,龙凤新区,109.5061,30.3772,2025-01-03T1400,106,122,1.2,25,6,27,13,139,细颗粒物(PM2.5)
防城港市,沙万,108.3411,21.6158,2025-01-03T1400,50,79,0.8,19,11,139,105,69,细颗粒物(PM2.5)
防城港市,防城档案局,108.3514,21.7731,2025-01-03T1400,49,94,0.7,20,11,137,100,72,颗粒物(PM10)
防城港市,大海花园,108.3506,21.6414,2025-01-03T1400,52,87,0.7,15,10,144,112,72,细颗粒物(PM2.5)
佛山市,湾梁,113.1294,23.0067,2025-01-03T1400,26,70,0.3,24,9,114,91,60,颗粒物(PM10)
佛山市,华材职中,113.1083,23.0478,2025-01-03T1400,46,70,0.6,27,12,136,103,64,细颗粒物(PM2.5)
佛山市,南海气象局,113.144,23.0453,2025-01-03T1400,34,71,0.4,21,10,130,103,61,颗粒物(PM10)
佛山市,顺德苏岗,113.2881,22.8094,2025-01-03T1400,27,48,0.5,18,9,117,91,48,
佛山市,高明孔堂,112.8383,22.8678,2025-01-03T1400,50,68,0.4,17,10,141,104,69,细颗粒物(PM2.5)
佛山市,三水监测站,112.8836,23.1588,2025-01-03T1400,46,73,0.6,20,5,137,110,64,细颗粒物(PM2.5)
佛山市,三水云东海,112.867,23.185,2025-01-03T1400,49,56,0.6,21,12,144,103,68,细颗粒物(PM2.5)
佛山市,容桂街道办,113.2544,22.7642,2025-01-03T1400,24,53,0.5,20,8,119,88,52,颗粒物(PM10)
福州市,鼓山,119.3903,26.0543,2025-01-03T1400,,,,,,,102,,
福州市,师大,119.2681,26.0504,2025-01-03T1400,24,37,0.3,17,4,122,73,39,
福州市,五四北路,119.2984,26.1028,2025-01-03T1400,18,20,0.4,11,1,121,82,38,
福州市,杨桥西路,119.2648,26.0768,2025-01-03T1400,21,24,0.3,11,2,125,82,40,
福州市,紫阳,119.317,26.0746,2025-01-03T1400,17,27,0.3,16,3,112,76,35,
福州市,九龙,119.5799,26.0936,2025-01-03T1400,15,27,0.4,7,1,110,84,35,
福州市,吴航,119.5189,25.9664,2025-01-03T1400,14,25,0.2,10,1,115,81,36,
抚顺市,望花区,123.7977,41.8491,2025-01-03T1400,18,38,0.7,17,10,58,29,38,
抚顺市,顺城区,123.9161,41.8822,2025-01-03T1400,11,46,0.5,22,10,59,28,46,
抚顺市,东洲区,124.0436,41.8611,2025-01-03T1400,23,65,0.8,28,12,48,33,58,颗粒物(PM10)
抚顺市,新抚区,123.9247,41.8642,2025-01-03T1400,16,61,0.5,23,11,55,27,56,颗粒物(PM10)
抚顺市,大伙房水库,124.0972,41.8961,2025-01-03T1400,26,61,0.8,30,15,45,30,56,颗粒物(PM10)
抚顺市,沈抚新城,123.7086,41.8391,2025-01-03T1400,14,48,0.5,18,9,59,32,48,
抚州市,桐源党溪,116.2127,28.0814,2025-01-03T1400,88,141,0.5,3,6,114,62,117,细颗粒物(PM2.5)
抚州市,市站,116.3544,27.9831,2025-01-03T1400,73,111,1.0,23,9,,65,,
抚州市,血防站,116.3565,27.963,2025-01-03T1400,84,121,0.9,20,12,118,69,112,细颗粒物(PM2.5)
抚州市,采茶剧团,116.3564,28.0007,2025-01-03T1400,67,107,1.7,20,5,101,58,90,细颗粒物(PM2.5)
抚州市,医学分院,116.385,27.9647,2025-01-03T1400,61,117,1.1,23,13,97,56,84,颗粒物(PM10)
阜新市,工业园区,121.6094,41.998,2025-01-03T1400,12,36,,8,12,71,35,,
阜新市,长青街,121.6697,42.0279,2025-01-03T1400,14,28,0.5,11,15,66,40,28,
阜新市,农业园区,121.6673,42.0705,2025-01-03T1400,7,36,0.5,4,10,66,51,36,
阜新市,东苑,121.6717,42.0224,2025-01-03T1400,14,25,0.9,16,17,59,43,25,
阜新市,玉龙新城,121.6506,42.0498,2025-01-03T1400,15,26,0.6,8,10,73,42,26,
阜阳市,市监测站,115.8277,32.8929,2025-01-03T1400,128,167,0.9,28,9,69,28,169,细颗粒物(PM2.5)
阜阳市,开发区,115.8554,32.8605,2025-01-03T1400,122,199,0.9,34,13,70,28,160,细颗粒物(PM2.5)
阜阳市,阜阳职业技术学院,115.784,32.8892,2025-01-03T1400,121,175,1.0,29,11,70,29,159,细颗粒物(PM2.5)
阜阳市,市规划展馆,115.7901,32.8613,2025-01-03T1400,133,202,1.0,29,9,72,39,176,细颗粒物(PM2.5)
阜阳市,枣园社区,115.836,32.9183,2025-01-03T1400,134,177,1.0,29,6,74,30,178,细颗粒物(PM2.5)
甘南藏族自治州,州政府,102.9099,34.9841,2025-01-03T1400,12,32,0.6,10,11,71,27,32,
甘南藏族自治州,甘肃民族师范学院,102.8914,34.9617,2025-01-03T1400,3,10,0.3,12,5,70,26,22,
甘孜藏族自治州,水桥子,101.9603,30.0475,2025-01-03T1400,11,23,0.4,18,3,51,25,23,
甘孜藏族自治州,州环保局,101.9533,29.9972,2025-01-03T1400,,,0.3,,,55,51,,
赣江新区,桑海产业园,115.8347,28.932,2025-01-03T1400,130,185,1.0,34,17,119,78,172,细颗粒物(PM2.5)
赣州市,通天岩,114.9017,25.9149,2025-01-03T1400,45,76,0.5,7,8,144,97,63,"颗粒物(PM10),细颗粒物(PM2.5)"
赣州市,地委,114.9367,25.8664,2025-01-03T1400,45,68,1.1,13,7,124,75,63,细颗粒物(PM2.5)
赣州市,气象台,114.9461,25.8481,2025-01-03T1400,37,64,0.8,23,14,145,79,57,颗粒物(PM10)
赣州市,市图书馆,114.9322,25.8333,2025-01-03T1400,32,54,1.1,17,4,139,86,52,颗粒物(PM10)
赣州市,华坚鞋城,114.8905,25.8471,2025-01-03T1400,31,63,0.6,9,8,138,94,57,颗粒物(PM10)
赣州市,赣县区卫计委,115.0093,25.8613,2025-01-03T1400,60,87,0.4,15,8,123,63,82,细颗粒物(PM2.5)
固原市,马园,106.2319,36.1417,2025-01-03T1400,47,104,1.2,20,12,70,26,77,颗粒物(PM10)
固原市,监测站,106.2792,36.0022,2025-01-03T1400,39,66,0.7,26,12,68,38,58,颗粒物(PM10)
固原市,新区,106.2375,36.0211,2025-01-03T1400,36,84,0.6,28,10,64,32,67,颗粒物(PM10)
固原市,原州区十五小,106.2177,35.9959,2025-01-03T1400,44,84,0.7,20,10,67,42,67,颗粒物(PM10)
广安市,小平旧居,106.6308,30.5278,2025-01-03T1400,,,,,,,,,
广安市,市委,106.6303,30.4576,2025-01-03T1400,164,187,1.2,24,4,56,27,214,细颗粒物(PM2.5)
广安市,友谊中学,106.6271,30.4663,2025-01-03T1400,177,204,1.4,28,5,53,21,227,细颗粒物(PM2.5)
广安市,广电花园,106.6388,30.4551,2025-01-03T1400,167,180,1.2,28,6,51,21,217,细颗粒物(PM2.5)
广安市,北辰小学,106.6351,30.4865,2025-01-03T1400,184,197,1.6,31,5,51,20,234,细颗粒物(PM2.5)
广元市,黑石坡,105.8945,32.4535,2025-01-03T1400,66,,0.9,27,9,55,48,89,细颗粒物(PM2.5)
广元市,老城,105.821,32.4444,2025-01-03T1400,75,138,1.8,51,17,36,11,100,细颗粒物(PM2.5)
广元市,监测站,105.8628,32.4287,2025-01-03T1400,64,82,1.5,46,8,42,27,87,细颗粒物(PM2.5)
广元市,经开区,105.8047,32.4166,2025-01-03T1400,115,151,1.7,45,22,34,11,150,细颗粒物(PM2.5)
广州市,广雅中学,113.2347,23.1423,2025-01-03T1400,33,69,0.6,19,10,127,97,60,颗粒物(PM10)
广州市,市五中,113.2612,23.105,2025-01-03T1400,39,69,0.4,16,5,133,104,60,颗粒物(PM10)
广州市,广东商学院,113.3478,23.0916,2025-01-03T1400,29,53,0.4,12,6,136,112,52,颗粒物(PM10)
广州市,市八十六中,113.4332,23.1047,2025-01-03T1400,29,58,0.5,17,6,132,112,54,颗粒物(PM10)
广州市,番禺中学,113.3505,22.9483,2025-01-03T1400,33,59,0.6,19,5,136,112,55,颗粒物(PM10)
广州市,花都师范,113.2146,23.3916,2025-01-03T1400,43,62,0.6,24,11,121,97,60,细颗粒物(PM2.5)
广州市,市监测站,113.2597,23.1331,2025-01-03T1400,35,71,0.7,14,7,136,103,61,颗粒物(PM10)
广州市,九龙镇镇龙,113.5618,23.312,2025-01-03T1400,28,48,0.5,24,6,106,94,48,
广州市,麓湖,113.2765,23.1544,2025-01-03T1400,36,62,0.5,15,5,132,100,56,颗粒物(PM10)
广州市,帽峰山森林公园,113.443,23.3035,2025-01-03T1400,25,36,0.4,9,7,133,119,42,
广州市,体育西,113.3221,23.1322,2025-01-03T1400,33,60,0.7,11,6,124,100,55,颗粒物(PM10)
广州市,从化街口,113.5717,23.5491,2025-01-03T1400,26,43,0.4,10,6,121,107,43,
广州市,白云竹料,113.3472,23.3692,2025-01-03T1400,30,51,0.5,12,8,131,113,51,颗粒物(PM10)
广州市,白云嘉禾,113.2981,23.237,2025-01-03T1400,35,81,0.5,18,8,127,94,66,颗粒物(PM10)
广州市,黄埔科学城,113.4256,23.1716,2025-01-03T1400,30,51,0.6,10,7,134,116,51,颗粒物(PM10)
广州市,番禺大学城,113.3942,23.0483,2025-01-03T1400,30,116,0.6,17,8,136,114,83,颗粒物(PM10)
广州市,南沙黄阁,113.4922,22.8168,2025-01-03T1400,24,56,0.4,23,9,114,85,53,颗粒物(PM10)
广州市,南沙街,113.5342,22.7896,2025-01-03T1400,22,50,0.4,18,7,122,91,50,
广州市,花都梯面,113.2902,23.5544,2025-01-03T1400,37,60,0.5,9,13,136,111,55,颗粒物(PM10)
广州市,从化良口,113.7858,23.7478,2025-01-03T1400,28,37,0.4,8,7,130,123,41,
广州市,增城荔城,113.8051,23.2614,2025-01-03T1400,21,30,0.8,9,5,120,106,38,
贵港市,德智高中,109.568,23.1478,2025-01-03T1400,,,,,,,,,
贵港市,江南子站,109.6047,23.0666,2025-01-03T1400,56,83,0.9,21,14,157,77,77,细颗粒物(PM2.5)
贵港市,贵城子站,109.6014,23.0948,2025-01-03T1400,55,79,0.8,15,13,142,104,75,细颗粒物(PM2.5)
贵港市,荷城子站,109.5669,23.1065,2025-01-03T1400,51,83,0.7,21,14,134,101,70,细颗粒物(PM2.5)
贵港市,新世纪学校,109.5886,23.1172,2025-01-03T1400,58,83,0.8,22,14,143,110,79,细颗粒物(PM2.5)
贵阳市,马鞍山,106.6899,26.5998,2025-01-03T1400,58,83,0.4,34,15,62,42,79,细颗粒物(PM2.5)
贵阳市,市环保站,106.6971,26.5694,2025-01-03T1400,64,92,0.8,49,22,50,55,87,细颗粒物(PM2.5)
贵阳市,鉴湖路,106.6243,26.6266,2025-01-03T1400,53,78,0.7,18,18,70,53,73,细颗粒物(PM2.5)
贵阳市,燕子冲,106.7487,26.6343,2025-01-03T1400,53,78,0.9,41,24,58,50,73,细颗粒物(PM2.5)
贵阳市,碧云窝,106.6555,26.4365,2025-01-03T1400,48,73,0.7,26,19,67,56,67,细颗粒物(PM2.5)
贵阳市,中院村,106.694,26.5161,2025-01-03T1400,63,107,1.1,40,17,47,54,85,细颗粒物(PM2.5)
贵阳市,红边门,106.7109,26.6027,2025-01-03T1400,68,88,1.2,43,22,54,48,92,细颗粒物(PM2.5)
贵阳市,新华路,106.7164,26.5699,2025-01-03T1400,58,78,0.8,32,24,61,51,79,细颗粒物(PM2.5)
贵阳市,太慈桥,106.674,26.5424,2025-01-03T1400,53,85,0.7,31,22,59,50,73,细颗粒物(PM2.5)
贵阳市,桐木岭,106.805,26.3003,2025-01-03T1400,51,75,0.2,6,7,68,57,70,细颗粒物(PM2.5)
桂林市,电子科大尧山校区,110.4144,25.3167,2025-01-03T1400,52,57,0.6,14,11,145,132,72,细颗粒物(PM2.5)
桂林市,监测站,110.2819,25.2697,2025-01-03T1400,,,,,,,113,,
桂林市,龙隐路小学,110.3089,25.2708,2025-01-03T1400,61,72,0.7,19,14,148,132,83,细颗粒物(PM2.5)
桂林市,八中,110.2869,25.2178,2025-01-03T1400,62,78,0.8,17,13,140,120,84,细颗粒物(PM2.5)
桂林市,创业大厦,110.1764,25.2381,2025-01-03T1400,53,75,0.6,20,12,144,130,73,细颗粒物(PM2.5)
桂林市,旅游学院,110.296,25.1253,2025-01-03T1400,48,63,1.0,16,10,138,119,67,细颗粒物(PM2.5)
果洛藏族自治州,玛沁县大武镇,100.2561,34.4714,2025-01-03T1400,8,21,0.4,1,10,95,54,30,
哈尔滨市,岭北,126.5422,45.755,2025-01-03T1400,28,30,0.1,14,14,62,45,40,
哈尔滨市,松北商大,126.561,45.8167,2025-01-03T1400,33,47,0.5,17,5,54,38,48,
哈尔滨市,阿城会宁,126.979,45.5419,2025-01-03T1400,43,64,0.7,16,14,53,38,60,细颗粒物(PM2.5)
哈尔滨市,南岗学府路,126.599,45.7222,2025-01-03T1400,23,48,0.4,22,8,47,30,48,
哈尔滨市,太平宏伟公园,126.689,45.7733,2025-01-03T1400,28,44,0.5,15,1,54,29,44,
哈尔滨市,道外承德广场,126.635,45.7667,2025-01-03T1400,22,49,0.4,18,8,,28,,
哈尔滨市,香坊红旗大街,126.685,45.7319,2025-01-03T1400,12,27,0.4,14,14,48,26,27,
哈尔滨市,动力和平路,126.6411,45.7258,2025-01-03T1400,22,35,0.4,16,12,50,24,35,
哈尔滨市,道里建国路,126.593,45.7478,2025-01-03T1400,23,33,0.2,16,5,52,30,33,
哈尔滨市,平房东轻厂,126.615,45.61,2025-01-03T1400,25,40,0.4,13,16,54,33,40,
哈尔滨市,呼兰师专,126.595,45.9855,2025-01-03T1400,43,63,0.4,18,9,52,35,60,细颗粒物(PM2.5)
哈尔滨市,省农科院,126.6206,45.6842,2025-01-03T1400,,,0.4,17,,52,11,,
哈密市,地区监测站,93.5128,42.8172,2025-01-03T1400,74,160,1.1,36,17,46,32,105,颗粒物(PM10)
哈密市,哈密师范学校,93.4961,42.8328,2025-01-03T1400,67,147,1.1,38,17,48,26,99,颗粒物(PM10)
海北藏族自治州,海晏县西海镇,100.9048,36.9639,2025-01-03T1400,10,23,0.5,8,7,75,58,24,
海东市,平安区公安北苑,102.0738,36.5056,2025-01-03T1400,51,68,1.8,45,57,50,29,70,细颗粒物(PM2.5)
海口市,东寨港,110.576,19.9507,2025-01-03T1400,28,52,0.7,7,11,134,110,51,颗粒物(PM10)
海口市,海南大学,110.3232,20.0574,2025-01-03T1400,30,44,0.6,18,9,159,129,50,
海口市,秀英海南医院,110.283,20.0053,2025-01-03T1400,30,64,0.3,12,,154,86,,
海口市,海南师范大学,110.338,19.9969,2025-01-03T1400,26,53,0.6,12,10,159,134,52,颗粒物(PM10)
海口市,龙华路环保局宿舍,110.33,20.0356,2025-01-03T1400,28,58,0.6,13,9,156,127,54,颗粒物(PM10)
海口市,桂林洋子站,110.5111,19.9736,2025-01-03T1400,26,39,0.5,12,,156,132,,
海南藏族自治州,共和县恰卜恰镇,100.6188,36.2866,2025-01-03T1400,25,,0.9,9,11,92,42,36,
海西蒙古族藏族自治州,德令哈市,97.3731,37.3753,2025-01-03T1400,9,44,0.9,23,22,76,80,44,
邯郸市,东污水处理厂,114.5302,36.6116,2025-01-03T1400,56,,0.5,20,6,60,22,77,细颗粒物(PM2.5)
邯郸市,矿院,114.4918,36.5713,2025-01-03T1400,19,51,0.5,18,4,59,22,51,颗粒物(PM10)
邯郸市,丛台公园,114.484,36.6133,2025-01-03T1400,32,41,0.5,19,3,59,26,46,
邯郸市,香泉濮院小区,114.7895,36.5593,2025-01-03T1400,38,66,0.9,13,9,80,37,58,颗粒物(PM10)
邯郸市,永年区实验高中,114.50634,36.77178,2025-01-03T1400,47,70,0.8,17,10,56,20,65,细颗粒物(PM2.5)
邯郸市,峰峰矿区临水派出所,114.20016,36.44293,2025-01-03T1400,51,77,0.6,19,15,66,43,70,细颗粒物(PM2.5)
汉中市,汉川机床厂子校,106.9893,33.1842,2025-01-03T1400,84,84,1.1,21,8,49,46,112,细颗粒物(PM2.5)
汉中市,市监测站,107.0154,33.0706,2025-01-03T1400,98,146,2.0,56,10,28,17,129,细颗粒物(PM2.5)
汉中市,鑫源开发区,107.0089,33.1138,2025-01-03T1400,85,96,1.3,41,11,29,16,113,细颗粒物(PM2.5)
汉中市,南郑大河坎水厂,107.007,33.0323,2025-01-03T1400,100,135,1.7,45,6,26,24,132,细颗粒物(PM2.5)
杭州市,滨江,120.2072,30.2111,2025-01-03T1400,54,84,0.8,46,8,77,40,74,细颗粒物(PM2.5)
杭州市,西溪,120.0633,30.2747,2025-01-03T1400,57,89,0.8,41,9,88,41,78,细颗粒物(PM2.5)
杭州市,下沙,120.3461,30.3153,2025-01-03T1400,41,60,1.0,38,11,89,44,58,细颗粒物(PM2.5)
杭州市,卧龙桥,120.1269,30.2456,2025-01-03T1400,55,86,1.0,46,9,82,38,75,细颗粒物(PM2.5)
杭州市,浙江农大,120.1903,30.2692,2025-01-03T1400,59,85,0.9,46,9,78,36,80,细颗粒物(PM2.5)
杭州市,和睦小学,120.1197,30.3119,2025-01-03T1400,62,96,1.0,46,9,75,35,84,细颗粒物(PM2.5)
杭州市,临平镇,120.3019,30.4183,2025-01-03T1400,35,73,0.8,26,,98,44,,
杭州市,城厢镇,120.2697,30.1819,2025-01-03T1400,57,98,,44,8,87,42,,
杭州市,云栖,120.0883,30.1808,2025-01-03T1400,52,111,0.9,49,8,81,44,81,颗粒物(PM10)
杭州市,镇二中,119.9464,30.0494,2025-01-03T1400,60,69,0.6,37,8,74,27,82,细颗粒物(PM2.5)
杭州市,市府大楼,119.7183,30.2367,2025-01-03T1400,61,78,1.0,35,10,100,42,83,细颗粒物(PM2.5)
杭州市,消防大队,120.1556,30.2864,2025-01-03T1400,55,84,1.0,36,12,93,39,75,细颗粒物(PM2.5)
合肥市,明珠广场,117.1959,31.7848,2025-01-03T1400,114,161,1.1,42,13,66,25,149,细颗粒物(PM2.5)
合肥市,三里街,117.3072,31.8764,2025-01-03T1400,,,1.0,,,69,30,,
合肥市,琥珀山庄,117.2588,31.8707,2025-01-03T1400,130,168,0.9,41,9,72,32,172,细颗粒物(PM2.5)
合肥市,董铺水库,117.1604,31.9052,2025-01-03T1400,92,173,0.9,44,6,61,29,122,细颗粒物(PM2.5)
合肥市,长江中路,117.25,31.8571,2025-01-03T1400,112,173,1.1,46,10,60,26,147,细颗粒物(PM2.5)
合肥市,庐阳区,117.266,31.9436,2025-01-03T1400,90,153,0.9,28,6,85,36,119,细颗粒物(PM2.5)
合肥市,瑶海区,117.336,31.8586,2025-01-03T1400,100,158,1.1,42,8,71,36,132,细颗粒物(PM2.5)
合肥市,包河区,117.3027,31.7964,2025-01-03T1400,102,168,1.1,46,5,66,24,134,细颗粒物(PM2.5)
合肥市,滨湖新区,117.2776,31.7385,2025-01-03T1400,83,151,0.8,25,11,82,33,110,细颗粒物(PM2.5)
合肥市,高新区,117.1318,31.8403,2025-01-03T1400,121,171,1.3,61,2,60,16,159,细颗粒物(PM2.5)
合肥市,高教基地,117.3803,31.9147,2025-01-03T1400,105,154,0.8,35,10,100,52,138,细颗粒物(PM2.5)
和田地区,地区环保局,79.924,37.0877,2025-01-03T1400,73,,1.2,32,21,46,33,98,细颗粒物(PM2.5)
和田地区,市环保局,79.9131,37.113,2025-01-03T1400,92,164,2.4,55,32,41,15,122,细颗粒物(PM2.5)
河池市,东仁乐园,108.2011,24.715,2025-01-03T1400,48,101,0.8,19,15,60,31,76,颗粒物(PM10)
河池市,市环保站,108.0497,24.6947,2025-01-03T1400,45,82,0.7,9,9,117,57,66,颗粒物(PM10)
河池市,市疾控中心,108.0983,24.6989,2025-01-03T1400,49,55,0.7,14,8,115,49,68,细颗粒物(PM2.5)
河源市,源西,114.6778,23.7569,2025-01-03T1400,36,49,0.4,13,8,128,108,52,细颗粒物(PM2.5)
河源市,东埔,114.6944,23.7586,2025-01-03T1400,38,74,0.6,16,7,143,120,62,颗粒物(PM10)
河源市,老城,114.6892,23.7233,2025-01-03T1400,41,47,0.5,14,7,137,117,58,细颗粒物(PM2.5)
菏泽市,气象局,115.4208,35.2464,2025-01-03T1400,100,167,0.9,39,15,73,27,132,细颗粒物(PM2.5)
菏泽市,市政协,115.4747,35.2375,2025-01-03T1400,100,164,1.1,46,14,75,34,132,细颗粒物(PM2.5)
菏泽市,定陶老年大学,115.5564,35.0891,2025-01-03T1400,110,173,0.7,37,16,82,36,144,细颗粒物(PM2.5)
菏泽市,菏泽医专,115.4702,35.2706,2025-01-03T1400,88,155,0.9,44,17,71,33,117,细颗粒物(PM2.5)
贺州市,环保小区,111.5264,24.4172,2025-01-03T1400,78,99,0.7,15,10,142,92,104,细颗粒物(PM2.5)
贺州市,政协大楼,111.5608,24.4078,2025-01-03T1400,61,91,0.7,15,9,156,101,83,细颗粒物(PM2.5)
贺州市,西湾,111.4744,24.4553,2025-01-03T1400,78,109,0.7,15,10,152,103,104,细颗粒物(PM2.5)
鹤壁市,市监测站,114.17,35.9019,2025-01-03T1400,80,118,0.4,33,11,44,36,107,细颗粒物(PM2.5)
鹤壁市,市交警支队,114.2956,35.7511,2025-01-03T1400,38,91,0.6,27,10,57,27,71,颗粒物(PM10)
鹤壁市,迎宾馆,114.2878,35.7306,2025-01-03T1400,50,92,0.7,26,5,58,27,71,颗粒物(PM10)
鹤壁市,大新区,114.2617,35.6822,2025-01-03T1400,61,93,0.6,28,12,59,24,83,细颗粒物(PM2.5)
鹤壁市,南山宾馆,114.1572,35.9603,2025-01-03T1400,74,99,0.8,32,4,46,37,99,细颗粒物(PM2.5)
鹤岗市,哈啤分公司,130.2537,47.3416,2025-01-03T1400,34,40,0.6,20,18,40,43,49,
鹤岗市,斯达机电,130.2684,47.3086,2025-01-03T1400,29,30,0.1,12,24,56,53,42,
鹤岗市,东山纸板厂,130.3114,47.3388,2025-01-03T1400,31,43,0.5,21,18,42,26,45,
鹤岗市,五号水库,130.1097,47.3382,2025-01-03T1400,24,92,0.7,24,14,62,60,71,颗粒物(PM10)
黑河市,交通局,127.4833,50.2524,2025-01-03T1400,39,67,0.9,24,9,27,29,59,颗粒物(PM10)
黑河市,环保局,127.5144,50.2341,2025-01-03T1400,47,81,0.9,22,15,27,23,66,颗粒物(PM10)
黑河市,大黑河岛,127.5291,50.2472,2025-01-03T1400,51,79,,21,1,21,11,,
衡水市,电机北厂,115.6838,37.7541,2025-01-03T1400,32,42,0.9,20,19,73,37,46,
衡水市,市监测站,115.6303,37.7316,2025-01-03T1400,46,71,1.1,34,18,56,27,64,细颗粒物(PM2.5)
衡水市,市城管局,115.6683,37.7217,2025-01-03T1400,36,56,1.1,22,16,70,35,53,颗粒物(PM10)
衡水市,地表水厂,115.5989,37.5491,2025-01-03T1400,33,50,0.6,20,10,72,29,50,
衡阳市,原169医院,112.5003,26.9167,2025-01-03T1400,111,122,,23,13,139,92,,
衡阳市,衡阳化工总厂,112.6194,26.9258,2025-01-03T1400,126,149,1.1,30,13,143,97,166,细颗粒物(PM2.5)
衡阳市,珠晖区环保局,112.6211,26.8956,2025-01-03T1400,127,134,1.1,27,16,141,101,168,细颗粒物(PM2.5)
衡阳市,市委党校,112.6197,26.8733,2025-01-03T1400,119,166,1.2,31,16,147,100,156,细颗粒物(PM2.5)
衡阳市,市监测站,112.6006,26.8919,2025-01-03T1400,142,182,1.1,28,14,139,97,189,细颗粒物(PM2.5)
衡阳市,真空机电公司,112.5664,26.9056,2025-01-03T1400,122,189,1.0,26,11,146,98,160,细颗粒物(PM2.5)
衡阳市,师范学院,112.6703,26.882,2025-01-03T1400,126,157,1.2,24,18,149,103,166,细颗粒物(PM2.5)
红河哈尼族彝族自治州,污水处理厂,103.3772,23.3993,2025-01-03T1400,28,38,0.3,5,5,97,79,40,
红河哈尼族彝族自治州,监测站,103.3861,23.35,2025-01-03T1400,32,36,0.5,5,6,104,86,46,
红河哈尼族彝族自治州,州图书馆,103.3758,23.368,2025-01-03T1400,22,28,0.4,5,7,90,75,32,
呼和浩特市,呼市一监,111.6507,40.7517,2025-01-03T1400,17,41,0.5,16,16,61,32,41,
呼和浩特市,小召,111.6572,40.8033,2025-01-03T1400,20,53,0.6,32,16,51,31,52,颗粒物(PM10)
呼和浩特市,如意水处理厂,111.7516,40.8369,2025-01-03T1400,17,36,0.5,17,18,51,27,36,
呼和浩特市,二十九中,111.7276,40.8062,2025-01-03T1400,17,42,0.4,26,16,48,24,42,
呼和浩特市,工大金川校区,111.5512,40.7866,2025-01-03T1400,21,53,0.5,28,15,49,26,52,颗粒物(PM10)
呼和浩特市,化肥厂生活区,111.717,40.7612,2025-01-03T1400,15,42,0.5,23,13,53,24,42,
呼和浩特市,红旗小学,111.5968,40.8178,2025-01-03T1400,18,58,0.6,32,17,44,24,54,颗粒物(PM10)
呼和浩特市,海东办,111.6518,40.8389,2025-01-03T1400,22,58,0.9,34,15,46,28,54,颗粒物(PM10)
呼伦贝尔市,区环保局,119.7594,49.2261,2025-01-03T1400,48,,0.6,38,9,25,13,67,细颗粒物(PM2.5)
呼伦贝尔市,国华电力东,119.7512,49.1577,2025-01-03T1400,10,13,0.3,4,5,60,56,19,
湖州市,城西水厂,120.0751,30.8669,2025-01-03T1400,43,79,0.6,17,8,106,49,65,颗粒物(PM10)
湖州市,仁皇山新区,120.0875,30.8955,2025-01-03T1400,46,74,0.7,34,8,96,57,64,细颗粒物(PM2.5)
湖州市,吴兴区站,120.1844,30.8596,2025-01-03T1400,57,93,0.7,24,6,84,46,78,细颗粒物(PM2.5)
湖州市,南浔区站,120.4148,30.8538,2025-01-03T1400,65,93,,36,8,75,53,,
葫芦岛市,龙港区,120.9092,40.7136,2025-01-03T1400,3,26,0.3,5,12,76,68,26,
葫芦岛市,化工街,120.8392,40.7514,2025-01-03T1400,9,19,0.3,6,24,69,41,22,
葫芦岛市,新区,120.8341,40.7073,2025-01-03T1400,3,18,0.4,5,11,72,49,23,
葫芦岛市,东城区,120.8695,40.7677,2025-01-03T1400,8,50,0.1,11,11,67,36,50,
怀化市,林科所,109.5981,27.5721,2025-01-03T1400,79,85,1.1,33,14,135,104,105,细颗粒物(PM2.5)
怀化市,河西地税局,109.9453,27.5444,2025-01-03T1400,104,127,1.1,22,12,130,84,137,细颗粒物(PM2.5)
怀化市,市四医院,109.9781,27.5342,2025-01-03T1400,89,142,1.2,16,12,138,90,118,细颗粒物(PM2.5)
怀化市,监测楼,109.9972,27.5578,2025-01-03T1400,102,133,0.8,21,13,133,69,134,细颗粒物(PM2.5)
怀化市,市委党校,110.0394,27.583,2025-01-03T1400,143,164,1.1,21,28,127,60,190,细颗粒物(PM2.5)
淮安市,钵池山,119.036,33.5981,2025-01-03T1400,38,48,0.7,16,8,91,50,54,细颗粒物(PM2.5)
淮安市,北京南路,119.007,33.575,2025-01-03T1400,38,56,0.6,18,10,94,58,54,细颗粒物(PM2.5)
淮安市,市监测站,118.989,33.6067,2025-01-03T1400,36,46,0.6,19,8,88,52,52,细颗粒物(PM2.5)
淮安市,楚州区监测站,119.135,33.5039,2025-01-03T1400,26,49,0.5,17,8,79,55,49,
淮安市,淮阴区监测站,119.0186,33.6297,2025-01-03T1400,38,53,0.5,22,8,82,47,54,细颗粒物(PM2.5)
淮安市,新华书店,118.8755,33.2894,2025-01-03T1400,31,49,0.4,19,9,87,55,49,
淮北市,监测站,116.8004,33.975,2025-01-03T1400,46,59,0.7,16,10,79,38,64,细颗粒物(PM2.5)
淮北市,烈山区政府,116.8091,33.9007,2025-01-03T1400,43,70,0.7,22,10,80,37,60,"颗粒物(PM10),细颗粒物(PM2.5)"
淮北市,杜集区检察院,116.8873,33.9836,2025-01-03T1400,44,77,0.1,13,7,80,38,64,颗粒物(PM10)
淮北市,市博物馆,116.7923,33.9535,2025-01-03T1400,52,64,0.7,21,11,78,38,72,细颗粒物(PM2.5)
淮南市,潘集区政府,116.8305,32.7727,2025-01-03T1400,107,156,0.8,24,13,82,38,140,细颗粒物(PM2.5)
淮南市,师范学院,117.0067,32.6524,2025-01-03T1400,85,150,0.7,21,8,84,39,113,细颗粒物(PM2.5)
淮南市,谢家集区政府,116.8569,32.5951,2025-01-03T1400,91,131,0.9,24,6,69,36,120,细颗粒物(PM2.5)
淮南市,八公山区政府,116.8281,32.633,2025-01-03T1400,,,0.9,16,10,,33,,
淮南市,焦岗湖风景区管理处,116.6325,32.6201,2025-01-03T1400,70,122,0.5,12,5,41,18,94,细颗粒物(PM2.5)
淮南市,经济技术开发区消防队,117.0566,32.6531,2025-01-03T1400,78,125,0.7,14,8,89,45,104,细颗粒物(PM2.5)
淮南市,山南新区,117.0108,32.5893,2025-01-03T1400,80,125,0.8,21,10,88,51,107,细颗粒物(PM2.5)
黄冈市,职工中心,114.9028,30.4742,2025-01-03T1400,154,209,1.3,55,13,108,45,204,细颗粒物(PM2.5)
黄冈市,红卫路,114.8858,30.4519,2025-01-03T1400,153,211,1.5,45,11,98,44,203,细颗粒物(PM2.5)
黄冈市,市林业局,114.9136,30.4445,2025-01-03T1400,159,204,1.3,48,16,112,43,209,细颗粒物(PM2.5)
黄南藏族自治州,同仁县隆务镇,102.0199,35.5102,2025-01-03T1400,24,41,,8,8,75,59,,
黄山市,延安路89号,118.2903,29.6963,2025-01-03T1400,56,86,0.4,18,7,127,57,77,细颗粒物(PM2.5)
黄山市,黄山东路89号,118.327,29.7178,2025-01-03T1400,44,69,0.4,17,8,118,55,62,细颗粒物(PM2.5)
黄山市,黄山区政府5号楼,118.1371,30.2756,2025-01-03T1400,54,105,0.6,21,11,132,63,78,颗粒物(PM10)
黄石市,沈家营,115.0601,30.2313,2025-01-03T1400,164,230,1.6,62,27,71,,214,细颗粒物(PM2.5)
黄石市,陈家湾,115.0817,30.2006,2025-01-03T1400,197,418,1.6,84,37,58,39,298,颗粒物(PM10)
黄石市,铁山,114.8988,30.2019,2025-01-03T1400,135,151,1.0,26,12,136,46,179,细颗粒物(PM2.5)
黄石市,团城山,115.0307,30.2092,2025-01-03T1400,164,207,1.4,67,12,78,38,214,细颗粒物(PM2.5)
黄石市,笔架山北路,115.0235,30.1578,2025-01-03T1400,134,169,1.2,38,17,124,53,178,细颗粒物(PM2.5)
惠州市,河南岸金山湖子站,114.4183,23.0528,2025-01-03T1400,38,60,0.6,11,10,134,111,55,颗粒物(PM10)
惠州市,下埔横江三路子站,114.4053,23.0822,2025-01-03T1400,35,56,0.7,12,10,141,114,53,颗粒物(PM10)
惠州市,江北云山西路子站,114.4103,23.1142,2025-01-03T1400,36,57,0.6,14,10,149,122,54,颗粒物(PM10)
惠州市,惠阳区承修路船湖子站,114.4645,22.7833,2025-01-03T1400,34,69,0.5,11,12,127,107,60,颗粒物(PM10)
惠州市,大亚湾管委会子站,114.5317,22.7422,2025-01-03T1400,32,56,0.5,17,13,138,113,53,颗粒物(PM10)
惠州市,惠阳秋长,114.4338,22.8134,2025-01-03T1400,34,61,0.6,11,9,141,123,56,颗粒物(PM10)
惠州市,大亚湾霞涌,114.6517,22.775,2025-01-03T1400,41,60,0.7,12,11,131,109,58,细颗粒物(PM2.5)
鸡西市,环保局,130.9762,45.3001,2025-01-03T1400,17,32,0.3,6,7,58,46,32,
鸡西市,第一中学,130.9429,45.3039,2025-01-03T1400,8,21,0.1,1,6,64,48,21,
鸡西市,欧美日汽修厂,131.0207,45.3073,2025-01-03T1400,16,33,0.8,10,21,58,36,33,
鸡西市,市政设施管理处,130.9967,45.3106,2025-01-03T1400,12,40,0.6,6,5,61,37,40,
吉安市,红声器材厂,114.9754,27.0803,2025-01-03T1400,70,98,0.7,33,20,123,72,94,细颗粒物(PM2.5)
吉安市,市森林工业局,114.9658,27.0999,2025-01-03T1400,66,100,0.9,34,22,124,81,89,细颗粒物(PM2.5)
吉安市,市环境监测站,114.99,27.1312,2025-01-03T1400,62,96,0.6,28,22,130,85,84,细颗粒物(PM2.5)
吉安市,青原区法院,115.0093,27.0968,2025-01-03T1400,72,98,,,,,62,,
吉林市,哈达湾,126.54,43.8622,2025-01-03T1400,9,23,0.5,9,8,62,50,23,
吉林市,东局子,126.5844,43.8358,2025-01-03T1400,12,15,0.5,8,6,64,50,20,
吉林市,电力学院,126.5052,43.8245,2025-01-03T1400,14,16,0.6,7,7,63,48,20,
吉林市,江北,126.6133,43.8972,2025-01-03T1400,9,19,0.4,8,10,68,50,22,
吉林市,江南公园,126.555,43.8306,2025-01-03T1400,12,15,0.5,9,9,61,52,20,
吉林市,丰满,126.7061,43.7133,2025-01-03T1400,13,14,0.4,4,7,63,57,20,
吉林市,九站,126.4739,43.953,2025-01-03T1400,10,25,0.5,9,5,62,53,25,
济南市,科干所,116.9862,36.6114,2025-01-03T1400,15,36,0.6,26,7,73,50,36,
济南市,农科所,116.9376,36.665,2025-01-03T1400,12,44,0.5,34,9,65,33,44,
济南市,开发区,117.1265,36.6734,2025-01-03T1400,15,42,0.6,26,9,74,43,42,
济南市,省种子仓库,117.0624,36.6868,2025-01-03T1400,9,41,0.5,17,7,76,35,41,
济南市,机床二厂,116.9489,36.6447,2025-01-03T1400,17,49,0.8,18,10,68,37,49,
济南市,市监测站,117.0495,36.663,2025-01-03T1400,17,37,0.6,19,7,78,40,37,
济南市,长清党校,116.7675,36.5484,2025-01-03T1400,49,,0.8,18,11,70,41,68,细颗粒物(PM2.5)
济南市,技术学院,117.6795,36.229,2025-01-03T1400,44,63,1.4,26,17,66,31,62,细颗粒物(PM2.5)
济南市,东山小学,117.532,36.6868,2025-01-03T1400,20,51,0.6,17,8,74,47,51,颗粒物(PM10)
济南市,泰兴公司,117.7161,36.2049,2025-01-03T1400,31,58,,24,15,68,32,,
济南市,莱芜战役纪念馆,117.6867,36.2171,2025-01-03T1400,34,63,1.0,25,13,67,33,57,颗粒物(PM10)
济南市,济阳区政府,117.1673,36.9782,2025-01-03T1400,22,46,0.7,42,9,65,28,46,
济南市,锦屏中学,117.1171,36.63,2025-01-03T1400,10,27,0.3,18,6,85,66,27,
济南市,济南四建,116.9814,36.6819,2025-01-03T1400,17,39,0.7,29,8,63,31,39,
济宁市,火炬城,116.6251,35.4302,2025-01-03T1400,46,80,0.9,23,12,79,34,65,颗粒物(PM10)
济宁市,电化厂,116.5491,35.4042,2025-01-03T1400,58,101,0.9,34,15,69,28,79,细颗粒物(PM2.5)
济宁市,北湖一中,116.5814,35.3707,2025-01-03T1400,48,85,1.2,33,12,69,32,68,颗粒物(PM10)
济宁市,服务中心,116.8249,35.5593,2025-01-03T1400,46,107,0.8,32,17,72,28,79,颗粒物(PM10)
济宁市,市第七中学,116.5907,35.4054,2025-01-03T1400,56,85,1.1,28,10,79,38,77,细颗粒物(PM2.5)
佳木斯市,佳纺,130.2751,46.8028,2025-01-03T1400,109,133,1.0,42,8,43,35,143,细颗粒物(PM2.5)
佳木斯市,发电厂,130.3995,46.8307,2025-01-03T1400,103,,0.8,25,11,47,34,135,细颗粒物(PM2.5)
佳木斯市,环保局,130.3258,46.7975,2025-01-03T1400,109,131,1.3,58,13,22,32,143,细颗粒物(PM2.5)
佳木斯市,十一中,130.3648,46.8032,2025-01-03T1400,105,,0.9,39,11,35,33,138,细颗粒物(PM2.5)
佳木斯市,四丰,130.3794,46.7588,2025-01-03T1400,68,87,1.0,40,1,29,49,92,细颗粒物(PM2.5)
嘉兴市,清河小学,120.7436,30.778,2025-01-03T1400,39,70,0.4,27,10,90,54,60,颗粒物(PM10)
嘉兴市,嘉兴学院,120.726,30.7478,2025-01-03T1400,37,77,0.5,22,7,93,55,64,颗粒物(PM10)
嘉兴市,南湖区残联,120.7846,30.7525,2025-01-03T1400,44,76,0.6,24,9,94,60,63,颗粒物(PM10)
嘉兴市,秀洲住建,120.6916,30.7739,2025-01-03T1400,46,83,0.5,26,8,92,51,67,颗粒物(PM10)
嘉峪关市,气象局,98.2908,39.7711,2025-01-03T1400,56,124,1.1,27,52,55,33,87,颗粒物(PM10)
嘉峪关市,酒钢宾馆,98.2672,39.7978,2025-01-03T1400,63,134,0.8,29,81,46,32,92,颗粒物(PM10)
嘉峪关市,雄关区,98.2643,39.7724,2025-01-03T1400,49,92,0.7,32,29,54,36,71,颗粒物(PM10)
江门市,北街,113.1064,22.6058,2025-01-03T1400,40,87,0.7,24,7,134,102,69,颗粒物(PM10)
江门市,西区,113.0731,22.5835,2025-01-03T1400,30,86,0.5,21,10,132,102,68,颗粒物(PM10)
江门市,圭峰西,113.0219,22.5311,2025-01-03T1400,39,84,,25,,129,111,,
江门市,东湖,113.0828,22.5947,2025-01-03T1400,40,73,0.5,23,10,133,104,62,颗粒物(PM10)
江门市,江海富民,113.1075,22.5647,2025-01-03T1400,35,88,0.4,27,9,138,103,69,颗粒物(PM10)
江门市,新会银湖,113.05,22.4667,2025-01-03T1400,40,69,0.4,25,8,134,104,60,颗粒物(PM10)
焦作市,市环保局,113.227,35.2125,2025-01-03T1400,49,59,0.6,22,8,70,31,68,细颗粒物(PM2.5)
焦作市,影视城,113.1992,35.2590,2025-01-03T1400,61,89,1.1,27,20,76,57,83,细颗粒物(PM2.5)
焦作市,太极体育中心,113.2725,35.2067,2025-01-03T1400,44,78,0.6,26,10,66,28,64,颗粒物(PM10)
焦作市,马村街道办,113.3137,35.2641,2025-01-03T1400,63,69,0.8,24,10,66,33,85,细颗粒物(PM2.5)
焦作市,焦作技师学院,113.2465,35.2373,2025-01-03T1400,51,80,0.6,24,9,76,46,70,细颗粒物(PM2.5)
焦作市,中站许衡医院,113.1656,35.2539,2025-01-03T1400,63,108,0.9,23,,72,45,,
焦作市,原李万街道办,113.2449,35.1803,2025-01-03T1400,48,60,0.8,19,10,65,25,67,细颗粒物(PM2.5)
揭阳市,新兴,116.3701,23.5345,2025-01-03T1400,38,66,0.6,17,9,128,69,58,颗粒物(PM10)
揭阳市,西马,116.3264,23.5443,2025-01-03T1400,35,69,0.8,18,12,145,74,60,颗粒物(PM10)
揭阳市,东兴,116.3611,23.5626,2025-01-03T1400,38,72,0.9,15,11,135,64,61,颗粒物(PM10)
揭阳市,渔湖,116.4151,23.5294,2025-01-03T1400,38,59,0.7,14,14,134,65,55,颗粒物(PM10)
揭阳市,曲溪,116.403,23.5699,2025-01-03T1400,43,43,0.7,16,1,139,74,60,细颗粒物(PM2.5)
金昌市,天庆家园,102.1692,38.5167,2025-01-03T1400,33,69,1.3,12,29,74,45,60,颗粒物(PM10)
金昌市,市委党校,102.1864,38.5253,2025-01-03T1400,46,92,0.5,11,29,91,69,71,颗粒物(PM10)
金昌市,金川区人防中心,102.1647,38.5371,2025-01-03T1400,40,68,0.5,10,26,76,50,59,颗粒物(PM10)
金华市,十五中,119.647,29.077,2025-01-03T1400,58,89,,25,5,113,57,,
金华市,监测站,119.686,29.1029,2025-01-03T1400,57,97,0.6,30,7,115,48,78,细颗粒物(PM2.5)
金华市,气象局,119.656,29.1131,2025-01-03T1400,62,95,0.6,24,6,114,45,84,细颗粒物(PM2.5)
锦州市,南山,121.1115,41.0879,2025-01-03T1400,13,22,0.5,8,8,76,50,24,
锦州市,开发区,121.0533,40.8434,2025-01-03T1400,19,43,0.3,29,20,57,35,43,
锦州市,百股街道,121.1836,41.1119,2025-01-03T1400,7,27,0.1,9,8,80,55,27,
锦州市,天安街道,121.1178,41.1222,2025-01-03T1400,10,15,0.5,7,12,76,54,24,
锦州市,北湖公园,121.1303,41.1386,2025-01-03T1400,9,12,0.3,3,8,75,54,24,
晋城市,自来水公司,112.85,35.5051,2025-01-03T1400,127,155,2.2,41,21,58,23,168,细颗粒物(PM2.5)
晋城市,白云商贸,112.8318,35.4936,2025-01-03T1400,134,182,2.2,44,21,54,23,178,细颗粒物(PM2.5)
晋城市,市环保局,112.8508,35.4887,2025-01-03T1400,144,182,2.4,41,20,54,23,192,细颗粒物(PM2.5)
晋城市,技术学院,112.8676,35.4897,2025-01-03T1400,146,178,2.4,40,18,57,21,195,细颗粒物(PM2.5)
晋城市,白马寺,112.8453,35.546,2025-01-03T1400,139,,1.9,32,25,46,22,185,细颗粒物(PM2.5)
晋城市,泽州一中,112.8271,35.4828,2025-01-03T1400,,,,43,23,58,27,,
晋中市,锦纶小区,112.7532,37.6945,2025-01-03T1400,19,53,0.8,30,14,53,32,52,颗粒物(PM10)
晋中市,南都小区,112.7249,37.7067,2025-01-03T1400,18,53,1.0,38,24,48,32,52,颗粒物(PM10)
晋中市,榆次区政府,112.6991,37.6982,2025-01-03T1400,24,61,1.2,43,20,42,30,56,颗粒物(PM10)
晋中市,榆次三中,112.7195,37.6828,2025-01-03T1400,19,61,1.0,36,19,49,28,56,颗粒物(PM10)
荆门市,竹园小学,112.2014,31.0481,2025-01-03T1400,,,,,,,76,,
荆门市,掇刀,112.1969,30.9891,2025-01-03T1400,,,,,,,86,,
荆门市,石化一小,112.2213,31.0386,2025-01-03T1400,,,,,,,74,,
荆门市,西山林语,112.1849,31.0362,2025-01-03T1400,,,,,,,86,,
荆门市,龙泉中学南校,112.1632,31.0138,2025-01-03T1400,,,,,,,84,,
荆州市,市图书馆,112.2494,30.3197,2025-01-03T1400,149,160,0.9,,14,121,61,199,细颗粒物(PM2.5)
荆州市,市委党校,112.2008,30.3544,2025-01-03T1400,,,,,,,79,,
荆州市,管委会,112.2747,30.3122,2025-01-03T1400,149,175,1.0,36,16,121,55,199,细颗粒物(PM2.5)
荆州市,学苑路,112.1655,30.3364,2025-01-03T1400,,,,,,,82,,
景德镇市,王港中学,117.3102,29.3867,2025-01-03T1400,,,,,,,,,
景德镇市,老干部活动中心,117.2117,29.2933,2025-01-03T1400,,,,16,,105,54,,
景德镇市,兽医站,117.1894,29.2789,2025-01-03T1400,30,72,0.1,15,4,114,70,61,颗粒物(PM10)
景德镇市,台达陶瓷,117.1547,29.2617,2025-01-03T1400,36,62,0.3,40,18,145,85,56,颗粒物(PM10)
景德镇市,陶研所,117.2461,29.2956,2025-01-03T1400,47,48,0.6,17,3,113,47,65,细颗粒物(PM2.5)
九江市,十里,115.9872,29.6815,2025-01-03T1400,131,192,1.1,28,13,121,51,173,细颗粒物(PM2.5)
九江市,茅山头,115.9584,29.7046,2025-01-03T1400,114,195,1.3,44,10,119,57,149,细颗粒物(PM2.5)
九江市,西园,115.9877,29.7295,2025-01-03T1400,140,193,1.2,33,13,105,50,186,细颗粒物(PM2.5)
九江市,五七二七厂,116.0172,29.6547,2025-01-03T1400,136,207,1.0,39,10,105,67,180,细颗粒物(PM2.5)
九江市,综合工业园,115.9114,29.6038,2025-01-03T1400,175,198,1.1,48,16,106,48,225,细颗粒物(PM2.5)
九江市,石化总厂,116.0721,29.7535,2025-01-03T1400,144,202,1.2,36,14,113,61,192,细颗粒物(PM2.5)
九江市,庐山气象台,115.9773,29.5698,2025-01-03T1400,107,,1.4,25,6,122,133,140,细颗粒物(PM2.5)
九江市,外国语学校,116.0254,29.6994,2025-01-03T1400,146,227,0.9,28,14,113,54,195,细颗粒物(PM2.5)
酒泉市,仓门街子站,98.5061,39.7443,2025-01-03T1400,33,107,0.8,19,41,69,49,79,颗粒物(PM10)
酒泉市,油田生活基地,98.4989,39.7256,2025-01-03T1400,36,107,0.7,18,23,54,27,79,颗粒物(PM10)
喀什地区,巡警大队,76.0072,39.4467,2025-01-03T1400,119,268,3.1,,7,22,27,159,颗粒物(PM10)
喀什地区,吾办,75.9755,39.4694,2025-01-03T1400,148,208,2.9,71,4,29,21,198,细颗粒物(PM2.5)
喀什地区,老干局,75.9483,39.4689,2025-01-03T1400,163,288,4.4,76,6,17,10,213,细颗粒物(PM2.5)
开封市,肿瘤医院,114.3389,34.7781,2025-01-03T1400,62,92,0.8,30,8,65,30,84,细颗粒物(PM2.5)
开封市,世纪星幼儿园,114.2885,34.7965,2025-01-03T1400,70,85,0.6,26,8,64,29,94,细颗粒物(PM2.5)
开封市,龙亭公园,114.3438,34.8106,2025-01-03T1400,70,94,1.0,33,8,68,35,94,细颗粒物(PM2.5)
开封市,汴京公园,114.3644,34.7964,2025-01-03T1400,88,127,0.7,35,10,70,33,117,细颗粒物(PM2.5)
开封市,技师学院,114.2485,34.8306,2025-01-03T1400,48,,0.7,41,,54,21,,
开封市,祥符区生态环境局,114.4644,34.7556,2025-01-03T1400,97,140,0.7,28,9,69,33,128,细颗粒物(PM2.5)
克拉玛依市,长征新村,84.895,45.6094,2025-01-03T1400,108,140,1.1,33,7,59,60,142,细颗粒物(PM2.5)
克拉玛依市,南林小区,84.8988,45.5893,2025-01-03T1400,93,134,1.4,24,1,62,64,123,细颗粒物(PM2.5)
克拉玛依市,独山子区,84.905,44.3396,2025-01-03T1400,43,48,0.7,24,5,83,84,60,细颗粒物(PM2.5)
克拉玛依市,乌尔禾区商贸楼,85.6979,46.098,2025-01-03T1400,,,1.1,23,,63,83,,
克拉玛依市,白碱滩区新站,85.1045,45.6899,2025-01-03T1400,112,190,1.5,26,9,71,68,147,细颗粒物(PM2.5)
克孜勒苏柯尔克孜自治州,市人民政府,76.1454,39.7142,2025-01-03T1400,89,138,1.7,24,6,50,43,118,细颗粒物(PM2.5)
克孜勒苏柯尔克孜自治州,克州文化中心,76.1658,39.7157,2025-01-03T1400,98,144,2.0,46,10,39,48,129,细颗粒物(PM2.5)
昆明市,呈贡新区,102.8204,24.8886,2025-01-03T1400,24,32,0.5,10,6,85,54,35,
昆明市,西山森林公园,102.6251,24.9608,2025-01-03T1400,,,,,,,,,
昆明市,龙泉镇,102.7252,25.0902,2025-01-03T1400,28,42,0.5,14,7,82,38,42,
昆明市,东风东路,102.7266,25.0375,2025-01-03T1400,28,37,0.6,11,6,82,42,40,
昆明市,金鼎山,102.6742,25.0669,2025-01-03T1400,23,36,0.5,14,8,80,44,36,
昆明市,碧鸡广场,102.6644,25.0401,2025-01-03T1400,30,36,0.7,15,8,79,46,43,
昆明市,官渡区博物馆,102.7494,25.0119,2025-01-03T1400,26,45,0.6,9,7,87,43,45,
昆明市,青年创业园,102.8017,24.8336,2025-01-03T1400,20,25,0.6,7,6,92,59,29,
昆明市,昆明学院,102.7997,24.9786,2025-01-03T1400,25,32,0.5,11,8,88,50,36,
昆明市,晋宁区生态环境分局,102.5967,24.6736,2025-01-03T1400,29,,0.5,7,2,79,48,42,
昆明市,云天化总部,102.6678,24.9856,2025-01-03T1400,26,34,0.4,10,6,88,59,38,
拉萨市,八廓街,91.1319,29.6514,2025-01-03T1400,10,16,0.3,11,5,85,64,27,
拉萨市,市环保局,91.1221,29.6747,2025-01-03T1400,8,25,0.4,16,4,81,48,26,
拉萨市,区监测站,91.0874,29.6475,2025-01-03T1400,6,17,0.4,12,5,89,58,28,
拉萨市,西藏大学,91.1774,29.6541,2025-01-03T1400,6,23,0.3,6,4,83,67,26,
拉萨市,区辐射站,90.9798,29.6588,2025-01-03T1400,13,29,0.5,24,7,78,43,29,
拉萨市,拉萨火车站,91.0834,29.6292,2025-01-03T1400,8,18,0.5,14,4,87,48,28,
来宾市,来宾技工学校,109.2203,23.7256,2025-01-03T1400,,,,,,,107,,
来宾市,兴宾区政府,109.1781,23.7297,2025-01-03T1400,62,96,1.1,21,14,159,105,84,细颗粒物(PM2.5)
来宾市,中南小学,109.2416,23.7461,2025-01-03T1400,70,99,0.8,16,10,137,92,94,细颗粒物(PM2.5)
兰州市,兰炼宾馆,103.631,36.1031,2025-01-03T1400,75,126,1.6,82,61,50,26,100,细颗粒物(PM2.5)
兰州市,榆中兰大校区,104.1373,35.9454,2025-01-03T1400,,,,,,,,,
兰州市,生物制品所,103.8412,36.0726,2025-01-03T1400,72,118,2.6,,,15,11,,
兰州市,铁路设计院,103.831,36.0464,2025-01-03T1400,74,113,2.0,92,48,17,9,99,细颗粒物(PM2.5)
兰州市,教育港,103.7158,36.1058,2025-01-03T1400,57,91,1.2,56,68,44,18,78,细颗粒物(PM2.5)
兰州市,百合公园,103.7439,36.0842,2025-01-03T1400,54,93,1.5,60,60,37,18,74,细颗粒物(PM2.5)
兰州市,和平,103.9611,35.998,2025-01-03T1400,84,136,1.8,64,56,37,28,112,细颗粒物(PM2.5)
兰州新区,新区管委会,103.6633,36.533,2025-01-03T1400,33,43,0.4,22,27,70,40,48,
兰州新区,舟曲中学,103.6975,36.4789,2025-01-03T1400,28,50,0.4,16,27,77,40,50,
廊坊市,药材公司,116.6708,39.5111,2025-01-03T1400,16,30,0.4,25,3,62,34,30,
廊坊市,开发区,116.7214,39.5589,2025-01-03T1400,14,35,0.3,19,4,66,42,35,
廊坊市,北华航天学院,116.7244,39.5269,2025-01-03T1400,20,34,0.4,16,8,67,42,34,
廊坊市,河北工业大学,116.7022,39.5453,2025-01-03T1400,23,45,0.3,22,4,67,42,45,
乐山市,花湖湾,103.7723,29.5462,2025-01-03T1400,102,142,0.7,28,6,71,23,134,细颗粒物(PM2.5)
乐山市,牛耳桥,103.7627,29.5844,2025-01-03T1400,113,125,0.7,22,6,73,22,148,细颗粒物(PM2.5)
乐山市,市第三水厂,103.7508,29.6006,2025-01-03T1400,110,136,1.0,27,4,70,23,144,细颗粒物(PM2.5)
乐山市,市监测站,103.7571,29.5664,2025-01-03T1400,108,132,1.3,17,4,74,21,142,细颗粒物(PM2.5)
乐山市,理工大学,103.7311,29.5628,2025-01-03T1400,116,134,1.1,39,6,41,13,152,细颗粒物(PM2.5)
丽江市,西南郊,100.2143,26.8576,2025-01-03T1400,29,46,0.9,8,6,100,60,46,
丽江市,丽江古城,100.2497,26.8802,2025-01-03T1400,22,36,0.6,10,11,97,54,36,
丽江市,市中心,100.2203,26.8906,2025-01-03T1400,16,26,0.7,10,13,94,56,30,
丽水市,监测站大楼,119.914,28.4514,2025-01-03T1400,40,54,0.4,14,5,99,49,57,细颗粒物(PM2.5)
丽水市,莲都小学,119.93,28.4586,2025-01-03T1400,40,68,0.4,14,7,108,49,59,颗粒物(PM10)
丽水市,余庄前,119.879,28.4231,2025-01-03T1400,37,51,0.4,17,5,121,49,53,细颗粒物(PM2.5)
连云港市,市环境监测站,119.176,34.5885,2025-01-03T1400,31,56,0.8,30,11,66,34,53,颗粒物(PM10)
连云港市,德源药业,119.3581,34.6972,2025-01-03T1400,14,31,0.3,21,7,72,52,31,
连云港市,新城一中,119.178,34.844,2025-01-03T1400,9,51,0.5,17,8,82,52,51,颗粒物(PM10)
连云港市,胡沟管理处,119.3608,34.7519,2025-01-03T1400,17,36,0.7,15,8,77,66,36,
连云港市,矿山设计院,119.1478,34.5911,2025-01-03T1400,27,53,0.7,30,10,65,33,52,颗粒物(PM10)
连云港市,工贸学校,119.2413,34.6539,2025-01-03T1400,38,59,0.6,28,11,66,50,55,颗粒物(PM10)
连云港市,连云街道,119.4172,34.7341,2025-01-03T1400,24,38,0.5,27,7,66,51,38,
凉山彝族自治州,青龙寺,102.3431,27.8099,2025-01-03T1400,18,47,1.1,8,12,99,58,47,
凉山彝族自治州,邛海宾馆,102.2721,27.8415,2025-01-03T1400,36,55,1.0,13,17,89,50,53,颗粒物(PM10)
凉山彝族自治州,西昌市政府,102.2625,27.898,2025-01-03T1400,41,53,1.1,16,16,85,54,58,细颗粒物(PM2.5)
凉山彝族自治州,凉山州政府,102.2685,27.8851,2025-01-03T1400,37,54,0.9,15,17,88,50,53,细颗粒物(PM2.5)
凉山彝族自治州,长安,102.237,27.8914,2025-01-03T1400,39,66,0.8,25,15,73,36,58,颗粒物(PM10)
辽阳市,宏伟区,123.2,41.1953,2025-01-03T1400,25,55,0.5,12,16,64,37,53,颗粒物(PM10)
辽阳市,新华园,123.1683,41.2495,2025-01-03T1400,28,36,0.5,13,10,65,31,40,
辽阳市,滨河路,123.2354,41.2639,2025-01-03T1400,25,29,0.5,13,8,68,34,36,
辽阳市,铁西工业园,123.149,41.2991,2025-01-03T1400,22,36,0.6,11,8,71,33,36,
辽源市,环保局,125.1358,42.8845,2025-01-03T1400,6,14,0.5,8,8,66,40,21,
辽源市,银鹰制药,125.0764,42.9078,2025-01-03T1400,9,15,0.4,9,9,65,37,21,
聊城市,区政府,115.9848,36.4372,2025-01-03T1400,19,45,0.8,18,15,76,36,45,
聊城市,聊大东校,116.0072,36.4343,2025-01-03T1400,28,53,0.8,21,14,72,32,52,颗粒物(PM10)
聊城市,监控中心,115.9819,36.4978,2025-01-03T1400,31,69,0.9,28,16,69,33,60,颗粒物(PM10)
聊城市,九州社区,116.0445,36.4361,2025-01-03T1400,30,49,0.6,16,11,77,34,49,
聊城市,星美广场,116.0567,36.4608,2025-01-03T1400,25,55,0.7,19,13,81,47,53,颗粒物(PM10)
林芝市,林芝监测站,94.3681,29.6376,2025-01-03T1400,3,11,0.2,4,7,85,66,27,
林芝市,林芝人民医院,94.3616,29.6616,2025-01-03T1400,,,,,6,76,57,,
临沧市,市环保局,100.0781,23.8982,2025-01-03T1400,9,30,0.4,9,9,76,33,30,
临沧市,市气象局,100.0894,23.8822,2025-01-03T1400,18,32,0.4,9,9,71,32,32,
临汾市,临钢医院,111.5531,36.0783,2025-01-03T1400,51,87,1.2,39,47,47,20,70,细颗粒物(PM2.5)
临汾市,技工学校,111.5028,36.0714,2025-01-03T1400,46,92,1.1,36,48,43,8,71,颗粒物(PM10)
临汾市,市委,111.5018,36.0855,2025-01-03T1400,39,96,1.2,37,46,49,24,73,颗粒物(PM10)
临汾市,唐尧大酒店,111.505,36.1014,2025-01-03T1400,50,84,1.0,36,46,44,20,69,细颗粒物(PM2.5)
临汾市,城南,111.5036,36.0414,2025-01-03T1400,30,70,1.2,40,44,47,19,60,颗粒物(PM10)
临夏回族自治州,环保局,103.2069,35.5993,2025-01-03T1400,45,84,0.9,19,24,66,30,67,颗粒物(PM10)
临夏回族自治州,建设大厦,103.2417,35.6057,2025-01-03T1400,69,82,1.4,24,21,73,37,93,细颗粒物(PM2.5)
临沂市,沂河小区,118.3429,35.0532,2025-01-03T1400,34,46,0.5,29,13,76,49,49,
临沂市,鲁南制药厂,118.295,35.0583,2025-01-03T1400,23,53,0.5,28,11,75,44,52,颗粒物(PM10)
临沂市,新光毛纺厂,118.2794,34.9976,2025-01-03T1400,25,34,0.5,20,9,77,40,36,
临沂市,河东保险公司,118.3956,35.0888,2025-01-03T1400,13,34,0.5,14,8,83,45,34,
临沂市,十里堡居委,118.3564,35.0215,2025-01-03T1400,24,44,0.8,24,11,80,49,44,
临沂市,南坊新区,118.3604,35.1084,2025-01-03T1400,19,39,0.4,27,7,83,48,39,
临沂市,皇山花园小区,118.3920,35.0300,2025-01-03T1400,24,41,0.8,27,7,78,38,41,
柳州市,柳东小学,109.4856,24.3895,2025-01-03T1400,67,71,0.4,17,14,138,110,90,细颗粒物(PM2.5)
柳州市,环保监测站,109.4157,24.3277,2025-01-03T1400,74,95,0.8,16,15,139,104,99,细颗粒物(PM2.5)
柳州市,河西水厂,109.389,24.341,2025-01-03T1400,63,105,0.7,20,12,139,98,85,细颗粒物(PM2.5)
柳州市,市四中,109.4311,24.2921,2025-01-03T1400,61,77,1.2,14,12,141,110,83,细颗粒物(PM2.5)
柳州市,市九中,109.4006,24.3631,2025-01-03T1400,79,92,0.8,15,10,141,104,105,细颗粒物(PM2.5)
柳州市,古亭山,109.4958,24.3134,2025-01-03T1400,,,,15,15,134,115,,
柳州市,市二中,109.5422,24.3996,2025-01-03T1400,46,63,0.6,15,13,122,90,64,细颗粒物(PM2.5)
六安市,监测大楼,116.5079,31.737,2025-01-03T1400,173,198,1.2,34,12,98,33,223,细颗粒物(PM2.5)
六安市,皖西学院,116.4738,31.7643,2025-01-03T1400,161,211,1.4,39,10,102,35,211,细颗粒物(PM2.5)
六安市,朝阳厂,116.4996,31.7905,2025-01-03T1400,170,187,1.4,37,7,96,33,220,细颗粒物(PM2.5)
六安市,开发区,116.5567,31.7886,2025-01-03T1400,150,221,1.3,36,10,100,34,200,细颗粒物(PM2.5)
六盘水市,窑上,104.8,26.5892,2025-01-03T1400,22,46,1.0,10,17,74,41,46,
六盘水市,黄土坡,104.83,26.5917,2025-01-03T1400,35,,,10,14,69,40,,
六盘水市,水钢,104.89,26.5939,2025-01-03T1400,40,49,0.9,15,10,71,54,57,细颗粒物(PM2.5)
六盘水市,民中,104.8475,26.5894,2025-01-03T1400,22,34,0.8,13,10,72,39,34,
六盘水市,双水,104.9544,26.5506,2025-01-03T1400,33,53,0.8,15,11,79,56,52,颗粒物(PM10)
龙岩市,龙岩师专,117.0189,25.1181,2025-01-03T1400,,,,,,,,,
龙岩市,龙岩市监测站,117.0217,25.1033,2025-01-03T1400,29,42,0.6,14,7,124,78,42,
龙岩市,闽西职业技术学院,117.0258,25.0661,2025-01-03T1400,30,45,0.6,8,5,121,64,45,
龙岩市,龙岩学院,117.0196,25.0306,2025-01-03T1400,25,41,0.5,9,5,124,71,41,
陇南市,汉王镇固水子,105.0822,33.3261,2025-01-03T1400,,,,,,,,,
陇南市,滨江中学,104.9339,33.3826,2025-01-03T1400,23,43,0.8,20,10,76,32,43,
陇南市,市总工会,104.955,33.371,2025-01-03T1400,43,61,0.5,24,,76,41,,
娄底市,电视发射台,111.9589,27.8901,2025-01-03T1400,114,122,0.9,28,13,137,99,149,细颗粒物(PM2.5)
娄底市,市监测站,111.9975,27.725,2025-01-03T1400,123,169,0.8,22,14,156,111,162,细颗粒物(PM2.5)
娄底市,市委党校,112.0194,27.7314,2025-01-03T1400,132,183,0.9,37,14,146,105,175,细颗粒物(PM2.5)
娄底市,涟钢,111.9561,27.7569,2025-01-03T1400,109,145,0.8,20,19,139,74,143,细颗粒物(PM2.5)
娄底市,市政府,111.9892,27.7044,2025-01-03T1400,120,163,0.7,25,14,148,78,158,细颗粒物(PM2.5)
泸州市,九狮山,105.4324,28.9634,2025-01-03T1400,,,,,,,,,
泸州市,小市上码头,105.4427,28.9063,2025-01-03T1400,102,127,0.7,22,5,88,35,134,细颗粒物(PM2.5)
泸州市,兰田宪桥,105.4241,28.8573,2025-01-03T1400,100,118,0.8,21,5,83,34,132,细颗粒物(PM2.5)
泸州市,市环监站,105.4379,28.8833,2025-01-03T1400,75,115,0.7,20,6,77,27,100,细颗粒物(PM2.5)
泸州市,纳溪区环保局,105.3617,28.7703,2025-01-03T1400,98,122,1.1,27,6,69,24,129,细颗粒物(PM2.5)
吕梁市,环保局,111.1406,37.5211,2025-01-03T1400,22,51,0.6,39,8,26,17,51,颗粒物(PM10)
吕梁市,自来水公司,111.1297,37.5136,2025-01-03T1400,16,62,0.6,41,10,23,20,56,颗粒物(PM10)
吕梁市,马茂庄小学,111.1283,37.51,2025-01-03T1400,20,65,0.4,42,13,24,19,58,颗粒物(PM10)
洛阳市,市委党校,112.3931,34.6516,2025-01-03T1400,90,158,,45,,50,17,119,细颗粒物(PM2.5)
洛阳市,豫西宾馆,112.4657,34.6871,2025-01-03T1400,105,179,1.0,55,14,45,20,138,细颗粒物(PM2.5)
洛阳市,河南林校,112.494,34.6886,2025-01-03T1400,142,181,1.2,62,12,39,19,189,细颗粒物(PM2.5)
洛阳市,开发区管委会,112.3844,34.623,2025-01-03T1400,124,182,1.2,46,17,52,19,163,细颗粒物(PM2.5)
洛阳市,市委新办公区,112.4267,34.6258,2025-01-03T1400,104,176,1.1,43,14,56,23,137,细颗粒物(PM2.5)
洛阳市,伊滨,112.6005,34.6326,2025-01-03T1400,97,203,1.0,49,11,50,20,128,细颗粒物(PM2.5)
洛阳市,中移产业园,112.4951,34.6332,2025-01-03T1400,112,155,1.1,53,14,47,22,147,细颗粒物(PM2.5)
洛阳市,吉利监测站,112.5736,34.8993,2025-01-03T1400,88,132,0.8,38,13,52,21,117,细颗粒物(PM2.5)
洛阳市,河科大西苑校区,112.3677,34.662,2025-01-03T1400,103,166,1.2,48,18,54,19,135,细颗粒物(PM2.5)
洛阳市,英才小学,112.4388,34.6781,2025-01-03T1400,94,161,1.0,52,13,39,12,124,细颗粒物(PM2.5)
漯河市,三五一五工厂,114.051,33.5699,2025-01-03T1400,116,161,1.0,33,15,62,27,152,细颗粒物(PM2.5)
漯河市,漯河大学,114.0055,33.5698,2025-01-03T1400,110,157,1.0,32,14,70,32,144,细颗粒物(PM2.5)
漯河市,市水利局,114.0138,33.5828,2025-01-03T1400,110,168,0.9,31,15,66,27,144,细颗粒物(PM2.5)
漯河市,市广电局,114.0261,33.5698,2025-01-03T1400,117,159,0.9,28,14,68,30,153,细颗粒物(PM2.5)
漯河市,市图书馆,113.9749,33.5664,2025-01-03T1400,97,168,0.9,33,12,71,22,128,细颗粒物(PM2.5)
漯河市,召陵区卫健委,114.0967,33.5906,2025-01-03T1400,106,149,0.8,37,15,63,25,139,细颗粒物(PM2.5)
马鞍山市,湖东路四小,118.5092,31.6837,2025-01-03T1400,50,94,0.7,25,4,101,56,72,颗粒物(PM10)
马鞍山市,开发区,118.5024,31.6449,2025-01-03T1400,67,92,0.7,19,9,102,60,90,细颗粒物(PM2.5)
马鞍山市,慈湖,118.5228,31.7231,2025-01-03T1400,65,91,0.8,20,8,99,55,88,细颗粒物(PM2.5)
马鞍山市,濮塘,118.6245,31.7241,2025-01-03T1400,53,85,,24,8,107,61,,
马鞍山市,雨山,118.4918,31.6809,2025-01-03T1400,60,101,0.8,18,8,99,57,82,细颗粒物(PM2.5)
茂名市,电白南海,111.0286,21.4688,2025-01-03T1400,34,75,0.7,26,8,138,89,63,颗粒物(PM10)
茂名市,茂石化七小,110.9294,21.6533,2025-01-03T1400,22,48,0.5,11,9,128,84,48,
茂名市,健康路,110.9107,21.6687,2025-01-03T1400,31,46,0.7,10,12,134,87,46,
茂名市,高岭,110.8592,21.6828,2025-01-03T1400,34,48,0.7,13,16,134,77,49,
茂名市,电白水东,111.01,21.5165,2025-01-03T1400,44,68,0.7,13,20,137,94,62,细颗粒物(PM2.5)
眉山市,黑龙滩水库,104.0308,30.0478,2025-01-03T1400,86,129,1.0,10,5,108,52,114,细颗粒物(PM2.5)
眉山市,气象局,103.8416,30.0874,2025-01-03T1400,95,,0.7,24,6,91,26,125,细颗粒物(PM2.5)
眉山市,市委党校,103.8578,30.0744,2025-01-03T1400,95,119,0.5,31,8,86,28,125,细颗粒物(PM2.5)
眉山市,区人社局,103.8291,30.0564,2025-01-03T1400,100,,0.7,32,10,88,26,132,细颗粒物(PM2.5)
梅州市,梅江月梅,116.1231,24.3284,2025-01-03T1400,42,54,0.6,18,13,136,79,59,细颗粒物(PM2.5)
梅州市,梅县新城,116.0797,24.2719,2025-01-03T1400,40,70,,17,9,134,62,,
梅州市,环境监控中心,116.1248,24.2654,2025-01-03T1400,42,62,0.8,16,9,132,59,59,细颗粒物(PM2.5)
梅州市,梅龙,116.1233,24.2991,2025-01-03T1400,37,56,0.7,19,10,126,63,53,"颗粒物(PM10),细颗粒物(PM2.5)"
绵阳市,富乐山,104.7778,31.4741,2025-01-03T1400,91,114,0.9,22,4,92,33,120,细颗粒物(PM2.5)
绵阳市,市人大,104.7563,31.4535,2025-01-03T1400,105,130,1.0,23,1,82,24,138,细颗粒物(PM2.5)
绵阳市,高新区自来水公司,104.6697,31.4668,2025-01-03T1400,117,144,0.6,26,4,81,25,153,细颗粒物(PM2.5)
绵阳市,三水厂,104.7287,31.5075,2025-01-03T1400,99,138,0.9,26,6,89,24,130,细颗粒物(PM2.5)
绵阳市,西科大附属小学,104.69,31.5322,2025-01-03T1400,137,186,0.8,24,7,,17,182,细颗粒物(PM2.5)
绵阳市,安州区旅游局,104.5648,31.5343,2025-01-03T1400,127,,1.0,27,10,82,30,168,细颗粒物(PM2.5)
牡丹江市,环保大楼,129.61,44.561,2025-01-03T1400,38,44,0.5,19,10,48,29,54,细颗粒物(PM2.5)
牡丹江市,文化广场,129.6115,44.5782,2025-01-03T1400,33,47,0.8,20,12,51,30,48,
牡丹江市,第一医院,129.5904,44.5963,2025-01-03T1400,46,54,0.4,17,9,51,31,64,细颗粒物(PM2.5)
牡丹江市,机车工厂,129.6364,44.6075,2025-01-03T1400,24,39,0.6,21,10,49,30,39,
牡丹江市,第一中学,129.6386,44.5462,2025-01-03T1400,23,43,0.5,12,8,55,29,43,
内江市,市监测站,105.0703,29.61,2025-01-03T1400,90,95,0.7,18,6,108,44,119,细颗粒物(PM2.5)
内江市,东兴区政府,105.0717,29.5947,2025-01-03T1400,77,,0.8,20,5,93,32,103,细颗粒物(PM2.5)
内江市,内江二中,105.0653,29.5817,2025-01-03T1400,92,,0.9,20,10,98,33,122,细颗粒物(PM2.5)
内江市,内江日报社,105.0406,29.5822,2025-01-03T1400,102,,0.9,22,11,93,27,134,细颗粒物(PM2.5)
那曲市,那曲监测站,92.0657,31.4846,2025-01-03T1400,26,55,0.5,6,7,81,48,53,颗粒物(PM10)
那曲市,那曲会议中心,92.0506,31.4797,2025-01-03T1400,3,17,0.3,2,2,84,45,27,
南昌市,省外办,115.8931,28.6843,2025-01-03T1400,124,162,1.0,36,11,121,76,163,细颗粒物(PM2.5)
南昌市,省林业公司,115.8886,28.7003,2025-01-03T1400,110,158,0.9,43,12,123,76,144,细颗粒物(PM2.5)
南昌市,林科所,115.8126,28.7442,2025-01-03T1400,114,173,1.2,37,18,132,92,149,细颗粒物(PM2.5)
南昌市,建工学校,115.8518,28.687,2025-01-03T1400,128,197,1.1,33,16,123,81,169,细颗粒物(PM2.5)
南昌市,象湖,115.8921,28.6424,2025-01-03T1400,121,164,1.0,34,14,130,84,159,细颗粒物(PM2.5)
南昌市,武术学校,115.7423,28.7996,2025-01-03T1400,94,168,1.1,28,5,119,62,124,细颗粒物(PM2.5)
南昌市,省站,115.9314,28.6842,2025-01-03T1400,119,198,0.9,,12,117,74,156,细颗粒物(PM2.5)
南昌市,机电学校,115.9084,28.6062,2025-01-03T1400,119,179,1.0,29,19,123,81,156,细颗粒物(PM2.5)
南昌市,外国语学校,115.9721,28.7031,2025-01-03T1400,134,174,0.9,31,11,114,72,178,细颗粒物(PM2.5)
南充市,西山风景区,106.056,30.8064,2025-01-03T1400,150,,1.1,20,1,52,23,200,细颗粒物(PM2.5)
南充市,南充市委,106.0789,30.8023,2025-01-03T1400,174,195,0.9,32,4,48,13,224,细颗粒物(PM2.5)
南充市,南充炼油厂,106.1031,30.8217,2025-01-03T1400,167,169,0.9,26,4,48,15,217,细颗粒物(PM2.5)
南充市,高坪区监测站,106.1064,30.7856,2025-01-03T1400,155,193,0.8,31,3,34,9,205,细颗粒物(PM2.5)
南充市,嘉陵区环保局,106.0642,30.7636,2025-01-03T1400,158,180,1.0,30,4,52,13,208,细颗粒物(PM2.5)
南充市,市环境监测站,106.1087,30.8388,2025-01-03T1400,135,182,0.8,22,6,58,21,179,细颗粒物(PM2.5)
南京市,迈皋桥,118.8086,32.1065,2025-01-03T1400,44,84,0.5,42,9,92,53,67,颗粒物(PM10)
南京市,草场门,118.7538,32.0551,2025-01-03T1400,44,88,0.4,21,9,94,59,69,颗粒物(PM10)
南京市,山西路,118.7794,32.0745,2025-01-03T1400,53,102,0.7,20,5,94,63,76,颗粒物(PM10)
南京市,中华门,118.7752,32.0023,2025-01-03T1400,41,88,0.6,26,10,83,55,69,颗粒物(PM10)
南京市,瑞金路,118.8109,32.0309,2025-01-03T1400,48,88,0.7,,6,76,54,,
南京市,玄武湖,118.7997,32.0754,2025-01-03T1400,48,90,0.7,22,10,84,50,70,颗粒物(PM10)
南京市,浦口,118.6414,32.0931,2025-01-03T1400,48,95,0.8,23,9,81,55,73,颗粒物(PM10)
南京市,奥体中心,118.7356,31.9996,2025-01-03T1400,46,89,0.6,37,11,89,65,70,颗粒物(PM10)
南京市,仙林大学城,118.9125,32.1028,2025-01-03T1400,51,97,0.6,27,9,84,51,74,颗粒物(PM10)
南京市,江宁彩虹桥,118.8436,31.9198,2025-01-03T1400,41,93,0.5,17,8,91,62,72,颗粒物(PM10)
南京市,溧水永阳,119.0138,31.6494,2025-01-03T1400,51,80,0.3,24,4,95,54,70,细颗粒物(PM2.5)
南京市,高淳老职中,118.879,31.3302,2025-01-03T1400,58,75,0.5,24,8,94,58,79,细颗粒物(PM2.5)
南京市,六合雄州,118.8554,32.3578,2025-01-03T1400,44,72,0.8,13,4,85,47,62,细颗粒物(PM2.5)
南宁市,二十一中,108.3103,22.7881,2025-01-03T1400,54,77,1.0,22,8,132,47,74,细颗粒物(PM2.5)
南宁市,北湖,108.3141,22.8528,2025-01-03T1400,52,61,0.7,16,10,132,52,72,细颗粒物(PM2.5)
南宁市,市监测站,108.3206,22.8225,2025-01-03T1400,54,78,0.8,21,13,131,50,74,细颗粒物(PM2.5)
南宁市,大自然花园,108.3829,22.8037,2025-01-03T1400,,,,,,,131,,
南宁市,仙葫,108.4394,22.7904,2025-01-03T1400,54,67,0.7,16,8,124,83,74,细颗粒物(PM2.5)
南宁市,区农职院,108.2397,22.8467,2025-01-03T1400,52,73,0.9,22,14,140,58,72,细颗粒物(PM2.5)
南宁市,英华嘉园,108.3275,22.735,2025-01-03T1400,50,84,0.9,20,10,138,61,69,细颗粒物(PM2.5)
南宁市,沙井镇街道办,108.2257,22.7757,2025-01-03T1400,69,94,1.0,38,7,121,48,93,细颗粒物(PM2.5)
南宁市,红星社区,108.4834,22.7618,2025-01-03T1400,48,69,0.8,14,13,138,104,67,细颗粒物(PM2.5)
南平市,茫荡山,118.0966,26.6761,2025-01-03T1400,,,,,,,,,
南平市,南平市监测站,118.1681,26.6369,2025-01-03T1400,29,40,0.4,13,5,115,54,42,
南平市,南平铝业有限公司,118.1825,26.6489,2025-01-03T1400,24,48,0.4,11,5,114,55,48,
南平市,南平七中,118.1756,26.6272,2025-01-03T1400,34,51,0.4,11,3,114,50,51,颗粒物(PM10)
南通市,狼山街道,120.9098,31.9663,2025-01-03T1400,43,69,0.6,10,6,94,66,60,"颗粒物(PM10),细颗粒物(PM2.5)"
南通市,虹桥,120.86,32.0005,2025-01-03T1400,42,67,0.6,14,6,93,63,59,"颗粒物(PM10),细颗粒物(PM2.5)"
南通市,城中,120.87,32.02,2025-01-03T1400,36,65,0.4,18,8,94,66,58,颗粒物(PM10)
南通市,星湖花园,120.94,31.93,2025-01-03T1400,47,75,0.7,15,6,93,62,65,细颗粒物(PM2.5)
南通市,紫琅学院,120.81,32.0417,2025-01-03T1400,37,56,0.6,16,4,97,53,53,"颗粒物(PM10),细颗粒物(PM2.5)"
南通市,通州监测站,121.067,32.062,2025-01-03T1400,29,58,0.6,16,3,101,61,54,颗粒物(PM10)
南通市,环境教育馆,120.9348,31.9883,2025-01-03T1400,34,61,0.5,14,5,105,66,56,颗粒物(PM10)
南阳市,瓦房庄,112.5224,33.0122,2025-01-03T1400,102,150,1.0,19,11,101,51,134,细颗粒物(PM2.5)
南阳市,汉画馆,112.5003,32.9735,2025-01-03T1400,93,137,0.8,28,11,90,48,123,细颗粒物(PM2.5)
南阳市,气象站,112.5573,33.027,2025-01-03T1400,88,144,0.9,18,11,100,52,117,细颗粒物(PM2.5)
南阳市,理工学院,112.5481,32.9689,2025-01-03T1400,90,124,0.9,23,11,87,47,119,细颗粒物(PM2.5)
南阳市,卧龙区政府,112.5234,32.9922,2025-01-03T1400,91,145,0.9,24,9,90,46,120,细颗粒物(PM2.5)
宁波市,区环保大楼,121.8358,29.911,2025-01-03T1400,30,66,0.5,28,10,87,56,58,颗粒物(PM10)
宁波市,万里学院,121.56,29.82,2025-01-03T1400,27,48,0.5,23,6,98,59,48,
宁波市,龙赛医院,121.713,29.9572,2025-01-03T1400,33,68,0.6,26,9,87,60,59,颗粒物(PM10)
宁波市,钱湖水厂,121.633,29.7733,2025-01-03T1400,24,46,0.6,21,7,109,52,46,
宁波市,太古小学,121.5856,29.8635,2025-01-03T1400,29,53,0.6,21,9,85,46,52,颗粒物(PM10)
宁波市,市环境监测中心,121.524,29.8674,2025-01-03T1400,26,49,0.5,18,9,99,51,49,
宁波市,万里国际学校,121.6147,29.9017,2025-01-03T1400,23,50,0.6,22,9,106,53,50,
宁波市,白沙活动中心,121.5594,29.8975,2025-01-03T1400,24,48,0.5,22,10,105,56,48,
宁德市,金涵水库,119.5001,26.6946,2025-01-03T1400,,,,,,,,,
宁德市,宁德市监测站,119.5388,26.6612,2025-01-03T1400,32,62,0.6,18,12,116,64,56,颗粒物(PM10)
宁德市,宁德一中,119.5231,26.6562,2025-01-03T1400,36,44,0.6,13,10,127,73,52,细颗粒物(PM2.5)
怒江傈僳族自治州,州监测站,98.8601,25.8567,2025-01-03T1400,,,,,,,,,
怒江傈僳族自治州,泸水一中,98.8546,25.8417,2025-01-03T1400,26,30,0.6,16,7,59,28,38,
攀枝花市,弄弄坪,101.6891,26.571,2025-01-03T1400,42,50,1.1,30,28,80,32,59,细颗粒物(PM2.5)
攀枝花市,河门口,101.5769,26.5928,2025-01-03T1400,45,60,2.3,32,38,96,42,63,细颗粒物(PM2.5)
攀枝花市,炳草岗,101.7169,26.585,2025-01-03T1400,36,55,1.6,35,38,79,26,53,颗粒物(PM10)
攀枝花市,仁和,101.7369,26.5008,2025-01-03T1400,50,73,1.7,30,40,104,38,69,细颗粒物(PM2.5)
攀枝花市,四十中小,101.7227,26.567,2025-01-03T1400,46,75,1.6,38,35,80,25,64,细颗粒物(PM2.5)
盘锦市,开发区,122.0303,41.1489,2025-01-03T1400,17,27,0.4,11,12,70,38,27,
盘锦市,兴隆台,122.0485,41.0883,2025-01-03T1400,15,29,0.4,10,17,70,39,29,
盘锦市,新生街道,121.8297,41.1028,2025-01-03T1400,20,38,0.6,16,18,76,45,38,
平顶山市,新华旅馆,113.3257,33.742,2025-01-03T1400,89,172,0.6,31,18,72,35,118,细颗粒物(PM2.5)
平顶山市,规划设计院,113.2919,33.737,2025-01-03T1400,121,187,0.7,,,68,30,159,细颗粒物(PM2.5)
平顶山市,平顶山工学院,113.182,33.774,2025-01-03T1400,100,182,1.1,38,4,56,30,132,细颗粒物(PM2.5)
平顶山市,规划局,113.3025,33.73,2025-01-03T1400,111,171,0.8,34,20,65,26,145,细颗粒物(PM2.5)
平顶山市,石龙区,112.8867,33.9116,2025-01-03T1400,83,143,1.1,27,15,72,37,110,细颗粒物(PM2.5)
平凉市,聚贤嘉苑,106.6692,35.5461,2025-01-03T1400,40,66,0.7,28,16,86,42,58,颗粒物(PM10)
平凉市,博物馆,106.7021,35.5307,2025-01-03T1400,51,91,0.8,43,16,80,41,71,颗粒物(PM10)
萍乡市,武功山,114.0997,27.5002,2025-01-03T1400,74,103,0.4,24,12,133,79,99,细颗粒物(PM2.5)
萍乡市,中医院,113.8385,27.6434,2025-01-03T1400,128,193,1.6,32,18,131,66,169,细颗粒物(PM2.5)
萍乡市,市政府车库,113.8493,27.6253,2025-01-03T1400,162,173,1.7,36,18,128,70,212,细颗粒物(PM2.5)
萍乡市,市环保局,113.8676,27.6435,2025-01-03T1400,169,217,1.6,39,20,125,69,219,细颗粒物(PM2.5)
萍乡市,安源区政府,113.866,27.6198,2025-01-03T1400,153,234,1.9,45,17,129,74,203,细颗粒物(PM2.5)
莆田市,荔城区仓后路,119.0141,25.4325,2025-01-03T1400,,,,,,,97,,
莆田市,莆田市监测站,119.0015,25.4553,2025-01-03T1400,15,41,0.4,10,4,121,103,41,
莆田市,涵江区六中,119.1119,25.4561,2025-01-03T1400,12,46,0.2,5,1,117,94,46,
莆田市,秀屿区政府,119.1013,25.3215,2025-01-03T1400,18,54,0.4,11,2,116,95,52,颗粒物(PM10)
莆田市,东圳水库,118.981,25.4792,2025-01-03T1400,,,,,,,,,
濮阳市,环保局,115.0312,35.7636,2025-01-03T1400,56,63,0.7,24,11,69,36,77,细颗粒物(PM2.5)
濮阳市,油田运输公司,115.0574,35.7609,2025-01-03T1400,50,84,0.7,26,11,66,33,69,细颗粒物(PM2.5)
濮阳市,油田物探公司,115.0866,35.7754,2025-01-03T1400,46,81,0.9,24,11,68,31,66,颗粒物(PM10)
濮阳市,濮水河管理处,115,35.7668,2025-01-03T1400,36,81,0.8,16,14,70,31,66,颗粒物(PM10)
普洱市,市环保局,100.98,22.7633,2025-01-03T1400,19,32,0.5,6,5,63,47,32,
普洱市,普洱第二中学,100.9817,22.8322,2025-01-03T1400,15,37,0.6,6,4,59,33,37,
七台河市,新一中,131.0518,45.8751,2025-01-03T1400,76,106,2.1,34,12,50,40,102,细颗粒物(PM2.5)
七台河市,中波台,131.0577,45.7879,2025-01-03T1400,64,92,0.9,32,13,42,25,87,细颗粒物(PM2.5)
七台河市,人民广场,131.0176,45.7761,2025-01-03T1400,59,96,0.9,41,8,34,23,80,细颗粒物(PM2.5)
七台河市,新建矿广场,130.8781,45.8222,2025-01-03T1400,65,119,1.0,53,16,27,18,88,细颗粒物(PM2.5)
齐齐哈尔市,安居小区,123.9305,47.3636,2025-01-03T1400,30,42,0.4,12,21,65,47,43,
齐齐哈尔市,中心广场,123.9488,47.3386,2025-01-03T1400,28,28,0.6,18,13,57,44,40,
齐齐哈尔市,农牧车辆厂,123.9483,47.3227,2025-01-03T1400,14,39,0.4,,13,58,34,,
齐齐哈尔市,市环境监测站,123.945,47.2988,2025-01-03T1400,35,52,0.4,16,10,58,37,51,颗粒物(PM10)
齐齐哈尔市,富区青少年活动中心,123.6333,47.2075,2025-01-03T1400,21,,0.3,10,7,65,44,30,
黔东南苗族侗族自治州,市环境监测站,107.9783,26.5747,2025-01-03T1400,69,89,0.7,19,6,121,90,93,细颗粒物(PM2.5)
黔东南苗族侗族自治州,凯里学院,107.8908,26.5311,2025-01-03T1400,59,75,0.6,13,6,135,94,80,细颗粒物(PM2.5)
黔南布依族苗族自治州,小围寨,107.5228,26.2403,2025-01-03T1400,34,53,0.7,14,9,110,78,52,颗粒物(PM10)
黔南布依族苗族自治州,沙坝,107.5175,26.2978,2025-01-03T1400,46,63,0.6,17,8,113,72,64,细颗粒物(PM2.5)
黔西南布依族苗族自治州,场坝街,104.9022,25.0925,2025-01-03T1400,48,53,0.8,22,7,47,46,67,细颗粒物(PM2.5)
黔西南布依族苗族自治州,坪东大道,104.8811,25.0992,2025-01-03T1400,50,,0.9,20,6,43,45,69,细颗粒物(PM2.5)
钦州市,市环保站,108.6236,21.9667,2025-01-03T1400,48,88,0.9,20,11,138,97,69,颗粒物(PM10)
钦州市,沙埠小学,108.6549,21.9481,2025-01-03T1400,40,90,0.7,22,11,142,98,70,颗粒物(PM10)
钦州市,港区一小,108.5989,21.7431,2025-01-03T1400,50,110,0.8,25,13,138,90,80,颗粒物(PM10)
钦州市,北职校,108.5959,21.9633,2025-01-03T1400,64,74,1.1,23,12,138,81,87,细颗粒物(PM2.5)
秦皇岛市,北戴河环保局,119.5134,39.8207,2025-01-03T1400,7,19,0.1,6,2,73,61,23,
秦皇岛市,第一关,119.7493,40.0116,2025-01-03T1400,3,9,0.3,8,2,73,63,23,
秦皇岛市,监测站,119.5897,39.9499,2025-01-03T1400,7,27,0.4,5,4,72,40,27,
秦皇岛市,建设大厦,119.5251,39.9041,2025-01-03T1400,12,28,0.3,10,4,73,44,28,
秦皇岛市,文明里,119.610547,39.943889,2025-01-03T1400,11,30,0.3,13,5,72,43,30,
青岛市,仰口,120.6659,36.2403,2025-01-03T1400,,,,,,,,,
青岛市,市南区东部子站,120.4134,36.0658,2025-01-03T1400,31,70,0.7,27,15,69,40,60,颗粒物(PM10)
青岛市,四方区子站,120.3664,36.1032,2025-01-03T1400,39,61,0.9,30,15,76,36,56,颗粒物(PM10)
青岛市,市南区西部子站,120.2994,36.054,2025-01-03T1400,29,46,0.8,25,14,71,44,46,
青岛市,崂山区子站,120.4581,36.0858,2025-01-03T1400,,,,,,,,,
青岛市,黄岛区子站,120.1983,35.9608,2025-01-03T1400,24,44,0.7,21,9,76,54,44,
青岛市,城阳区子站,120.3999,36.3083,2025-01-03T1400,32,63,0.9,24,12,72,37,57,颗粒物(PM10)
青岛市,黄岛区4号,120.0405,35.8735,2025-01-03T1400,17,39,0.7,21,10,80,53,39,
青岛市,即墨2号,120.5014,36.4034,2025-01-03T1400,32,69,0.8,26,12,66,32,60,颗粒物(PM10)
青岛市,市北区南部,120.3503,36.0736,2025-01-03T1400,34,81,0.8,32,12,75,38,66,颗粒物(PM10)
青岛市,李沧区北部,120.3948,36.1805,2025-01-03T1400,44,66,1.0,34,16,72,35,62,细颗粒物(PM2.5)
清远市,环保大楼,113.0426,23.691,2025-01-03T1400,38,57,0.8,8,8,141,119,54,"颗粒物(PM10),细颗粒物(PM2.5)"
清远市,凤城街办,113.0208,23.7106,2025-01-03T1400,42,53,0.7,14,11,136,122,59,细颗粒物(PM2.5)
清远市,技师学院,113.0477,23.6344,2025-01-03T1400,34,73,0.6,,10,136,96,,
清远市,清新太和,112.9903,23.7403,2025-01-03T1400,39,57,0.5,14,12,142,129,55,细颗粒物(PM2.5)
清远市,清城东城,113.076,23.7198,2025-01-03T1400,40,62,0.6,11,15,142,119,57,细颗粒物(PM2.5)
庆阳市,庆阳五中,107.6325,35.7357,2025-01-03T1400,36,60,0.7,16,8,88,68,55,颗粒物(PM10)
庆阳市,市环保局,107.6364,35.7067,2025-01-03T1400,28,61,0.6,32,33,76,66,56,颗粒物(PM10)
曲靖市,环境监测站,103.7897,25.5035,2025-01-03T1400,16,,0.7,9,5,82,40,26,
曲靖市,烟厂办公区,103.8,25.5364,2025-01-03T1400,15,26,0.2,8,4,74,41,26,
曲靖市,南苑二区,103.7947,25.462,2025-01-03T1400,16,34,0.6,7,4,82,44,34,
曲靖市,曲靖师范学院,103.7444,25.5261,2025-01-03T1400,27,,0.6,11,5,81,42,39,
衢州市,环保大楼,118.8692,28.9398,2025-01-03T1400,76,121,0.4,28,5,106,52,102,细颗粒物(PM2.5)
衢州市,实验学校,118.8709,28.9666,2025-01-03T1400,76,104,0.6,31,6,111,57,102,细颗粒物(PM2.5)
衢州市,衢州学院,118.8621,28.9808,2025-01-03T1400,73,107,,26,6,110,37,,
泉州市,涂山街,118.5819,24.9117,2025-01-03T1400,26,58,0.3,15,2,131,98,54,颗粒物(PM10)
泉州市,津头埔,118.5972,24.8978,2025-01-03T1400,26,57,0.3,17,3,130,98,54,颗粒物(PM10)
泉州市,万安,118.6663,24.9424,2025-01-03T1400,24,61,0.3,15,2,141,104,56,颗粒物(PM10)
泉州市,清源山,118.6117,24.9604,2025-01-03T1400,,,,,,,,,
泉州市,城华南路,118.6333,24.9264,2025-01-03T1400,26,59,0.3,16,4,125,96,55,颗粒物(PM10)
日喀则市,日喀则监测站,88.8876,29.2718,2025-01-03T1400,12,26,0.4,11,3,71,33,26,
日喀则市,林业技术推广中心,88.8781,29.2426,2025-01-03T1400,9,21,0.5,5,7,75,41,24,
日照市,监测站,119.471,35.4209,2025-01-03T1400,13,22,0.4,14,7,80,34,25,
日照市,市政府广场,119.523,35.4216,2025-01-03T1400,10,46,0.7,23,5,66,45,46,
日照市,港务局,119.5587,35.4044,2025-01-03T1400,11,27,0.5,20,1,75,39,27,
日照市,职业技术学院,119.5328,35.4625,2025-01-03T1400,12,29,0.4,19,6,76,41,29,
日照市,岚山环保分局,119.3266,35.1044,2025-01-03T1400,22,41,1.3,22,15,86,46,41,
三门峡市,市政府,111.1922,34.7752,2025-01-03T1400,105,136,1.1,31,17,78,47,138,细颗粒物(PM2.5)
三门峡市,开发区,111.1587,34.7942,2025-01-03T1400,106,177,1.0,28,12,73,43,139,细颗粒物(PM2.5)
三门峡市,风景区,111.143,34.7955,2025-01-03T1400,96,162,0.9,27,16,76,43,127,细颗粒物(PM2.5)
三门峡市,三门峡市第一小学,111.1911,34.7829,2025-01-03T1400,100,147,1.0,28,14,78,47,132,细颗粒物(PM2.5)
三门峡市,富达温泉假日酒店,111.1,34.7167,2025-01-03T1400,112,170,1.1,48,16,66,36,147,细颗粒物(PM2.5)
三明市,三钢,117.6211,26.2625,2025-01-03T1400,31,39,0.5,5,4,121,61,45,
三明市,三明二中,117.635,26.2714,2025-01-03T1400,33,52,0.4,12,3,118,59,51,颗粒物(PM10)
三明市,三元区政府,117.6028,26.2378,2025-01-03T1400,28,40,0.3,10,3,116,54,40,
三明市,洋溪,117.7275,26.3108,2025-01-03T1400,,,,,,,,,
三亚市,河东子站,109.5078,18.2489,2025-01-03T1400,25,37,0.5,6,6,131,112,41,
三亚市,河西子站,109.4964,18.2681,2025-01-03T1400,22,40,0.5,9,5,132,106,42,
三亚市,君悦子站,109.7348,18.3443,2025-01-03T1400,,,,,,,94,,
山南市,山南监测站,91.7608,29.2313,2025-01-03T1400,3,13,0.3,6,4,72,42,23,
山南市,山南人民医院,91.7706,29.2436,2025-01-03T1400,8,23,0.4,7,2,67,43,23,
汕头市,金平子站,116.6794,23.3667,2025-01-03T1400,44,67,0.8,18,7,139,89,62,细颗粒物(PM2.5)
汕头市,龙湖子站,116.7244,23.3633,2025-01-03T1400,36,64,0.7,16,5,145,100,57,颗粒物(PM10)
汕头市,濠江子站,116.7258,23.2775,2025-01-03T1400,57,58,1.0,14,5,148,106,78,细颗粒物(PM2.5)
汕头市,澄海子站,116.7519,23.4714,2025-01-03T1400,49,70,0.9,19,10,140,87,68,细颗粒物(PM2.5)
汕头市,潮阳子站,116.6092,23.2539,2025-01-03T1400,38,64,0.6,18,9,139,100,57,颗粒物(PM10)
汕头市,潮南峡山,116.454,23.2684,2025-01-03T1400,55,73,1.0,19,14,146,89,75,细颗粒物(PM2.5)
汕头市,潮南子站,116.4069,23.2533,2025-01-03T1400,51,86,0.9,25,13,143,84,70,细颗粒物(PM2.5)
汕尾市,市环保局,115.3653,22.775,2025-01-03T1400,,53,0.8,,10,128,104,,
汕尾市,市政府,115.3706,22.7898,2025-01-03T1400,42,54,0.6,9,12,123,100,59,细颗粒物(PM2.5)
汕尾市,新城中学,115.3622,22.7925,2025-01-03T1400,30,56,0.8,8,10,118,99,53,颗粒物(PM10)
商洛市,监测站,109.9154,33.8715,2025-01-03T1400,103,119,1.0,34,9,81,42,135,细颗粒物(PM2.5)
商洛市,商州区中学,109.9643,33.8471,2025-01-03T1400,107,,,29,,,24,140,细颗粒物(PM2.5)
商丘市,环境监测站,115.6702,34.4285,2025-01-03T1400,103,130,1.2,26,16,80,33,135,细颗粒物(PM2.5)
商丘市,粮食局,115.6458,34.4045,2025-01-03T1400,95,132,1.1,22,16,83,30,125,细颗粒物(PM2.5)
商丘市,睢阳区环保局,115.6293,34.3948,2025-01-03T1400,96,127,1.0,30,14,78,31,127,细颗粒物(PM2.5)
商丘市,梁园区档案局,115.6071,34.4465,2025-01-03T1400,99,137,1.1,25,12,85,34,130,细颗粒物(PM2.5)
上海市,普陀,121.4,31.238,2025-01-03T1400,38,85,0.9,30,10,87,58,68,颗粒物(PM10)
上海市,十五厂,121.478,31.2036,2025-01-03T1400,46,77,0.7,29,10,85,57,64,"颗粒物(PM10),细颗粒物(PM2.5)"
上海市,虹口,121.467,31.3008,2025-01-03T1400,38,69,1.0,28,8,84,52,60,颗粒物(PM10)
上海市,徐汇上师大,121.412,31.1654,2025-01-03T1400,55,77,0.6,26,7,96,67,75,细颗粒物(PM2.5)
上海市,杨浦四漂,121.536,31.2659,2025-01-03T1400,44,79,0.8,30,9,91,59,65,颗粒物(PM10)
上海市,静安监测站,121.425,31.2261,2025-01-03T1400,41,78,0.7,27,10,91,61,64,颗粒物(PM10)
上海市,浦东川沙,121.703,31.1907,2025-01-03T1400,39,73,0.5,23,6,97,60,62,颗粒物(PM10)
上海市,浦东新区监测站,121.533,31.2284,2025-01-03T1400,45,70,0.7,34,8,90,60,63,细颗粒物(PM2.5)
上海市,浦东张江,121.577,31.2071,2025-01-03T1400,38,69,0.8,24,9,100,72,60,颗粒物(PM10)
上海市,宝山庙行,121.4316,31.3322,2025-01-03T1400,41,77,1.1,25,11,87,58,64,颗粒物(PM10)
上海市,崇明上实东滩,121.8791,31.4662,2025-01-03T1400,20,38,0.5,11,8,,73,,
上海市,嘉定南翔,121.3162,31.2838,2025-01-03T1400,35,65,0.6,22,8,94,56,58,颗粒物(PM10)
上海市,金山新城,121.3359,30.7456,2025-01-03T1400,51,79,0.5,32,8,88,47,70,细颗粒物(PM2.5)
上海市,闵行浦江,121.4996,31.0739,2025-01-03T1400,46,100,0.7,31,7,94,56,75,颗粒物(PM10)
上海市,青浦徐泾,121.2886,31.1663,2025-01-03T1400,31,77,0.5,26,12,92,45,64,颗粒物(PM10)
上海市,松江图书馆,121.2186,31.0378,2025-01-03T1400,61,94,0.9,32,10,92,49,83,细颗粒物(PM2.5)
上海市,长宁仙霞,121.3902,31.2059,2025-01-03T1400,39,82,0.6,30,11,90,61,66,颗粒物(PM10)
上海市,浦东惠南,121.7965,31.0507,2025-01-03T1400,35,65,0.7,18,9,101,60,58,颗粒物(PM10)
上海市,奉贤南桥新城,121.4891,30.925,2025-01-03T1400,50,93,0.7,33,8,94,49,72,颗粒物(PM10)
上饶市,百草园,118.005,28.4572,2025-01-03T1400,37,63,0.3,16,3,112,62,57,颗粒物(PM10)
上饶市,市监测站,117.9756,28.4436,2025-01-03T1400,40,77,0.7,15,8,117,63,64,颗粒物(PM10)
上饶市,凤凰光学,117.9519,28.4628,2025-01-03T1400,34,71,0.8,17,9,115,62,61,颗粒物(PM10)
上饶市,广丰区教体局,118.1953,28.4401,2025-01-03T1400,37,66,0.6,17,7,113,63,58,颗粒物(PM10)
上饶市,双创科技城,117.897,28.4315,2025-01-03T1400,37,72,0.7,18,6,119,64,61,颗粒物(PM10)
韶关市,市八中,113.5824,24.7733,2025-01-03T1400,50,76,0.5,10,11,140,90,69,细颗粒物(PM2.5)
韶关市,园林处,113.5917,24.7972,2025-01-03T1400,49,54,0.5,12,11,149,97,68,细颗粒物(PM2.5)
韶关市,韶关学院,113.6735,24.7791,2025-01-03T1400,45,66,0.7,15,11,120,67,63,细颗粒物(PM2.5)
韶关市,曲江监测站,113.5971,24.6863,2025-01-03T1400,49,70,0.3,9,15,130,72,68,细颗粒物(PM2.5)
韶关市,碧湖山庄,113.5556,24.8082,2025-01-03T1400,44,72,0.5,9,13,131,89,62,细颗粒物(PM2.5)
邵阳市,市水土所,111.5239,27.3033,2025-01-03T1400,,,,,,,,,
邵阳市,市一中,111.4733,27.2317,2025-01-03T1400,107,107,0.7,20,16,149,80,140,细颗粒物(PM2.5)
邵阳市,市化工厂,111.5283,27.2442,2025-01-03T1400,98,134,0.7,17,14,148,94,129,细颗粒物(PM2.5)
邵阳市,市罐头厂,111.4503,27.2537,2025-01-03T1400,112,138,0.8,13,16,149,74,147,细颗粒物(PM2.5)
邵阳市,市环保局,111.4328,27.2272,2025-01-03T1400,100,106,0.7,13,15,149,87,132,细颗粒物(PM2.5)
绍兴市,城东开发委,120.6053,29.9928,2025-01-03T1400,56,82,0.7,31,10,100,42,77,细颗粒物(PM2.5)
绍兴市,树下王站,120.5483,30.0003,2025-01-03T1400,64,90,0.6,38,7,87,43,87,细颗粒物(PM2.5)
绍兴市,绍兴中专,120.5683,29.9361,2025-01-03T1400,58,80,0.6,32,9,99,42,79,细颗粒物(PM2.5)
绍兴市,柯桥区政府,120.4906,30.0861,2025-01-03T1400,46,77,0.6,36,10,90,44,64,"颗粒物(PM10),细颗粒物(PM2.5)"
绍兴市,重华小学,120.8752,30.0249,2025-01-03T1400,32,44,0.6,19,12,114,46,46,
绍兴市,上虞中学,120.8369,30.0137,2025-01-03T1400,32,45,0.6,18,10,106,41,46,
绍兴市,柯桥妇保,120.4722,30.0415,2025-01-03T1400,47,77,0.7,31,8,85,43,65,细颗粒物(PM2.5)
绍兴市,袍江中学,120.6153,30.0764,2025-01-03T1400,54,80,0.6,35,12,97,43,74,细颗粒物(PM2.5)
深圳市,通心岭子站,114.1063,22.5545,2025-01-03T1400,32,61,0.7,18,9,140,104,56,颗粒物(PM10)
深圳市,洪湖,114.117,22.5625,2025-01-03T1400,39,68,0.6,21,8,134,103,59,颗粒物(PM10)
深圳市,华侨城,113.987,22.5417,2025-01-03T1400,36,64,0.6,23,7,139,96,57,颗粒物(PM10)
深圳市,南海子站,113.9181,22.5171,2025-01-03T1400,34,76,0.5,25,8,147,113,63,颗粒物(PM10)
深圳市,盐田,114.2458,22.5689,2025-01-03T1400,36,78,0.6,25,10,134,107,64,颗粒物(PM10)
深圳市,龙岗,114.2283,22.7244,2025-01-03T1400,36,61,0.6,20,10,150,118,56,颗粒物(PM10)
深圳市,南澳,114.494,22.5422,2025-01-03T1400,33,49,0.6,10,12,152,124,49,
深圳市,葵涌,114.41,22.6342,2025-01-03T1400,33,56,0.7,17,9,149,128,53,颗粒物(PM10)
深圳市,梅沙,114.297,22.5978,2025-01-03T1400,36,63,0.7,20,11,149,129,57,颗粒物(PM10)
深圳市,观澜,114.0678,22.738,2025-01-03T1400,,,0.4,,7,132,99,,
深圳市,莲花,114.0731,22.559,2025-01-03T1400,36,60,0.6,20,10,132,96,55,颗粒物(PM10)
深圳市,民治,114.0261,22.6198,2025-01-03T1400,41,70,0.5,22,8,126,95,60,颗粒物(PM10)
深圳市,横岗,114.1871,22.6451,2025-01-03T1400,39,64,0.6,18,9,141,108,57,颗粒物(PM10)
深圳市,坪山,114.3551,22.7151,2025-01-03T1400,39,72,0.5,22,9,144,120,61,颗粒物(PM10)
深圳市,西乡,113.8953,22.5861,2025-01-03T1400,3,61,0.4,19,9,142,109,56,颗粒物(PM10)
沈阳市,森林路,123.6836,41.9339,2025-01-03T1400,,,,,,,,,
沈阳市,浑南东路,123.505,41.7406,2025-01-03T1400,31,46,0.4,18,10,62,31,46,
沈阳市,新秀街,123.4231,41.6989,2025-01-03T1400,17,24,0.4,11,10,60,32,25,
沈阳市,东陵路,123.5903,41.8411,2025-01-03T1400,15,23,0.4,15,12,58,25,23,
沈阳市,陵东街,123.4264,41.8467,2025-01-03T1400,11,24,0.5,13,12,61,39,24,
沈阳市,文化路,123.4114,41.7653,2025-01-03T1400,7,20,0.4,15,5,61,36,20,
沈阳市,小河沿,123.4678,41.7867,2025-01-03T1400,13,30,0.5,18,15,58,31,30,
沈阳市,太原街,123.4017,41.7972,2025-01-03T1400,15,17,1.0,15,19,62,35,22,
沈阳市,京沈街,123.3783,41.9228,2025-01-03T1400,12,18,0.3,8,11,64,36,20,
沈阳市,沈辽西路,123.2444,41.7347,2025-01-03T1400,12,15,0.4,11,9,67,34,21,
沈阳市,裕农路,123.5953,41.9086,2025-01-03T1400,18,,0.5,16,10,59,34,26,
十堰市,武当山,111.0419,32.395,2025-01-03T1400,55,89,0.9,26,14,101,97,75,细颗粒物(PM2.5)
十堰市,滨河新村,110.78,32.6494,2025-01-03T1400,120,142,1.2,28,12,77,34,158,细颗粒物(PM2.5)
十堰市,刘家沟,110.7258,32.6389,2025-01-03T1400,,,,,,,46,,
十堰市,铁二处,110.8839,32.5714,2025-01-03T1400,146,,1.1,29,16,81,34,195,细颗粒物(PM2.5)
十堰市,郧阳区金沙路,110.8054,32.8401,2025-01-03T1400,126,,1.1,16,8,67,45,166,细颗粒物(PM2.5)
石河子市,艾青诗歌馆,86.0497,44.2967,2025-01-03T1400,,,1.1,24,15,,70,,
石河子市,南区管委会,86.047,44.2331,2025-01-03T1400,93,184,1.1,9,8,87,78,123,细颗粒物(PM2.5)
石河子市,世纪广场,86.0791,44.3017,2025-01-03T1400,86,223,1.0,33,11,69,52,137,颗粒物(PM10)
石家庄市,职工医院,114.4422,38.0444,2025-01-03T1400,16,47,0.6,38,10,48,28,47,
石家庄市,高新区,114.6063,38.0266,2025-01-03T1400,25,39,0.6,27,8,56,27,39,
石家庄市,西北水源,114.4898,38.1328,2025-01-03T1400,7,42,0.5,16,12,53,22,42,
石家庄市,西南高教,114.4586,38.0058,2025-01-03T1400,27,54,0.4,27,11,55,30,52,颗粒物(PM10)
石家庄市,世纪公园,114.5331,38.0178,2025-01-03T1400,22,46,0.6,31,7,46,28,46,
石家庄市,人民会堂,114.509,38.0457,2025-01-03T1400,15,36,0.5,28,8,51,31,36,
石家庄市,封龙山,114.3524,37.8911,2025-01-03T1400,22,36,0.5,17,14,69,71,36,
石家庄市,22中南校区,114.5481,38.0378,2025-01-03T1400,14,50,0.6,32,8,51,31,50,
石家庄市,鹿泉一中,114.289,38.0906,2025-01-03T1400,25,46,0.5,30,12,56,37,46,
石家庄市,藁城区实验学校,114.8506765,38.0322033,2025-01-03T1400,15,45,0.7,29,8,52,23,45,
石家庄市,井陉矿区区委大楼,114.0504658,38.0591645,2025-01-03T1400,14,39,0.5,35,14,51,27,39,
石家庄市,栾城区星河路,114.6549,37.9020,2025-01-03T1400,26,46,0.6,21,11,60,24,46,
石嘴山市,沙湖旅游区,106.3394,38.817,2025-01-03T1400,,,,,,,,,
石嘴山市,大武口朝阳西街,106.3668,39.0145,2025-01-03T1400,33,76,1.1,22,54,52,30,63,颗粒物(PM10)
石嘴山市,惠农南大街,106.7704,39.2282,2025-01-03T1400,34,74,1.2,38,33,46,24,62,颗粒物(PM10)
石嘴山市,红果子镇惠新街,106.7099,39.1325,2025-01-03T1400,41,78,0.9,31,38,56,32,64,颗粒物(PM10)
石嘴山市,妇女儿童医院,106.3495,38.9836,2025-01-03T1400,,,1.3,27,,58,35,,
石嘴山市,石大公路,106.7492,39.2069,2025-01-03T1400,66,,1.9,37,40,54,32,,
双鸭山市,双合村,131.1511,46.6937,2025-01-03T1400,84,,0.6,25,16,,38,112,细颗粒物(PM2.5)
双鸭山市,南小市,131.1652,46.6191,2025-01-03T1400,64,85,0.6,35,23,33,38,87,细颗粒物(PM2.5)
双鸭山市,环保局,131.1524,46.6554,2025-01-03T1400,64,66,0.9,40,16,32,31,87,细颗粒物(PM2.5)
双鸭山市,苗圃,131.12,46.5656,2025-01-03T1400,3,14,0.4,10,9,73,62,23,
朔州市,平朔,112.4397,39.3522,2025-01-03T1400,6,42,0.8,15,11,68,30,42,
朔州市,朔唯,112.4575,39.3617,2025-01-03T1400,3,32,0.5,14,9,66,32,32,
朔州市,区政府,112.4258,39.3197,2025-01-03T1400,14,31,0.6,16,17,66,34,31,
朔州市,市环保局,112.4072,39.3278,2025-01-03T1400,6,44,0.7,14,17,64,35,44,
朔州市,市二中,112.4272,39.3681,2025-01-03T1400,9,49,0.4,15,12,67,30,49,
朔州市,一水厂,112.2931,39.53,2025-01-03T1400,3,28,0.2,7,6,79,42,28,
四平市,一商场,124.4002,43.1713,2025-01-03T1400,10,24,0.4,8,6,64,37,24,
四平市,境园,124.388,43.193,2025-01-03T1400,9,20,0.3,6,8,64,40,20,
四平市,植物园,124.4036,43.1411,2025-01-03T1400,20,26,0.2,4,4,64,42,29,
四平市,世纪城,124.3419,43.1666,2025-01-03T1400,16,30,0.3,6,7,65,42,30,
松原市,江南,124.8006,45.1214,2025-01-03T1400,15,27,0.5,12,5,65,41,27,
松原市,江北,124.7965,45.1722,2025-01-03T1400,18,27,0.5,6,2,66,44,27,
苏州市,上方山,120.561,31.2472,2025-01-03T1400,44,79,0.8,28,9,85,52,65,颗粒物(PM10)
苏州市,彩香,120.591,31.3019,2025-01-03T1400,49,90,0.5,22,10,89,47,70,颗粒物(PM10)
苏州市,轧钢厂,120.596,31.3264,2025-01-03T1400,45,92,0.7,25,8,88,44,71,颗粒物(PM10)
苏州市,吴中区,120.613,31.2703,2025-01-03T1400,43,78,0.7,22,8,93,55,64,颗粒物(PM10)
苏州市,苏州新区,120.543,31.2994,2025-01-03T1400,45,85,0.5,29,9,87,46,68,颗粒物(PM10)
苏州市,苏州工业园区,120.669,31.3097,2025-01-03T1400,49,82,0.7,27,8,82,47,68,细颗粒物(PM2.5)
苏州市,相城区,120.641,31.3708,2025-01-03T1400,40,83,0.7,30,9,96,52,67,颗粒物(PM10)
苏州市,方洲路,120.743,31.3188,2025-01-03T1400,34,64,0.5,26,7,90,49,57,颗粒物(PM10)
苏州市,木渎中学,120.5031,31.2774,2025-01-03T1400,48,81,0.8,33,9,90,54,67,细颗粒物(PM2.5)
苏州市,越秀幼儿园,120.624,31.1733,2025-01-03T1400,41,80,0.7,17,7,95,56,65,颗粒物(PM10)
苏州市,高铁新城,120.6505,31.416,2025-01-03T1400,38,74,0.7,22,8,93,51,62,颗粒物(PM10)
宿迁市,宿迁学院,118.293,33.9528,2025-01-03T1400,40,64,0.6,16,6,84,45,57,"颗粒物(PM10),细颗粒物(PM2.5)"
宿迁市,宿迁中学,118.2442,33.9592,2025-01-03T1400,37,58,0.5,19,6,82,45,54,颗粒物(PM10)
宿迁市,市供电局,118.283,33.965,2025-01-03T1400,39,56,0.8,15,5,87,49,55,细颗粒物(PM2.5)
宿迁市,宿豫区政府,118.3225,33.9447,2025-01-03T1400,41,67,0.7,19,5,83,47,59,颗粒物(PM10)
宿州市,远航博物馆,116.9509,33.666,2025-01-03T1400,60,104,0.5,20,8,90,41,82,细颗粒物(PM2.5)
宿州市,社会福利中心,116.9708,33.591,2025-01-03T1400,52,87,,22,10,89,47,,
宿州市,宿州学院,116.9884,33.6305,2025-01-03T1400,55,89,0.7,20,10,90,42,75,细颗粒物(PM2.5)
宿州市,皖北煤电集团,116.9648,33.6252,2025-01-03T1400,58,101,0.7,22,11,95,45,79,细颗粒物(PM2.5)
绥化市,人和东街,126.9785,46.6365,2025-01-03T1400,187,199,1.5,44,8,57,28,237,细颗粒物(PM2.5)
绥化市,党政办公中心,126.964,46.6528,2025-01-03T1400,178,214,1.6,45,7,57,32,228,细颗粒物(PM2.5)
随州市,市委党校,113.3583,31.7275,2025-01-03T1400,109,145,1.0,38,11,92,39,143,细颗粒物(PM2.5)
随州市,市林业局,113.3833,31.6908,2025-01-03T1400,108,133,1.2,26,19,95,43,142,细颗粒物(PM2.5)
随州市,市立交桥水厂,113.3983,31.7308,2025-01-03T1400,102,132,1.1,40,15,93,40,134,细颗粒物(PM2.5)
遂宁市,石溪浩,105.5453,30.5678,2025-01-03T1400,122,173,0.4,24,4,78,20,160,细颗粒物(PM2.5)
遂宁市,市监测站,105.5582,30.5232,2025-01-03T1400,159,189,0.8,33,6,76,25,209,细颗粒物(PM2.5)
遂宁市,行政中心,105.5861,30.5366,2025-01-03T1400,139,181,0.6,31,10,70,18,185,细颗粒物(PM2.5)
遂宁市,美宁食品公司,105.5918,30.4728,2025-01-03T1400,158,188,0.8,19,16,98,28,208,细颗粒物(PM2.5)
塔城地区,东门外小游园,82.9994,46.7432,2025-01-03T1400,26,36,0.2,29,4,37,31,38,
台州市,黄岩环保大楼,121.273,28.6459,2025-01-03T1400,29,48,0.3,16,4,114,74,48,
台州市,台州环保大楼,121.419,28.6542,2025-01-03T1400,19,29,0.4,5,5,117,75,37,
台州市,路桥田洋王,121.377,28.5773,2025-01-03T1400,23,36,0.4,15,4,117,83,37,
台州市,台州科技职业学院,121.2568,28.6681,2025-01-03T1400,27,54,0.4,14,6,117,72,52,颗粒物(PM10)
太原市,尖草坪,112.522,37.8873,2025-01-03T1400,14,39,0.5,27,17,51,38,39,
太原市,上兰,112.434,38.0108,2025-01-03T1400,23,27,0.4,12,12,63,48,33,
太原市,晋源,112.469,37.7124,2025-01-03T1400,,,1.5,,31,51,25,,
太原市,小店,112.5583,37.7394,2025-01-03T1400,33,58,1.1,41,24,52,24,54,颗粒物(PM10)
太原市,桃园,112.5369,37.8692,2025-01-03T1400,19,53,0.7,30,19,51,32,52,颗粒物(PM10)
太原市,坞城,112.57,37.8195,2025-01-03T1400,21,49,,33,26,49,25,,
太原市,南寨,112.549,37.9854,2025-01-03T1400,14,20,0.4,20,12,68,32,22,
太原市,金胜,112.4719,37.7831,2025-01-03T1400,29,91,1.1,40,,53,47,,
太原市,育英中学,112.5608,37.8807,2025-01-03T1400,20,40,0.9,34,30,48,32,40,
泰安市,监测站,117.1437,36.1937,2025-01-03T1400,40,66,0.8,37,14,61,34,58,颗粒物(PM10)
泰安市,人口学校,117.0885,36.2017,2025-01-03T1400,35,68,0.8,28,12,66,38,59,颗粒物(PM10)
泰安市,电力学校,117.1089,36.1758,2025-01-03T1400,42,73,1.0,35,15,62,28,62,颗粒物(PM10)
泰安市,国网新校,117.1812,36.2275,2025-01-03T1400,36,66,0.9,31,10,67,39,58,颗粒物(PM10)
泰安市,交通技校,117.0313,36.2018,2025-01-03T1400,37,49,0.8,28,9,67,29,53,细颗粒物(PM2.5)
泰安市,山东第一医科大学,117.0829,36.13,2025-01-03T1400,33,56,0.9,25,14,77,34,53,颗粒物(PM10)
泰州市,公园路,119.905,32.4878,2025-01-03T1400,41,63,0.8,24,13,87,49,58,细颗粒物(PM2.5)
泰州市,莲花,119.9189,32.4625,2025-01-03T1400,39,68,0.6,19,8,91,56,59,颗粒物(PM10)
泰州市,留学生创业园,119.888,32.4639,2025-01-03T1400,44,72,0.6,22,12,94,51,62,细颗粒物(PM2.5)
泰州市,王营,119.8767,32.3289,2025-01-03T1400,48,77,0.6,21,6,103,44,67,细颗粒物(PM2.5)
泰州市,姜堰区政府广场,120.1259,32.5099,2025-01-03T1400,34,58,0.7,22,5,92,54,54,颗粒物(PM10)
泰州市,周山河街区,119.9192,32.4322,2025-01-03T1400,53,82,0.7,21,11,97,66,73,细颗粒物(PM2.5)
唐山市,雷达站,118.131,39.6363,2025-01-03T1400,6,31,0.3,16,4,64,37,31,
唐山市,物资局,118.1725,39.6334,2025-01-03T1400,3,35,0.3,15,7,64,42,35,
唐山市,十二中,118.1705,39.6506,2025-01-03T1400,13,23,0.3,18,1,58,34,23,
唐山市,小山,118.1869,39.622,2025-01-03T1400,3,9,0.3,16,5,66,38,21,
唐山市,冀东油田职工医院,118.4359,39.2762,2025-01-03T1400,12,23,0.7,27,12,48,36,23,
唐山市,正泰大街热力站,118.09279,39.58089,2025-01-03T1400,3,9,0.1,11,2,62,36,20,
唐山市,丰润区政府,118.1562,39.8322,2025-01-03T1400,8,19,0.4,15,5,58,33,19,
唐山市,金山小学,118.43673,39.73809,2025-01-03T1400,3,31,0.4,11,4,69,45,31,
唐山市,政府服务中心,118.24498,39.66941,2025-01-03T1400,10,23,0.3,8,4,67,35,23,
唐山市,消防缸窑路中队,118.2059,39.6585,2025-01-03T1400,6,32,0.3,16,4,64,34,32,
唐山市,路南电大,118.1436,39.6202,2025-01-03T1400,3,22,0.3,14,4,65,41,22,
天津市,勤俭道,117.1444,39.1661,2025-01-03T1400,20,40,0.3,21,6,63,33,40,
天津市,大直沽八号路,117.237,39.1082,2025-01-03T1400,22,46,0.4,23,3,57,32,46,
天津市,前进道,117.202,39.0927,2025-01-03T1400,25,45,0.4,25,6,60,32,45,
天津市,淮河道,117.1837,39.2133,2025-01-03T1400,23,46,0.3,27,4,61,31,46,
天津市,跃进路,117.307,39.0877,2025-01-03T1400,19,39,0.4,20,4,68,34,39,
天津市,第四大街,117.707,39.0343,2025-01-03T1400,19,43,1.3,34,8,54,31,43,
天津市,永明路,117.457,38.8394,2025-01-03T1400,14,25,0.6,22,7,62,12,25,
天津市,汉北路,117.764,39.1587,2025-01-03T1400,16,38,0.4,32,5,49,28,38,
天津市,团泊洼,117.157,38.9194,2025-01-03T1400,,,,,,,,,
天津市,河西一经路,117.7918,39.2474,2025-01-03T1400,13,36,0.5,31,5,49,31,36,
天津市,津沽路,117.3747,38.9846,2025-01-03T1400,14,27,0.5,17,3,69,30,27,
天津市,宾水西道,117.1589,39.0845,2025-01-03T1400,27,38,0.4,27,5,56,25,39,
天津市,大理道,117.1941,39.1067,2025-01-03T1400,29,44,0.4,27,5,60,35,44,
天津市,中山北路,117.2101,39.1699,2025-01-03T1400,20,44,0.2,30,4,63,32,44,
天津市,西四道,117.3876,39.1488,2025-01-03T1400,16,36,0.3,27,6,59,29,36,
天津市,雍阳西道,117.0365,39.3828,2025-01-03T1400,36,66,0.3,32,5,70,40,58,颗粒物(PM10)
天津市,辛老路,117.0296,39.0605,2025-01-03T1400,17,32,0.3,18,4,67,31,32,
天津市,地纬路,116.9638,38.9375,2025-01-03T1400,16,28,0.3,19,3,62,28,28,
天津市,北环路,117.4067,40.0583,2025-01-03T1400,10,23,0.4,30,5,51,57,23,
天津市,建设路,117.3045,39.7169,2025-01-03T1400,12,36,0.3,16,5,62,50,36,
天津市,滨水东路,117.8199,39.3521,2025-01-03T1400,13,39,0.5,30,5,54,35,39,
天水市,麦积山,106.0055,34.343,2025-01-03T1400,,,,,,,,,
天水市,公园小学,105.7205,34.5786,2025-01-03T1400,35,73,1.0,36,22,53,20,62,颗粒物(PM10)
天水市,麦积国土局,105.8945,34.5538,2025-01-03T1400,54,68,0.8,30,14,61,25,74,细颗粒物(PM2.5)
铁岭市,汇工街西,123.8139,42.3022,2025-01-03T1400,10,25,0.3,6,10,63,36,25,
铁岭市,水上乐园,123.8649,42.2923,2025-01-03T1400,9,27,0.2,8,12,66,39,27,
铁岭市,银州路东段,123.8486,42.2867,2025-01-03T1400,16,24,0.3,,,61,32,,
铁岭市,金沙江路北,123.7153,42.2217,2025-01-03T1400,15,27,0.4,11,16,60,33,27,
通化市,光明,125.9358,41.7173,2025-01-03T1400,26,33,0.2,13,15,62,23,38,
通化市,铁路,125.9446,41.7325,2025-01-03T1400,9,23,0.4,12,12,66,22,23,
通辽市,艺术职业学校,122.2532,43.6801,2025-01-03T1400,3,18,0.3,6,12,63,44,20,
通辽市,老干部活动中心,122.2584,43.6333,2025-01-03T1400,13,26,0.3,2,8,61,44,26,
通辽市,东方明珠社区,122.2922,43.6189,2025-01-03T1400,23,29,0.4,6,8,65,44,33,
铜川市,党校,109.0656,35.0994,2025-01-03T1400,,,,,,,,,
铜川市,王益区政府,109.0697,35.0697,2025-01-03T1400,36,57,0.8,28,12,66,33,54,颗粒物(PM10)
铜川市,新区管委会,108.9344,34.9058,2025-01-03T1400,44,73,0.8,27,13,58,44,62,"颗粒物(PM10),细颗粒物(PM2.5)"
铜川市,旺旺集团,108.9543,34.8732,2025-01-03T1400,43,80,0.6,27,10,57,50,65,颗粒物(PM10)
铜陵市,市第四中学,117.8177,30.9412,2025-01-03T1400,81,168,1.0,49,5,88,40,109,颗粒物(PM10)
铜陵市,市公路局,117.8059,30.9273,2025-01-03T1400,79,120,1.0,28,7,86,36,105,细颗粒物(PM2.5)
铜陵市,市新民污水厂,117.7807,30.9413,2025-01-03T1400,69,141,1.0,45,15,80,36,96,颗粒物(PM10)
铜陵市,市第九中学,117.7439,30.8792,2025-01-03T1400,99,143,0.9,38,10,78,35,130,细颗粒物(PM2.5)
铜陵市,车站新区,117.846,30.9413,2025-01-03T1400,68,129,0.7,31,9,94,38,92,细颗粒物(PM2.5)
铜陵市,市职教基地,117.8483,30.97,2025-01-03T1400,70,117,1.1,26,10,82,38,94,细颗粒物(PM2.5)
铜仁市,铜仁卫校,109.1839,27.7344,2025-01-03T1400,68,100,0.8,23,5,131,57,92,细颗粒物(PM2.5)
铜仁市,铜仁七中,109.1753,27.6944,2025-01-03T1400,64,,0.8,18,6,131,60,87,细颗粒物(PM2.5)
吐鲁番市,市环保局,89.1904,42.9418,2025-01-03T1400,111,195,1.9,32,8,53,28,145,细颗粒物(PM2.5)
吐鲁番市,地区环保局,89.1673,42.9559,2025-01-03T1400,135,241,2.2,43,7,41,16,179,细颗粒物(PM2.5)
威海市,华夏技校,122.1214,37.4236,2025-01-03T1400,3,14,0.3,5,4,78,65,25,
威海市,山大分校,122.0508,37.5236,2025-01-03T1400,3,20,0.5,6,2,75,64,24,
威海市,市监测站,122.1067,37.5072,2025-01-03T1400,3,24,0.5,10,3,67,56,24,
威海市,文登开发区,122.0693,37.2174,2025-01-03T1400,7,34,0.4,,,74,52,,
威海市,临港区管委会,122.1379,37.3414,2025-01-03T1400,3,14,0.4,4,6,74,48,24,
潍坊市,环保局,119.1437,36.7023,2025-01-03T1400,34,58,0.7,31,17,66,34,54,颗粒物(PM10)
潍坊市,坊子邮政,119.1641,36.6523,2025-01-03T1400,27,53,0.8,27,13,71,34,52,颗粒物(PM10)
潍坊市,潍坊七中,119.0587,36.721,2025-01-03T1400,26,53,0.7,27,15,62,34,52,颗粒物(PM10)
潍坊市,高新实验学校,119.1977,36.6872,2025-01-03T1400,35,61,0.6,24,16,71,35,56,颗粒物(PM10)
潍坊市,潍坊学院,119.1755,36.7149,2025-01-03T1400,23,61,0.8,20,15,75,43,56,颗粒物(PM10)
潍坊市,寒亭区实验一小,119.2041,36.7699,2025-01-03T1400,34,61,0.8,31,16,64,39,56,颗粒物(PM10)
渭南市,农科所,109.5293,34.5101,2025-01-03T1400,,,,,,,,,
渭南市,日报社,109.4974,34.4877,2025-01-03T1400,87,129,1.5,42,16,56,27,115,细颗粒物(PM2.5)
渭南市,体育馆,109.4636,34.493,2025-01-03T1400,81,136,1.4,39,17,52,28,108,细颗粒物(PM2.5)
渭南市,高新一小,109.4259,34.5023,2025-01-03T1400,68,128,1.4,37,20,56,30,92,细颗粒物(PM2.5)
温州市,瓯海,120.634,28.0089,2025-01-03T1400,37,52,0.3,19,7,106,55,53,细颗粒物(PM2.5)
温州市,南浦,120.6748,27.9939,2025-01-03T1400,26,36,0.4,10,6,112,65,38,
温州市,龙湾,120.76,27.9747,2025-01-03T1400,38,57,0.4,22,6,108,60,54,"颗粒物(PM10),细颗粒物(PM2.5)"
温州市,市站,120.6709,28.0167,2025-01-03T1400,24,45,0.5,16,8,103,61,45,
温州市,茶山,120.6985,27.9251,2025-01-03T1400,30,51,0.3,16,5,114,62,51,颗粒物(PM10)
文山壮族苗族自治州,州水务局,104.2533,23.3594,2025-01-03T1400,28,39,0.5,8,3,86,72,40,
文山壮族苗族自治州,市便民服务中心,104.2319,23.3892,2025-01-03T1400,37,44,0.6,9,4,88,75,53,细颗粒物(PM2.5)
乌海市,市林业局,106.8174,39.6973,2025-01-03T1400,21,33,0.7,12,13,72,31,33,
乌海市,中海勃湾学校,106.7907,39.6667,2025-01-03T1400,18,47,0.5,14,16,72,34,47,
乌海市,海北新区,106.813,39.7274,2025-01-03T1400,3,31,0.6,13,21,70,28,31,
乌海市,聚英学校,106.8288,39.6778,2025-01-03T1400,6,35,0.6,15,19,74,28,35,
乌兰察布市,集宁新区,113.1306,40.9923,2025-01-03T1400,10,26,0.4,7,5,76,56,26,
乌兰察布市,光明街小学,113.1076,41.0385,2025-01-03T1400,20,36,0.4,9,9,71,59,36,
乌兰察布市,北京八中,113.1376,40.9509,2025-01-03T1400,16,,0.3,10,15,76,59,24,
乌兰察布市,市委党校,113.1775,40.9779,2025-01-03T1400,16,18,0.3,8,,77,32,,
乌鲁木齐市,监测站,87.5801,43.8303,2025-01-03T1400,73,107,1.1,64,8,34,8,98,细颗粒物(PM2.5)
乌鲁木齐市,收费所,87.6046,43.768,2025-01-03T1400,22,27,0.5,30,5,48,15,32,
乌鲁木齐市,新疆农科院农场,87.4754,43.9469,2025-01-03T1400,178,225,2.0,92,8,18,8,228,细颗粒物(PM2.5)
乌鲁木齐市,铁路局,87.5525,43.8711,2025-01-03T1400,159,187,2.5,119,7,16,9,209,细颗粒物(PM2.5)
乌鲁木齐市,三十一中学,87.6432,43.831,2025-01-03T1400,38,38,1.0,47,6,43,11,54,细颗粒物(PM2.5)
乌鲁木齐市,米东区环保局,87.7216,44.1747,2025-01-03T1400,276,313,1.9,191,5,45,44,326,细颗粒物(PM2.5)
乌鲁木齐市,培训基地,87.4651,43.4569,2025-01-03T1400,3,6,0.9,8,3,88,84,28,
乌鲁木齐市,达坂城区环保局,88.3118,43.3658,2025-01-03T1400,12,41,0.4,29,5,52,81,41,
乌鲁木齐市,红光山片区,87.6162,43.8801,2025-01-03T1400,140,181,2.5,108,8,12,4,186,细颗粒物(PM2.5)
乌鲁木齐市,新师大温泉校区,87.7024,43.8004,2025-01-03T1400,31,44,0.5,27,2,73,51,45,
乌鲁木齐市,大绿谷,87.4921,43.8411,2025-01-03T1400,64,85,1.8,87,5,22,13,87,细颗粒物(PM2.5)
无锡市,雪浪,120.269,31.4867,2025-01-03T1400,36,85,1.1,32,11,88,57,68,颗粒物(PM10)
无锡市,黄巷,120.275,31.6219,2025-01-03T1400,41,93,1.1,38,14,71,47,72,颗粒物(PM10)
无锡市,曹张,120.294,31.56,2025-01-03T1400,41,81,1.0,29,12,85,51,66,颗粒物(PM10)
无锡市,漆塘,120.242,31.5031,2025-01-03T1400,51,90,1.1,36,10,79,51,70,"颗粒物(PM10),细颗粒物(PM2.5)"
无锡市,东亭,120.3489,31.5863,2025-01-03T1400,34,80,1.1,23,11,83,46,65,颗粒物(PM10)
无锡市,旺庄,120.354,31.5475,2025-01-03T1400,31,68,1.0,25,7,92,55,59,颗粒物(PM10)
无锡市,荣巷,120.245,31.5631,2025-01-03T1400,44,88,1.0,32,8,86,57,69,颗粒物(PM10)
无锡市,堰桥,120.299,31.6817,2025-01-03T1400,44,80,0.5,36,23,84,56,65,颗粒物(PM10)
无锡市,华庄,120.3142,31.4753,2025-01-03T1400,45,80,1.2,26,10,90,58,65,颗粒物(PM10)
吴忠市,教育园区,106.1532,37.9648,2025-01-03T1400,41,89,0.9,18,36,64,26,70,颗粒物(PM10)
吴忠市,新区二泵站,106.1856,37.9956,2025-01-03T1400,41,94,1.0,18,38,68,30,72,颗粒物(PM10)
吴忠市,文卫南街,106.2112,37.9768,2025-01-03T1400,93,111,1.3,17,36,63,24,123,细颗粒物(PM2.5)
芜湖市,监测站,118.3606,31.3519,2025-01-03T1400,60,103,0.7,,10,85,37,,
芜湖市,科创中心,118.3714,31.4134,2025-01-03T1400,61,108,0.7,25,9,92,47,83,细颗粒物(PM2.5)
芜湖市,四水厂,118.3673,31.3131,2025-01-03T1400,63,120,0.6,25,13,92,50,85,"颗粒物(PM10),细颗粒物(PM2.5)"
芜湖市,市气象局,118.4209,31.3707,2025-01-03T1400,56,92,0.5,22,11,94,48,77,细颗粒物(PM2.5)
芜湖市,清苑社区,118.4781,31.3225,2025-01-03T1400,57,104,0.5,18,10,96,48,78,细颗粒物(PM2.5)
芜湖市,扬子职业技术学院,118.2746,31.2326,2025-01-03T1400,66,113,0.7,31,10,88,41,89,细颗粒物(PM2.5)
梧州市,市逸夫小学,111.3014,23.4832,2025-01-03T1400,42,71,0.7,4,10,130,95,61,颗粒物(PM10)
梧州市,市十一中,111.3239,23.4794,2025-01-03T1400,34,43,0.6,12,10,131,89,49,
梧州市,龙圩,111.247,23.4189,2025-01-03T1400,39,56,1.1,10,12,124,65,55,细颗粒物(PM2.5)
梧州市,龙新,111.2711,23.4835,2025-01-03T1400,50,,0.9,12,13,129,81,69,细颗粒物(PM2.5)
五家渠市,农水大厦,87.5475,44.1756,2025-01-03T1400,229,287,1.9,57,4,41,35,279,细颗粒物(PM2.5)
五家渠市,经开区管委会,87.546,44.1912,2025-01-03T1400,242,244,1.9,32,2,53,46,292,细颗粒物(PM2.5)
武汉市,东湖梨园,114.3677,30.5584,2025-01-03T1400,149,175,1.1,48,13,126,56,199,细颗粒物(PM2.5)
