area,positionname,longitude,latitude,timepoint,pm2_5,pm10,co,no2,so2,o3,o3_8h,aqi,primarypollutant
阿坝藏族羌族自治州,州农科所,102.1879,31.914,2025-03-01T1300,8,29,0,8,9,81,60,29,
阿坝藏族羌族自治州,马师校,102.2502,31.8896,2025-03-01T1300,8,15,0.4,11,4,76,47,24,
阿坝藏族羌族自治州,马尔康中学西区,102.2165,31.9024,2025-03-01T1300,7,15,0.4,13,5,79,56,25,
阿克苏地区,电视台,80.292,41.1694,2025-03-01T1300,40,80,0.3,23,6,63,68,65,颗粒物(PM10)
阿克苏地区,艺术中心,80.2613,41.1551,2025-03-01T1300,48,93,0.1,24,5,55,68,72,颗粒物(PM10)
阿拉善盟,西城区西花园,105.6467,38.8363,2025-03-01T1300,83,248,1.1,18,17,84,87,149,颗粒物(PM10)
阿拉善盟,蒙二幼,105.6985,38.8411,2025-03-01T1300,55,152,0.9,21,9,77,79,101,颗粒物(PM10)
阿拉善盟,环保局新楼,105.724,38.8516,2025-03-01T1300,47,143,0.9,14,10,85,95,97,颗粒物(PM10)
阿勒泰地区,市站,88.1264,47.8517,2025-03-01T1300,26,56,0.4,20,10,76,62,53,颗粒物(PM10)
阿里地区,阿里监测站,80.1161,32.5,2025-03-01T1300,3,6,0.5,1,8,105,109,33,
阿里地区,阿里藏医院,80.0903,32.5028,2025-03-01T1300,3,6,0.5,1,6,102,100,32,
安康市,香溪洞,109.0318,32.6537,2025-03-01T1300,48,62,0.8,16,5,78,54,67,细颗粒物(PM2.5)
安康市,汉滨区检察院,109.0072,32.6975,2025-03-01T1300,51,72,0.7,28,9,65,35,70,细颗粒物(PM2.5)
安康市,市邮政管理局,109.0325,32.6913,2025-03-01T1300,52,80,0.8,24,9,60,34,72,细颗粒物(PM2.5)
安庆市,环科院,117.0809,30.5177,2025-03-01T1300,24,44,0.8,21,8,87,24,44,
安庆市,马山宾馆,117.0331,30.5119,2025-03-01T1300,19,30,0.3,17,5,102,27,32,
安庆市,安庆大学,116.9896,30.6145,2025-03-01T1300,23,,0.6,3,9,124,50,39,
安庆市,市人大,117.0598,30.5351,2025-03-01T1300,22,27,0.5,13,8,97,29,32,
安顺市,伍家关,105.9606,26.2611,2025-03-01T1300,26,32,0.7,6,6,107,87,38,
安顺市,凤凰山,105.9408,26.2431,2025-03-01T1300,26,62,0.5,8,10,108,86,56,颗粒物(PM10)
安顺市,金钟山,105.9439,26.2564,2025-03-01T1300,24,31,0.5,6,10,107,89,35,
安顺市,娄家坡,105.8983,26.2481,2025-03-01T1300,24,31,0.7,6,6,105,83,35,
安阳市,棉研所,114.4839,36.0621,2025-03-01T1300,,,,,,,,,
安阳市,红庙街,114.3551,36.1017,2025-03-01T1300,189,236,2.0,66,23,82,37,239,细颗粒物(PM2.5)
安阳市,银杏小区,114.361,36.0681,2025-03-01T1300,202,207,2.5,59,28,87,35,252,细颗粒物(PM2.5)
安阳市,信访局,114.3922,36.0878,2025-03-01T1300,188,219,2.2,58,18,93,37,238,细颗粒物(PM2.5)
安阳市,左辅环卫站,114.4705,36.0637,2025-03-01T1300,131,161,0.7,39,8,95,55,173,细颗粒物(PM2.5)
安阳市,安钢职工学校,114.2917,36.0949,2025-03-01T1300,195,251,2.2,51,21,96,38,245,细颗粒物(PM2.5)
鞍山市,深沟寺,123.044,41.1196,2025-03-01T1300,49,57,0.9,26,13,101,108,68,细颗粒物(PM2.5)
鞍山市,太阳城,123.011,41.0931,2025-03-01T1300,33,49,0.8,19,7,120,114,49,
鞍山市,太平,123.0485,41.1442,2025-03-01T1300,61,86,1.1,35,13,93,114,83,细颗粒物(PM2.5)
鞍山市,铁西三道街,122.9642,41.0971,2025-03-01T1300,52,72,1.3,27,12,121,115,72,细颗粒物(PM2.5)
鞍山市,明达新区,123.022,41.0821,2025-03-01T1300,35,44,0.7,24,7,112,113,50,
鞍山市,千山,123.1289,41.0228,2025-03-01T1300,,,,,,,115,,
鞍山市,兴盛南路290号,122.9446,41.0826,2025-03-01T1300,59,80,1.0,25,12,112,103,80,细颗粒物(PM2.5)
巴彦淖尔市,附二中,107.4212,40.761,2025-03-01T1300,34,93,0.5,11,10,88,56,72,颗粒物(PM10)
巴彦淖尔市,市环保大楼,107.37,40.7372,2025-03-01T1300,24,89,0.3,13,5,92,62,70,颗粒物(PM10)
巴音郭楞蒙古自治州,孔雀公园,86.1472,41.7538,2025-03-01T1300,51,197,0.5,24,8,67,56,124,颗粒物(PM10)
巴音郭楞蒙古自治州,棉纺厂,86.1972,41.7166,2025-03-01T1300,38,244,0.6,42,6,49,46,147,颗粒物(PM10)
巴音郭楞蒙古自治州,经济开发区,86.2357,41.7173,2025-03-01T1300,45,224,0.4,23,6,65,68,137,颗粒物(PM10)
巴中市,苏山坪,106.7677,31.8794,2025-03-01T1300,40,50,0.6,26,4,39,71,57,细颗粒物(PM2.5)
巴中市,市五中,106.7768,31.8526,2025-03-01T1300,62,87,1.4,48,6,8,8,84,细颗粒物(PM2.5)
巴中市,圣泉水务公司,106.7418,31.8654,2025-03-01T1300,44,54,0.7,29,6,25,21,62,细颗粒物(PM2.5)
巴中市,市中心医院,106.7616,31.8344,2025-03-01T1300,61,71,1.0,44,6,10,5,83,细颗粒物(PM2.5)
白城市,洮北区环保局,122.7911,45.6077,2025-03-01T1300,7,28,0.7,6,6,81,74,28,
白城市,市环保局,122.8738,45.5725,2025-03-01T1300,12,34,0.4,6,8,88,82,34,
白山市,喜丰,126.4219,41.9171,2025-03-01T1300,57,86,1.0,24,11,124,58,78,细颗粒物(PM2.5)
白山市,环保局,126.4077,41.9419,2025-03-01T1300,69,90,1.0,44,17,125,51,93,细颗粒物(PM2.5)
白银市,第三小学,104.1724,36.5446,2025-03-01T1300,41,182,0.6,12,20,109,97,116,颗粒物(PM10)
白银市,动力公司,104.1465,36.5482,2025-03-01T1300,46,156,0.6,13,7,101,90,103,颗粒物(PM10)
百色市,市监测站,106.6103,23.9011,2025-03-01T1300,37,86,1.0,21,21,82,29,68,颗粒物(PM10)
百色市,市中心血站,106.6538,23.8859,2025-03-01T1300,23,80,0.9,12,16,78,24,65,颗粒物(PM10)
百色市,祈福高中,106.6085,23.8798,2025-03-01T1300,34,88,1.0,20,17,77,25,69,颗粒物(PM10)
蚌埠市,工人疗养院,117.396,32.939,2025-03-01T1300,105,138,0.8,34,7,84,54,138,细颗粒物(PM2.5)
蚌埠市,百货大楼,117.3605,32.9427,2025-03-01T1300,93,128,0.9,28,10,79,42,123,细颗粒物(PM2.5)
蚌埠市,蚌埠学院,117.4185,32.8911,2025-03-01T1300,108,,1.0,43,11,83,56,142,细颗粒物(PM2.5)
蚌埠市,淮上区政府,117.3533,32.9673,2025-03-01T1300,97,105,1.1,22,11,85,45,128,细颗粒物(PM2.5)
蚌埠市,高新区,117.3145,32.8977,2025-03-01T1300,90,97,1.1,34,12,82,50,119,细颗粒物(PM2.5)
蚌埠市,蚌埠田家炳中学,117.3092,32.9314,2025-03-01T1300,90,119,0.9,30,12,82,47,119,细颗粒物(PM2.5)
包头市,市环境监测站,109.8756,40.6532,2025-03-01T1300,36,76,0.7,26,19,93,34,63,颗粒物(PM10)
包头市,包头八中,109.9991,40.5842,2025-03-01T1300,75,133,1.7,56,59,57,21,100,细颗粒物(PM2.5)
包头市,青山宾馆,109.8538,40.6821,2025-03-01T1300,29,59,0.7,20,13,93,38,55,颗粒物(PM10)
包头市,惠龙物流,109.8642,40.6288,2025-03-01T1300,34,77,1.0,37,23,77,29,64,颗粒物(PM10)
包头市,东河鸿龙湾,110.0377,40.5546,2025-03-01T1300,66,126,1.0,47,23,64,26,89,细颗粒物(PM2.5)
包头市,滨河大厦,109.9154,40.5685,2025-03-01T1300,56,105,1.4,49,39,62,20,78,颗粒物(PM10)
包头市,包头市委党校,109.9447,40.6261,2025-03-01T1300,55,116,1.4,58,36,50,20,83,颗粒物(PM10)
包头市,昆区政府,109.8331,40.6576,2025-03-01T1300,32,77,0.8,23,17,85,45,64,颗粒物(PM10)
宝鸡市,庙沟村,107.185,34.3063,2025-03-01T1300,101,,1.0,20,16,79,64,133,细颗粒物(PM2.5)
宝鸡市,竹园沟,107.0708,34.3017,2025-03-01T1300,94,104,0.8,31,19,77,43,124,细颗粒物(PM2.5)
宝鸡市,三陆医院,107.1906,34.3672,2025-03-01T1300,108,130,1.1,56,16,39,20,142,细颗粒物(PM2.5)
宝鸡市,监测站,107.1431,34.3547,2025-03-01T1300,99,158,1.0,56,18,38,25,130,细颗粒物(PM2.5)
宝鸡市,技工学校,107.1186,34.3739,2025-03-01T1300,98,123,1.0,47,18,43,36,129,细颗粒物(PM2.5)
宝鸡市,陈仓区环保局家属楼,107.3906,34.3528,2025-03-01T1300,112,129,1.1,53,22,49,28,147,细颗粒物(PM2.5)
宝鸡市,文理学院,107.2058,34.3497,2025-03-01T1300,99,107,0.8,48,20,54,30,130,细颗粒物(PM2.5)
宝鸡市,三迪小学,107.2386,34.3622,2025-03-01T1300,106,121,1.0,59,18,33,19,139,细颗粒物(PM2.5)
保定市,游泳馆,115.493,38.8632,2025-03-01T1300,213,232,0.9,45,12,102,63,263,细颗粒物(PM2.5)
保定市,华电二区,115.5213,38.8959,2025-03-01T1300,189,219,1.1,56,15,109,60,239,细颗粒物(PM2.5)
保定市,接待中心,115.4713,38.9108,2025-03-01T1300,207,230,1.3,59,14,105,63,257,细颗粒物(PM2.5)
保定市,地表水厂,115.4612,38.8416,2025-03-01T1300,204,248,1.2,52,11,112,72,254,细颗粒物(PM2.5)
保定市,满城区生态环境分局,115.31981,38.95208,2025-03-01T1300,180,227,1.2,57,19,118,56,230,细颗粒物(PM2.5)
保定市,清苑区第二中学,115.47694,38.76408,2025-03-01T1300,196,266,1.1,60,16,105,54,246,细颗粒物(PM2.5)
保定市,徐水物探局,115.62909,39.02311,2025-03-01T1300,210,250,1.1,52,17,114,46,260,细颗粒物(PM2.5)
保定市,双鹰农机,115.4202,38.8656,2025-03-01T1300,193,200,1.3,56,24,111,73,243,细颗粒物(PM2.5)
保定市,植保所站,115.5150,38.8590,2025-03-01T1300,217,225,1.2,59,12,100,56,267,细颗粒物(PM2.5)
保山市,市环境监测站,99.1678,25.1081,2025-03-01T1300,30,52,0.5,6,5,117,90,51,颗粒物(PM10)
保山市,市环保局,99.1711,25.1328,2025-03-01T1300,33,70,0.5,5,6,121,99,60,颗粒物(PM10)
北海市,牛尾岭水库,109.2262,21.588,2025-03-01T1300,26,28,0.3,4,6,63,58,38,
北海市,海滩公园,109.1436,21.4086,2025-03-01T1300,20,30,0.8,8,6,93,79,30,
北海市,新市环保局,109.0981,21.4661,2025-03-01T1300,19,32,0.6,8,5,76,74,32,
北海市,北海工业园,109.1778,21.5233,2025-03-01T1300,22,33,0.5,6,7,80,77,33,
北海市,龙潭自来水厂,109.1911,21.4415,2025-03-01T1300,14,31,0.6,8,7,79,73,31,
北京市,万寿西宫,116.3621,39.8784,2025-03-01T1300,200,,2.3,37,16,112,49,250,细颗粒物(PM2.5)
北京市,定陵,116.2202,40.2915,2025-03-01T1300,,,,,,,,,
北京市,东四,116.4174,39.9289,2025-03-01T1300,198,250,2.4,34,19,118,54,248,细颗粒物(PM2.5)
北京市,天坛,116.4072,39.8863,2025-03-01T1300,194,252,2.3,37,15,109,46,244,细颗粒物(PM2.5)
北京市,农展馆,116.462,39.9365,2025-03-01T1300,196,246,2.3,36,18,123,48,246,细颗粒物(PM2.5)
北京市,官园,116.3392,39.9295,2025-03-01T1300,188,245,2.1,33,20,99,44,238,细颗粒物(PM2.5)
北京市,海淀万柳,116.2878,39.9611,2025-03-01T1300,191,240,2.2,43,17,92,38,241,细颗粒物(PM2.5)
北京市,顺义新城,116.6636,40.135,2025-03-01T1300,158,221,1.4,44,15,113,48,208,细颗粒物(PM2.5)
北京市,怀柔镇,116.6275,40.3275,2025-03-01T1300,159,209,1.3,49,11,99,57,209,细颗粒物(PM2.5)
北京市,昌平镇,116.2296,40.217,2025-03-01T1300,191,258,1.6,31,11,118,54,241,细颗粒物(PM2.5)
北京市,奥体中心,116.3966,39.9821,2025-03-01T1300,199,252,2.2,42,17,106,40,249,细颗粒物(PM2.5)
北京市,延庆夏都,115.9718,40.4529,2025-03-01T1300,127,177,0.8,39,10,110,55,168,细颗粒物(PM2.5)
北京市,密云新城,116.8336,40.4095,2025-03-01T1300,124,172,0.8,29,9,118,60,163,细颗粒物(PM2.5)
北京市,门头沟三家店,116.088,39.9726,2025-03-01T1300,187,236,1.2,38,11,110,65,237,细颗粒物(PM2.5)
北京市,丰台云岗,116.1541,39.8204,2025-03-01T1300,191,253,1.6,42,15,108,52,241,细颗粒物(PM2.5)
北京市,通州东关,116.6804,39.9081,2025-03-01T1300,203,257,2.2,39,19,101,59,253,细颗粒物(PM2.5)
北京市,房山燕山,115.9577,39.7603,2025-03-01T1300,184,229,1.3,43,8,106,73,234,细颗粒物(PM2.5)
北京市,大兴旧宫,116.4672,39.7733,2025-03-01T1300,194,250,1.8,34,9,95,46,244,细颗粒物(PM2.5)
北京市,延庆石河营,115.986,40.4563,2025-03-01T1300,128,192,0.9,38,9,123,56,169,细颗粒物(PM2.5)
北京市,怀柔新城,116.6151,40.3053,2025-03-01T1300,168,210,1.5,35,14,113,67,218,细颗粒物(PM2.5)
北京市,丰台小屯,116.2545,39.8768,2025-03-01T1300,188,244,1.9,45,13,97,42,238,细颗粒物(PM2.5)
北京市,密云镇,116.84,40.3844,2025-03-01T1300,126,190,0.9,28,7,117,44,166,细颗粒物(PM2.5)
北京市,八角北路9号,116.1942,39.9158,2025-03-01T1300,188,254,1.9,41,12,105,44,238,细颗粒物(PM2.5)
北京市,洳河巡河路,117.0790,40.1518,2025-03-01T1300,167,203,1.6,25,17,133,76,217,细颗粒物(PM2.5)
本溪市,大峪,123.8275,41.3064,2025-03-01T1300,37,48,0.8,15,10,133,107,53,细颗粒物(PM2.5)
本溪市,溪湖,123.7567,41.3325,2025-03-01T1300,36,51,2.1,28,23,113,112,52,细颗粒物(PM2.5)
本溪市,彩屯,123.7169,41.3094,2025-03-01T1300,42,59,2.5,30,18,106,97,59,细颗粒物(PM2.5)
本溪市,东明,123.7669,41.2864,2025-03-01T1300,31,44,1.6,14,8,117,113,45,
本溪市,新立屯,123.7992,41.2664,2025-03-01T1300,33,34,0.8,14,5,140,133,48,
本溪市,威宁,123.8142,41.3472,2025-03-01T1300,34,60,0.8,27,7,128,80,55,颗粒物(PM10)
毕节市,八中,105.2864,27.3125,2025-03-01T1300,53,67,1.0,26,16,87,36,73,细颗粒物(PM2.5)
毕节市,师专,105.31,27.2944,2025-03-01T1300,48,59,0.9,16,15,98,43,67,细颗粒物(PM2.5)
毕节市,工业大道,105.3688,27.3598,2025-03-01T1300,42,53,0.5,18,10,115,60,59,细颗粒物(PM2.5)
滨州市,第二水厂,118.0018,37.3617,2025-03-01T1300,17,36,1.3,16,26,94,62,36,
滨州市,北中新校,117.9776,37.393,2025-03-01T1300,27,46,0.8,25,15,97,67,46,
滨州市,中海酒店,117.9378,37.3956,2025-03-01T1300,31,41,0.6,20,21,101,76,45,
滨州市,开发区一中,117.9378,37.3553,2025-03-01T1300,29,46,0.6,26,22,99,67,46,
滨州市,金海六路,118.0917,37.694,2025-03-01T1300,22,39,0.8,17,14,102,72,39,
滨州市,滨州市西街道办事处,117.9956,37.3753,2025-03-01T1300,29,36,0.9,22,26,100,68,42,
亳州市,污水处理厂,115.8072,33.8399,2025-03-01T1300,62,75,0.5,9,5,94,48,84,细颗粒物(PM2.5)
亳州市,三国揽胜宫,115.7789,33.8518,2025-03-01T1300,60,63,0.7,9,6,87,50,82,细颗粒物(PM2.5)
亳州市,亳州学院,115.7633,33.8034,2025-03-01T1300,59,87,0.8,14,5,96,53,80,细颗粒物(PM2.5)
博尔塔拉蒙古自治州,市党校,82.0485,44.8556,2025-03-01T1300,68,88,2.3,21,8,77,90,92,细颗粒物(PM2.5)
博尔塔拉蒙古自治州,市环保局,82.0806,44.8969,2025-03-01T1300,48,88,1.2,2,23,42,78,69,颗粒物(PM10)
沧州市,沧县城建局,116.8842,38.2991,2025-03-01T1300,141,156,1.1,22,8,134,66,188,细颗粒物(PM2.5)
沧州市,电视转播站,116.8584,38.3254,2025-03-01T1300,139,159,0.8,24,10,139,69,185,细颗粒物(PM2.5)
沧州市,市环保局,116.8709,38.3228,2025-03-01T1300,134,141,0.9,22,13,134,62,178,细颗粒物(PM2.5)
沧州市,河北水利电力学院,116.8136,38.3004,2025-03-01T1300,120,161,0.9,24,15,134,71,158,细颗粒物(PM2.5)
昌都市,昌都监测站,97.1806,31.1273,2025-03-01T1300,16,28,0.8,7,,64,47,,
昌都市,昌都会议中心,97.1714,31.1406,2025-03-01T1300,20,,0.4,4,8,94,74,30,
昌吉回族自治州,天山天池,88.1236,43.8886,2025-03-01T1300,3,20,0,8,11,69,67,22,
昌吉回族自治州,新区政务中心,87.2717,44.0297,2025-03-01T1300,32,64,0.6,12,8,73,79,57,颗粒物(PM10)
昌吉回族自治州,亚心广场,87.3095,44.0142,2025-03-01T1300,48,78,0.3,18,9,87,85,67,细颗粒物(PM2.5)
长春市,食品厂,125.3325,43.9166,2025-03-01T1300,29,52,0.4,25,9,56,46,51,颗粒物(PM10)
长春市,客车厂,125.2863,43.9027,2025-03-01T1300,37,47,0.4,29,7,53,36,53,细颗粒物(PM2.5)
长春市,邮电学院,125.2841,43.8463,2025-03-01T1300,29,48,0.6,32,8,50,41,48,
长春市,劳动公园,125.3716,43.8772,2025-03-01T1300,23,54,0.4,23,8,57,38,52,颗粒物(PM10)
长春市,园林处,125.3297,43.8805,2025-03-01T1300,28,,0.5,24,11,55,44,40,
长春市,净月潭,125.4605,43.79,2025-03-01T1300,22,38,0.4,15,8,58,58,38,
长春市,甩湾子,125.7194,43.515,2025-03-01T1300,,,,,,,,,
长春市,经开区环卫处,125.3863,43.8447,2025-03-01T1300,26,52,0.4,30,10,50,38,51,颗粒物(PM10)
长春市,高新区管委会,125.245,43.7783,2025-03-01T1300,,,,,,,,,
长春市,岱山公园,125.1761,43.8325,2025-03-01T1300,24,53,0.3,36,8,47,32,52,颗粒物(PM10)
长沙市,经开区环保局,113.0833,28.2325,2025-03-01T1300,18,42,0.4,9,4,104,73,42,
长沙市,高开区环保局,112.8872,28.2189,2025-03-01T1300,19,45,0.6,4,7,110,78,45,
长沙市,马坡岭,113.0792,28.2053,2025-03-01T1300,19,43,0.4,2,3,104,60,43,
长沙市,湖南师范大学,112.9394,28.19,2025-03-01T1300,24,54,0.5,1,6,102,67,52,颗粒物(PM10)
长沙市,雨花区环保局,113.0178,28.1322,2025-03-01T1300,17,44,0.4,5,5,98,73,44,
长沙市,伍家岭,112.9792,28.2597,2025-03-01T1300,20,49,0.6,6,4,102,59,49,
长沙市,火车新站,113.0014,28.1944,2025-03-01T1300,27,53,0.6,6,6,98,50,52,颗粒物(PM10)
长沙市,天心区环保局,112.9844,28.1178,2025-03-01T1300,21,47,0.6,15,4,100,73,47,
长沙市,湖南中医药大学,112.8908,28.1308,2025-03-01T1300,25,48,0.9,2,6,102,54,48,
长沙市,沙坪,112.9581,28.3611,2025-03-01T1300,23,36,0.6,5,7,106,57,36,
长治市,清华站,113.1147,36.1547,2025-03-01T1300,61,71,1.1,23,13,123,95,83,细颗粒物(PM2.5)
长治市,审计局,113.0886,36.2125,2025-03-01T1300,61,69,1.0,19,11,128,86,83,细颗粒物(PM2.5)
长治市,长治八中,113.0844,36.1856,2025-03-01T1300,82,83,1.1,18,16,124,81,109,细颗粒物(PM2.5)
长治市,德盛苑,113.1569,36.1911,2025-03-01T1300,58,71,0.9,19,8,123,92,79,细颗粒物(PM2.5)
长治市,向阳小学,113.06,36.0464,2025-03-01T1300,54,82,1.0,18,16,108,78,74,细颗粒物(PM2.5)
长治市,屯留一中,112.8792,36.3144,2025-03-01T1300,70,,0.8,30,16,127,68,94,细颗粒物(PM2.5)
长治市,英华南巷50号,113.1131,36.19948,2025-03-01T1300,61,63,1.2,19,13,134,96,83,细颗粒物(PM2.5)
长治市,学府街1号,113.2367,36.3344,2025-03-01T1300,64,135,0.8,15,8,127,88,93,颗粒物(PM10)
常德市,市二中,111.6975,28.9703,2025-03-01T1300,65,111,1.0,24,9,46,25,88,细颗粒物(PM2.5)
常德市,白鹤山,111.7158,29.1456,2025-03-01T1300,,,,,,,,,
常德市,武陵区永安,111.7153,29.0289,2025-03-01T1300,73,108,1.1,16,8,47,25,98,细颗粒物(PM2.5)
常德市,鼎城区玉霞,111.6892,28.9881,2025-03-01T1300,67,106,1.1,24,8,47,20,90,细颗粒物(PM2.5)
常德市,武陵区长庚,111.6625,29.0531,2025-03-01T1300,84,162,1.0,14,8,49,19,112,细颗粒物(PM2.5)
常州市,市监测站,119.9633,31.762,2025-03-01T1300,39,44,0.7,,10,109,51,,
常州市,武进监测站,119.9468,31.7069,2025-03-01T1300,39,56,1.0,23,18,124,65,55,细颗粒物(PM2.5)
常州市,安家,119.9255,31.9087,2025-03-01T1300,24,37,0.6,16,9,118,66,37,
常州市,行政中心,119.9805,31.8174,2025-03-01T1300,33,39,0.4,17,23,110,59,48,
常州市,经开区,120.0522,31.7748,2025-03-01T1300,29,53,0.6,18,11,129,64,52,颗粒物(PM10)
常州市,钟楼,119.9025,31.7964,2025-03-01T1300,36,50,0.5,19,9,114,64,52,细颗粒物(PM2.5)
常州市,武进经发区,119.8598,31.7066,2025-03-01T1300,28,56,0.8,31,12,124,62,53,颗粒物(PM10)
常州市,金坛城区,119.5826,31.7245,2025-03-01T1300,13,19,0.7,10,9,123,62,39,
朝阳市,西梁,120.4318,41.5881,2025-03-01T1300,35,71,0.6,24,11,74,49,61,颗粒物(PM10)
朝阳市,河畔小区,120.4521,41.5646,2025-03-01T1300,24,47,0.5,15,8,74,50,47,
朝阳市,八里堡,120.4176,41.5648,2025-03-01T1300,35,58,0.6,17,10,66,44,54,颗粒物(PM10)
朝阳市,农业园区,120.3806,41.5969,2025-03-01T1300,38,73,0.6,22,11,73,42,62,颗粒物(PM10)
潮州市,西园路,116.6367,23.6719,2025-03-01T1300,14,44,0.2,9,5,76,34,44,
潮州市,市政府,116.6183,23.6608,2025-03-01T1300,22,48,0.4,13,5,80,38,48,
潮州市,金山,116.6461,23.6761,2025-03-01T1300,13,64,0.6,7,6,68,28,57,颗粒物(PM10)
郴州市,马头岭,113.0073,25.9061,2025-03-01T1300,11,38,0.4,12,7,79,76,38,
郴州市,市职中,113.0116,25.8226,2025-03-01T1300,17,26,0.4,4,5,82,83,26,
郴州市,市审计局,113.0383,25.8071,2025-03-01T1300,14,15,0.4,8,2,86,86,27,
郴州市,市环保局,113.0348,25.7759,2025-03-01T1300,15,34,0.3,8,4,81,86,34,
郴州市,好美居路49号,113.0138,25.8011,2025-03-01T1300,28,43,0.6,3,6,83,88,43,
成都市,金泉两河,103.9728,30.7236,2025-03-01T1300,53,94,0.6,30,4,76,25,73,细颗粒物(PM2.5)
成都市,十里店,104.176,30.6872,2025-03-01T1300,45,70,0.7,37,3,86,22,63,细颗粒物(PM2.5)
成都市,三瓦窑,104.079,30.5706,2025-03-01T1300,62,103,1.1,40,5,95,29,84,细颗粒物(PM2.5)
成都市,沙河铺,104.1114,30.63,2025-03-01T1300,69,82,0.8,42,5,77,27,93,细颗粒物(PM2.5)
成都市,君平街,104.0786,30.6531,2025-03-01T1300,73,89,0.7,36,7,84,28,98,细颗粒物(PM2.5)
成都市,灵岩寺,103.613,31.0283,2025-03-01T1300,,,,,,,,,
成都市,大石西路,104.0239,30.65639,2025-03-01T1300,60,95,0.9,44,6,82,28,82,细颗粒物(PM2.5)
成都市,龙泉驿区区政府,104.2725,30.5589,2025-03-01T1300,51,58,0.7,18,5,116,71,70,细颗粒物(PM2.5)
成都市,金博路,104.0106,30.6931,2025-03-01T1300,46,61,0.8,24,4,92,27,64,细颗粒物(PM2.5)
成都市,华阳,104.0578,30.5225,2025-03-01T1300,58,85,1.1,46,6,80,29,79,细颗粒物(PM2.5)
成都市,青白江技师分院,104.3853,30.7453,2025-03-01T1300,,55,0.7,12,6,121,47,,
成都市,科学城,104.0789,30.4072,2025-03-01T1300,78,90,0.7,33,5,94,32,104,细颗粒物(PM2.5)
成都市,光华大道三段,103.8506,30.6947,2025-03-01T1300,60,87,1.0,47,8,31,12,82,细颗粒物(PM2.5)
成都市,鲸龙路1057号,104.2433,30.5353,2025-03-01T1300,54,71,0.7,22,2,114,38,74,细颗粒物(PM2.5)
承德市,铁路,117.9531,40.9081,2025-03-01T1300,82,124,0.9,34,16,97,32,109,细颗粒物(PM2.5)
承德市,中国银行,117.9392,40.9763,2025-03-01T1300,74,121,0.8,25,8,103,41,99,细颗粒物(PM2.5)
承德市,开发区,117.9503,40.928,2025-03-01T1300,70,113,1.0,34,12,104,45,94,细颗粒物(PM2.5)
承德市,文化中心,117.8051,40.9655,2025-03-01T1300,78,130,1.0,32,11,95,37,104,细颗粒物(PM2.5)
承德市,离宫,117.9268,41.0026,2025-03-01T1300,95,122,0.8,25,11,110,53,125,细颗粒物(PM2.5)
池州市,池州学院,117.47,30.6618,2025-03-01T1300,22,32,0.5,14,10,102,66,32,
池州市,展览馆,117.4918,30.6617,2025-03-01T1300,18,28,0.4,6,8,104,54,33,
池州市,第八中学,117.5627,30.695,2025-03-01T1300,17,27,0.3,5,4,107,61,34,
池州市,第十二中学,117.5038,30.6243,2025-03-01T1300,20,30,0.4,8,5,107,63,34,
赤峰市,松山一中,118.9233,42.2816,2025-03-01T1300,14,42,0.6,16,8,82,65,42,
赤峰市,哈达街,118.9576,42.2728,2025-03-01T1300,17,30,0.5,13,7,88,73,30,
赤峰市,天义路,118.8788,42.2554,2025-03-01T1300,13,50,0.4,13,8,71,61,50,
赤峰市,银河街,119.2658,42.0353,2025-03-01T1300,18,52,0.4,17,14,66,60,51,颗粒物(PM10)
赤峰市,桥北物流园区,118.9359,42.3147,2025-03-01T1300,24,33,0.6,12,3,74,58,35,
崇左市,市环保局江州分局,107.3476,22.4136,2025-03-01T1300,32,56,0.6,13,7,58,44,53,颗粒物(PM10)
崇左市,石景林东路7号,107.3750,22.3736,2025-03-01T1300,30,59,0.5,13,6,71,44,55,颗粒物(PM10)
滁州市,老年大学,118.3093,32.3153,2025-03-01T1300,31,41,0.5,15,11,120,72,45,
滁州市,人大宾馆,118.3244,32.2786,2025-03-01T1300,24,41,0.4,25,16,111,64,41,
滁州市,市政府原办公楼,118.3118,32.3038,2025-03-01T1300,31,34,0.3,5,8,117,74,45,
滁州市,图书馆,118.3267,32.2634,2025-03-01T1300,21,50,0.3,13,11,112,68,50,
楚雄彝族自治州,州环境监测站,101.5482,25.0441,2025-03-01T1300,25,42,0.5,5,6,114,59,42,
楚雄彝族自治州,市经济开发区,101.538,25.0492,2025-03-01T1300,28,,0.6,5,6,111,60,40,
达州市,达州职业技术学院,107.5277,31.2827,2025-03-01T1300,49,85,0.6,34,19,26,14,68,"颗粒物(PM10),细颗粒物(PM2.5)"
达州市,市环境监测站,107.5086,31.2186,2025-03-01T1300,53,91,1.3,59,16,21,9,73,细颗粒物(PM2.5)
达州市,凤凰小区,107.4988,31.2132,2025-03-01T1300,68,105,2.2,52,23,24,14,92,细颗粒物(PM2.5)
达州市,达县机关宾馆,107.5082,31.1986,2025-03-01T1300,,,1.1,35,17,,9,,
达州市,市政中心,107.4644,31.2124,2025-03-01T1300,75,160,3.4,75,68,9,7,105,颗粒物(PM10)
大理白族自治州,大理市环境监测站,100.1542,25.7054,2025-03-01T1300,32,46,0.7,6,6,113,104,46,
大理白族自治州,大理古城,100.2171,25.5811,2025-03-01T1300,12,27,0.6,5,7,104,94,33,
大连市,甘井子,121.612,38.9741,2025-03-01T1300,48,63,0.8,18,4,111,122,67,细颗粒物(PM2.5)
大连市,周水子,121.565,38.9511,2025-03-01T1300,77,82,1.0,17,5,110,110,103,细颗粒物(PM2.5)
大连市,星海三站,121.5637,38.8845,2025-03-01T1300,58,70,0.8,9,6,121,120,79,细颗粒物(PM2.5)
大连市,青泥洼桥,121.6302,38.9117,2025-03-01T1300,54,64,0.8,12,6,111,118,74,细颗粒物(PM2.5)
大连市,傅家庄,121.6251,38.8638,2025-03-01T1300,36,53,0.6,12,4,113,117,52,"颗粒物(PM10),细颗粒物(PM2.5)"
大连市,七贤岭,121.5213,38.8661,2025-03-01T1300,68,,0.5,14,7,101,109,92,细颗粒物(PM2.5)
大连市,旅顺,121.2529,38.8061,2025-03-01T1300,80,97,0.8,18,5,105,100,107,细颗粒物(PM2.5)
大连市,金州,121.7485,39.1311,2025-03-01T1300,,,,,,,97,,
大连市,开发区,121.7811,39.0496,2025-03-01T1300,,,,,,,67,,
大连市,双D港,121.9762,39.0631,2025-03-01T1300,33,45,0.9,11,8,113,132,48,
大庆市,大同区,124.81117,46.03138,2025-03-01T1300,16,35,0.3,6,6,76,70,35,
大庆市,龙凤区,125.129,46.533,2025-03-01T1300,7,46,0.4,5,6,79,81,46,
大庆市,红岗区,124.902,46.408,2025-03-01T1300,21,29,0.3,10,9,81,80,30,
大庆市,萨尔图区,125.153,46.586,2025-03-01T1300,11,26,0.2,4,5,82,82,26,
大庆市,让胡路区,124.9042,46.6215,2025-03-01T1300,17,21,0.3,3,7,77,70,25,
大庆市,萨区政府监测点,125.141,46.634,2025-03-01T1300,7,19,0.3,2,5,84,82,27,
大同市,果树场,113.3819,40.1097,2025-03-01T1300,74,113,1.1,44,26,104,41,99,细颗粒物(PM2.5)
大同市,云冈宾馆,113.2994,40.0758,2025-03-01T1300,87,191,1.2,45,37,103,42,121,颗粒物(PM10)
大同市,大同大学,113.3444,40.0917,2025-03-01T1300,77,116,0.9,40,36,104,49,103,细颗粒物(PM2.5)
大同市,安家小村,113.2661,40.1269,2025-03-01T1300,55,142,1.1,38,30,100,50,96,颗粒物(PM10)
大同市,教育学院,113.2711,40.0844,2025-03-01T1300,70,133,1.1,44,32,98,31,94,细颗粒物(PM2.5)
大同市,大同市卫生学校,113.3397,40.0597,2025-03-01T1300,102,144,0.9,40,27,121,51,134,细颗粒物(PM2.5)
大同市,云冈站,113.1367,40.1122,2025-03-01T1300,52,126,1.0,35,31,94,40,88,颗粒物(PM10)
大同市,图书馆,113.1186,40.2556,2025-03-01T1300,71,136,0.7,29,40,100,45,95,细颗粒物(PM2.5)
大同市,区一中,113.5931,40.0461,2025-03-01T1300,75,153,0.7,31,31,118,91,102,颗粒物(PM10)
大同市,魏都大道141号,113.2798,40.0997,2025-03-01T1300,69,158,1.0,41,35,100,43,104,颗粒物(PM10)
大兴安岭地区,科技局,124.1069,50.4097,2025-03-01T1300,10,11,0.3,2,5,78,66,25,
大兴安岭地区,红旗社区,124.1164,50.4278,2025-03-01T1300,3,7,0.4,3,4,80,56,25,
丹东市,江湾东路,124.3303,40.0625,2025-03-01T1300,53,56,1.0,14,12,94,80,73,细颗粒物(PM2.5)
丹东市,临江后街,124.4256,40.1503,2025-03-01T1300,57,71,1.1,19,12,86,70,78,细颗粒物(PM2.5)
丹东市,元宝山,124.3933,40.1461,2025-03-01T1300,50,63,1.0,21,10,79,76,69,细颗粒物(PM2.5)
丹东市,民主桥,124.3633,40.1092,2025-03-01T1300,56,71,1.1,14,13,84,76,77,细颗粒物(PM2.5)
儋州市,第一中学子站,109.5726,19.5167,2025-03-01T1300,19,33,0.7,4,4,80,50,33,
儋州市,东坡学校子站,109.5567,19.5187,2025-03-01T1300,17,,0.7,4,5,92,49,29,
德宏傣族景颇族自治州,德宏州监测站,98.5842,24.428,2025-03-01T1300,51,74,0.8,,18,114,42,,
德宏傣族景颇族自治州,芒市人民政府综合楼,98.5881,24.4368,2025-03-01T1300,46,69,0.8,15,11,108,53,64,细颗粒物(PM2.5)
德阳市,东山公园,104.4239,31.1208,2025-03-01T1300,50,60,0.7,18,3,101,55,69,细颗粒物(PM2.5)
德阳市,西小区,104.3826,31.1317,2025-03-01T1300,46,69,0.7,14,5,100,29,64,细颗粒物(PM2.5)
德阳市,耐火材料厂,104.3553,31.1091,2025-03-01T1300,59,61,0.4,9,8,84,23,80,细颗粒物(PM2.5)
德阳市,市教育局,104.4019,31.1244,2025-03-01T1300,46,69,0.7,17,5,100,31,64,细颗粒物(PM2.5)
德州市,儿童乐园,116.3032,37.4674,2025-03-01T1300,149,166,1.3,36,14,114,71,199,细颗粒物(PM2.5)
德州市,监理站,116.2991,37.4451,2025-03-01T1300,132,158,1.1,26,26,120,81,175,细颗粒物(PM2.5)
德州市,九衢泉纯净水厂,116.2721,37.4379,2025-03-01T1300,97,146,1.1,26,14,120,75,128,细颗粒物(PM2.5)
德州市,开发区人民医院,116.3728,37.4403,2025-03-01T1300,114,171,,34,18,115,65,149,细颗粒物(PM2.5)
德州市,太阳城中学,116.3572,37.4094,2025-03-01T1300,114,168,0.6,45,14,113,65,149,细颗粒物(PM2.5)
德州市,陵城艺术中心,116.5652,37.3319,2025-03-01T1300,112,127,1.1,26,13,126,73,147,细颗粒物(PM2.5)
迪庆藏族自治州,迪庆州站,99.7056,27.8317,2025-03-01T1300,20,32,0.6,10,7,95,94,32,
迪庆藏族自治州,质量技术监督局,99.7136,27.8094,2025-03-01T1300,18,26,0.6,10,9,87,86,28,
定西市,将台街,104.6092,35.5962,2025-03-01T1300,31,51,,9,6,101,82,,
定西市,正龙路62号,104.6159,35.5701,2025-03-01T1300,31,50,0.4,6,8,105,92,50,
东莞市,莞城梨川,113.7547,23.0494,2025-03-01T1300,38,48,0.5,24,5,122,56,54,细颗粒物(PM2.5)
东莞市,东城石井,113.7944,23.0128,2025-03-01T1300,33,50,0.5,29,6,117,45,50,
东莞市,南城西平,113.7383,22.9658,2025-03-01T1300,19,32,0.3,24,3,100,37,32,
东莞市,万江金泰,113.7338,23.0381,2025-03-01T1300,29,45,0.7,23,8,132,60,45,
东莞市,南城元岭,113.7533,23.0202,2025-03-01T1300,31,51,0.7,25,5,115,44,51,颗粒物(PM10)
东莞市,东城主山,113.7875,23.0457,2025-03-01T1300,26,47,0.5,23,6,131,56,47,
东营市,市环保局,118.6614,37.4309,2025-03-01T1300,29,29,1.0,16,5,80,78,42,
东营市,开发区管委会,118.6904,37.4338,2025-03-01T1300,22,33,0.8,22,4,88,86,33,
东营市,垦利区民丰路,118.5719,37.565,2025-03-01T1300,29,39,1.1,24,,79,83,,
东营市,河口城区,118.5055,37.8612,2025-03-01T1300,34,41,1.2,19,5,114,91,49,
东营市,胜利站,118.4978,37.4623,2025-03-01T1300,17,44,1.2,15,10,70,76,44,
东营市,理想之城,118.35,37.26,2025-03-01T1300,29,34,0.9,20,6,81,72,42,
鄂尔多斯市,综合楼,110.0023,39.8129,2025-03-01T1300,41,95,0.6,32,9,96,73,73,颗粒物(PM10)
鄂尔多斯市,巴音孟克林场办事处,109.9486,39.8261,2025-03-01T1300,39,83,0.7,32,17,94,80,67,颗粒物(PM10)
鄂尔多斯市,康泽苑,109.7736,39.5986,2025-03-01T1300,36,70,0.7,24,12,111,56,60,颗粒物(PM10)
鄂尔多斯市,华泰汽车城,109.8119,39.5989,2025-03-01T1300,41,70,0.7,22,11,102,43,60,颗粒物(PM10)
鄂尔多斯市,奥林花园,109.9734,39.7884,2025-03-01T1300,41,100,0.6,32,14,94,66,75,颗粒物(PM10)
鄂州市,市政府,114.8938,30.3994,2025-03-01T1300,28,52,0.5,20,9,95,61,51,颗粒物(PM10)
鄂州市,赵家坝,114.8989,30.3714,2025-03-01T1300,29,42,0.8,14,5,96,67,42,
鄂州市,精准医疗中心,114.8094,30.4089,2025-03-01T1300,24,55,0.4,19,5,81,50,53,颗粒物(PM10)
恩施土家族苗族自治州,湖北民院,109.4978,30.2981,2025-03-01T1300,67,71,1.4,46,5,15,7,90,细颗粒物(PM2.5)
恩施土家族苗族自治州,州电力总公司,109.4707,30.2798,2025-03-01T1300,65,78,1.1,32,6,13,8,88,细颗粒物(PM2.5)
恩施土家族苗族自治州,龙凤新区,109.5061,30.3772,2025-03-01T1300,54,71,1.2,29,6,16,6,74,细颗粒物(PM2.5)
防城港市,沙万,108.3411,21.6158,2025-03-01T1300,22,50,0.6,17,8,58,22,50,
防城港市,防城档案局,108.3514,21.7731,2025-03-01T1300,34,50,0.9,16,14,60,28,50,
防城港市,大海花园,108.3506,21.6414,2025-03-01T1300,39,57,1.0,20,15,66,36,55,细颗粒物(PM2.5)
佛山市,湾梁,113.1294,23.0067,2025-03-01T1300,18,46,0.6,30,7,67,25,46,
佛山市,华材职中,113.1083,23.0478,2025-03-01T1300,15,41,0.5,27,9,80,30,41,
佛山市,南海气象局,113.144,23.0453,2025-03-01T1300,19,40,0.4,16,8,73,28,40,
佛山市,顺德苏岗,113.2881,22.8094,2025-03-01T1300,17,35,0.6,27,6,64,22,35,
佛山市,高明孔堂,112.8383,22.8678,2025-03-01T1300,20,34,0.5,18,5,74,38,34,
佛山市,三水监测站,112.8836,23.1588,2025-03-01T1300,26,39,0.5,38,2,68,21,39,
佛山市,三水云东海,112.867,23.185,2025-03-01T1300,25,40,0.3,37,3,74,21,40,
佛山市,容桂街道办,113.2544,22.7642,2025-03-01T1300,29,48,0.6,38,7,60,28,48,
福州市,鼓山,119.3903,26.0543,2025-03-01T1300,,,,,,,94,,
福州市,师大,119.2681,26.0504,2025-03-01T1300,44,65,0.4,26,4,133,52,62,细颗粒物(PM2.5)
福州市,五四北路,119.2984,26.1028,2025-03-01T1300,39,45,0.6,28,5,120,52,55,细颗粒物(PM2.5)
福州市,杨桥西路,119.2648,26.0768,2025-03-01T1300,48,75,0.5,28,5,130,58,67,细颗粒物(PM2.5)
福州市,紫阳,119.317,26.0746,2025-03-01T1300,37,53,0.8,26,4,115,41,53,细颗粒物(PM2.5)
福州市,九龙,119.5799,26.0936,2025-03-01T1300,34,42,1.0,19,7,108,48,49,
福州市,吴航,119.5189,25.9664,2025-03-01T1300,29,37,1.0,17,7,116,50,42,
抚顺市,望花区,123.7977,41.8491,2025-03-01T1300,113,,1.4,26,16,65,73,148,细颗粒物(PM2.5)
抚顺市,顺城区,123.9161,41.8822,2025-03-01T1300,82,,1.1,36,12,71,74,109,细颗粒物(PM2.5)
抚顺市,东洲区,124.0436,41.8611,2025-03-01T1300,51,99,1.4,39,10,86,92,75,颗粒物(PM10)
抚顺市,新抚区,123.9247,41.8642,2025-03-01T1300,78,87,1.1,44,11,72,61,104,细颗粒物(PM2.5)
抚顺市,大伙房水库,124.0972,41.8961,2025-03-01T1300,50,73,,35,12,91,98,,
抚顺市,沈抚新城,123.7086,41.8391,2025-03-01T1300,108,,1.1,41,8,56,74,142,细颗粒物(PM2.5)
抚州市,桐源党溪,116.2127,28.0814,2025-03-01T1300,11,35,0,2,6,78,61,35,
抚州市,市站,116.3544,27.9831,2025-03-01T1300,10,28,0.4,8,5,89,76,28,
抚州市,血防站,116.3565,27.963,2025-03-01T1300,14,32,1.1,1,3,102,80,32,
抚州市,采茶剧团,116.3564,28.0007,2025-03-01T1300,3,26,0.6,6,5,88,76,28,
抚州市,医学分院,116.385,27.9647,2025-03-01T1300,10,20,1.1,3,5,80,60,25,
阜新市,工业园区,121.6094,41.998,2025-03-01T1300,35,85,0.4,14,6,77,70,68,颗粒物(PM10)
阜新市,长青街,121.6697,42.0279,2025-03-01T1300,31,75,0.5,14,6,73,71,63,颗粒物(PM10)
阜新市,农业园区,121.6673,42.0705,2025-03-01T1300,27,82,0.3,11,9,79,77,66,颗粒物(PM10)
阜新市,东苑,121.6717,42.0224,2025-03-01T1300,32,77,0.4,13,3,69,67,64,颗粒物(PM10)
阜新市,玉龙新城,121.6506,42.0498,2025-03-01T1300,29,78,0.4,15,10,76,64,64,颗粒物(PM10)
阜阳市,市监测站,115.8277,32.8929,2025-03-01T1300,97,118,0.9,31,20,61,19,128,细颗粒物(PM2.5)
阜阳市,开发区,115.8554,32.8605,2025-03-01T1300,105,135,0.9,35,21,58,16,138,细颗粒物(PM2.5)
阜阳市,阜阳职业技术学院,115.784,32.8892,2025-03-01T1300,81,130,1.0,28,14,66,23,108,细颗粒物(PM2.5)
阜阳市,市规划展馆,115.7901,32.8613,2025-03-01T1300,102,123,1.1,29,20,71,26,134,细颗粒物(PM2.5)
阜阳市,枣园社区,115.836,32.9183,2025-03-01T1300,103,145,0.9,23,22,72,24,135,细颗粒物(PM2.5)
甘南藏族自治州,州政府,102.9099,34.9841,2025-03-01T1300,18,32,0.3,12,17,65,22,32,
甘南藏族自治州,甘肃民族师范学院,102.8914,34.9617,2025-03-01T1300,9,47,0.5,17,4,58,26,47,
甘孜藏族自治州,水桥子,101.9603,30.0475,2025-03-01T1300,3,18,0.4,5,4,85,48,27,
甘孜藏族自治州,州环保局,101.9533,29.9972,2025-03-01T1300,3,9,0.3,2,5,91,75,29,
赣江新区,桑海产业园,115.8347,28.932,2025-03-01T1300,23,39,0.6,15,14,89,43,39,
赣州市,通天岩,114.9017,25.9149,2025-03-01T1300,3,19,0.7,5,13,79,76,25,
赣州市,地委,114.9367,25.8664,2025-03-01T1300,17,47,0.9,6,10,76,65,47,
赣州市,气象台,114.9461,25.8481,2025-03-01T1300,9,68,0.4,9,9,87,88,59,颗粒物(PM10)
赣州市,市图书馆,114.9322,25.8333,2025-03-01T1300,12,19,0.8,9,5,75,73,24,
赣州市,华坚鞋城,114.8905,25.8471,2025-03-01T1300,10,21,0.5,4,5,76,71,24,
赣州市,赣县区卫计委,115.0093,25.8613,2025-03-01T1300,12,18,0.0,6,6,74,58,24,
固原市,马园,106.2319,36.1417,2025-03-01T1300,37,49,0.7,12,8,103,54,53,细颗粒物(PM2.5)
固原市,监测站,106.2792,36.0022,2025-03-01T1300,38,,0.6,13,10,101,77,54,细颗粒物(PM2.5)
固原市,新区,106.2375,36.0211,2025-03-01T1300,29,32,0.5,9,9,104,77,42,
固原市,原州区十五小,106.2177,35.9959,2025-03-01T1300,33,49,0.5,13,10,100,75,49,
广安市,小平旧居,106.6308,30.5278,2025-03-01T1300,,,,,,,,,
广安市,市委,106.6303,30.4576,2025-03-01T1300,78,105,0.7,43,6,34,47,104,细颗粒物(PM2.5)
广安市,友谊中学,106.6271,30.4663,2025-03-01T1300,85,116,1.0,54,2,24,41,113,细颗粒物(PM2.5)
广安市,广电花园,106.6388,30.4551,2025-03-01T1300,83,107,1.0,52,6,21,40,110,细颗粒物(PM2.5)
广安市,北辰小学,106.6351,30.4865,2025-03-01T1300,82,120,0.6,44,8,36,37,109,细颗粒物(PM2.5)
广元市,黑石坡,105.8945,32.4535,2025-03-01T1300,39,87,1.0,40,9,0,24,69,颗粒物(PM10)
广元市,老城,105.821,32.4444,2025-03-01T1300,55,93,1.4,46,1,6,2,75,细颗粒物(PM2.5)
广元市,监测站,105.8628,32.4287,2025-03-01T1300,61,80,1.7,54,17,7,8,83,细颗粒物(PM2.5)
广元市,经开区,105.8047,32.4166,2025-03-01T1300,81,113,1.8,56,18,6,4,108,细颗粒物(PM2.5)
广州市,广雅中学,113.2347,23.1423,2025-03-01T1300,21,47,0.7,23,5,76,26,47,
广州市,市五中,113.2612,23.105,2025-03-01T1300,18,43,0.7,19,4,82,29,43,
广州市,广东商学院,113.3478,23.0916,2025-03-01T1300,32,56,0.6,32,8,78,25,53,颗粒物(PM10)
广州市,市八十六中,113.4332,23.1047,2025-03-01T1300,23,52,0.6,36,11,92,30,51,颗粒物(PM10)
广州市,番禺中学,113.3505,22.9483,2025-03-01T1300,25,49,0.6,32,5,87,36,49,
广州市,花都师范,113.2146,23.3916,2025-03-01T1300,18,34,0.7,18,1,75,25,34,
广州市,市监测站,113.2597,23.1331,2025-03-01T1300,21,44,0.6,29,8,75,26,44,
广州市,九龙镇镇龙,113.5618,23.312,2025-03-01T1300,17,34,0.4,17,4,80,32,34,
广州市,麓湖,113.2765,23.1544,2025-03-01T1300,21,39,0.6,24,5,79,29,39,
广州市,帽峰山森林公园,113.443,23.3035,2025-03-01T1300,13,26,0.6,13,5,79,50,26,
广州市,体育西,113.3221,23.1322,2025-03-01T1300,34,58,0.6,25,7,79,27,54,颗粒物(PM10)
广州市,从化街口,113.5717,23.5491,2025-03-01T1300,10,20,0.4,7,6,85,39,27,
广州市,白云竹料,113.3472,23.3692,2025-03-01T1300,13,31,0.5,14,6,74,32,31,
广州市,白云嘉禾,113.2981,23.237,2025-03-01T1300,22,43,0.1,28,7,75,30,43,
广州市,黄埔科学城,113.4256,23.1716,2025-03-01T1300,26,43,0.4,33,9,80,33,43,
广州市,番禺大学城,113.3942,23.0483,2025-03-01T1300,21,54,0.8,32,10,98,32,52,颗粒物(PM10)
广州市,南沙黄阁,113.4922,22.8168,2025-03-01T1300,14,53,0.5,16,5,77,28,52,颗粒物(PM10)
广州市,南沙街,113.5342,22.7896,2025-03-01T1300,11,34,0.5,16,5,82,38,34,
广州市,花都梯面,113.2902,23.5544,2025-03-01T1300,15,37,0.5,19,4,81,36,37,
广州市,从化良口,113.7858,23.7478,2025-03-01T1300,11,14,0.5,6,6,86,38,27,
广州市,增城荔城,113.8051,23.2614,2025-03-01T1300,15,28,0.4,,6,98,43,,
贵港市,德智高中,109.568,23.1478,2025-03-01T1300,,,,,,,,,
贵港市,江南子站,109.6047,23.0666,2025-03-01T1300,21,29,0.3,4,7,75,42,30,
贵港市,贵城子站,109.6014,23.0948,2025-03-01T1300,18,41,0.4,9,7,69,30,41,
贵港市,荷城子站,109.5669,23.1065,2025-03-01T1300,14,29,0.5,4,12,64,38,29,
贵港市,新世纪学校,109.5886,23.1172,2025-03-01T1300,21,34,0.4,14,4,71,28,34,
贵阳市,马鞍山,106.6899,26.5998,2025-03-01T1300,19,39,0.3,11,6,89,71,39,
贵阳市,鉴湖路,106.6243,26.6266,2025-03-01T1300,22,51,0.5,7,11,96,72,51,颗粒物(PM10)
贵阳市,燕子冲,106.7487,26.6343,2025-03-01T1300,29,36,0.4,11,8,98,76,42,
贵阳市,碧云窝,106.6555,26.4365,2025-03-01T1300,17,46,0.5,7,8,99,75,46,
贵阳市,红边门,106.7109,26.6027,2025-03-01T1300,31,46,0.5,7,10,90,70,46,
贵阳市,新华路,106.7164,26.5699,2025-03-01T1300,22,39,0.5,9,16,100,73,39,
贵阳市,太慈桥,106.674,26.5424,2025-03-01T1300,22,66,0.4,11,9,94,74,58,颗粒物(PM10)
贵阳市,桐木岭,106.805,26.3003,2025-03-01T1300,28,51,1.0,1,6,89,73,51,颗粒物(PM10)
贵阳市,花果园大街66号,106.6882,26.5695,2025-03-01T1300,23,48,0.4,13,8,81,65,48,
贵阳市,漓江路57号,106.6873,26.5169,2025-03-01T1300,22,41,0.3,8,12,92,71,41,
桂林市,电子科大尧山校区,110.4144,25.3167,2025-03-01T1300,,,,,,,,,
桂林市,龙隐路小学,110.3089,25.2708,2025-03-01T1300,26,42,0.7,19,8,42,34,42,
桂林市,八中,110.2869,25.2178,2025-03-01T1300,24,29,0.3,13,7,43,28,35,
桂林市,旅游学院,110.296,25.1253,2025-03-01T1300,14,19,0.6,14,7,45,45,20,
桂林市,环湖路276号,110.1835,25.2444,2025-03-01T1300,34,,0.9,27,9,10,12,49,
桂林市,信义路13号,110.2803,25.2773,2025-03-01T1300,21,27,0.7,17,5,45,33,30,
果洛藏族自治州,玛沁县大武镇,100.2561,34.4714,2025-03-01T1300,12,20,0.5,1,20,92,56,29,
哈尔滨市,岭北,126.5422,45.755,2025-03-01T1300,12,23,0.5,14,26,87,88,28,
哈尔滨市,松北商大,126.561,45.8167,2025-03-01T1300,14,29,0.4,14,8,83,81,29,
哈尔滨市,阿城会宁,126.979,45.5419,2025-03-01T1300,14,26,0.4,6,9,86,79,27,
哈尔滨市,南岗学府路,126.599,45.7222,2025-03-01T1300,12,40,0.3,12,9,83,81,40,
哈尔滨市,太平宏伟公园,126.689,45.7733,2025-03-01T1300,13,39,0.3,16,6,81,73,39,
哈尔滨市,道外承德广场,126.635,45.7667,2025-03-01T1300,17,40,0.5,16,9,77,75,40,
哈尔滨市,香坊红旗大街,126.685,45.7319,2025-03-01T1300,10,24,0.5,16,6,78,76,25,
哈尔滨市,动力和平路,126.6411,45.7258,2025-03-01T1300,14,32,0.3,15,9,79,81,32,
哈尔滨市,道里建国路,126.593,45.7478,2025-03-01T1300,14,24,0.5,10,7,76,79,24,
哈尔滨市,平房东轻厂,126.615,45.61,2025-03-01T1300,17,37,0.6,23,6,67,64,37,
哈尔滨市,呼兰师专,126.595,45.9855,2025-03-01T1300,17,37,0.7,16,6,75,70,37,
哈尔滨市,省农科院,126.6206,45.6842,2025-03-01T1300,14,24,0.5,17,12,72,69,24,
哈密市,地区监测站,93.5128,42.8172,2025-03-01T1300,31,91,0.1,10,5,83,52,71,颗粒物(PM10)
哈密市,哈密师范学校,93.4961,42.8328,2025-03-01T1300,30,53,0.8,15,7,80,49,52,颗粒物(PM10)
海北藏族自治州,海晏县西海镇,100.9048,36.9639,2025-03-01T1300,25,58,0.6,8,20,110,87,54,颗粒物(PM10)
海东市,平安区公安北苑,102.0738,36.5056,2025-03-01T1300,30,91,0.5,11,12,89,74,71,颗粒物(PM10)
海口市,东寨港,110.576,19.9507,2025-03-01T1300,19,24,0.5,3,2,61,45,28,
海口市,海南大学,110.3232,20.0574,2025-03-01T1300,13,23,0.4,7,3,74,53,24,
海口市,秀英海南医院,110.283,20.0053,2025-03-01T1300,16,36,0.4,11,4,75,50,36,
海口市,海南师范大学,110.338,19.9969,2025-03-01T1300,13,38,0.4,5,3,78,52,38,
海口市,龙华路环保局宿舍,110.33,20.0356,2025-03-01T1300,12,27,0.3,3,4,74,52,27,
海口市,桂林洋子站,110.5111,19.9736,2025-03-01T1300,10,15,0.2,5,3,71,52,23,
海南藏族自治州,共和县恰卜恰镇,100.6188,36.2866,2025-03-01T1300,25,30,0.6,4,10,102,46,36,
海西蒙古族藏族自治州,德令哈市,97.3731,37.3753,2025-03-01T1300,62,209,0.6,11,14,78,86,130,颗粒物(PM10)
邯郸市,东污水处理厂,114.5302,36.6116,2025-03-01T1300,200,267,1.5,63,14,82,39,250,细颗粒物(PM2.5)
邯郸市,矿院,114.4918,36.5713,2025-03-01T1300,205,285,1.5,62,11,85,38,255,细颗粒物(PM2.5)
邯郸市,丛台公园,114.484,36.6133,2025-03-01T1300,208,248,1.5,52,20,92,44,258,细颗粒物(PM2.5)
邯郸市,香泉濮院小区,114.7895,36.5593,2025-03-01T1300,183,218,1.2,46,10,80,40,233,细颗粒物(PM2.5)
邯郸市,永年区实验高中,114.50634,36.77178,2025-03-01T1300,172,248,1.6,48,15,100,48,222,细颗粒物(PM2.5)
邯郸市,峰峰矿区临水派出所,114.20016,36.44293,2025-03-01T1300,194,226,1.6,29,15,115,76,244,细颗粒物(PM2.5)
汉中市,汉川机床厂子校,106.9893,33.1842,2025-03-01T1300,84,88,1.4,37,14,22,28,112,细颗粒物(PM2.5)
汉中市,市监测站,107.0154,33.0706,2025-03-01T1300,86,119,2.0,50,9,13,12,114,细颗粒物(PM2.5)
汉中市,鑫源开发区,107.0089,33.1138,2025-03-01T1300,84,103,1.5,46,9,17,12,112,细颗粒物(PM2.5)
汉中市,南郑大河坎水厂,107.007,33.0323,2025-03-01T1300,81,101,1.7,42,8,11,16,108,细颗粒物(PM2.5)
杭州市,滨江,120.2072,30.2111,2025-03-01T1300,9,19,0.5,11,5,105,45,33,
杭州市,西溪,120.0633,30.2747,2025-03-01T1300,13,17,0.5,6,7,107,45,34,
杭州市,下沙,120.3461,30.3153,2025-03-01T1300,16,28,0.6,19,5,99,46,31,
杭州市,卧龙桥,120.1269,30.2456,2025-03-01T1300,10,15,0.3,19,6,107,42,34,
杭州市,浙江农大,120.1903,30.2692,2025-03-01T1300,9,14,0.5,20,8,99,40,31,
杭州市,和睦小学,120.1197,30.3119,2025-03-01T1300,16,19,0.5,11,6,106,44,34,
杭州市,临平镇,120.3019,30.4183,2025-03-01T1300,18,35,0.6,23,6,103,46,35,
杭州市,城厢镇,120.2697,30.1819,2025-03-01T1300,18,26,0.6,20,6,104,46,33,
杭州市,云栖,120.0883,30.1808,2025-03-01T1300,14,20,0.7,11,8,112,39,35,
杭州市,镇二中,119.9464,30.0494,2025-03-01T1300,14,20,0.6,18,7,96,39,30,
杭州市,市府大楼,119.7183,30.2367,2025-03-01T1300,13,19,0.4,14,8,100,54,32,
杭州市,消防大队,120.1556,30.2864,2025-03-01T1300,8,17,0.7,10,7,110,45,35,
合肥市,明珠广场,117.1959,31.7848,2025-03-01T1300,19,31,0.6,14,8,110,60,35,
合肥市,三里街,117.3072,31.8764,2025-03-01T1300,29,44,0.6,22,4,83,32,44,
合肥市,琥珀山庄,117.2588,31.8707,2025-03-01T1300,31,48,0.5,26,2,85,51,48,
合肥市,董铺水库,117.1604,31.9052,2025-03-01T1300,22,44,0.4,9,3,108,73,44,
合肥市,长江中路,117.25,31.8571,2025-03-01T1300,33,53,0.6,26,8,94,59,52,颗粒物(PM10)
合肥市,庐阳区,117.266,31.9436,2025-03-01T1300,27,53,0.6,22,8,96,63,52,颗粒物(PM10)
合肥市,瑶海区,117.336,31.8586,2025-03-01T1300,27,61,0.8,18,8,94,44,56,颗粒物(PM10)
合肥市,包河区,117.3027,31.7964,2025-03-01T1300,24,39,0.7,10,8,110,64,39,
合肥市,滨湖新区,117.2776,31.7385,2025-03-01T1300,27,39,0.6,10,8,112,66,39,
合肥市,高新区,117.1318,31.8403,2025-03-01T1300,22,44,0.4,12,4,103,62,44,
合肥市,高教基地,117.3803,31.9147,2025-03-01T1300,18,41,0.4,8,10,108,64,41,
和田地区,地区环保局,79.924,37.0877,2025-03-01T1300,72,347,0.4,2,2,70,46,199,颗粒物(PM10)
和田地区,市环保局,79.9131,37.113,2025-03-01T1300,75,333,0.4,2,1,78,53,192,颗粒物(PM10)
河池市,东仁乐园,108.2011,24.715,2025-03-01T1300,3,62,0.7,5,10,64,39,56,颗粒物(PM10)
河池市,市环保站,108.0497,24.6947,2025-03-01T1300,12,39,0.5,4,8,63,29,39,
河池市,市疾控中心,108.0983,24.6989,2025-03-01T1300,13,32,0.6,3,9,60,53,32,
河源市,源西,114.6778,23.7569,2025-03-01T1300,13,21,0.5,11,5,76,32,24,
河源市,东埔,114.6944,23.7586,2025-03-01T1300,16,30,0.5,10,3,81,36,30,
河源市,老城,114.6892,23.7233,2025-03-01T1300,12,24,0.6,7,4,51,24,24,
菏泽市,气象局,115.4208,35.2464,2025-03-01T1300,144,154,1.0,31,6,39,64,192,细颗粒物(PM2.5)
菏泽市,定陶老年大学,115.5564,35.0891,2025-03-01T1300,134,156,0.9,24,4,46,65,178,细颗粒物(PM2.5)
菏泽市,永昌路1号,115.4797,35.24401,2025-03-01T1300,149,157,0.9,25,6,43,57,199,细颗粒物(PM2.5)
菏泽市,长城路999号,115.4715,35.2800,2025-03-01T1300,130,136,1.0,29,5,46,62,172,细颗粒物(PM2.5)
贺州市,环保小区,111.5264,24.4172,2025-03-01T1300,33,39,0.6,11,7,66,63,48,
贺州市,政协大楼,111.5608,24.4078,2025-03-01T1300,15,35,0.6,13,8,66,58,35,
贺州市,西湾,111.4744,24.4553,2025-03-01T1300,29,34,0.5,17,6,60,48,42,
鹤壁市,市监测站,114.17,35.9019,2025-03-01T1300,166,203,1.9,38,17,115,55,216,细颗粒物(PM2.5)
鹤壁市,市交警支队,114.2956,35.7511,2025-03-01T1300,82,92,1.2,17,8,83,39,109,细颗粒物(PM2.5)
鹤壁市,迎宾馆,114.2878,35.7306,2025-03-01T1300,67,101,0.9,14,5,78,37,90,细颗粒物(PM2.5)
鹤壁市,大新区,114.2617,35.6822,2025-03-01T1300,74,,0.8,21,11,70,36,99,细颗粒物(PM2.5)
鹤壁市,南山宾馆,114.1572,35.9603,2025-03-01T1300,168,193,1.4,26,19,124,70,218,细颗粒物(PM2.5)
鹤岗市,哈啤分公司,130.2537,47.3416,2025-03-01T1300,16,16,0.3,4,14,67,74,23,
鹤岗市,斯达机电,130.2684,47.3086,2025-03-01T1300,7,12,0.2,2,12,73,76,23,
鹤岗市,东山纸板厂,130.3114,47.3388,2025-03-01T1300,6,29,0.6,8,12,69,69,29,
鹤岗市,五号水库,130.1097,47.3382,2025-03-01T1300,,,,,,,,,
黑河市,交通局,127.4833,50.2524,2025-03-01T1300,10,13,0.4,4,6,80,64,25,
黑河市,环保局,127.5144,50.2341,2025-03-01T1300,12,16,0.1,4,4,78,71,25,
黑河市,大黑河岛,127.5291,50.2472,2025-03-01T1300,,,,,,,,,
衡水市,电机北厂,115.6838,37.7541,2025-03-01T1300,141,162,0.9,22,11,122,57,188,细颗粒物(PM2.5)
衡水市,市监测站,115.6303,37.7316,2025-03-01T1300,141,152,0.9,28,17,116,80,188,细颗粒物(PM2.5)
衡水市,市城管局,115.6683,37.7217,2025-03-01T1300,134,144,0.9,31,8,111,63,178,细颗粒物(PM2.5)
衡水市,地表水厂,115.5989,37.5491,2025-03-01T1300,141,153,0.9,23,12,116,52,188,细颗粒物(PM2.5)
衡阳市,原169医院,112.5003,26.9167,2025-03-01T1300,19,34,0.5,2,8,66,59,34,
衡阳市,衡阳化工总厂,112.6194,26.9258,2025-03-01T1300,18,,0.6,7,6,93,76,,
衡阳市,珠晖区环保局,112.6211,26.8956,2025-03-01T1300,18,41,0.4,6,7,93,74,41,
衡阳市,市委党校,112.6197,26.8733,2025-03-01T1300,15,43,0.6,4,7,96,82,43,
衡阳市,市监测站,112.6006,26.8919,2025-03-01T1300,19,32,0.6,4,7,94,74,32,
衡阳市,真空机电公司,112.5664,26.9056,2025-03-01T1300,,,,,,,,,
衡阳市,师范学院,112.6703,26.882,2025-03-01T1300,22,38,,8,8,97,80,,
红河哈尼族彝族自治州,污水处理厂,103.3772,23.3993,2025-03-01T1300,32,46,0.3,4,7,113,98,46,
红河哈尼族彝族自治州,监测站,103.3861,23.35,2025-03-01T1300,20,41,0.3,4,8,111,92,41,
红河哈尼族彝族自治州,州图书馆,103.3758,23.368,2025-03-01T1300,23,37,0.2,4,7,101,84,37,
呼和浩特市,呼市一监,111.6507,40.7517,2025-03-01T1300,50,66,0.8,32,16,91,48,69,细颗粒物(PM2.5)
呼和浩特市,小召,111.6572,40.8033,2025-03-01T1300,38,66,0.6,32,10,88,41,58,颗粒物(PM10)
呼和浩特市,如意水处理厂,111.7516,40.8369,2025-03-01T1300,41,80,0.8,31,15,80,24,65,颗粒物(PM10)
呼和浩特市,二十九中,111.7276,40.8062,2025-03-01T1300,44,98,1.1,38,11,70,33,74,颗粒物(PM10)
呼和浩特市,工大金川校区,111.5512,40.7866,2025-03-01T1300,43,69,0.6,34,13,80,39,60,"颗粒物(PM10),细颗粒物(PM2.5)"
呼和浩特市,化肥厂生活区,111.717,40.7612,2025-03-01T1300,47,92,0.8,41,18,87,50,71,颗粒物(PM10)
呼和浩特市,红旗小学,111.5968,40.8178,2025-03-01T1300,47,73,0.9,32,12,86,32,65,细颗粒物(PM2.5)
呼和浩特市,海东办,111.6518,40.8389,2025-03-01T1300,42,58,0.7,30,10,82,27,59,细颗粒物(PM2.5)
呼伦贝尔市,区环保局,119.7594,49.2261,2025-03-01T1300,25,44,0.4,13,8,77,50,44,
呼伦贝尔市,国华电力东,119.7512,49.1577,2025-03-01T1300,12,32,0.5,9,8,85,78,32,
湖州市,城西水厂,120.0751,30.8669,2025-03-01T1300,18,33,0.4,22,7,117,47,37,
湖州市,仁皇山新区,120.0875,30.8955,2025-03-01T1300,22,31,0.9,20,5,118,49,37,
湖州市,吴兴区站,120.1844,30.8596,2025-03-01T1300,25,39,0.5,14,6,120,52,39,
湖州市,南浔区站,120.4148,30.8538,2025-03-01T1300,22,34,0.5,16,8,137,64,43,
葫芦岛市,龙港区,120.9092,40.7136,2025-03-01T1300,96,,1.0,30,7,77,94,127,细颗粒物(PM2.5)
葫芦岛市,化工街,120.8392,40.7514,2025-03-01T1300,88,112,0.6,54,26,53,78,117,细颗粒物(PM2.5)
葫芦岛市,新区,120.8341,40.7073,2025-03-01T1300,104,113,1.3,51,8,64,93,137,细颗粒物(PM2.5)
葫芦岛市,东城区,120.8695,40.7677,2025-03-01T1300,89,,0.9,46,7,60,77,118,细颗粒物(PM2.5)
怀化市,林科所,109.5981,27.5721,2025-03-01T1300,12,27,0.3,12,3,80,54,27,
怀化市,河西地税局,109.9453,27.5444,2025-03-01T1300,24,31,0.6,4,7,76,37,35,
怀化市,市四医院,109.9781,27.5342,2025-03-01T1300,19,44,0.5,8,4,77,40,44,
怀化市,监测楼,109.9972,27.5578,2025-03-01T1300,17,28,0.8,7,6,73,32,28,
怀化市,市委党校,110.0394,27.583,2025-03-01T1300,17,26,0.8,7,6,78,40,26,
淮安市,钵池山,119.036,33.5981,2025-03-01T1300,82,88,1.4,34,13,74,28,109,细颗粒物(PM2.5)
淮安市,北京南路,119.007,33.575,2025-03-01T1300,87,88,1.6,46,20,58,24,115,细颗粒物(PM2.5)
淮安市,市监测站,118.989,33.6067,2025-03-01T1300,90,100,1.3,52,15,57,31,119,细颗粒物(PM2.5)
淮安市,楚州区监测站,119.135,33.5039,2025-03-01T1300,78,83,0.9,32,10,59,24,104,细颗粒物(PM2.5)
淮安市,新华书店,118.8755,33.2894,2025-03-01T1300,54,68,0.8,34,12,75,20,74,细颗粒物(PM2.5)
淮安市,承德北路606号,119.0288,33.6319,2025-03-01T1300,84,110,1.3,51,12,57,26,112,细颗粒物(PM2.5)
淮北市,监测站,116.8004,33.975,2025-03-01T1300,74,84,0.9,22,8,77,49,99,细颗粒物(PM2.5)
淮北市,烈山区政府,116.8091,33.9007,2025-03-01T1300,104,106,1.0,28,10,69,54,137,细颗粒物(PM2.5)
淮北市,杜集区检察院,116.8873,33.9836,2025-03-01T1300,108,,1.2,26,8,66,52,142,细颗粒物(PM2.5)
淮北市,市博物馆,116.7923,33.9535,2025-03-01T1300,60,72,0.8,22,10,75,54,82,细颗粒物(PM2.5)
淮南市,潘集区政府,116.8305,32.7727,2025-03-01T1300,70,87,0.8,27,10,72,34,94,细颗粒物(PM2.5)
淮南市,谢家集区政府,116.8569,32.5951,2025-03-01T1300,67,80,0.4,20,10,81,42,90,细颗粒物(PM2.5)
淮南市,八公山区政府,116.8281,32.633,2025-03-01T1300,3,46,0.6,18,8,81,50,46,
淮南市,焦岗湖风景区管理处,116.6325,32.6201,2025-03-01T1300,47,92,0.5,13,15,39,14,71,颗粒物(PM10)
淮南市,经济技术开发区消防队,117.0566,32.6531,2025-03-01T1300,41,61,0.7,21,11,93,43,58,细颗粒物(PM2.5)
淮南市,山南新区,117.0108,32.5893,2025-03-01T1300,46,68,0.6,21,12,90,47,64,细颗粒物(PM2.5)
淮南市,国庆中路369号,117.0031,32.6445,2025-03-01T1300,68,71,0.4,33,15,95,44,92,细颗粒物(PM2.5)
黄冈市,职工中心,114.9028,30.4742,2025-03-01T1300,34,42,0.7,20,10,107,66,49,
黄冈市,红卫路,114.8858,30.4519,2025-03-01T1300,36,46,1.0,9,12,109,69,52,细颗粒物(PM2.5)
黄冈市,市林业局,114.9136,30.4445,2025-03-01T1300,36,46,0.7,12,14,104,62,52,细颗粒物(PM2.5)
黄南藏族自治州,同仁县隆务镇,102.0199,35.5102,2025-03-01T1300,50,69,0.6,12,20,79,53,69,细颗粒物(PM2.5)
黄山市,延安路89号,118.2903,29.6963,2025-03-01T1300,19,33,0.4,4,4,103,31,33,
黄山市,黄山区政府5号楼,118.1371,30.2756,2025-03-01T1300,16,30,0.3,2,8,103,60,33,
黄山市,滨江东路7-2号,118.3354,29.7203,2025-03-01T1300,8,37,0.3,5,5,101,30,37,
黄石市,沈家营,115.0601,30.2313,2025-03-01T1300,17,60,0.5,19,10,105,50,55,颗粒物(PM10)
黄石市,铁山,114.8988,30.2019,2025-03-01T1300,22,33,0.4,28,21,,71,,
黄石市,团城山,115.0307,30.2092,2025-03-01T1300,12,44,0.5,10,15,111,67,44,
黄石市,笔架山北路,115.0235,30.1578,2025-03-01T1300,12,28,0.6,2,8,115,82,36,
黄石市,磁湖东路29号,115.0780,30.21118,2025-03-01T1300,23,42,0.5,2,7,120,56,42,
惠州市,河南岸金山湖子站,114.4183,23.0528,2025-03-01T1300,12,22,0.4,9,8,79,42,25,
惠州市,下埔横江三路子站,114.4053,23.0822,2025-03-01T1300,12,25,0.5,11,7,85,45,27,
惠州市,江北云山西路子站,114.4103,23.1142,2025-03-01T1300,11,23,0.5,12,8,88,47,28,
惠州市,惠阳区承修路船湖子站,114.4645,22.7833,2025-03-01T1300,11,26,0.5,11,9,77,57,26,
惠州市,大亚湾管委会子站,114.5317,22.7422,2025-03-01T1300,9,22,0.5,11,8,87,57,28,
惠州市,惠阳秋长,114.4338,22.8134,2025-03-01T1300,12,36,0.7,15,11,86,55,36,
惠州市,大亚湾霞涌,114.6517,22.775,2025-03-01T1300,20,26,0.6,14,9,82,62,29,
鸡西市,环保局,130.9762,45.3001,2025-03-01T1300,18,44,0.4,12,10,78,54,44,
鸡西市,第一中学,130.9429,45.3039,2025-03-01T1300,9,30,0.2,13,9,79,77,30,
鸡西市,欧美日汽修厂,131.0207,45.3073,2025-03-01T1300,3,17,0.6,4,5,,53,,
鸡西市,市政设施管理处,130.9967,45.3106,2025-03-01T1300,6,42,0.3,8,5,,44,,
吉安市,红声器材厂,114.9754,27.0803,2025-03-01T1300,15,46,0.5,7,11,92,81,46,
吉安市,市森林工业局,114.9658,27.0999,2025-03-01T1300,16,31,0.3,12,4,93,81,31,
吉安市,市环境监测站,114.99,27.1312,2025-03-01T1300,14,29,0.0,20,6,87,81,29,
吉安市,青原区法院,115.0093,27.0968,2025-03-01T1300,9,35,0.4,,,98,94,,
吉林市,哈达湾,126.54,43.8622,2025-03-01T1300,34,61,0.9,24,17,45,33,56,颗粒物(PM10)
吉林市,东局子,126.5844,43.8358,2025-03-01T1300,43,57,1.3,44,23,19,27,60,细颗粒物(PM2.5)
吉林市,电力学院,126.5052,43.8245,2025-03-01T1300,47,57,0.8,43,30,15,24,65,细颗粒物(PM2.5)
吉林市,江北,126.6133,43.8972,2025-03-01T1300,33,55,0.9,36,13,29,25,53,颗粒物(PM10)
吉林市,江南公园,126.555,43.8306,2025-03-01T1300,39,55,1.2,35,18,29,22,55,细颗粒物(PM2.5)
吉林市,丰满,126.7061,43.7133,2025-03-01T1300,75,77,1.4,59,14,33,72,100,细颗粒物(PM2.5)
吉林市,九站,126.4739,43.953,2025-03-01T1300,36,53,0.8,42,22,35,28,52,"颗粒物(PM10),细颗粒物(PM2.5)"
济南市,科干所,116.9862,36.6114,2025-03-01T1300,61,100,0.8,43,10,100,106,83,细颗粒物(PM2.5)
济南市,农科所,116.9376,36.665,2025-03-01T1300,66,105,0.9,22,8,114,77,89,细颗粒物(PM2.5)
济南市,开发区,117.1265,36.6734,2025-03-01T1300,51,71,0.7,20,7,113,103,70,细颗粒物(PM2.5)
济南市,省种子仓库,117.0624,36.6868,2025-03-01T1300,68,97,0.9,21,6,120,73,92,细颗粒物(PM2.5)
济南市,机床二厂,116.9489,36.6447,2025-03-01T1300,83,93,0.9,24,11,120,94,110,细颗粒物(PM2.5)
济南市,市监测站,117.0495,36.663,2025-03-01T1300,66,90,0.7,28,9,102,80,89,细颗粒物(PM2.5)
济南市,长清党校,116.7675,36.5484,2025-03-01T1300,83,107,0.9,25,6,125,109,110,细颗粒物(PM2.5)
济南市,技术学院,117.6795,36.229,2025-03-01T1300,,114,2.8,47,14,65,103,,
济南市,东山小学,117.532,36.6868,2025-03-01T1300,24,39,0.7,16,8,109,99,39,
济南市,泰兴公司,117.7161,36.2049,2025-03-01T1300,92,119,2.5,44,15,56,82,122,细颗粒物(PM2.5)
济南市,莱芜战役纪念馆,117.6867,36.2171,2025-03-01T1300,107,134,2.7,48,10,53,86,140,细颗粒物(PM2.5)
济南市,济阳区政府,117.1673,36.9782,2025-03-01T1300,83,103,0.8,10,17,124,100,110,细颗粒物(PM2.5)
济南市,锦屏中学,117.1171,36.63,2025-03-01T1300,54,63,0.7,24,12,126,121,74,细颗粒物(PM2.5)
济南市,济南四建,116.9814,36.6819,2025-03-01T1300,63,68,0.6,22,7,114,92,85,细颗粒物(PM2.5)
济宁市,火炬城,116.6251,35.4302,2025-03-01T1300,,147,,25,,35,55,,
济宁市,电化厂,116.5491,35.4042,2025-03-01T1300,107,137,1.5,15,9,44,62,140,细颗粒物(PM2.5)
济宁市,北湖一中,116.5814,35.3707,2025-03-01T1300,102,105,1.2,19,6,48,64,134,细颗粒物(PM2.5)
济宁市,服务中心,116.8249,35.5593,2025-03-01T1300,75,,1.5,19,5,53,53,100,细颗粒物(PM2.5)
济宁市,市第七中学,116.5907,35.4054,2025-03-01T1300,102,,1.3,16,3,54,67,134,细颗粒物(PM2.5)
佳木斯市,佳纺,130.2751,46.8028,2025-03-01T1300,8,16,0.3,5,5,78,72,25,
佳木斯市,发电厂,130.3995,46.8307,2025-03-01T1300,8,14,0.2,4,7,83,83,26,
佳木斯市,环保局,130.3258,46.7975,2025-03-01T1300,11,26,0.2,8,7,73,73,26,
佳木斯市,十一中,130.3648,46.8032,2025-03-01T1300,9,15,0.2,9,3,61,63,20,
佳木斯市,四丰,130.3794,46.7588,2025-03-01T1300,3,27,0.4,2,1,75,76,27,
嘉兴市,清河小学,120.7436,30.778,2025-03-01T1300,15,30,0.5,21,5,107,54,34,
嘉兴市,嘉兴学院,120.726,30.7478,2025-03-01T1300,23,37,0.4,23,8,113,54,37,
嘉兴市,南湖区残联,120.7846,30.7525,2025-03-01T1300,23,42,0.6,21,9,117,70,42,
嘉兴市,秀洲住建,120.6916,30.7739,2025-03-01T1300,26,51,0.8,26,7,111,52,51,颗粒物(PM10)
嘉峪关市,气象局,98.2908,39.7711,2025-03-01T1300,27,83,0.7,29,24,77,68,67,颗粒物(PM10)
嘉峪关市,酒钢宾馆,98.2672,39.7978,2025-03-01T1300,36,112,1.4,40,61,63,60,81,颗粒物(PM10)
嘉峪关市,雄关区,98.2643,39.7724,2025-03-01T1300,40,97,1.1,39,41,70,66,74,颗粒物(PM10)
江门市,北街,113.1064,22.6058,2025-03-01T1300,24,46,0.4,23,3,86,34,46,
江门市,西区,113.0731,22.5835,2025-03-01T1300,17,31,0.5,20,6,91,42,31,
江门市,圭峰西,113.0219,22.5311,2025-03-01T1300,22,40,0.5,19,4,80,45,40,
江门市,东湖,113.0828,22.5947,2025-03-01T1300,24,36,0.3,16,9,89,38,36,
江门市,江海富民,113.1075,22.5647,2025-03-01T1300,32,58,0.3,16,7,97,40,54,颗粒物(PM10)
江门市,新会银湖,113.05,22.4667,2025-03-01T1300,25,42,0.7,15,6,87,34,42,
焦作市,影视城,113.1992,35.2590,2025-03-01T1300,,,,,,,99,,
焦作市,太极体育中心,113.2725,35.2067,2025-03-01T1300,82,88,0.9,18,15,96,65,109,细颗粒物(PM2.5)
焦作市,马村街道办,113.3137,35.2641,2025-03-01T1300,95,,0.9,17,14,86,62,125,细颗粒物(PM2.5)
焦作市,焦作技师学院,113.2465,35.2373,2025-03-01T1300,83,111,1.0,19,13,95,67,110,细颗粒物(PM2.5)
焦作市,中站许衡医院,113.1656,35.2539,2025-03-01T1300,70,102,1.2,16,13,102,91,94,细颗粒物(PM2.5)
焦作市,原李万街道办,113.2449,35.1803,2025-03-01T1300,73,89,0.6,16,20,88,65,98,细颗粒物(PM2.5)
焦作市,新安路1731号,113.2340,35.2190,2025-03-01T1300,86,118,0.7,17,11,95,71,114,细颗粒物(PM2.5)
揭阳市,新兴,116.3701,23.5345,2025-03-01T1300,30,40,0.6,13,9,97,45,43,
揭阳市,西马,116.3264,23.5443,2025-03-01T1300,21,26,0.6,9,11,112,47,35,
揭阳市,东兴,116.3611,23.5626,2025-03-01T1300,,,0.5,10,7,99,44,,
揭阳市,渔湖,116.4151,23.5294,2025-03-01T1300,31,,0.8,5,10,94,43,45,
揭阳市,曲溪,116.403,23.5699,2025-03-01T1300,45,45,0.5,11,2,95,42,63,细颗粒物(PM2.5)
金昌市,天庆家园,102.1692,38.5167,2025-03-01T1300,20,85,,10,20,94,84,,
金昌市,金川区人防中心,102.1647,38.5371,2025-03-01T1300,18,68,0.4,4,6,95,84,59,颗粒物(PM10)
金昌市,长春路96号,102.1930,38.5319,2025-03-01T1300,18,47,0.7,8,1,92,82,47,
金华市,十五中,119.647,29.077,2025-03-01T1300,26,49,0.8,20,6,119,44,49,
金华市,监测站,119.686,29.1029,2025-03-01T1300,30,55,0.6,22,5,123,40,53,颗粒物(PM10)
金华市,气象局,119.656,29.1131,2025-03-01T1300,21,46,0.6,13,5,122,43,46,
锦州市,南山,121.1115,41.0879,2025-03-01T1300,103,,,35,,67,72,135,细颗粒物(PM2.5)
锦州市,开发区,121.0533,40.8434,2025-03-01T1300,74,74,1.1,40,28,88,86,99,细颗粒物(PM2.5)
锦州市,百股街道,121.1836,41.1119,2025-03-01T1300,95,,1.4,34,11,79,85,125,细颗粒物(PM2.5)
锦州市,天安街道,121.1178,41.1222,2025-03-01T1300,132,,1.1,34,11,65,82,175,细颗粒物(PM2.5)
锦州市,北湖公园,121.1303,41.1386,2025-03-01T1300,129,,1.0,32,11,53,75,170,细颗粒物(PM2.5)
晋城市,自来水公司,112.85,35.5051,2025-03-01T1300,53,68,0.8,16,9,111,87,73,细颗粒物(PM2.5)
晋城市,白云商贸,112.8318,35.4936,2025-03-01T1300,53,103,0.7,18,9,111,89,77,颗粒物(PM10)
晋城市,市环保局,112.8508,35.4887,2025-03-01T1300,46,73,0.3,19,14,108,81,64,细颗粒物(PM2.5)
晋城市,技术学院,112.8676,35.4897,2025-03-01T1300,39,49,0.8,15,8,107,73,55,细颗粒物(PM2.5)
晋城市,白马寺,112.8453,35.546,2025-03-01T1300,,,,,,,,,
晋城市,泽州一中,112.8271,35.4828,2025-03-01T1300,66,105,0.8,16,7,106,94,89,细颗粒物(PM2.5)
晋中市,南都小区,112.7249,37.7067,2025-03-01T1300,80,119,1.2,29,17,105,59,107,细颗粒物(PM2.5)
晋中市,榆次区政府,112.6991,37.6982,2025-03-01T1300,66,132,0.7,41,18,97,58,91,颗粒物(PM10)
晋中市,榆次三中,112.7195,37.6828,2025-03-01T1300,73,114,0.7,29,15,116,55,98,细颗粒物(PM2.5)
晋中市,迎宾街26号,112.7478,37.6954,2025-03-01T1300,78,119,1.4,25,16,117,63,104,细颗粒物(PM2.5)
荆门市,竹园小学,112.2014,31.0481,2025-03-01T1300,127,144,0.7,19,7,72,38,168,细颗粒物(PM2.5)
荆门市,掇刀,112.1969,30.9891,2025-03-01T1300,131,153,0.9,23,13,79,54,173,细颗粒物(PM2.5)
荆门市,石化一小,112.2213,31.0386,2025-03-01T1300,130,165,0.8,20,9,72,40,172,细颗粒物(PM2.5)
荆门市,西山林语,112.1849,31.0362,2025-03-01T1300,119,148,0.3,21,7,74,49,156,细颗粒物(PM2.5)
荆门市,龙泉中学南校,112.1632,31.0138,2025-03-01T1300,109,139,1.0,15,10,72,46,143,细颗粒物(PM2.5)
荆州市,市图书馆,112.2494,30.3197,2025-03-01T1300,113,135,1.4,28,5,29,12,148,细颗粒物(PM2.5)
荆州市,市委党校,112.2008,30.3544,2025-03-01T1300,106,155,1.3,26,6,30,10,139,细颗粒物(PM2.5)
荆州市,管委会,112.2747,30.3122,2025-03-01T1300,104,170,1.2,30,10,28,10,137,细颗粒物(PM2.5)
荆州市,学苑路85号,112.1722,30.3366,2025-03-01T1300,153,,1.3,32,8,33,14,203,细颗粒物(PM2.5)
景德镇市,王港中学,117.3102,29.3867,2025-03-01T1300,,,,,,,,,
景德镇市,老干部活动中心,117.2117,29.2933,2025-03-01T1300,24,32,0.2,11,10,104,43,35,
景德镇市,兽医站,117.1894,29.2789,2025-03-01T1300,19,41,0.3,15,10,104,50,41,
景德镇市,台达陶瓷,117.1547,29.2617,2025-03-01T1300,27,71,1.1,21,32,86,59,61,颗粒物(PM10)
景德镇市,陶研所,117.2461,29.2956,2025-03-01T1300,20,27,0.3,13,4,97,57,31,
九江市,十里,115.9872,29.6815,2025-03-01T1300,17,31,0.5,8,8,108,55,34,
九江市,茅山头,115.9584,29.7046,2025-03-01T1300,17,24,,13,9,118,56,,
九江市,西园,115.9877,29.7295,2025-03-01T1300,14,33,0.3,18,9,121,60,38,
九江市,综合工业园,115.9114,29.6038,2025-03-01T1300,19,30,0.7,13,7,125,96,40,
九江市,石化总厂,116.0721,29.7535,2025-03-01T1300,17,37,0.7,19,14,113,69,37,
九江市,庐山气象台,115.9773,29.5698,2025-03-01T1300,19,25,0.8,6,20,108,100,34,
九江市,外国语学校,116.0254,29.6994,2025-03-01T1300,11,27,0.8,20,7,123,76,39,
九江市,莲花大道8号,116.0102,29.6594,2025-03-01T1300,24,25,0.5,2,7,98,58,35,
酒泉市,仓门街子站,98.5061,39.7443,2025-03-01T1300,,,,,,,90,,
酒泉市,玉门东路5号,98.4958,39.7339,2025-03-01T1300,33,73,0.3,8,8,89,68,62,颗粒物(PM10)
喀什地区,巡警大队,76.0072,39.4467,2025-03-01T1300,47,78,1.1,47,4,34,44,65,细颗粒物(PM2.5)
喀什地区,吾办,75.9755,39.4694,2025-03-01T1300,49,77,0.9,38,8,40,46,68,细颗粒物(PM2.5)
喀什地区,老干局,75.9483,39.4689,2025-03-01T1300,45,89,1.0,32,13,42,36,70,颗粒物(PM10)
开封市,肿瘤医院,114.3389,34.7781,2025-03-01T1300,88,,1.2,14,6,70,50,117,细颗粒物(PM2.5)
开封市,世纪星幼儿园,114.2885,34.7965,2025-03-01T1300,83,,1.1,21,8,72,60,110,细颗粒物(PM2.5)
开封市,龙亭公园,114.3438,34.8106,2025-03-01T1300,70,91,1.1,22,4,68,46,94,细颗粒物(PM2.5)
开封市,汴京公园,114.3644,34.7964,2025-03-01T1300,73,88,1.2,24,4,75,49,98,细颗粒物(PM2.5)
开封市,技师学院,114.2485,34.8306,2025-03-01T1300,69,,1.3,20,11,60,53,93,细颗粒物(PM2.5)
开封市,祥符区生态环境局,114.4644,34.7556,2025-03-01T1300,,,,,,,,,
克拉玛依市,长征新村,84.895,45.6094,2025-03-01T1300,18,32,0.3,11,7,93,87,32,
克拉玛依市,南林小区,84.8988,45.5893,2025-03-01T1300,18,47,0.5,7,1,87,89,47,
克拉玛依市,独山子区,84.905,44.3396,2025-03-01T1300,140,189,1.0,26,6,81,78,186,细颗粒物(PM2.5)
克拉玛依市,乌尔禾区商贸楼,85.6979,46.098,2025-03-01T1300,3,27,0.5,8,2,90,67,29,
克拉玛依市,白碱滩区新站,85.1045,45.6899,2025-03-01T1300,17,36,0.4,8,7,87,82,36,
克孜勒苏柯尔克孜自治州,市人民政府,76.1454,39.7142,2025-03-01T1300,52,111,0.5,12,4,55,65,81,颗粒物(PM10)
克孜勒苏柯尔克孜自治州,克州文化中心,76.1658,39.7157,2025-03-01T1300,50,128,0.6,16,4,52,65,89,颗粒物(PM10)
昆明市,呈贡新区,102.8204,24.8886,2025-03-01T1300,26,34,0.5,8,7,107,92,38,
昆明市,西山森林公园,102.6251,24.9608,2025-03-01T1300,,,,,,,,,
昆明市,龙泉镇,102.7252,25.0902,2025-03-01T1300,22,,0.5,7,8,114,54,36,
昆明市,东风东路,102.7266,25.0375,2025-03-01T1300,23,39,0.4,,8,109,78,,
昆明市,金鼎山,102.6742,25.0669,2025-03-01T1300,17,42,0.4,11,9,105,52,42,
昆明市,碧鸡广场,102.6644,25.0401,2025-03-01T1300,23,34,0.5,8,8,110,68,35,
昆明市,官渡区博物馆,102.7494,25.0119,2025-03-01T1300,23,38,0.6,9,6,116,84,38,
昆明市,青年创业园,102.8017,24.8336,2025-03-01T1300,24,32,0.5,4,7,112,99,35,
昆明市,昆明学院,102.7997,24.9786,2025-03-01T1300,27,42,0.5,7,7,117,97,42,
昆明市,晋宁区生态环境分局,102.5967,24.6736,2025-03-01T1300,19,22,0.8,8,4,106,88,34,
昆明市,云天化总部,102.6678,24.9856,2025-03-01T1300,,,,7,7,122,89,,
拉萨市,八廓街,91.1319,29.6514,2025-03-01T1300,3,11,0.5,4,6,107,107,34,
拉萨市,市环保局,91.1221,29.6747,2025-03-01T1300,6,10,0.5,10,7,100,96,32,
拉萨市,区监测站,91.0874,29.6475,2025-03-01T1300,7,10,0.1,4,5,104,101,33,
拉萨市,西藏大学,91.1774,29.6541,2025-03-01T1300,6,32,0.3,6,5,98,92,32,
拉萨市,区辐射站,90.9798,29.6588,2025-03-01T1300,6,17,0.3,6,7,103,99,33,
拉萨市,拉萨火车站,91.0834,29.6292,2025-03-01T1300,6,8,0.3,4,7,104,104,33,
来宾市,来宾技工学校,109.2203,23.7256,2025-03-01T1300,21,44,0.7,7,7,67,58,44,
来宾市,兴宾区政府,109.1781,23.7297,2025-03-01T1300,25,34,0.6,2,6,55,48,36,
来宾市,中南小学,109.2416,23.7461,2025-03-01T1300,18,40,0.7,5,16,69,57,40,
兰州市,榆中兰大校区,104.1373,35.9454,2025-03-01T1300,,,,,,,,,
兰州市,铁路设计院,103.831,36.0464,2025-03-01T1300,57,57,1.0,34,,52,18,,
兰州市,百合公园,103.7439,36.0842,2025-03-01T1300,42,56,0.7,18,6,56,23,59,细颗粒物(PM2.5)
兰州市,和平,103.9611,35.998,2025-03-01T1300,37,47,0.7,19,8,69,47,53,细颗粒物(PM2.5)
兰州市,庄浪东路808号,103.6293,36.0938,2025-03-01T1300,42,68,0.9,36,12,52,25,59,"颗粒物(PM10),细颗粒物(PM2.5)"
兰州市,安宁西路88号,103.7251,36.1043,2025-03-01T1300,42,66,0.9,25,18,60,28,59,细颗粒物(PM2.5)
兰州市,北滨河东路1号,103.8470,36.0676,2025-03-01T1300,44,51,1.1,24,14,56,23,62,细颗粒物(PM2.5)
兰州新区,新区管委会,103.6633,36.533,2025-03-01T1300,45,128,0.4,9,11,113,95,89,颗粒物(PM10)
兰州新区,舟曲中学,103.6975,36.4789,2025-03-01T1300,45,203,0.3,12,5,105,76,127,颗粒物(PM10)
廊坊市,药材公司,116.6708,39.5111,2025-03-01T1300,219,255,1.8,38,11,88,36,269,细颗粒物(PM2.5)
廊坊市,开发区,116.7214,39.5589,2025-03-01T1300,214,263,1.7,38,10,90,38,264,细颗粒物(PM2.5)
廊坊市,北华航天学院,116.7244,39.5269,2025-03-01T1300,207,240,1.7,39,11,86,35,257,细颗粒物(PM2.5)
廊坊市,河北工业大学,116.7022,39.5453,2025-03-01T1300,209,240,1.7,33,12,88,37,259,细颗粒物(PM2.5)
乐山市,花湖湾,103.7723,29.5462,2025-03-01T1300,99,117,1.3,64,9,9,12,130,细颗粒物(PM2.5)
乐山市,牛耳桥,103.7627,29.5844,2025-03-01T1300,96,129,1.0,52,16,22,6,127,细颗粒物(PM2.5)
乐山市,市第三水厂,103.7508,29.6006,2025-03-01T1300,78,105,0.8,44,10,22,9,104,细颗粒物(PM2.5)
乐山市,市监测站,103.7571,29.5664,2025-03-01T1300,68,86,1.2,56,12,25,8,92,细颗粒物(PM2.5)
乐山市,理工大学,103.7311,29.5628,2025-03-01T1300,81,113,0.9,49,15,32,13,108,细颗粒物(PM2.5)
丽江市,西南郊,100.2143,26.8576,2025-03-01T1300,24,40,0.8,4,6,102,97,40,
丽江市,丽江古城,100.2497,26.8802,2025-03-01T1300,18,32,0.7,8,8,96,83,32,
丽江市,市中心,100.2203,26.8906,2025-03-01T1300,16,34,0.6,11,6,93,85,34,
丽水市,监测站大楼,119.914,28.4514,2025-03-01T1300,20,46,0.6,16,4,108,45,46,
丽水市,莲都小学,119.93,28.4586,2025-03-01T1300,20,38,0.5,14,4,109,45,38,
丽水市,余庄前,119.879,28.4231,2025-03-01T1300,20,33,0.5,10,4,110,41,35,
连云港市,市环境监测站,119.176,34.5885,2025-03-01T1300,17,29,0.4,15,8,70,68,29,
连云港市,德源药业,119.3581,34.6972,2025-03-01T1300,22,29,0.6,32,7,55,76,32,
连云港市,新城一中,119.178,34.844,2025-03-01T1300,10,23,0.6,11,6,82,100,26,
连云港市,胡沟管理处,119.3608,34.7519,2025-03-01T1300,7,7,0.6,17,5,79,89,25,
连云港市,矿山设计院,119.1478,34.5911,2025-03-01T1300,14,27,0.4,14,7,72,68,27,
连云港市,工贸学校,119.2413,34.6539,2025-03-01T1300,23,25,0.9,14,7,67,59,33,
连云港市,连云街道,119.4172,34.7341,2025-03-01T1300,15,,0.8,35,6,60,70,22,
凉山彝族自治州,青龙寺,102.3431,27.8099,2025-03-01T1300,10,49,0.6,2,4,103,85,49,
凉山彝族自治州,邛海宾馆,102.2721,27.8415,2025-03-01T1300,19,36,0.6,4,10,102,95,36,
凉山彝族自治州,西昌市政府,102.2625,27.898,2025-03-01T1300,24,38,0.7,5,6,94,85,38,
凉山彝族自治州,凉山州政府,102.2685,27.8851,2025-03-01T1300,21,42,0.5,5,10,102,94,42,
凉山彝族自治州,长安,102.237,27.8914,2025-03-01T1300,,,,,,,,,
辽阳市,宏伟区,123.2,41.1953,2025-03-01T1300,34,,0.9,,,117,126,,
辽阳市,新华园,123.1683,41.2495,2025-03-01T1300,59,,1.0,35,13,93,111,80,细颗粒物(PM2.5)
辽阳市,滨河路,123.2354,41.2639,2025-03-01T1300,54,,1.0,24,10,102,117,74,细颗粒物(PM2.5)
辽阳市,铁西工业园,123.149,41.2991,2025-03-01T1300,96,106,1.1,36,12,82,122,127,细颗粒物(PM2.5)
辽源市,环保局,125.1358,42.8845,2025-03-01T1300,62,78,1.1,26,8,106,79,84,细颗粒物(PM2.5)
辽源市,银鹰制药,125.0764,42.9078,2025-03-01T1300,66,88,1.1,21,9,112,76,89,细颗粒物(PM2.5)
聊城市,区政府,115.9848,36.4372,2025-03-01T1300,80,106,1.2,16,16,97,83,107,细颗粒物(PM2.5)
聊城市,聊大东校,116.0072,36.4343,2025-03-01T1300,83,107,1.3,21,12,102,81,110,细颗粒物(PM2.5)
聊城市,监控中心,115.9819,36.4978,2025-03-01T1300,85,91,1.1,18,16,99,82,113,细颗粒物(PM2.5)
聊城市,九州社区,116.0445,36.4361,2025-03-01T1300,61,92,1.0,17,18,98,78,83,细颗粒物(PM2.5)
聊城市,星美广场,116.0567,36.4608,2025-03-01T1300,51,85,1.3,25,17,103,70,70,细颗粒物(PM2.5)
林芝市,林芝监测站,94.3681,29.6376,2025-03-01T1300,3,9,0.4,4,7,96,91,30,
林芝市,林芝人民医院,94.3616,29.6616,2025-03-01T1300,3,7,0.4,3,6,94,90,30,
临沧市,市环保局,100.0781,23.8982,2025-03-01T1300,21,53,0.4,9,11,122,59,52,颗粒物(PM10)
临沧市,市气象局,100.0894,23.8822,2025-03-01T1300,32,50,0.5,8,10,120,51,50,
临汾市,临钢医院,111.5531,36.0783,2025-03-01T1300,69,102,1.2,16,18,128,61,93,细颗粒物(PM2.5)
临汾市,技工学校,111.5028,36.0714,2025-03-01T1300,63,93,0.9,13,12,121,64,85,细颗粒物(PM2.5)
临汾市,市委,111.5018,36.0855,2025-03-01T1300,60,108,0.9,9,11,129,70,82,细颗粒物(PM2.5)
临汾市,唐尧大酒店,111.505,36.1014,2025-03-01T1300,61,93,0.8,20,11,130,64,83,细颗粒物(PM2.5)
临汾市,启星学校,111.4879,36.0530,2025-03-01T1300,62,89,0.7,13,11,121,64,84,细颗粒物(PM2.5)
临夏回族自治州,滨河东路1号,103.2464,35.6123,2025-03-01T1300,17,53,0.8,12,22,,29,,
临夏回族自治州,新华街21号,103.2093,35.5995,2025-03-01T1300,27,52,0.8,11,9,75,24,51,颗粒物(PM10)
临沂市,沂河小区,118.3429,35.0532,2025-03-01T1300,37,63,0.8,20,10,53,65,57,颗粒物(PM10)
临沂市,鲁南制药厂,118.295,35.0583,2025-03-01T1300,32,48,0.6,32,8,51,65,48,
临沂市,新光毛纺厂,118.2794,34.9976,2025-03-01T1300,32,46,0.9,27,6,54,69,46,
临沂市,河东保险公司,118.3956,35.0888,2025-03-01T1300,47,58,0.9,31,4,53,64,65,细颗粒物(PM2.5)
临沂市,十里堡居委,118.3564,35.0215,2025-03-01T1300,46,56,0.9,15,8,53,68,64,细颗粒物(PM2.5)
临沂市,南坊新区,118.3604,35.1084,2025-03-01T1300,36,44,0.7,30,5,59,68,52,细颗粒物(PM2.5)
临沂市,皇山花园小区,118.3920,35.0300,2025-03-01T1300,46,53,0.8,24,5,56,68,64,细颗粒物(PM2.5)
柳州市,柳东小学,109.4856,24.3895,2025-03-01T1300,21,35,0.4,12,10,64,59,35,
柳州市,环保监测站,109.4157,24.3277,2025-03-01T1300,25,38,1.0,9,10,64,59,38,
柳州市,河西水厂,109.389,24.341,2025-03-01T1300,27,41,1.1,9,,61,55,,
柳州市,市四中,109.4311,24.2921,2025-03-01T1300,26,44,0.5,10,8,66,57,44,
柳州市,市九中,109.4006,24.3631,2025-03-01T1300,22,42,0.6,9,6,65,55,42,
柳州市,古亭山,109.4958,24.3134,2025-03-01T1300,22,50,0.5,8,8,66,60,50,
柳州市,市二中,109.5422,24.3996,2025-03-01T1300,19,33,0.4,9,15,65,54,33,
六安市,监测大楼,116.5079,31.737,2025-03-01T1300,7,36,0.7,15,8,106,42,36,
六安市,皖西学院,116.4738,31.7643,2025-03-01T1300,12,37,0.6,7,6,103,38,37,
六安市,朝阳厂,116.4996,31.7905,2025-03-01T1300,25,98,0.6,12,6,105,39,74,颗粒物(PM10)
六安市,开发区,116.5567,31.7886,2025-03-01T1300,,33,0.6,9,7,106,42,,
六盘水市,窑上,104.8,26.5892,2025-03-01T1300,17,48,0.5,3,5,103,90,48,
六盘水市,黄土坡,104.83,26.5917,2025-03-01T1300,13,46,0.5,6,8,105,67,46,
六盘水市,水钢,104.89,26.5939,2025-03-01T1300,15,43,0.3,5,7,107,96,43,
六盘水市,民中,104.8475,26.5894,2025-03-01T1300,17,31,0.4,6,8,102,58,32,
六盘水市,双水,104.9544,26.5506,2025-03-01T1300,15,39,0.3,7,8,106,71,39,
龙岩市,龙岩师专,117.0189,25.1181,2025-03-01T1300,,,,,,,,,
龙岩市,龙岩市监测站,117.0217,25.1033,2025-03-01T1300,9,23,0.4,6,4,83,38,26,
龙岩市,闽西职业技术学院,117.0258,25.0661,2025-03-01T1300,9,12,0.4,4,2,81,39,26,
龙岩市,龙岩学院,117.0196,25.0306,2025-03-01T1300,7,14,0.4,3,9,83,48,26,
陇南市,汉王镇固水子,105.0822,33.3261,2025-03-01T1300,,,,,,,,,
陇南市,滨江中学,104.9339,33.3826,2025-03-01T1300,42,66,0.8,29,21,54,51,59,细颗粒物(PM2.5)
陇南市,市总工会,104.955,33.371,2025-03-01T1300,34,37,0.6,8,9,81,60,49,
娄底市,电视发射台,111.9589,27.8901,2025-03-01T1300,21,46,0.7,13,12,84,40,46,
娄底市,市监测站,111.9975,27.725,2025-03-01T1300,23,38,0.2,36,9,89,52,38,
娄底市,市委党校,112.0194,27.7314,2025-03-01T1300,26,41,0.2,13,3,85,48,41,
娄底市,涟钢,111.9561,27.7569,2025-03-01T1300,24,45,0.6,16,32,78,43,45,
娄底市,市政府,111.9892,27.7044,2025-03-01T1300,24,36,0.3,7,9,88,61,36,
泸州市,九狮山,105.4324,28.9634,2025-03-01T1300,,,,,,,,,
泸州市,小市上码头,105.4427,28.9063,2025-03-01T1300,110,192,0.7,45,9,42,28,144,细颗粒物(PM2.5)
泸州市,兰田宪桥,105.4241,28.8573,2025-03-01T1300,123,181,0.9,50,8,29,18,162,细颗粒物(PM2.5)
泸州市,市环监站,105.4379,28.8833,2025-03-01T1300,137,227,0.7,58,8,21,33,182,细颗粒物(PM2.5)
泸州市,纳溪中医医院,105.3689,28.7783,2025-03-01T1300,143,,1.0,34,7,36,14,190,细颗粒物(PM2.5)
吕梁市,环保局,111.1406,37.5211,2025-03-01T1300,77,112,0.8,30,12,99,40,103,细颗粒物(PM2.5)
吕梁市,自来水公司,111.1297,37.5136,2025-03-01T1300,83,119,0.8,30,10,92,36,110,细颗粒物(PM2.5)
吕梁市,马茂庄小学,111.1283,37.51,2025-03-01T1300,76,120,0.8,37,12,96,50,102,细颗粒物(PM2.5)
洛阳市,市委党校,112.3931,34.6516,2025-03-01T1300,82,105,1.0,28,10,66,36,109,细颗粒物(PM2.5)
洛阳市,河南林校,112.494,34.6886,2025-03-01T1300,86,,0.8,22,8,76,35,114,细颗粒物(PM2.5)
洛阳市,开发区管委会,112.3844,34.623,2025-03-01T1300,121,170,0.9,30,13,84,46,159,细颗粒物(PM2.5)
洛阳市,市委新办公区,112.4267,34.6258,2025-03-01T1300,98,161,0.9,37,12,74,44,129,细颗粒物(PM2.5)
洛阳市,伊滨,112.6005,34.6326,2025-03-01T1300,116,161,0.9,35,12,70,33,152,细颗粒物(PM2.5)
洛阳市,中移产业园,112.4951,34.6332,2025-03-01T1300,117,142,1.2,31,10,66,38,153,细颗粒物(PM2.5)
洛阳市,吉利监测站,112.5736,34.8993,2025-03-01T1300,,110,0.7,14,7,84,40,,
洛阳市,河科大西苑校区,112.3677,34.662,2025-03-01T1300,78,100,1.2,23,13,71,42,104,细颗粒物(PM2.5)
洛阳市,英才小学,112.4388,34.6781,2025-03-01T1300,63,93,0.8,21,7,60,28,85,细颗粒物(PM2.5)
洛阳市,春都路1号院,112.4600,34.6949,2025-03-01T1300,63,67,0.9,23,14,79,34,85,细颗粒物(PM2.5)
漯河市,三五一五工厂,114.051,33.5699,2025-03-01T1300,42,,0.6,8,4,90,58,59,细颗粒物(PM2.5)
漯河市,漯河大学,114.0055,33.5698,2025-03-01T1300,34,47,0.6,13,5,90,57,49,
漯河市,市水利局,114.0138,33.5828,2025-03-01T1300,34,,0.4,10,4,87,58,49,
漯河市,市广电局,114.0261,33.5698,2025-03-01T1300,34,34,0.7,8,4,90,55,49,
漯河市,市图书馆,113.9749,33.5664,2025-03-01T1300,48,56,0.8,13,4,85,50,67,细颗粒物(PM2.5)
漯河市,韶山路11号,114.0892,33.5882,2025-03-01T1300,35,,0.8,10,2,94,53,50,
马鞍山市,湖东路四小,118.5092,31.6837,2025-03-01T1300,14,44,0.7,12,12,116,77,44,
马鞍山市,开发区,118.5024,31.6449,2025-03-01T1300,21,49,0.4,11,6,121,69,49,
马鞍山市,濮塘,118.6245,31.7241,2025-03-01T1300,19,49,0.8,12,8,126,88,49,
马鞍山市,雨山,118.4918,31.6809,2025-03-01T1300,16,35,0.6,13,11,112,73,35,
马鞍山市,慈湖高新区,118.5274,31.72227,2025-03-01T1300,24,34,0.6,19,13,106,70,35,
茂名市,电白南海,111.0286,21.4688,2025-03-01T1300,19,44,1.0,6,3,79,67,44,
茂名市,茂石化七小,110.9294,21.6533,2025-03-01T1300,12,34,0.7,4,1,75,55,34,
茂名市,健康路,110.9107,21.6687,2025-03-01T1300,14,29,0.6,6,3,74,61,29,
茂名市,高岭,110.8592,21.6828,2025-03-01T1300,9,44,0.6,10,4,70,59,44,
茂名市,电白水东,111.01,21.5165,2025-03-01T1300,9,27,0.5,7,3,75,64,27,
眉山市,黑龙滩水库,104.0308,30.0478,2025-03-01T1300,69,76,1.0,16,3,81,43,93,细颗粒物(PM2.5)
眉山市,气象局,103.8416,30.0874,2025-03-01T1300,92,132,0.9,48,9,49,17,122,细颗粒物(PM2.5)
眉山市,市委党校,103.8578,30.0744,2025-03-01T1300,88,107,0.9,58,12,35,12,117,细颗粒物(PM2.5)
眉山市,区人社局,103.8291,30.0564,2025-03-01T1300,88,,0.9,53,11,50,14,117,细颗粒物(PM2.5)
梅州市,梅江月梅,116.1231,24.3284,2025-03-01T1300,14,24,0.4,6,9,99,38,31,
梅州市,梅县新城,116.0797,24.2719,2025-03-01T1300,11,47,0.3,8,5,92,38,47,
梅州市,环境监控中心,116.1248,24.2654,2025-03-01T1300,21,35,0.6,13,6,92,35,35,
梅州市,梅龙,116.1233,24.2991,2025-03-01T1300,13,22,0.4,8,6,100,41,32,
绵阳市,富乐山,104.7778,31.4741,2025-03-01T1300,36,49,0.6,15,4,94,27,52,细颗粒物(PM2.5)
绵阳市,高新区自来水公司,104.6697,31.4668,2025-03-01T1300,34,63,0.6,16,7,86,21,57,颗粒物(PM10)
绵阳市,三水厂,104.7287,31.5075,2025-03-01T1300,52,94,0.8,29,8,64,16,72,"颗粒物(PM10),细颗粒物(PM2.5)"
绵阳市,西科大附属小学,104.69,31.5322,2025-03-01T1300,48,71,0.4,18,8,78,27,67,细颗粒物(PM2.5)
绵阳市,安州区旅游局,104.5648,31.5343,2025-03-01T1300,34,41,0.7,14,10,87,30,49,
绵阳市,绵阳市气象局,104.7651,31.4531,2025-03-01T1300,22,35,0.7,22,4,78,18,35,
牡丹江市,环保大楼,129.61,44.561,2025-03-01T1300,15,31,0.4,19,9,73,50,31,
牡丹江市,文化广场,129.6115,44.5782,2025-03-01T1300,20,23,0.5,24,11,80,61,29,
牡丹江市,第一医院,129.5904,44.5963,2025-03-01T1300,14,22,0.3,16,14,80,61,25,
牡丹江市,机车工厂,129.6364,44.6075,2025-03-01T1300,16,20,0.3,9,10,80,57,25,
牡丹江市,第一中学,129.6386,44.5462,2025-03-01T1300,22,,0.3,15,8,79,50,32,
内江市,市监测站,105.0703,29.61,2025-03-01T1300,59,,1.1,17,7,93,54,80,细颗粒物(PM2.5)
内江市,东兴区政府,105.0717,29.5947,2025-03-01T1300,47,60,0.9,19,5,91,63,65,细颗粒物(PM2.5)
内江市,内江二中,105.0653,29.5817,2025-03-01T1300,63,65,0.9,24,,85,55,,
内江市,内江日报社,105.0406,29.5822,2025-03-01T1300,59,61,0.7,24,12,90,55,80,细颗粒物(PM2.5)
那曲市,那曲监测站,92.0657,31.4846,2025-03-01T1300,6,22,0.5,2,8,85,74,27,
那曲市,那曲会议中心,92.0506,31.4797,2025-03-01T1300,10,37,0.5,1,6,100,90,37,
南昌市,省外办,115.8931,28.6843,2025-03-01T1300,44,54,0.3,28,11,86,26,62,细颗粒物(PM2.5)
南昌市,省林业公司,115.8886,28.7003,2025-03-01T1300,44,63,0.5,32,14,88,37,62,细颗粒物(PM2.5)
南昌市,林科所,115.8126,28.7442,2025-03-01T1300,24,48,0.6,19,12,104,41,48,
南昌市,建工学校,115.8518,28.687,2025-03-01T1300,45,65,0.9,19,17,89,29,63,细颗粒物(PM2.5)
南昌市,象湖,115.8921,28.6424,2025-03-01T1300,31,52,0.8,22,15,111,31,51,颗粒物(PM10)
南昌市,武术学校,115.7423,28.7996,2025-03-01T1300,3,53,0.3,17,11,117,95,52,颗粒物(PM10)
南昌市,机电学校,115.9084,28.6062,2025-03-01T1300,36,66,0.6,25,23,98,30,58,颗粒物(PM10)
南昌市,外国语学校,115.9721,28.7031,2025-03-01T1300,31,68,0.4,17,16,96,43,59,颗粒物(PM10)
南昌市,南京东路235号,115.9316,28.68677,2025-03-01T1300,38,71,0.7,35,18,89,32,61,颗粒物(PM10)
南充市,西山风景区,106.056,30.8064,2025-03-01T1300,51,52,1.1,26,2,28,70,70,细颗粒物(PM2.5)
南充市,南充市委,106.0789,30.8023,2025-03-01T1300,70,83,0.9,34,4,34,32,94,细颗粒物(PM2.5)
南充市,南充炼油厂,106.1031,30.8217,2025-03-01T1300,62,80,0.5,27,5,28,34,84,细颗粒物(PM2.5)
南充市,嘉陵区环保局,106.0642,30.7636,2025-03-01T1300,63,90,0.9,46,7,21,32,85,细颗粒物(PM2.5)
南充市,市环境监测站,106.1087,30.8388,2025-03-01T1300,55,87,0.8,22,8,38,45,75,细颗粒物(PM2.5)
南充市,梨树横街98号,106.1083,30.7884,2025-03-01T1300,52,86,0.6,32,6,28,30,72,细颗粒物(PM2.5)
南京市,迈皋桥,118.8086,32.1065,2025-03-01T1300,22,40,0.4,19,4,115,75,40,
南京市,草场门,118.7538,32.0551,2025-03-01T1300,27,48,0.7,12,9,99,56,48,
南京市,山西路,118.7794,32.0745,2025-03-01T1300,27,48,0.5,11,5,106,64,48,
南京市,中华门,118.7752,32.0023,2025-03-01T1300,19,44,0.7,14,7,99,56,44,
南京市,瑞金路,118.8109,32.0309,2025-03-01T1300,22,46,0.7,12,7,109,62,46,
南京市,玄武湖,118.7997,32.0754,2025-03-01T1300,22,36,0.5,23,10,114,68,36,
南京市,浦口,118.6414,32.0931,2025-03-01T1300,26,41,0.9,,9,118,66,,
南京市,奥体中心,118.7356,31.9996,2025-03-01T1300,24,47,0.8,19,12,111,66,47,
南京市,仙林大学城,118.9125,32.1028,2025-03-01T1300,19,68,0.9,19,12,106,60,59,颗粒物(PM10)
南京市,江宁彩虹桥,118.8436,31.9198,2025-03-01T1300,24,36,0.6,11,6,105,58,36,
南京市,溧水永阳,119.0138,31.6494,2025-03-01T1300,21,31,0.5,7,7,117,60,37,
南京市,六合雄州,118.8554,32.3578,2025-03-01T1300,20,29,0.8,3,9,113,44,36,
南京市,汶溪路181号,118.8708,31.3402,2025-03-01T1300,30,33,0.7,4,4,118,74,43,
南宁市,二十一中,108.3103,22.7881,2025-03-01T1300,21,40,0.8,10,4,75,58,40,
南宁市,北湖,108.3141,22.8528,2025-03-01T1300,24,41,0.6,11,5,70,41,41,
南宁市,市监测站,108.3206,22.8225,2025-03-01T1300,22,38,0.8,10,6,74,55,38,
南宁市,大自然花园,108.3829,22.8037,2025-03-01T1300,25,35,0.9,9,5,76,62,36,
南宁市,仙葫,108.4394,22.7904,2025-03-01T1300,19,29,0.5,7,6,69,52,29,
南宁市,区农职院,108.2397,22.8467,2025-03-01T1300,24,44,0.6,14,7,69,32,44,
南宁市,英华嘉园,108.3275,22.735,2025-03-01T1300,24,34,0.6,10,6,72,48,35,
南宁市,红星社区,108.4834,22.7618,2025-03-01T1300,20,,0.8,4,7,74,52,,
南宁市,乐贤路16号,108.2177,22.7774,2025-03-01T1300,21,44,0.7,10,8,69,40,44,
南平市,茫荡山,118.0966,26.6761,2025-03-01T1300,,,,,,,,,
南平市,南平市监测站,118.1681,26.6369,2025-03-01T1300,20,22,0.6,6,4,85,38,29,
南平市,南平铝业有限公司,118.1825,26.6489,2025-03-01T1300,12,35,0.6,11,4,60,26,35,
南平市,南平七中,118.1756,26.6272,2025-03-01T1300,16,50,0.4,6,4,92,36,50,
南通市,狼山街道,120.9098,31.9663,2025-03-01T1300,36,56,0.1,29,7,121,59,53,颗粒物(PM10)
南通市,虹桥,120.86,32.0005,2025-03-01T1300,39,59,0.1,25,7,134,69,55,"颗粒物(PM10),细颗粒物(PM2.5)"
南通市,城中,120.87,32.02,2025-03-01T1300,36,60,0.9,,,131,65,,
南通市,星湖花园,120.94,31.93,2025-03-01T1300,44,58,0.6,31,10,120,59,62,细颗粒物(PM2.5)
南通市,紫琅学院,120.81,32.0417,2025-03-01T1300,38,49,0.6,34,5,132,65,54,细颗粒物(PM2.5)
南通市,通州监测站,121.067,32.062,2025-03-01T1300,34,53,0.8,25,6,128,68,52,颗粒物(PM10)
南通市,环境教育馆,120.9348,31.9883,2025-03-01T1300,41,63,0.4,31,7,132,65,58,细颗粒物(PM2.5)
南阳市,瓦房庄,112.5224,33.0122,2025-03-01T1300,63,76,0.7,10,4,73,44,85,细颗粒物(PM2.5)
南阳市,汉画馆,112.5003,32.9735,2025-03-01T1300,54,71,0.9,14,5,71,37,74,细颗粒物(PM2.5)
南阳市,气象站,112.5573,33.027,2025-03-01T1300,58,69,0.8,10,4,71,44,79,细颗粒物(PM2.5)
南阳市,理工学院,112.5481,32.9689,2025-03-01T1300,52,65,0.8,11,1,76,36,72,细颗粒物(PM2.5)
南阳市,卧龙区政府,112.5234,32.9922,2025-03-01T1300,65,70,0.8,9,7,78,45,88,细颗粒物(PM2.5)
宁波市,区环保大楼,121.8358,29.911,2025-03-01T1300,3,33,0.5,,8,,58,,
宁波市,万里学院,121.56,29.82,2025-03-01T1300,10,21,0.8,11,8,110,68,35,
宁波市,龙赛医院,121.713,29.9572,2025-03-01T1300,13,16,0.6,8,7,111,72,35,
宁波市,钱湖水厂,121.633,29.7733,2025-03-01T1300,12,17,0.6,16,7,104,66,33,
宁波市,太古小学,121.5856,29.8635,2025-03-01T1300,13,17,0.6,10,8,112,69,35,
宁波市,市环境监测中心,121.524,29.8674,2025-03-01T1300,9,20,0.5,23,7,105,66,33,
宁波市,万里国际学校,121.6147,29.9017,2025-03-01T1300,14,22,0.4,12,7,113,75,36,
宁波市,白沙活动中心,121.5594,29.8975,2025-03-01T1300,3,17,0.5,,7,116,71,,
宁德市,金涵水库,119.5001,26.6946,2025-03-01T1300,,,,,,,,,
宁德市,宁德市监测站,119.5388,26.6612,2025-03-01T1300,41,51,1.3,14,5,91,38,58,细颗粒物(PM2.5)
宁德市,宁德一中,119.5231,26.6562,2025-03-01T1300,48,,1.0,16,6,88,38,67,细颗粒物(PM2.5)
怒江傈僳族自治州,州监测站,98.8601,25.8567,2025-03-01T1300,42,50,0.5,12,3,81,61,59,细颗粒物(PM2.5)
怒江傈僳族自治州,泸水一中,98.8546,25.8417,2025-03-01T1300,40,61,0.5,19,6,66,40,57,细颗粒物(PM2.5)
攀枝花市,弄弄坪,101.6891,26.571,2025-03-01T1300,30,44,1.9,20,27,84,35,44,
攀枝花市,河门口,101.5769,26.5928,2025-03-01T1300,21,35,0.7,10,11,101,48,35,
攀枝花市,炳草岗,101.7169,26.585,2025-03-01T1300,19,35,0.9,12,11,99,36,35,
攀枝花市,仁和,101.7369,26.5008,2025-03-01T1300,21,29,0.4,7,7,110,67,35,
攀枝花市,四十中小,101.7227,26.567,2025-03-01T1300,27,51,0.6,11,8,99,68,51,颗粒物(PM10)
盘锦市,开发区,122.0303,41.1489,2025-03-01T1300,74,74,0.9,26,19,103,81,99,细颗粒物(PM2.5)
盘锦市,兴隆台,122.0485,41.0883,2025-03-01T1300,74,,0.9,22,9,103,78,99,细颗粒物(PM2.5)
盘锦市,新生街道,121.8297,41.1028,2025-03-01T1300,75,,1.0,20,11,108,85,100,细颗粒物(PM2.5)
平顶山市,新华旅馆,113.3257,33.742,2025-03-01T1300,56,80,0.7,24,4,44,30,77,细颗粒物(PM2.5)
平顶山市,规划设计院,113.2919,33.737,2025-03-01T1300,56,77,0.6,24,2,54,34,77,细颗粒物(PM2.5)
平顶山市,平顶山工学院,113.182,33.774,2025-03-01T1300,63,96,0.7,14,4,45,41,85,细颗粒物(PM2.5)
平顶山市,规划局,113.3025,33.73,2025-03-01T1300,71,,0.6,25,3,55,34,95,细颗粒物(PM2.5)
平顶山市,石龙区,112.8867,33.9116,2025-03-01T1300,80,110,0.5,17,5,63,34,107,细颗粒物(PM2.5)
平凉市,聚贤嘉苑,106.6692,35.5461,2025-03-01T1300,70,97,0.7,22,14,111,51,94,细颗粒物(PM2.5)
平凉市,博物馆,106.7021,35.5307,2025-03-01T1300,71,113,0.5,25,19,106,46,95,细颗粒物(PM2.5)
萍乡市,武功山,114.0997,27.5002,2025-03-01T1300,10,,0.5,8,4,78,79,25,
萍乡市,中医院,113.8385,27.6434,2025-03-01T1300,23,37,1.0,18,10,79,24,37,
萍乡市,市政府车库,113.8493,27.6253,2025-03-01T1300,81,,0.8,20,8,76,25,108,细颗粒物(PM2.5)
萍乡市,市环保局,113.8676,27.6435,2025-03-01T1300,22,41,0.6,13,8,78,27,41,
萍乡市,安源区政府,113.866,27.6198,2025-03-01T1300,21,41,0.8,15,12,79,23,41,
莆田市,荔城区仓后路,119.0141,25.4325,2025-03-01T1300,67,88,0.9,24,9,148,64,90,细颗粒物(PM2.5)
莆田市,莆田市监测站,119.0015,25.4553,2025-03-01T1300,76,78,0.8,22,10,167,76,102,细颗粒物(PM2.5)
莆田市,涵江区六中,119.1119,25.4561,2025-03-01T1300,41,,0.4,15,5,126,59,58,细颗粒物(PM2.5)
莆田市,秀屿区政府,119.1013,25.3215,2025-03-01T1300,29,63,0.6,12,6,119,71,57,颗粒物(PM10)
莆田市,东圳水库,118.981,25.4792,2025-03-01T1300,,,,,,,,,
濮阳市,环保局,115.0312,35.7636,2025-03-01T1300,103,,1.5,14,5,73,61,135,细颗粒物(PM2.5)
濮阳市,油田运输公司,115.0574,35.7609,2025-03-01T1300,102,119,1.4,17,5,83,59,134,细颗粒物(PM2.5)
濮阳市,濮水河管理处,115,35.7668,2025-03-01T1300,113,115,1.3,23,6,70,56,148,细颗粒物(PM2.5)
濮阳市,任丘路479号,115.0924,35.7686,2025-03-01T1300,110,131,1.7,19,6,70,59,144,细颗粒物(PM2.5)
普洱市,市环保局,100.98,22.7633,2025-03-01T1300,28,57,0.6,7,5,112,56,54,颗粒物(PM10)
普洱市,普洱第二中学,100.9817,22.8322,2025-03-01T1300,,,,,,,66,,
七台河市,新一中,131.0518,45.8751,2025-03-01T1300,3,14,0.4,5,11,89,80,28,
七台河市,中波台,131.0577,45.7879,2025-03-01T1300,6,14,0.5,,12,69,71,,
七台河市,人民广场,131.0176,45.7761,2025-03-01T1300,9,11,0.5,11,9,82,70,26,
七台河市,新建矿广场,130.8781,45.8222,2025-03-01T1300,20,,0.3,11,3,84,63,29,
齐齐哈尔市,安居小区,123.9305,47.3636,2025-03-01T1300,7,29,0.3,9,3,86,79,29,
齐齐哈尔市,中心广场,123.9488,47.3386,2025-03-01T1300,10,29,0.4,8,4,77,76,29,
齐齐哈尔市,农牧车辆厂,123.9483,47.3227,2025-03-01T1300,8,22,0.3,7,6,82,78,26,
齐齐哈尔市,市环境监测站,123.945,47.2988,2025-03-01T1300,13,25,0.3,7,7,81,81,26,
齐齐哈尔市,富区青少年活动中心,123.6333,47.2075,2025-03-01T1300,3,22,0.2,6,7,78,70,25,
黔东南苗族侗族自治州,市环境监测站,107.9783,26.5747,2025-03-01T1300,22,31,0.6,4,2,85,81,32,
黔东南苗族侗族自治州,凯里学院,107.8908,26.5311,2025-03-01T1300,21,24,0.7,3,2,83,83,30,
黔南布依族苗族自治州,小围寨,107.5228,26.2403,2025-03-01T1300,14,19,0.2,4,5,83,70,26,
黔南布依族苗族自治州,沙坝,107.5175,26.2978,2025-03-01T1300,,24,0.4,7,4,85,68,,
黔西南布依族苗族自治州,场坝街,104.9022,25.0925,2025-03-01T1300,3,27,0.2,8,2,106,80,34,
黔西南布依族苗族自治州,坪东大道,104.8811,25.0992,2025-03-01T1300,3,18,0,4,4,110,54,35,
钦州市,市环保站,108.6236,21.9667,2025-03-01T1300,12,29,0.6,11,7,65,54,29,
钦州市,沙埠小学,108.6549,21.9481,2025-03-01T1300,14,37,0.6,8,6,66,56,37,
钦州市,港区一小,108.5989,21.7431,2025-03-01T1300,21,73,0.9,19,12,65,47,62,颗粒物(PM10)
钦州市,北职校,108.5959,21.9633,2025-03-01T1300,20,55,0.6,15,7,69,55,53,颗粒物(PM10)
秦皇岛市,第一关,119.7493,40.0116,2025-03-01T1300,58,62,0.7,18,3,91,56,79,细颗粒物(PM2.5)
秦皇岛市,监测站,119.5897,39.9499,2025-03-01T1300,61,76,0.7,43,2,69,72,83,细颗粒物(PM2.5)
秦皇岛市,建设大厦,119.5251,39.9041,2025-03-01T1300,52,60,0.7,29,2,78,77,72,细颗粒物(PM2.5)
秦皇岛市,文明里,119.610547,39.943889,2025-03-01T1300,45,62,0.5,28,3,86,74,63,细颗粒物(PM2.5)
秦皇岛市,北戴河轮滑馆,119.5090,39.8253,2025-03-01T1300,44,51,0.7,32,3,75,76,62,细颗粒物(PM2.5)
青岛市,仰口,120.6659,36.2403,2025-03-01T1300,16,,0.5,8,2,100,102,32,
青岛市,市南区东部子站,120.4134,36.0658,2025-03-01T1300,14,,0.6,10,8,91,93,29,
青岛市,四方区子站,120.3664,36.1032,2025-03-01T1300,7,,0.6,13,4,93,95,30,
青岛市,市南区西部子站,120.2994,36.054,2025-03-01T1300,3,9,0.7,12,6,93,97,30,
青岛市,崂山区子站,120.4581,36.0858,2025-03-01T1300,9,,0.5,3,10,99,101,31,
青岛市,城阳区子站,120.3999,36.3083,2025-03-01T1300,3,7,0.8,20,7,91,84,29,
青岛市,黄岛区4号,120.0405,35.8735,2025-03-01T1300,3,9,0.7,27,6,83,97,26,
青岛市,即墨2号,120.5014,36.4034,2025-03-01T1300,9,,0.7,15,6,99,101,31,
青岛市,市北区南部,120.3503,36.0736,2025-03-01T1300,3,,0.7,12,6,81,84,26,
青岛市,李沧区北部,120.3948,36.1805,2025-03-01T1300,9,,0.6,18,10,87,78,28,
青岛市,珠江路669号,120.1969,35.9546,2025-03-01T1300,12,14,0.8,32,6,73,91,23,
清远市,环保大楼,113.0426,23.691,2025-03-01T1300,32,66,0.9,23,7,72,23,58,颗粒物(PM10)
清远市,凤城街办,113.0208,23.7106,2025-03-01T1300,31,60,0.5,30,,75,23,,
清远市,技师学院,113.0477,23.6344,2025-03-01T1300,17,34,0.5,23,7,85,26,34,
清远市,清新太和,112.9903,23.7403,2025-03-01T1300,31,51,0.6,22,10,83,39,51,颗粒物(PM10)
清远市,清城东城,113.076,23.7198,2025-03-01T1300,28,54,0.8,21,7,70,22,52,颗粒物(PM10)
庆阳市,庆阳五中,107.6325,35.7357,2025-03-01T1300,77,94,0.7,17,,104,102,103,细颗粒物(PM2.5)
庆阳市,市环保局,107.6364,35.7067,2025-03-01T1300,66,82,0.6,12,8,109,109,89,细颗粒物(PM2.5)
曲靖市,环境监测站,103.7897,25.5035,2025-03-01T1300,15,31,0.4,9,4,116,94,37,
曲靖市,烟厂办公区,103.8,25.5364,2025-03-01T1300,12,47,0.5,6,,111,94,,
曲靖市,南苑二区,103.7947,25.462,2025-03-01T1300,20,41,0.6,7,4,112,89,41,
曲靖市,曲靖师范学院,103.7444,25.5261,2025-03-01T1300,24,37,0.4,8,8,113,94,37,
衢州市,环保大楼,118.8692,28.9398,2025-03-01T1300,,,,,,,57,,
衢州市,实验学校,118.8709,28.9666,2025-03-01T1300,40,44,0.7,16,5,96,31,57,细颗粒物(PM2.5)
衢州市,衢州学院,118.8621,28.9808,2025-03-01T1300,28,48,0.4,24,4,95,30,48,
泉州市,涂山街,118.5819,24.9117,2025-03-01T1300,51,51,0.9,23,7,149,66,70,细颗粒物(PM2.5)
泉州市,津头埔,118.5972,24.8978,2025-03-01T1300,36,36,0.7,20,6,119,57,52,细颗粒物(PM2.5)
泉州市,万安,118.6663,24.9424,2025-03-01T1300,29,36,0.5,20,6,139,64,44,
泉州市,清源山,118.6117,24.9604,2025-03-01T1300,,,,,,,,,
泉州市,城华南路,118.6333,24.9264,2025-03-01T1300,34,66,0.6,26,6,140,64,58,颗粒物(PM10)
日喀则市,日喀则监测站,88.8876,29.2718,2025-03-01T1300,3,8,0.3,2,4,98,103,31,
日喀则市,林业技术推广中心,88.8781,29.2426,2025-03-01T1300,3,6,0.2,2,7,96,104,30,
日照市,监测站,119.471,35.4209,2025-03-01T1300,9,9,0.7,22,6,79,93,25,
日照市,市政府广场,119.523,35.4216,2025-03-01T1300,15,,0.7,16,3,80,92,25,
日照市,港务局,119.5587,35.4044,2025-03-01T1300,9,,0.8,16,8,90,96,29,
日照市,职业技术学院,119.5328,35.4625,2025-03-01T1300,3,9,0.8,13,4,84,92,27,
日照市,岚山环保分局,119.3266,35.1044,2025-03-01T1300,7,,0.9,16,5,80,99,25,
三门峡市,市政府,111.1922,34.7752,2025-03-01T1300,80,,1.0,79,8,93,56,107,细颗粒物(PM2.5)
三门峡市,开发区,111.1587,34.7942,2025-03-01T1300,77,110,0.7,21,6,102,74,103,细颗粒物(PM2.5)
三门峡市,风景区,111.143,34.7955,2025-03-01T1300,69,86,0.9,13,13,100,75,93,细颗粒物(PM2.5)
三门峡市,三门峡市第一小学,111.1911,34.7829,2025-03-01T1300,69,98,0.7,19,7,105,82,93,细颗粒物(PM2.5)
三门峡市,富达温泉假日酒店,111.1,34.7167,2025-03-01T1300,75,92,0.6,10,9,99,72,100,细颗粒物(PM2.5)
三明市,三钢,117.6211,26.2625,2025-03-01T1300,13,48,,19,26,80,30,,
三明市,三明二中,117.635,26.2714,2025-03-01T1300,17,27,0.8,9,8,85,32,27,
三明市,三元区政府,117.6028,26.2378,2025-03-01T1300,13,34,0.5,6,4,94,36,34,
三明市,洋溪,117.7275,26.3108,2025-03-01T1300,,,,,,,,,
三亚市,河东子站,109.5078,18.2489,2025-03-01T1300,9,28,0.5,7,4,66,60,28,
三亚市,河西子站,109.4964,18.2681,2025-03-01T1300,12,20,0.3,6,3,66,55,21,
三亚市,君悦子站,109.7348,18.3443,2025-03-01T1300,9,19,0.3,3,4,73,46,23,
山南市,山南监测站,91.7608,29.2313,2025-03-01T1300,3,8,0.4,2,5,93,85,30,
山南市,山南人民医院,91.7706,29.2436,2025-03-01T1300,3,7,0.4,3,4,90,80,29,
汕头市,金平子站,116.6794,23.3667,2025-03-01T1300,93,,1.2,36,7,80,40,123,细颗粒物(PM2.5)
汕头市,龙湖子站,116.7244,23.3633,2025-03-01T1300,68,79,0.9,24,6,83,47,92,细颗粒物(PM2.5)
汕头市,濠江子站,116.7258,23.2775,2025-03-01T1300,50,,0.7,24,6,96,58,69,细颗粒物(PM2.5)
汕头市,澄海子站,116.7519,23.4714,2025-03-01T1300,45,72,0.7,20,6,86,42,63,细颗粒物(PM2.5)
汕头市,潮阳子站,116.6092,23.2539,2025-03-01T1300,40,63,0.6,21,8,85,53,57,"颗粒物(PM10),细颗粒物(PM2.5)"
汕头市,潮南峡山,116.454,23.2684,2025-03-01T1300,44,52,0.9,18,9,99,60,62,细颗粒物(PM2.5)
汕头市,潮南子站,116.4069,23.2533,2025-03-01T1300,48,70,0.9,17,9,103,53,67,细颗粒物(PM2.5)
汕尾市,市环保局,115.3653,22.775,2025-03-01T1300,24,32,0.7,9,7,82,84,35,
汕尾市,市政府,115.3706,22.7898,2025-03-01T1300,24,38,0.6,10,4,80,78,38,
汕尾市,新城中学,115.3622,22.7925,2025-03-01T1300,17,44,0.4,7,8,,86,,
商洛市,监测站,109.9154,33.8715,2025-03-01T1300,51,71,0.9,9,8,93,43,70,细颗粒物(PM2.5)
商洛市,商州区中学,109.9643,33.8471,2025-03-01T1300,50,76,0.8,14,7,93,42,69,细颗粒物(PM2.5)
商丘市,环境监测站,115.6702,34.4285,2025-03-01T1300,149,157,1.0,12,5,84,58,199,细颗粒物(PM2.5)
商丘市,粮食局,115.6458,34.4045,2025-03-01T1300,128,132,0.6,18,2,90,62,169,细颗粒物(PM2.5)
商丘市,睢阳区环保局,115.6293,34.3948,2025-03-01T1300,128,131,0.7,15,2,85,60,169,细颗粒物(PM2.5)
商丘市,梁园区档案局,115.6071,34.4465,2025-03-01T1300,153,,1.1,26,1,60,47,203,细颗粒物(PM2.5)
上海市,普陀,121.4,31.238,2025-03-01T1300,27,,0.8,31,,120,70,,
上海市,十五厂,121.478,31.2036,2025-03-01T1300,26,29,0.8,31,8,104,61,38,
上海市,虹口,121.467,31.3008,2025-03-01T1300,28,,0.7,30,9,113,74,40,
上海市,静安监测站,121.425,31.2261,2025-03-01T1300,27,27,0.7,28,9,113,67,39,
上海市,浦东川沙,121.703,31.1907,2025-03-01T1300,24,,0.7,28,,122,76,,
上海市,浦东新区监测站,121.533,31.2284,2025-03-01T1300,25,26,0.5,36,7,117,72,37,
上海市,浦东张江,121.577,31.2071,2025-03-01T1300,25,26,0.9,22,7,116,73,37,
上海市,宝山庙行,121.4316,31.3322,2025-03-01T1300,22,24,0.6,,8,117,79,,
上海市,崇明上实东滩,121.8791,31.4662,2025-03-01T1300,19,37,0.5,18,6,122,76,39,
上海市,嘉定南翔,121.3162,31.2838,2025-03-01T1300,24,25,0.6,30,6,106,63,35,
上海市,金山新城,121.3359,30.7456,2025-03-01T1300,21,23,0.7,18,5,129,87,41,
上海市,闵行浦江,121.4996,31.0739,2025-03-01T1300,25,,0.7,22,5,121,70,38,
上海市,青浦徐泾,121.2886,31.1663,2025-03-01T1300,27,29,0.5,23,6,116,67,39,
上海市,松江图书馆,121.2186,31.0378,2025-03-01T1300,30,,0.6,21,8,116,70,43,
上海市,长宁仙霞,121.3902,31.2059,2025-03-01T1300,26,27,0.8,26,8,113,68,38,
上海市,浦东惠南,121.7965,31.0507,2025-03-01T1300,19,21,0.8,17,7,119,75,38,
上海市,奉贤南桥新城,121.4891,30.925,2025-03-01T1300,31,,0.6,32,7,125,69,45,
上海市,冠生园路458号,121.4174,31.16637,2025-03-01T1300,29,,0.4,19,10,111,55,42,
上海市,宁武路151号,121.5419,31.2683,2025-03-01T1300,29,47,0.8,49,6,92,60,47,
上饶市,百草园,118.005,28.4572,2025-03-01T1300,16,,0.7,4,2,98,42,31,
上饶市,市监测站,117.9756,28.4436,2025-03-01T1300,20,33,0.5,14,11,107,39,34,
上饶市,凤凰光学,117.9519,28.4628,2025-03-01T1300,20,33,0.8,10,10,104,38,33,
上饶市,双创科技城,117.897,28.4315,2025-03-01T1300,13,31,0.6,13,12,101,46,32,
上饶市,裕丰大道,118.1904,28.4448,2025-03-01T1300,13,17,0.4,8,2,92,44,29,
韶关市,市八中,113.5824,24.7733,2025-03-01T1300,12,20,0.5,9,10,80,45,25,
韶关市,园林处,113.5917,24.7972,2025-03-01T1300,9,15,0.4,9,8,80,44,25,
韶关市,韶关学院,113.6735,24.7791,2025-03-01T1300,6,12,0.3,6,10,76,49,24,
韶关市,曲江监测站,113.5971,24.6863,2025-03-01T1300,9,20,0.4,13,10,69,40,22,
韶关市,碧湖山庄,113.5556,24.8082,2025-03-01T1300,10,18,0.4,10,7,78,44,25,
邵阳市,市水土所,111.5239,27.3033,2025-03-01T1300,,,,,,,,,
邵阳市,市化工厂,111.5283,27.2442,2025-03-01T1300,17,33,0.2,10,8,90,47,33,
邵阳市,市环保局,111.4328,27.2272,2025-03-01T1300,25,57,0.8,14,6,79,43,54,颗粒物(PM10)
邵阳市,北塔二期4-26地块,111.4460,27.2472,2025-03-01T1300,25,50,0.5,22,8,71,32,50,
邵阳市,邵水西路287号,111.4739,27.2282,2025-03-01T1300,27,46,0.7,10,5,86,39,46,
绍兴市,城东开发委,120.6053,29.9928,2025-03-01T1300,12,13,0.6,6,5,97,50,31,
绍兴市,树下王站,120.5483,30.0003,2025-03-01T1300,25,30,0.7,7,6,112,61,36,
绍兴市,绍兴中专,120.5683,29.9361,2025-03-01T1300,14,22,0.4,3,6,112,64,35,
绍兴市,柯桥区政府,120.4906,30.0861,2025-03-01T1300,12,21,0.3,9,7,115,63,36,
绍兴市,重华小学,120.8752,30.0249,2025-03-01T1300,16,21,0.9,10,5,114,86,36,
绍兴市,上虞中学,120.8369,30.0137,2025-03-01T1300,16,20,0.6,15,6,104,71,33,
绍兴市,柯桥妇保,120.4722,30.0415,2025-03-01T1300,12,20,0.6,7,5,107,70,34,
绍兴市,袍江中学,120.6153,30.0764,2025-03-01T1300,11,19,0.6,9,4,108,55,34,
深圳市,通心岭子站,114.1063,22.5545,2025-03-01T1300,8,18,0.5,6,5,77,33,25,
深圳市,洪湖,114.117,22.5625,2025-03-01T1300,9,16,0.5,8,6,77,28,25,
深圳市,华侨城,113.987,22.5417,2025-03-01T1300,13,20,0.7,27,4,59,49,20,
深圳市,南海子站,113.9181,22.5171,2025-03-01T1300,11,23,0.6,6,5,83,48,26,
深圳市,盐田,114.2458,22.5689,2025-03-01T1300,14,31,0.5,17,6,79,29,31,
深圳市,龙岗,114.2283,22.7244,2025-03-01T1300,16,32,0.5,18,7,87,53,32,
深圳市,南澳,114.494,22.5422,2025-03-01T1300,24,39,0.7,,8,70,57,,
深圳市,葵涌,114.41,22.6342,2025-03-01T1300,10,21,0.5,12,6,68,48,22,
深圳市,梅沙,114.297,22.5978,2025-03-01T1300,18,37,0.6,20,6,81,59,37,
深圳市,观澜,114.0678,22.738,2025-03-01T1300,13,31,0.5,18,6,73,35,31,
深圳市,莲花,114.0731,22.559,2025-03-01T1300,9,19,0.5,10,4,73,32,23,
深圳市,民治,114.0261,22.6198,2025-03-01T1300,8,18,0.7,12,6,66,30,21,
深圳市,横岗,114.1871,22.6451,2025-03-01T1300,11,16,0.5,13,7,65,33,21,
深圳市,坪山,114.3551,22.7151,2025-03-01T1300,16,32,0.6,15,8,80,42,32,
深圳市,西乡,113.8953,22.5861,2025-03-01T1300,11,26,0.8,19,5,73,41,26,
沈阳市,森林路,123.6836,41.9339,2025-03-01T1300,,,,,,,,,
沈阳市,浑南东路,123.505,41.7406,2025-03-01T1300,86,104,1.4,44,21,59,83,114,细颗粒物(PM2.5)
沈阳市,新秀街,123.4231,41.6989,2025-03-01T1300,94,129,1.1,41,17,66,90,124,细颗粒物(PM2.5)
沈阳市,东陵路,123.5903,41.8411,2025-03-01T1300,96,96,1.2,32,12,72,83,127,细颗粒物(PM2.5)
沈阳市,陵东街,123.4264,41.8467,2025-03-01T1300,98,123,1.0,33,11,75,78,129,细颗粒物(PM2.5)
沈阳市,文化路,123.4114,41.7653,2025-03-01T1300,112,136,1.2,35,12,71,95,147,细颗粒物(PM2.5)
沈阳市,小河沿,123.4678,41.7867,2025-03-01T1300,108,132,1.2,39,14,62,77,142,细颗粒物(PM2.5)
沈阳市,太原街,123.4017,41.7972,2025-03-01T1300,127,141,1.2,41,12,61,86,168,细颗粒物(PM2.5)
沈阳市,京沈街,123.3783,41.9228,2025-03-01T1300,129,,0.9,22,14,68,80,170,细颗粒物(PM2.5)
沈阳市,沈辽西路,123.2444,41.7347,2025-03-01T1300,111,165,1.1,29,10,78,92,145,细颗粒物(PM2.5)
沈阳市,裕农路,123.5953,41.9086,2025-03-01T1300,90,116,1.1,33,12,76,88,119,细颗粒物(PM2.5)
十堰市,武当山,111.0419,32.395,2025-03-01T1300,26,30,0.8,11,13,75,74,38,
十堰市,滨河新村,110.78,32.6494,2025-03-01T1300,84,,0.8,23,12,66,38,112,细颗粒物(PM2.5)
十堰市,刘家沟,110.7258,32.6389,2025-03-01T1300,64,104,1.0,20,12,58,33,87,细颗粒物(PM2.5)
十堰市,铁二处,110.8839,32.5714,2025-03-01T1300,77,,0.8,13,10,70,28,103,细颗粒物(PM2.5)
十堰市,郧阳区金沙路,110.8054,32.8401,2025-03-01T1300,51,66,0.8,15,18,72,40,70,细颗粒物(PM2.5)
石河子市,艾青诗歌馆,86.0497,44.2967,2025-03-01T1300,141,218,1.2,26,5,71,95,188,细颗粒物(PM2.5)
石河子市,南区管委会,86.047,44.2331,2025-03-01T1300,128,185,1.3,20,9,90,88,169,细颗粒物(PM2.5)
石河子市,世纪广场,86.0791,44.3017,2025-03-01T1300,124,182,1.3,26,10,72,90,163,细颗粒物(PM2.5)
石家庄市,职工医院,114.4422,38.0444,2025-03-01T1300,115,172,1.1,36,10,108,37,150,细颗粒物(PM2.5)
石家庄市,高新区,114.6063,38.0266,2025-03-01T1300,106,184,1.1,38,11,127,65,139,细颗粒物(PM2.5)
石家庄市,西北水源,114.4898,38.1328,2025-03-01T1300,136,162,1.1,27,11,133,42,180,细颗粒物(PM2.5)
石家庄市,西南高教,114.4586,38.0058,2025-03-01T1300,144,182,0.8,36,10,129,63,192,细颗粒物(PM2.5)
石家庄市,世纪公园,114.5331,38.0178,2025-03-01T1300,99,149,1.1,38,9,117,71,130,细颗粒物(PM2.5)
石家庄市,人民会堂,114.509,38.0457,2025-03-01T1300,104,177,1.1,31,7,124,60,137,细颗粒物(PM2.5)
石家庄市,封龙山,114.3524,37.8911,2025-03-01T1300,118,189,1.5,21,26,151,149,155,细颗粒物(PM2.5)
石家庄市,22中南校区,114.5481,38.0378,2025-03-01T1300,129,156,1.0,36,12,129,67,170,细颗粒物(PM2.5)
石家庄市,鹿泉一中,114.289,38.0906,2025-03-01T1300,115,219,1.3,42,17,104,65,150,细颗粒物(PM2.5)
石家庄市,藁城区实验学校,114.8506765,38.0322033,2025-03-01T1300,137,233,1.2,42,14,102,52,182,细颗粒物(PM2.5)
石家庄市,井陉矿区区委大楼,114.0504658,38.0591645,2025-03-01T1300,118,212,1.5,46,24,134,34,155,细颗粒物(PM2.5)
石家庄市,栾城区星河路,114.6549,37.9020,2025-03-01T1300,,,,,,,98,,
石嘴山市,沙湖旅游区,106.3394,38.817,2025-03-01T1300,,,,,,,,,
石嘴山市,大武口朝阳西街,106.3668,39.0145,2025-03-01T1300,69,144,1.8,48,47,63,42,97,颗粒物(PM10)
石嘴山市,惠农南大街,106.7704,39.2282,2025-03-01T1300,84,207,2.2,73,44,46,23,129,颗粒物(PM10)
石嘴山市,红果子镇惠新街,106.7099,39.1325,2025-03-01T1300,108,232,4.1,92,146,51,26,142,细颗粒物(PM2.5)
石嘴山市,妇女儿童医院,106.3495,38.9836,2025-03-01T1300,59,105,1.7,49,29,59,42,80,细颗粒物(PM2.5)
石嘴山市,石大公路,106.7492,39.2069,2025-03-01T1300,123,196,3.6,79,56,58,28,162,细颗粒物(PM2.5)
双鸭山市,双合村,131.1511,46.6937,2025-03-01T1300,7,9,0.2,6,8,75,74,24,
双鸭山市,南小市,131.1652,46.6191,2025-03-01T1300,3,14,0.3,9,16,68,74,22,
双鸭山市,环保局,131.1524,46.6554,2025-03-01T1300,10,28,0.3,7,8,74,72,28,
双鸭山市,苗圃,131.12,46.5656,2025-03-01T1300,,,,,,,,,
朔州市,平朔,112.4397,39.3522,2025-03-01T1300,66,136,0.9,46,27,88,36,93,颗粒物(PM10)
朔州市,朔唯,112.4575,39.3617,2025-03-01T1300,73,146,0.8,47,29,90,34,98,"颗粒物(PM10),细颗粒物(PM2.5)"
朔州市,区政府,112.4258,39.3197,2025-03-01T1300,68,137,1.1,40,31,99,59,94,颗粒物(PM10)
朔州市,市环保局,112.4072,39.3278,2025-03-01T1300,64,126,0.9,77,29,98,,88,颗粒物(PM10)
朔州市,市二中,112.4272,39.3681,2025-03-01T1300,61,129,0.8,43,26,87,37,90,颗粒物(PM10)
朔州市,一水厂,112.2931,39.53,2025-03-01T1300,50,122,0.6,27,12,109,47,86,颗粒物(PM10)
四平市,一商场,124.4002,43.1713,2025-03-01T1300,92,,0.6,28,5,36,61,122,细颗粒物(PM2.5)
四平市,境园,124.388,43.193,2025-03-01T1300,69,90,0.5,32,8,37,28,93,细颗粒物(PM2.5)
四平市,植物园,124.4036,43.1411,2025-03-01T1300,67,110,0.6,36,7,32,57,90,细颗粒物(PM2.5)
四平市,世纪城,124.3419,43.1666,2025-03-01T1300,51,76,0.7,27,8,35,35,70,细颗粒物(PM2.5)
松原市,江南,124.8006,45.1214,2025-03-01T1300,14,37,0.4,10,4,72,73,37,
松原市,江北,124.7965,45.1722,2025-03-01T1300,17,35,0.5,7,3,64,63,35,
苏州市,上方山,120.561,31.2472,2025-03-01T1300,,,,,,,,,
苏州市,彩香,120.591,31.3019,2025-03-01T1300,28,40,0.5,46,10,113,63,40,
苏州市,轧钢厂,120.596,31.3264,2025-03-01T1300,28,37,0.7,26,7,111,62,40,
苏州市,吴中区,120.613,31.2703,2025-03-01T1300,30,40,0.4,20,7,130,57,43,
苏州市,苏州新区,120.543,31.2994,2025-03-01T1300,31,46,0.8,27,8,128,72,46,
苏州市,苏州工业园区,120.669,31.3097,2025-03-01T1300,28,37,0.7,19,8,128,61,40,
苏州市,相城区,120.641,31.3708,2025-03-01T1300,26,32,0.6,24,9,124,61,39,
苏州市,方洲路,120.743,31.3188,2025-03-01T1300,22,34,0.7,22,6,128,61,40,
苏州市,木渎中学,120.5031,31.2774,2025-03-01T1300,30,32,0.9,23,7,135,72,43,
苏州市,越秀幼儿园,120.624,31.1733,2025-03-01T1300,27,54,0.9,22,7,128,63,52,颗粒物(PM10)
苏州市,高铁新城,120.6505,31.416,2025-03-01T1300,25,40,0.7,28,9,113,57,40,
宿迁市,宿迁学院,118.293,33.9528,2025-03-01T1300,68,77,0.9,9,5,30,33,92,细颗粒物(PM2.5)
宿迁市,宿迁中学,118.2442,33.9592,2025-03-01T1300,68,,0.8,24,6,32,39,92,细颗粒物(PM2.5)
宿迁市,市供电局,118.283,33.965,2025-03-01T1300,64,79,0.8,19,2,32,39,87,细颗粒物(PM2.5)
宿迁市,宿豫区政府,118.3225,33.9447,2025-03-01T1300,71,77,1.0,18,3,29,37,95,细颗粒物(PM2.5)
宿州市,远航博物馆,116.9509,33.666,2025-03-01T1300,91,111,0.8,21,5,51,40,120,细颗粒物(PM2.5)
宿州市,社会福利中心,116.9708,33.591,2025-03-01T1300,120,147,0.6,24,16,51,34,158,细颗粒物(PM2.5)
宿州市,宿州学院,116.9884,33.6305,2025-03-01T1300,75,123,0.8,17,4,49,39,100,细颗粒物(PM2.5)
宿州市,皖北煤电集团,116.9648,33.6252,2025-03-01T1300,85,120,1.0,20,4,51,40,113,细颗粒物(PM2.5)
绥化市,人和东街,126.9785,46.6365,2025-03-01T1300,3,14,0.2,9,1,77,80,25,
绥化市,党政办公中心,126.964,46.6528,2025-03-01T1300,3,10,0.2,8,3,81,83,26,
随州市,市委党校,113.3583,31.7275,2025-03-01T1300,84,102,1.1,25,10,87,29,112,细颗粒物(PM2.5)
随州市,市林业局,113.3833,31.6908,2025-03-01T1300,81,91,0.6,17,11,93,35,108,细颗粒物(PM2.5)
随州市,市立交桥水厂,113.3983,31.7308,2025-03-01T1300,80,99,1.2,22,17,89,28,107,细颗粒物(PM2.5)
遂宁市,石溪浩,105.5453,30.5678,2025-03-01T1300,54,95,0.9,27,4,43,18,74,细颗粒物(PM2.5)
遂宁市,市监测站,105.5582,30.5232,2025-03-01T1300,57,90,0.7,30,7,47,20,78,细颗粒物(PM2.5)
遂宁市,行政中心,105.5861,30.5366,2025-03-01T1300,56,82,0.7,26,8,42,23,77,细颗粒物(PM2.5)
遂宁市,美宁食品公司,105.5918,30.4728,2025-03-01T1300,61,83,0.8,27,9,48,19,83,细颗粒物(PM2.5)
塔城地区,东门外小游园,82.9994,46.7432,2025-03-01T1300,13,33,0.2,9,5,78,78,33,
台州市,黄岩环保大楼,121.273,28.6459,2025-03-01T1300,42,49,0.7,43,6,98,42,59,细颗粒物(PM2.5)
台州市,台州环保大楼,121.419,28.6542,2025-03-01T1300,21,31,0.6,11,5,118,40,37,
台州市,路桥田洋王,121.377,28.5773,2025-03-01T1300,27,27,0.5,13,5,116,44,39,
台州市,台州科技职业学院,121.2568,28.6681,2025-03-01T1300,32,48,0.8,36,4,103,39,48,
太原市,尖草坪,112.522,37.8873,2025-03-01T1300,87,150,1.4,39,43,105,63,115,细颗粒物(PM2.5)
太原市,上兰,112.434,38.0108,2025-03-01T1300,70,104,0.8,31,33,100,79,94,细颗粒物(PM2.5)
太原市,晋源,112.469,37.7124,2025-03-01T1300,92,134,1.3,35,24,108,69,122,细颗粒物(PM2.5)
太原市,小店,112.5583,37.7394,2025-03-01T1300,74,155,1.2,44,25,96,42,103,颗粒物(PM10)
太原市,桃园,112.5369,37.8692,2025-03-01T1300,91,166,1.9,53,23,81,54,120,细颗粒物(PM2.5)
太原市,坞城,112.57,37.8195,2025-03-01T1300,98,163,1.8,44,25,90,46,129,细颗粒物(PM2.5)
太原市,南寨,112.549,37.9854,2025-03-01T1300,85,137,0.9,28,16,103,46,113,细颗粒物(PM2.5)
太原市,金胜,112.4719,37.7831,2025-03-01T1300,81,157,1.6,36,23,112,75,108,细颗粒物(PM2.5)
太原市,育英中学,112.5608,37.8807,2025-03-01T1300,93,156,1.7,48,24,91,48,123,细颗粒物(PM2.5)
泰安市,监测站,117.1437,36.1937,2025-03-01T1300,92,107,1.4,27,12,93,103,122,细颗粒物(PM2.5)
泰安市,人口学校,117.0885,36.2017,2025-03-01T1300,100,122,1.3,20,12,88,99,132,细颗粒物(PM2.5)
泰安市,电力学校,117.1089,36.1758,2025-03-01T1300,96,102,1.3,21,10,89,98,127,细颗粒物(PM2.5)
泰安市,国网新校,117.1812,36.2275,2025-03-01T1300,80,85,1.6,19,10,100,104,107,细颗粒物(PM2.5)
泰安市,交通技校,117.0313,36.2018,2025-03-01T1300,80,,1.2,22,7,101,110,107,细颗粒物(PM2.5)
泰安市,山东第一医科大学,117.0829,36.13,2025-03-01T1300,76,80,0.8,33,9,92,97,102,细颗粒物(PM2.5)
泰州市,公园路,119.905,32.4878,2025-03-01T1300,36,51,0.9,15,14,123,62,52,细颗粒物(PM2.5)
泰州市,莲花,119.9189,32.4625,2025-03-01T1300,39,51,0.8,17,12,124,61,55,细颗粒物(PM2.5)
泰州市,留学生创业园,119.888,32.4639,2025-03-01T1300,29,46,0.9,24,11,136,70,46,
泰州市,王营,119.8767,32.3289,2025-03-01T1300,24,59,0.7,22,12,110,43,55,颗粒物(PM10)
泰州市,姜堰区政府广场,120.1259,32.5099,2025-03-01T1300,59,74,0.7,24,9,120,61,80,细颗粒物(PM2.5)
泰州市,周山河街区,119.9192,32.4322,2025-03-01T1300,30,,0.7,22,13,124,60,43,
唐山市,物资局,118.1725,39.6334,2025-03-01T1300,119,143,1.8,26,2,63,56,156,细颗粒物(PM2.5)
唐山市,十二中,118.1705,39.6506,2025-03-01T1300,100,130,1.5,27,4,67,53,132,细颗粒物(PM2.5)
唐山市,小山,118.1869,39.622,2025-03-01T1300,121,144,1.9,28,2,63,54,159,细颗粒物(PM2.5)
唐山市,冀东油田职工医院,118.4359,39.2762,2025-03-01T1300,69,77,0.8,29,5,69,71,93,细颗粒物(PM2.5)
唐山市,正泰大街热力站,118.09279,39.58089,2025-03-01T1300,133,150,1.4,39,2,52,40,176,细颗粒物(PM2.5)
唐山市,丰润区政府,118.1562,39.8322,2025-03-01T1300,158,200,2.1,30,7,54,48,208,细颗粒物(PM2.5)
唐山市,金山小学,118.43673,39.73809,2025-03-01T1300,128,148,1.8,31,7,62,55,169,细颗粒物(PM2.5)
唐山市,政府服务中心,118.24498,39.66941,2025-03-01T1300,112,128,1.0,20,4,65,51,147,细颗粒物(PM2.5)
唐山市,消防缸窑路中队,118.2059,39.6585,2025-03-01T1300,113,142,1.2,23,8,72,60,148,细颗粒物(PM2.5)
唐山市,路南电大,118.1436,39.6202,2025-03-01T1300,123,161,1.9,31,4,56,55,162,细颗粒物(PM2.5)
唐山市,友谊北路34号,118.1309,39.6360,2025-03-01T1300,140,172,1.9,29,5,59,59,186,细颗粒物(PM2.5)
天津市,勤俭道,117.1444,39.1661,2025-03-01T1300,197,242,1.8,70,14,64,23,247,细颗粒物(PM2.5)
天津市,前进道,117.202,39.0927,2025-03-01T1300,187,245,1.6,78,14,62,32,237,细颗粒物(PM2.5)
天津市,淮河道,117.1837,39.2133,2025-03-01T1300,192,241,1.6,64,15,70,28,242,细颗粒物(PM2.5)
天津市,跃进路,117.307,39.0877,2025-03-01T1300,184,239,1.2,65,12,50,22,234,细颗粒物(PM2.5)
天津市,第四大街,117.707,39.0343,2025-03-01T1300,115,137,1.2,66,6,44,24,150,细颗粒物(PM2.5)
天津市,永明路,117.457,38.8394,2025-03-01T1300,135,166,1.0,48,8,64,37,179,细颗粒物(PM2.5)
天津市,汉北路,117.764,39.1587,2025-03-01T1300,110,128,0.9,27,5,70,45,144,细颗粒物(PM2.5)
天津市,团泊洼,117.157,38.9194,2025-03-01T1300,,,,,,,,,
天津市,河西一经路,117.7918,39.2474,2025-03-01T1300,175,206,1.5,33,8,60,57,225,细颗粒物(PM2.5)
天津市,津沽路,117.3747,38.9846,2025-03-01T1300,183,254,2.9,86,19,50,46,233,细颗粒物(PM2.5)
天津市,宾水西道,117.1589,39.0845,2025-03-01T1300,196,238,1.5,88,12,61,43,246,细颗粒物(PM2.5)
天津市,大理道,117.1941,39.1067,2025-03-01T1300,181,229,1.5,80,14,45,32,231,细颗粒物(PM2.5)
天津市,中山北路,117.2101,39.1699,2025-03-01T1300,177,222,1.3,66,12,61,23,227,细颗粒物(PM2.5)
天津市,西四道,117.3876,39.1488,2025-03-01T1300,144,180,1.2,39,10,66,28,192,细颗粒物(PM2.5)
天津市,雍阳西道,117.0365,39.3828,2025-03-01T1300,193,259,1.6,44,14,76,36,243,细颗粒物(PM2.5)
天津市,辛老路,117.0296,39.0605,2025-03-01T1300,204,292,1.6,92,13,56,38,254,细颗粒物(PM2.5)
天津市,地纬路,116.9638,38.9375,2025-03-01T1300,207,257,1.0,64,21,98,35,257,细颗粒物(PM2.5)
天津市,北环路,117.4067,40.0583,2025-03-01T1300,208,284,2.8,47,24,84,58,258,细颗粒物(PM2.5)
天津市,建设路,117.3045,39.7169,2025-03-01T1300,215,262,1.7,42,13,65,47,265,细颗粒物(PM2.5)
天津市,滨水东路,117.8199,39.3521,2025-03-01T1300,143,182,1.4,29,11,52,44,190,细颗粒物(PM2.5)
天津市,光华路,117.2437,39.1029,2025-03-01T1300,180,201,1.4,44,15,64,22,230,细颗粒物(PM2.5)
天水市,麦积山,106.0055,34.343,2025-03-01T1300,,,,,,,,,
天水市,公园小学,105.7205,34.5786,2025-03-01T1300,46,63,1.1,35,24,66,68,64,细颗粒物(PM2.5)
天水市,麦积国土局,105.8945,34.5538,2025-03-01T1300,73,110,1.3,40,16,50,42,98,细颗粒物(PM2.5)
铁岭市,汇工街西,123.8139,42.3022,2025-03-01T1300,116,,0.8,20,9,72,90,152,细颗粒物(PM2.5)
铁岭市,水上乐园,123.8649,42.2923,2025-03-01T1300,107,,0.8,24,11,72,94,140,细颗粒物(PM2.5)
铁岭市,银州路东段,123.8486,42.2867,2025-03-01T1300,111,126,0.8,26,6,72,98,145,细颗粒物(PM2.5)
铁岭市,金沙江路北,123.7153,42.2217,2025-03-01T1300,115,,1.2,19,17,71,98,150,细颗粒物(PM2.5)
通化市,光明,125.9358,41.7173,2025-03-01T1300,42,68,0.7,15,17,140,57,59,"颗粒物(PM10),细颗粒物(PM2.5)"
通化市,铁路,125.9446,41.7325,2025-03-01T1300,50,73,0.6,15,16,146,69,69,细颗粒物(PM2.5)
通辽市,艺术职业学校,122.2532,43.6801,2025-03-01T1300,9,78,0.2,10,13,72,68,64,颗粒物(PM10)
通辽市,老干部活动中心,122.2584,43.6333,2025-03-01T1300,11,63,0.4,11,7,68,63,57,颗粒物(PM10)
通辽市,东方明珠社区,122.2922,43.6189,2025-03-01T1300,26,87,0.2,10,9,71,66,69,颗粒物(PM10)
铜川市,党校,109.0656,35.0994,2025-03-01T1300,,,,,,,,,
铜川市,王益区政府,109.0697,35.0697,2025-03-01T1300,80,,0.9,12,7,106,45,107,细颗粒物(PM2.5)
铜川市,新区管委会,108.9344,34.9058,2025-03-01T1300,78,89,0.8,15,9,108,73,104,细颗粒物(PM2.5)
铜川市,旺旺集团,108.9543,34.8732,2025-03-01T1300,81,91,0.8,12,9,112,74,108,细颗粒物(PM2.5)
铜陵市,市第四中学,117.8177,30.9412,2025-03-01T1300,23,50,0.3,7,11,102,44,50,
铜陵市,市公路局,117.8059,30.9273,2025-03-01T1300,17,63,0.8,15,22,109,48,57,颗粒物(PM10)
铜陵市,市新民污水厂,117.7807,30.9413,2025-03-01T1300,23,40,0.7,17,17,100,40,40,
铜陵市,市第九中学,117.7439,30.8792,2025-03-01T1300,19,49,0.6,22,8,93,43,49,
铜陵市,车站新区,117.846,30.9413,2025-03-01T1300,22,37,0.4,8,7,100,53,37,
铜陵市,市职教基地,117.8483,30.97,2025-03-01T1300,17,37,0.5,11,9,105,50,37,
铜仁市,铜仁卫校,109.1839,27.7344,2025-03-01T1300,7,40,0.6,34,,16,4,,
铜仁市,铜仁七中,109.1753,27.6944,2025-03-01T1300,12,18,0.6,32,10,35,13,18,
吐鲁番市,市环保局,89.1904,42.9418,2025-03-01T1300,56,189,1.0,30,6,68,45,120,颗粒物(PM10)
吐鲁番市,地区环保局,89.1673,42.9559,2025-03-01T1300,50,194,0.8,20,10,71,44,122,颗粒物(PM10)
威海市,华夏技校,122.1214,37.4236,2025-03-01T1300,28,34,0.4,16,4,100,110,40,
威海市,山大分校,122.0508,37.5236,2025-03-01T1300,39,46,0.4,18,8,109,125,55,细颗粒物(PM2.5)
威海市,市监测站,122.1067,37.5072,2025-03-01T1300,37,49,0.6,16,3,92,110,53,细颗粒物(PM2.5)
威海市,文登开发区,122.0693,37.2174,2025-03-01T1300,,,,21,,97,120,,
威海市,临港区管委会,122.1379,37.3414,2025-03-01T1300,25,27,0.6,13,6,92,117,36,
潍坊市,环保局,119.1437,36.7023,2025-03-01T1300,11,14,0.4,27,8,77,80,25,
潍坊市,坊子邮政,119.1641,36.6523,2025-03-01T1300,14,19,0.7,18,7,74,78,24,
潍坊市,潍坊七中,119.0587,36.721,2025-03-01T1300,14,19,0.8,,7,69,77,,
潍坊市,高新实验学校,119.1977,36.6872,2025-03-01T1300,13,24,0.7,14,12,67,70,24,
潍坊市,潍坊学院,119.1755,36.7149,2025-03-01T1300,15,22,1.1,18,5,81,84,26,
潍坊市,寒亭区实验一小,119.2041,36.7699,2025-03-01T1300,14,17,0.4,14,12,81,81,26,
渭南市,农科所,109.5293,34.5101,2025-03-01T1300,,,,,,,,,
渭南市,体育馆,109.4636,34.493,2025-03-01T1300,98,132,1.0,22,9,98,37,129,细颗粒物(PM2.5)
渭南市,高新一小,109.4259,34.5023,2025-03-01T1300,105,132,1.0,15,9,95,33,138,细颗粒物(PM2.5)
渭南市,渭花路4号,109.5051,34.4921,2025-03-01T1300,95,105,1.0,19,9,94,38,125,细颗粒物(PM2.5)
温州市,瓯海,120.634,28.0089,2025-03-01T1300,43,55,0.7,41,8,98,34,60,细颗粒物(PM2.5)
温州市,南浦,120.6748,27.9939,2025-03-01T1300,33,50,0.9,33,8,123,42,50,
温州市,龙湾,120.76,27.9747,2025-03-01T1300,30,48,0.8,30,6,100,34,48,
温州市,市站,120.6709,28.0167,2025-03-01T1300,47,77,0.9,34,8,111,37,65,细颗粒物(PM2.5)
温州市,茶山,120.6985,27.9251,2025-03-01T1300,50,90,0.6,48,6,105,37,70,颗粒物(PM10)
文山壮族苗族自治州,州水务局,104.2533,23.3594,2025-03-01T1300,3,34,0.3,4,4,99,55,34,
文山壮族苗族自治州,市便民服务中心,104.2319,23.3892,2025-03-01T1300,16,40,0.3,4,6,89,53,40,
乌海市,市林业局,106.8174,39.6973,2025-03-01T1300,70,144,1.2,42,19,53,27,97,颗粒物(PM10)
乌海市,中海勃湾学校,106.7907,39.6667,2025-03-01T1300,83,126,1.1,33,21,61,35,110,细颗粒物(PM2.5)
乌海市,海北新区,106.813,39.7274,2025-03-01T1300,81,165,1.0,41,25,55,24,108,"颗粒物(PM10),细颗粒物(PM2.5)"
乌海市,聚英学校,106.8288,39.6778,2025-03-01T1300,81,193,1.0,40,23,52,28,122,颗粒物(PM10)
乌兰察布市,集宁新区,113.1306,40.9923,2025-03-01T1300,38,58,0.5,28,16,78,54,54,"颗粒物(PM10),细颗粒物(PM2.5)"
乌兰察布市,光明街小学,113.1076,41.0385,2025-03-01T1300,33,70,0.6,22,15,94,34,60,颗粒物(PM10)
乌兰察布市,北京八中,113.1376,40.9509,2025-03-01T1300,45,84,1.0,36,22,81,38,67,颗粒物(PM10)
乌兰察布市,市委党校,113.1775,40.9779,2025-03-01T1300,32,53,0.7,29,16,88,44,52,颗粒物(PM10)
乌鲁木齐市,监测站,87.5801,43.8303,2025-03-01T1300,18,48,0.3,12,3,95,71,48,
乌鲁木齐市,收费所,87.6046,43.768,2025-03-01T1300,29,37,0.4,13,3,77,57,42,
乌鲁木齐市,新疆农科院农场,87.4754,43.9469,2025-03-01T1300,79,108,1.0,27,7,77,86,105,细颗粒物(PM2.5)
乌鲁木齐市,铁路局,87.5525,43.8711,2025-03-01T1300,54,64,0,28,2,82,74,74,细颗粒物(PM2.5)
乌鲁木齐市,三十一中学,87.6432,43.831,2025-03-01T1300,64,,0.4,4,6,74,57,87,细颗粒物(PM2.5)
乌鲁木齐市,米东区环保局,87.7216,44.1747,2025-03-01T1300,14,25,0.3,2,6,95,89,30,
乌鲁木齐市,培训基地,87.4651,43.4569,2025-03-01T1300,17,17,0.7,9,2,75,86,25,
乌鲁木齐市,达坂城区环保局,88.3118,43.3658,2025-03-01T1300,24,38,0.5,6,6,81,80,38,
乌鲁木齐市,红光山片区,87.6162,43.8801,2025-03-01T1300,55,83,0.2,18,3,88,72,75,细颗粒物(PM2.5)
乌鲁木齐市,新师大温泉校区,87.7024,43.8004,2025-03-01T1300,42,60,0.3,4,1,97,76,59,细颗粒物(PM2.5)
乌鲁木齐市,大绿谷,87.4921,43.8411,2025-03-01T1300,41,57,0.3,20,4,84,61,58,细颗粒物(PM2.5)
无锡市,雪浪,120.269,31.4867,2025-03-01T1300,34,46,0.7,22,7,135,73,49,
无锡市,黄巷,120.275,31.6219,2025-03-01T1300,36,61,1.0,32,6,111,62,56,颗粒物(PM10)
无锡市,曹张,120.294,31.56,2025-03-01T1300,29,49,0.4,,3,128,63,,
无锡市,漆塘,120.242,31.5031,2025-03-01T1300,29,36,0.8,19,6,127,78,42,
无锡市,东亭,120.3489,31.5863,2025-03-01T1300,27,36,0.6,14,5,134,74,42,
无锡市,旺庄,120.354,31.5475,2025-03-01T1300,22,31,0.8,16,2,124,68,39,
无锡市,荣巷,120.245,31.5631,2025-03-01T1300,29,44,0.7,26,5,129,70,44,
无锡市,堰桥,120.299,31.6817,2025-03-01T1300,17,46,0.8,13,6,118,66,46,
无锡市,华庄,120.3142,31.4753,2025-03-01T1300,19,24,0.7,18,7,131,70,41,
吴忠市,教育园区,106.1532,37.9648,2025-03-01T1300,76,166,1.2,42,26,59,26,108,颗粒物(PM10)
吴忠市,新区二泵站,106.1856,37.9956,2025-03-01T1300,78,163,1.3,43,23,54,25,107,颗粒物(PM10)
吴忠市,文卫南街,106.2112,37.9768,2025-03-01T1300,91,196,1.1,40,24,60,27,123,颗粒物(PM10)
芜湖市,监测站,118.3606,31.3519,2025-03-01T1300,20,93,1.1,26,13,94,48,72,颗粒物(PM10)
芜湖市,科创中心,118.3714,31.4134,2025-03-01T1300,16,51,0.7,20,10,107,45,51,颗粒物(PM10)
芜湖市,四水厂,118.3673,31.3131,2025-03-01T1300,20,44,1.2,33,13,87,49,44,
芜湖市,市气象局,118.4209,31.3707,2025-03-01T1300,25,56,1.1,34,19,101,50,53,颗粒物(PM10)
芜湖市,清苑社区,118.4781,31.3225,2025-03-01T1300,18,56,0.6,,12,105,53,,
芜湖市,扬子职业技术学院,118.2746,31.2326,2025-03-01T1300,16,45,0.5,13,6,114,52,45,
梧州市,市逸夫小学,111.3014,23.4832,2025-03-01T1300,,32,0.4,8,9,73,29,,
梧州市,市十一中,111.3239,23.4794,2025-03-01T1300,20,26,0.6,17,9,58,19,29,
梧州市,龙新,111.2711,23.4835,2025-03-01T1300,20,41,0.7,13,10,58,22,41,
梧州市,政贤路18号,111.2419,23.4154,2025-03-01T1300,16,32,0.9,8,10,62,26,32,
五家渠市,农水大厦,87.5475,44.1756,2025-03-01T1300,23,26,0.2,2,4,88,78,33,
五家渠市,经开区管委会,87.546,44.1912,2025-03-01T1300,14,18,0.6,4,6,89,78,28,
武汉市,东湖梨园,114.3677,30.5584,2025-03-01T1300,46,68,1.2,37,9,44,11,64,细颗粒物(PM2.5)
武汉市,汉阳月湖,114.2529,30.558,2025-03-01T1300,34,66,0.6,55,7,44,14,58,颗粒物(PM10)
武汉市,汉口花桥,114.282,30.6189,2025-03-01T1300,51,81,1.2,62,16,36,16,70,细颗粒物(PM2.5)
武汉市,武昌紫阳,114.3025,30.5332,2025-03-01T1300,35,,1.0,53,12,59,16,,
武汉市,青山钢花,114.3646,30.6217,2025-03-01T1300,51,92,1.3,53,9,29,8,71,颗粒物(PM10)
武汉市,沌口新区,114.1566,30.4825,2025-03-01T1300,41,61,0.8,44,10,42,10,58,细颗粒物(PM2.5)
武汉市,汉口江滩,114.3014,30.5944,2025-03-01T1300,59,95,0.8,68,10,40,13,80,细颗粒物(PM2.5)
武汉市,吴家山,114.135,30.6319,2025-03-01T1300,44,80,1.0,56,11,35,9,65,颗粒物(PM10)
武汉市,沉湖七壕,113.8454,30.2917,2025-03-01T1300,37,67,0.8,53,12,36,9,59,颗粒物(PM10)
武汉市,民族大道182号,114.3877,30.4908,2025-03-01T1300,40,78,1.2,36,8,68,23,64,颗粒物(PM10)
武威市,监测站,102.6201,37.9251,2025-03-01T1300,31,102,0.4,12,13,78,58,76,颗粒物(PM10)
武威市,钟楼街149号,102.6447,37.9293,2025-03-01T1300,,,,,,,76,,
西安市,兴庆小区,108.993,34.2629,2025-03-01T1300,93,134,1.0,31,12,86,24,123,细颗粒物(PM2.5)
西安市,纺织城,109.06,34.2572,2025-03-01T1300,117,152,0.7,32,13,94,28,153,细颗粒物(PM2.5)
西安市,小寨,108.9356,34.2173,2025-03-01T1300,112,177,1.2,70,7,58,22,147,细颗粒物(PM2.5)
西安市,市人民体育场,108.954,34.2713,2025-03-01T1300,117,153,1.1,32,9,86,25,153,细颗粒物(PM2.5)
西安市,高新西区,108.8922,34.2322,2025-03-01T1300,124,162,1.0,58,9,68,26,163,细颗粒物(PM2.5)
西安市,经开区,108.935,34.3474,2025-03-01T1300,114,125,1.0,25,9,91,30,149,细颗粒物(PM2.5)
西安市,长安区,108.906,34.1546,2025-03-01T1300,153,213,1.1,64,9,56,26,203,细颗粒物(PM2.5)
