area,positionname,longitude,latitude,timepoint,pm2_5,pm10,co,no2,so2,o3,o3_8h,aqi,primarypollutant
阿坝藏族羌族自治州,州农科所,102.1879,31.914,2025-01-22T1700,6,17,0.8,24,10,70,65,22,
阿坝藏族羌族自治州,马师校,102.2502,31.8896,2025-01-22T1700,12,25,0.4,,,60,54,,
阿坝藏族羌族自治州,马尔康中学西区,102.2165,31.9024,2025-01-22T1700,21,29,0.3,6,4,75,62,30,
阿克苏地区,电视台,80.292,41.1694,2025-01-22T1700,118,182,1.7,72,7,38,50,155,细颗粒物(PM2.5)
阿克苏地区,艺术中心,80.2613,41.1551,2025-01-22T1700,109,158,1.6,45,4,49,46,143,细颗粒物(PM2.5)
阿拉善盟,西城区西花园,105.6467,38.8363,2025-01-22T1700,,,0.6,13,13,90,81,,
阿拉善盟,蒙二幼,105.6985,38.8411,2025-01-22T1700,10,29,0.6,14,8,84,80,29,
阿拉善盟,环保局新楼,105.724,38.8516,2025-01-22T1700,10,21,0.5,10,8,81,84,26,
阿勒泰地区,市站,88.1264,47.8517,2025-01-22T1700,14,16,0.4,26,16,66,58,21,
阿里地区,阿里监测站,80.1161,32.5,2025-01-22T1700,3,10,0.5,,8,95,83,,
阿里地区,阿里藏医院,80.0903,32.5028,2025-01-22T1700,3,18,0.5,1,5,84,70,27,
安康市,香溪洞,109.0318,32.6537,2025-01-22T1700,98,126,1.5,56,12,31,37,129,细颗粒物(PM2.5)
安康市,汉滨区检察院,109.0072,32.6975,2025-01-22T1700,111,134,1.2,44,9,50,25,145,细颗粒物(PM2.5)
安康市,市邮政管理局,109.0325,32.6913,2025-01-22T1700,111,145,1.7,64,11,31,24,145,细颗粒物(PM2.5)
安庆市,环科院,117.0809,30.5177,2025-01-22T1700,91,114,1.1,50,15,103,59,120,细颗粒物(PM2.5)
安庆市,马山宾馆,117.0331,30.5119,2025-01-22T1700,106,124,1.2,52,17,92,56,139,细颗粒物(PM2.5)
安庆市,安庆大学,116.9896,30.6145,2025-01-22T1700,111,147,1.0,58,16,91,63,145,细颗粒物(PM2.5)
安庆市,市人大,117.0598,30.5351,2025-01-22T1700,105,143,1.1,56,15,92,64,138,细颗粒物(PM2.5)
安顺市,伍家关,105.9606,26.2611,2025-01-22T1700,72,100,1.0,14,11,146,141,97,细颗粒物(PM2.5)
安顺市,凤凰山,105.9408,26.2431,2025-01-22T1700,77,103,0.7,16,18,140,128,103,细颗粒物(PM2.5)
安顺市,金钟山,105.9439,26.2564,2025-01-22T1700,69,113,1.0,14,16,139,129,93,细颗粒物(PM2.5)
安顺市,娄家坡,105.8983,26.2481,2025-01-22T1700,76,95,0.9,17,16,131,124,102,细颗粒物(PM2.5)
安阳市,棉研所,114.4839,36.0621,2025-01-22T1700,29,75,0.4,19,10,70,58,63,颗粒物(PM10)
安阳市,红庙街,114.3551,36.1017,2025-01-22T1700,26,31,0.4,6,4,76,64,38,
安阳市,银杏小区,114.361,36.0681,2025-01-22T1700,27,61,0.4,17,3,76,64,56,颗粒物(PM10)
安阳市,信访局,114.3922,36.0878,2025-01-22T1700,23,61,0.2,11,3,76,63,56,颗粒物(PM10)
安阳市,左辅环卫站,114.4705,36.0637,2025-01-22T1700,30,80,0.4,5,5,79,64,65,颗粒物(PM10)
安阳市,安钢职工学校,114.2917,36.0949,2025-01-22T1700,25,67,0.3,26,5,73,65,59,颗粒物(PM10)
鞍山市,深沟寺,123.044,41.1196,2025-01-22T1700,33,51,0.5,10,8,64,59,51,颗粒物(PM10)
鞍山市,太阳城,123.011,41.0931,2025-01-22T1700,34,59,0.6,18,5,66,50,55,颗粒物(PM10)
鞍山市,太平,123.0485,41.1442,2025-01-22T1700,27,49,0.6,19,10,66,59,49,
鞍山市,铁西三道街,122.9642,41.0971,2025-01-22T1700,29,55,0.9,25,8,64,65,53,颗粒物(PM10)
鞍山市,明达新区,123.022,41.0821,2025-01-22T1700,32,51,0.5,21,11,66,52,51,颗粒物(PM10)
鞍山市,千山,123.1289,41.0228,2025-01-22T1700,,,,,,,39,,
鞍山市,兴盛南路290号,122.9446,41.0826,2025-01-22T1700,,,0.7,23,8,58,55,,
巴彦淖尔市,附二中,107.4212,40.761,2025-01-22T1700,37,88,0.7,26,14,63,51,69,颗粒物(PM10)
巴彦淖尔市,市环保大楼,107.37,40.7372,2025-01-22T1700,33,78,0.5,25,,68,55,,
巴音郭楞蒙古自治州,孔雀公园,86.1472,41.7538,2025-01-22T1700,70,90,0.9,27,5,93,40,94,细颗粒物(PM2.5)
巴音郭楞蒙古自治州,棉纺厂,86.1972,41.7166,2025-01-22T1700,79,152,1.1,46,4,74,35,105,细颗粒物(PM2.5)
巴音郭楞蒙古自治州,经济开发区,86.2357,41.7173,2025-01-22T1700,58,100,1.1,45,5,82,50,79,细颗粒物(PM2.5)
巴中市,苏山坪,106.7677,31.8794,2025-01-22T1700,103,119,0.8,18,4,46,44,135,细颗粒物(PM2.5)
巴中市,丽阳花园,106.7656,31.8545,2025-01-22T1700,131,174,2.0,63,6,5,5,173,细颗粒物(PM2.5)
巴中市,圣泉水务公司,106.7418,31.8654,2025-01-22T1700,95,121,1.2,46,5,4,6,125,细颗粒物(PM2.5)
巴中市,市中心医院,106.7616,31.8344,2025-01-22T1700,163,190,1.9,67,5,5,4,213,细颗粒物(PM2.5)
白城市,洮北区环保局,122.7911,45.6077,2025-01-22T1700,37,47,0.5,18,4,66,62,53,细颗粒物(PM2.5)
白城市,市环保局,122.8738,45.5725,2025-01-22T1700,48,66,,,4,51,52,,
白山市,喜丰,126.4219,41.9171,2025-01-22T1700,13,37,0.6,15,5,65,64,37,
白山市,环保局,126.4077,41.9419,2025-01-22T1700,7,48,0.6,3,9,71,59,48,
白银市,第三小学,104.1724,36.5446,2025-01-22T1700,70,,0.9,34,60,82,68,94,细颗粒物(PM2.5)
白银市,动力公司,104.1465,36.5482,2025-01-22T1700,56,64,0.9,29,176,110,81,77,细颗粒物(PM2.5)
百色市,市监测站,106.6103,23.9011,2025-01-22T1700,34,62,0.9,16,12,151,124,56,颗粒物(PM10)
百色市,市中心血站,106.6538,23.8859,2025-01-22T1700,46,71,0.8,17,13,153,141,64,细颗粒物(PM2.5)
百色市,祈福高中,106.6085,23.8798,2025-01-22T1700,41,82,1.1,13,12,154,112,66,颗粒物(PM10)
蚌埠市,工人疗养院,117.396,32.939,2025-01-22T1700,106,147,1.0,33,9,100,87,139,细颗粒物(PM2.5)
蚌埠市,百货大楼,117.3605,32.9427,2025-01-22T1700,106,149,0.7,30,9,102,85,139,细颗粒物(PM2.5)
蚌埠市,蚌埠学院,117.4185,32.8911,2025-01-22T1700,110,129,,,16,88,70,144,细颗粒物(PM2.5)
蚌埠市,淮上区政府,117.3533,32.9673,2025-01-22T1700,108,141,1.0,30,12,103,90,142,细颗粒物(PM2.5)
蚌埠市,高新区,117.3145,32.8977,2025-01-22T1700,114,141,1.0,39,12,110,87,149,细颗粒物(PM2.5)
蚌埠市,蚌埠田家炳中学,117.3092,32.9314,2025-01-22T1700,111,162,0.7,29,10,113,90,145,细颗粒物(PM2.5)
包头市,市环境监测站,109.8756,40.6532,2025-01-22T1700,32,62,1.4,48,31,57,49,56,颗粒物(PM10)
包头市,包头八中,109.9991,40.5842,2025-01-22T1700,46,78,1.1,42,21,52,43,64,"颗粒物(PM10),细颗粒物(PM2.5)"
包头市,青山宾馆,109.8538,40.6821,2025-01-22T1700,44,54,2.2,57,33,47,46,62,细颗粒物(PM2.5)
包头市,惠龙物流,109.8642,40.6288,2025-01-22T1700,48,60,1.4,43,24,64,51,67,细颗粒物(PM2.5)
包头市,东河鸿龙湾,110.0377,40.5546,2025-01-22T1700,42,55,1.0,32,26,59,46,59,细颗粒物(PM2.5)
包头市,滨河大厦,109.9154,40.5685,2025-01-22T1700,45,66,1.0,34,24,60,45,63,细颗粒物(PM2.5)
包头市,包头市委党校,109.9447,40.6261,2025-01-22T1700,30,68,1.1,35,19,65,53,59,颗粒物(PM10)
包头市,昆区政府,109.8331,40.6576,2025-01-22T1700,48,63,3.0,67,54,40,46,67,细颗粒物(PM2.5)
宝鸡市,庙沟村,107.185,34.3063,2025-01-22T1700,154,176,1.3,38,16,139,107,204,细颗粒物(PM2.5)
宝鸡市,竹园沟,107.0708,34.3017,2025-01-22T1700,137,176,1.2,36,17,149,101,182,细颗粒物(PM2.5)
宝鸡市,三陆医院,107.1906,34.3672,2025-01-22T1700,154,199,1.3,49,16,140,91,204,细颗粒物(PM2.5)
宝鸡市,监测站,107.1431,34.3547,2025-01-22T1700,149,202,1.4,37,17,138,93,199,细颗粒物(PM2.5)
宝鸡市,技工学校,107.1186,34.3739,2025-01-22T1700,148,179,1.3,45,14,132,87,198,细颗粒物(PM2.5)
宝鸡市,陈仓区环保局家属楼,107.3906,34.3528,2025-01-22T1700,149,179,1.3,41,18,142,91,199,细颗粒物(PM2.5)
宝鸡市,文理学院,107.2058,34.3497,2025-01-22T1700,160,241,,,,,93,210,细颗粒物(PM2.5)
宝鸡市,三迪小学,107.2386,34.3622,2025-01-22T1700,157,181,1.3,42,18,136,86,207,细颗粒物(PM2.5)
保定市,游泳馆,115.493,38.8632,2025-01-22T1700,32,62,0.7,25,10,72,55,56,颗粒物(PM10)
保定市,华电二区,115.5213,38.8959,2025-01-22T1700,37,49,0.5,18,5,104,77,53,细颗粒物(PM2.5)
保定市,接待中心,115.4713,38.9108,2025-01-22T1700,33,59,0.4,22,6,66,51,55,颗粒物(PM10)
保定市,地表水厂,115.4612,38.8416,2025-01-22T1700,29,69,0.3,16,4,84,66,60,颗粒物(PM10)
保定市,满城区生态环境分局,115.31981,38.95208,2025-01-22T1700,34,63,0.5,25,7,71,63,57,颗粒物(PM10)
保定市,清苑区第二中学,115.47694,38.76408,2025-01-22T1700,31,65,0.5,21,8,71,53,58,颗粒物(PM10)
保定市,徐水物探局,115.62909,39.02311,2025-01-22T1700,31,42,0.4,23,11,75,57,45,
保定市,双鹰农机,115.4202,38.8656,2025-01-22T1700,33,51,0.7,20,3,76,61,51,颗粒物(PM10)
保定市,植保所站,115.5150,38.8590,2025-01-22T1700,38,56,0.5,24,7,66,50,54,细颗粒物(PM2.5)
保山市,市环境监测站,99.1678,25.1081,2025-01-22T1700,8,32,0.3,5,5,88,72,32,
保山市,市环保局,99.1711,25.1328,2025-01-22T1700,21,33,0.3,4,6,90,76,33,
北海市,牛尾岭水库,109.2262,21.588,2025-01-22T1700,36,52,0.5,,5,56,40,,
北海市,海滩公园,109.1436,21.4086,2025-01-22T1700,37,60,0.9,15,7,157,144,55,颗粒物(PM10)
北海市,新市环保局,109.0981,21.4661,2025-01-22T1700,29,56,0.6,19,6,138,130,53,颗粒物(PM10)
北海市,北海工业园,109.1778,21.5233,2025-01-22T1700,37,52,0.6,10,8,147,133,53,细颗粒物(PM2.5)
北海市,龙潭自来水厂,109.1911,21.4415,2025-01-22T1700,45,60,0.7,11,6,142,127,63,细颗粒物(PM2.5)
北京市,万寿西宫,116.3621,39.8784,2025-01-22T1700,36,52,0.7,32,11,59,47,52,细颗粒物(PM2.5)
北京市,定陵,116.2202,40.2915,2025-01-22T1700,,,,,,,,,
北京市,东四,116.4174,39.9289,2025-01-22T1700,37,61,0.7,22,9,52,44,56,颗粒物(PM10)
北京市,天坛,116.4072,39.8863,2025-01-22T1700,47,60,0.8,20,6,57,50,65,细颗粒物(PM2.5)
北京市,农展馆,116.462,39.9365,2025-01-22T1700,35,60,1.0,27,9,65,52,55,颗粒物(PM10)
北京市,官园,116.3392,39.9295,2025-01-22T1700,34,55,0.7,25,11,59,47,53,颗粒物(PM10)
北京市,海淀万柳,116.2878,39.9611,2025-01-22T1700,34,53,0.9,32,9,57,41,52,颗粒物(PM10)
北京市,顺义新城,116.6636,40.135,2025-01-22T1700,35,60,0.9,31,10,63,58,55,颗粒物(PM10)
北京市,怀柔镇,116.6275,40.3275,2025-01-22T1700,29,46,0.6,39,7,52,58,46,
北京市,昌平镇,116.2296,40.217,2025-01-22T1700,27,50,0.9,31,4,52,46,50,
北京市,奥体中心,116.3966,39.9821,2025-01-22T1700,34,58,0.8,27,8,58,48,54,颗粒物(PM10)
北京市,延庆夏都,115.9718,40.4529,2025-01-22T1700,32,49,0.5,27,6,47,56,49,
北京市,平谷新城,117.0709,40.1465,2025-01-22T1700,38,61,1.4,19,21,67,57,56,颗粒物(PM10)
北京市,密云新城,116.8336,40.4095,2025-01-22T1700,36,53,0.9,18,9,73,68,52,"颗粒物(PM10),细颗粒物(PM2.5)"
北京市,门头沟三家店,116.088,39.9726,2025-01-22T1700,36,56,0.6,23,6,61,44,53,颗粒物(PM10)
北京市,丰台云岗,116.1541,39.8204,2025-01-22T1700,37,58,0.6,20,9,63,48,54,颗粒物(PM10)
北京市,通州东关,116.6804,39.9081,2025-01-22T1700,37,57,0.5,14,8,59,45,54,颗粒物(PM10)
北京市,房山燕山,115.9577,39.7603,2025-01-22T1700,31,57,0.5,24,5,68,52,54,颗粒物(PM10)
北京市,大兴旧宫,116.4672,39.7733,2025-01-22T1700,32,55,0.6,20,4,62,45,53,颗粒物(PM10)
北京市,延庆石河营,115.986,40.4563,2025-01-22T1700,33,47,0.6,30,6,44,56,48,
北京市,怀柔新城,116.6151,40.3053,2025-01-22T1700,31,48,0.6,39,7,48,54,48,
北京市,丰台小屯,116.2545,39.8768,2025-01-22T1700,35,56,0.6,30,9,54,40,53,颗粒物(PM10)
北京市,密云镇,116.84,40.3844,2025-01-22T1700,33,57,0.7,16,7,67,60,54,颗粒物(PM10)
北京市,八角,116.1942,39.91583,2025-01-22T1700,33,54,0.7,20,5,60,44,52,颗粒物(PM10)
本溪市,大峪,123.8275,41.3064,2025-01-22T1700,37,56,0.6,24,8,60,49,53,"颗粒物(PM10),细颗粒物(PM2.5)"
本溪市,溪湖,123.7567,41.3325,2025-01-22T1700,23,52,0.6,17,11,64,48,51,颗粒物(PM10)
本溪市,彩屯,123.7169,41.3094,2025-01-22T1700,35,48,0.8,30,9,56,52,50,
本溪市,东明,123.7669,41.2864,2025-01-22T1700,34,61,1.1,24,10,59,42,56,颗粒物(PM10)
本溪市,新立屯,123.7992,41.2664,2025-01-22T1700,36,62,1.2,43,14,45,50,56,颗粒物(PM10)
本溪市,威宁,123.8142,41.3472,2025-01-22T1700,32,56,0.5,24,5,59,52,53,颗粒物(PM10)
毕节市,八中,105.2864,27.3125,2025-01-22T1700,114,133,1.2,37,15,40,52,149,细颗粒物(PM2.5)
毕节市,师专,105.31,27.2944,2025-01-22T1700,,,1.2,27,13,46,53,,
毕节市,长征村,105.3631,27.3533,2025-01-22T1700,127,158,1.2,15,10,67,58,168,细颗粒物(PM2.5)
滨州市,第二水厂,118.0018,37.3617,2025-01-22T1700,12,34,0.4,13,10,61,58,34,
滨州市,北中新校,117.9776,37.393,2025-01-22T1700,17,36,0,14,5,67,66,36,
滨州市,中海酒店,117.9378,37.3956,2025-01-22T1700,29,34,,18,5,63,63,,
滨州市,开发区一中,117.9378,37.3553,2025-01-22T1700,12,39,0.3,20,7,69,66,39,
滨州市,金海六路,118.0917,37.694,2025-01-22T1700,7,22,0.3,11,5,71,70,23,
滨州市,滨州市西街道办事处,117.9956,37.3753,2025-01-22T1700,24,31,0,16,6,65,60,35,
亳州市,污水处理厂,115.8072,33.8399,2025-01-22T1700,165,224,1.6,42,13,107,79,215,细颗粒物(PM2.5)
亳州市,三国揽胜宫,115.7789,33.8518,2025-01-22T1700,184,229,,48,12,115,84,234,细颗粒物(PM2.5)
亳州市,亳州学院,115.7633,33.8034,2025-01-22T1700,155,230,1.6,47,10,108,79,205,细颗粒物(PM2.5)
博尔塔拉蒙古自治州,市党校,82.0485,44.8556,2025-01-22T1700,50,69,,19,10,92,89,,
博尔塔拉蒙古自治州,市环保局,82.0806,44.8969,2025-01-22T1700,30,55,1.0,22,8,83,80,53,颗粒物(PM10)
沧州市,沧县城建局,116.8842,38.2991,2025-01-22T1700,25,54,0.4,17,4,67,62,52,颗粒物(PM10)
沧州市,电视转播站,116.8584,38.3254,2025-01-22T1700,24,44,0.4,14,6,67,64,44,
沧州市,市环保局,116.8709,38.3228,2025-01-22T1700,36,65,0.3,,4,65,59,,
沧州市,河北水利电力学院,116.8136,38.3004,2025-01-22T1700,28,44,0.3,16,10,64,61,44,
昌都市,昌都监测站,97.1806,31.1273,2025-01-22T1700,3,18,0.5,1,6,96,64,30,
昌都市,昌都会议中心,97.1714,31.1406,2025-01-22T1700,3,,0.3,2,3,97,67,,
昌吉回族自治州,天山天池,88.1236,43.8886,2025-01-22T1700,3,7,,3,7,104,100,,
昌吉回族自治州,新区政务中心,87.2717,44.0297,2025-01-22T1700,209,242,1.7,37,2,56,31,259,细颗粒物(PM2.5)
昌吉回族自治州,亚心广场,87.3095,44.0142,2025-01-22T1700,222,246,1.5,21,5,66,38,272,细颗粒物(PM2.5)
长春市,食品厂,125.3325,43.9166,2025-01-22T1700,49,68,0.6,33,8,54,57,68,细颗粒物(PM2.5)
长春市,客车厂,125.2863,43.9027,2025-01-22T1700,,,,,9,55,59,,
长春市,邮电学院,125.2841,43.8463,2025-01-22T1700,44,52,0.9,19,12,63,60,62,细颗粒物(PM2.5)
长春市,劳动公园,125.3716,43.8772,2025-01-22T1700,41,60,0.6,28,9,63,67,58,细颗粒物(PM2.5)
长春市,园林处,125.3297,43.8805,2025-01-22T1700,48,,0.4,20,9,60,58,67,细颗粒物(PM2.5)
长春市,净月潭,125.4605,43.79,2025-01-22T1700,32,51,0.5,26,10,52,52,51,颗粒物(PM10)
长春市,甩湾子,125.7194,43.515,2025-01-22T1700,,,,,,,,,
长春市,经开区环卫处,125.3863,43.8447,2025-01-22T1700,37,55,0.9,37,24,48,48,53,"颗粒物(PM10),细颗粒物(PM2.5)"
长春市,高新区管委会,125.245,43.7783,2025-01-22T1700,35,54,0.4,30,9,51,60,52,颗粒物(PM10)
长春市,岱山公园,125.1761,43.8325,2025-01-22T1700,44,53,0.6,29,8,60,65,62,细颗粒物(PM2.5)
长沙市,经开区环保局,113.0833,28.2325,2025-01-22T1700,41,73,0.6,16,6,147,96,62,颗粒物(PM10)
长沙市,高开区环保局,112.8872,28.2189,2025-01-22T1700,51,84,0.9,31,7,129,94,70,细颗粒物(PM2.5)
长沙市,马坡岭,113.0792,28.2053,2025-01-22T1700,63,82,0.5,52,6,,73,,
长沙市,湖南师范大学,112.9394,28.19,2025-01-22T1700,63,82,1.1,41,8,119,94,85,细颗粒物(PM2.5)
长沙市,雨花区环保局,113.0178,28.1322,2025-01-22T1700,53,84,0.8,42,8,111,84,73,细颗粒物(PM2.5)
长沙市,伍家岭,112.9792,28.2597,2025-01-22T1700,59,98,0.9,45,6,116,66,80,细颗粒物(PM2.5)
长沙市,火车新站,113.0014,28.1944,2025-01-22T1700,61,90,0.8,41,6,119,89,83,细颗粒物(PM2.5)
长沙市,天心区环保局,112.9844,28.1178,2025-01-22T1700,62,90,1.0,49,4,106,92,84,细颗粒物(PM2.5)
长沙市,湖南中医药大学,112.8908,28.1308,2025-01-22T1700,69,80,1.0,38,8,112,78,93,细颗粒物(PM2.5)
长沙市,沙坪,112.9581,28.3611,2025-01-22T1700,46,54,,,10,115,107,,
长治市,清华站,113.1147,36.1547,2025-01-22T1700,85,103,1.0,32,18,113,70,113,细颗粒物(PM2.5)
长治市,审计局,113.0886,36.2125,2025-01-22T1700,92,96,0.9,29,18,110,81,122,细颗粒物(PM2.5)
长治市,长治八中,113.0844,36.1856,2025-01-22T1700,93,122,1.0,26,16,119,77,123,细颗粒物(PM2.5)
长治市,德盛苑,113.1569,36.1911,2025-01-22T1700,85,115,1.0,29,15,113,81,113,细颗粒物(PM2.5)
长治市,向阳小学,113.06,36.0464,2025-01-22T1700,103,127,1.3,36,25,120,76,135,细颗粒物(PM2.5)
长治市,屯留一中,112.8792,36.3144,2025-01-22T1700,90,99,1.0,50,19,110,77,119,细颗粒物(PM2.5)
长治市,英华南巷50号,113.1131,36.19948,2025-01-22T1700,88,,0.9,36,18,119,86,117,细颗粒物(PM2.5)
长治市,学府街1号,113.2367,36.3344,2025-01-22T1700,,,1.2,31,,84,85,,
常德市,市二中,111.6975,28.9703,2025-01-22T1700,162,189,1.1,19,11,122,95,212,细颗粒物(PM2.5)
常德市,白鹤山,111.7158,29.1456,2025-01-22T1700,,,,,,,,,
常德市,武陵区永安,111.7153,29.0289,2025-01-22T1700,165,233,1.0,28,14,123,89,215,细颗粒物(PM2.5)
常德市,鼎城区玉霞,111.6892,28.9881,2025-01-22T1700,159,220,1.1,21,14,124,89,209,细颗粒物(PM2.5)
常德市,武陵区长庚,111.6625,29.0531,2025-01-22T1700,161,195,1.0,26,11,131,92,211,细颗粒物(PM2.5)
常州市,市监测站,119.9633,31.762,2025-01-22T1700,60,85,0.6,45,9,136,123,82,细颗粒物(PM2.5)
常州市,武进监测站,119.9468,31.7069,2025-01-22T1700,46,69,0.6,22,8,142,128,64,细颗粒物(PM2.5)
常州市,安家,119.9255,31.9087,2025-01-22T1700,47,65,0.8,33,8,124,109,65,细颗粒物(PM2.5)
常州市,行政中心,119.9805,31.8174,2025-01-22T1700,59,68,0.6,24,14,,86,,
常州市,经开区,120.0522,31.7748,2025-01-22T1700,53,93,1.0,37,12,135,116,73,细颗粒物(PM2.5)
常州市,钟楼,119.9025,31.7964,2025-01-22T1700,55,73,0.9,,,139,122,,
常州市,武进经发区,119.8598,31.7066,2025-01-22T1700,56,74,0.5,36,6,140,131,77,细颗粒物(PM2.5)
常州市,金坛城区,119.5826,31.7245,2025-01-22T1700,61,81,0.6,19,8,141,130,83,细颗粒物(PM2.5)
朝阳市,西梁,120.4318,41.5881,2025-01-22T1700,17,36,0.7,20,15,61,51,36,
朝阳市,河畔小区,120.4521,41.5646,2025-01-22T1700,14,32,0.7,16,11,62,55,32,
朝阳市,八里堡,120.4176,41.5648,2025-01-22T1700,19,38,0.9,21,13,63,56,38,
朝阳市,农业园区,120.3806,41.5969,2025-01-22T1700,40,42,0.8,25,17,54,54,57,细颗粒物(PM2.5)
潮州市,西园路,116.6367,23.6719,2025-01-22T1700,17,27,0.3,13,3,93,86,30,
潮州市,市政府,116.6183,23.6608,2025-01-22T1700,23,37,0.6,12,3,92,96,37,
潮州市,金山,116.6461,23.6761,2025-01-22T1700,19,27,0.5,10,4,82,81,28,
郴州市,马头岭,113.0073,25.9061,2025-01-22T1700,22,57,0.7,26,10,131,118,54,颗粒物(PM10)
郴州市,市职中,113.0116,25.8226,2025-01-22T1700,28,46,0.7,14,10,144,97,46,
郴州市,兴隆步行街,113.0161,25.8001,2025-01-22T1700,,,,,,,,,
郴州市,市审计局,113.0383,25.8071,2025-01-22T1700,31,52,0.6,26,7,129,92,51,颗粒物(PM10)
郴州市,市环保局,113.0348,25.7759,2025-01-22T1700,34,54,0.5,21,10,120,78,52,颗粒物(PM10)
成都市,金泉两河,103.9728,30.7236,2025-01-22T1700,120,127,0.9,39,2,71,35,158,细颗粒物(PM2.5)
成都市,十里店,104.176,30.6872,2025-01-22T1700,125,152,0.8,42,2,53,25,165,细颗粒物(PM2.5)
成都市,三瓦窑,104.079,30.5706,2025-01-22T1700,121,148,0.9,41,1,49,21,159,细颗粒物(PM2.5)
成都市,沙河铺,104.1114,30.63,2025-01-22T1700,114,147,,43,4,48,21,149,细颗粒物(PM2.5)
成都市,君平街,104.0786,30.6531,2025-01-22T1700,137,149,1.0,60,5,40,29,182,细颗粒物(PM2.5)
成都市,灵岩寺,103.613,31.0283,2025-01-22T1700,,,,,,,,,
成都市,大石西路,104.0239,30.65639,2025-01-22T1700,132,161,1.1,61,4,35,29,175,细颗粒物(PM2.5)
成都市,龙泉驿区区政府,104.2725,30.5589,2025-01-22T1700,,,0.9,20,,76,39,,
成都市,金博路,104.0106,30.6931,2025-01-22T1700,122,159,1.1,54,2,45,33,160,细颗粒物(PM2.5)
成都市,华阳,104.0578,30.5225,2025-01-22T1700,114,141,0.9,27,1,56,26,149,细颗粒物(PM2.5)
成都市,青白江技师分院,104.3853,30.7453,2025-01-22T1700,109,140,0.8,27,5,73,36,143,细颗粒物(PM2.5)
成都市,科学城,104.0789,30.4072,2025-01-22T1700,110,132,1.0,17,4,51,21,144,细颗粒物(PM2.5)
成都市,光华大道三段,103.8506,30.6947,2025-01-22T1700,114,148,0.9,38,2,57,30,149,细颗粒物(PM2.5)
成都市,鲸龙路1057号,104.2433,30.5353,2025-01-22T1700,111,143,1.0,25,2,70,44,145,细颗粒物(PM2.5)
承德市,铁路,117.9531,40.9081,2025-01-22T1700,20,,0.4,41,10,36,45,29,
承德市,中国银行,117.9392,40.9763,2025-01-22T1700,22,47,0.6,22,10,45,49,47,
承德市,开发区,117.9503,40.928,2025-01-22T1700,18,34,0.5,31,9,47,53,34,
承德市,文化中心,117.8051,40.9655,2025-01-22T1700,34,67,1.8,32,38,48,51,59,颗粒物(PM10)
承德市,离宫,117.9268,41.0026,2025-01-22T1700,26,51,0.6,16,10,50,51,51,颗粒物(PM10)
池州市,池州学院,117.47,30.6618,2025-01-22T1700,58,74,0.7,18,9,123,68,79,细颗粒物(PM2.5)
池州市,展览馆,117.4918,30.6617,2025-01-22T1700,42,67,0.8,43,9,100,61,59,"颗粒物(PM10),细颗粒物(PM2.5)"
池州市,第八中学,117.5627,30.695,2025-01-22T1700,46,62,0.5,29,12,116,71,64,细颗粒物(PM2.5)
池州市,第十二中学,117.5038,30.6243,2025-01-22T1700,,,0.7,29,7,113,64,,
赤峰市,松山一中,118.9233,42.2816,2025-01-22T1700,14,23,1.0,32,12,51,52,23,
赤峰市,哈达街,118.9576,42.2728,2025-01-22T1700,21,30,0.9,32,12,59,59,30,
赤峰市,天义路,118.8788,42.2554,2025-01-22T1700,8,15,0.5,22,10,54,51,17,
赤峰市,银河街,119.2658,42.0353,2025-01-22T1700,26,46,0.8,20,17,57,47,46,
赤峰市,桥北物流园区,118.9359,42.3147,2025-01-22T1700,24,,1.1,38,28,45,49,35,
崇左市,市环保局江州分局,107.3476,22.4136,2025-01-22T1700,,,0.9,16,7,158,128,,
崇左市,城南新区,107.3702,22.3707,2025-01-22T1700,43,65,0.8,20,9,167,147,60,细颗粒物(PM2.5)
滁州市,老年大学,118.3093,32.3153,2025-01-22T1700,108,132,0.7,51,7,125,108,142,细颗粒物(PM2.5)
滁州市,人大宾馆,118.3244,32.2786,2025-01-22T1700,119,137,0.9,62,15,114,97,156,细颗粒物(PM2.5)
滁州市,市政府原办公楼,118.3118,32.3038,2025-01-22T1700,110,128,0.5,48,10,122,22,144,细颗粒物(PM2.5)
滁州市,图书馆,118.3267,32.2634,2025-01-22T1700,103,149,,55,,121,98,135,细颗粒物(PM2.5)
楚雄彝族自治州,州环境监测站,101.5482,25.0441,2025-01-22T1700,18,23,0.4,3,7,86,68,27,
楚雄彝族自治州,市经济开发区,101.538,25.0492,2025-01-22T1700,18,25,0.5,6,5,84,67,27,
达州市,达州职业技术学院,107.5277,31.2827,2025-01-22T1700,193,240,1.6,51,12,17,8,243,细颗粒物(PM2.5)
达州市,市环境监测站,107.5086,31.2186,2025-01-22T1700,,,1.8,65,12,10,7,,
达州市,凤凰小区,107.4988,31.2132,2025-01-22T1700,163,205,1.8,67,16,10,8,213,细颗粒物(PM2.5)
达州市,达县机关宾馆,107.5082,31.1986,2025-01-22T1700,155,200,2.0,66,12,11,6,205,细颗粒物(PM2.5)
达州市,市政中心,107.4644,31.2124,2025-01-22T1700,178,239,3.3,84,16,4,3,228,细颗粒物(PM2.5)
大理白族自治州,大理市环境监测站,100.1542,25.7054,2025-01-22T1700,34,50,0.6,9,8,90,78,50,
大理白族自治州,大理古城,100.2171,25.5811,2025-01-22T1700,18,28,0.8,9,6,101,86,32,
大连市,甘井子,121.612,38.9741,2025-01-22T1700,28,53,0.5,24,8,53,46,52,颗粒物(PM10)
大连市,周水子,121.565,38.9511,2025-01-22T1700,36,47,0.8,24,14,68,62,52,细颗粒物(PM2.5)
大连市,星海三站,121.5637,38.8845,2025-01-22T1700,31,46,0.8,21,12,67,61,46,
大连市,青泥洼桥,121.6302,38.9117,2025-01-22T1700,32,56,0.7,25,14,54,54,53,颗粒物(PM10)
大连市,傅家庄,121.6251,38.8638,2025-01-22T1700,29,49,0.7,28,15,56,58,49,
大连市,七贤岭,121.5213,38.8661,2025-01-22T1700,33,52,0.7,18,11,75,70,51,颗粒物(PM10)
大连市,旅顺,121.2529,38.8061,2025-01-22T1700,31,42,0.7,17,9,72,72,45,
大连市,金州,121.7485,39.1311,2025-01-22T1700,23,34,0.7,19,8,72,67,34,
大连市,开发区,121.7811,39.0496,2025-01-22T1700,24,38,0.2,22,14,65,61,38,
大连市,双D港,121.9762,39.0631,2025-01-22T1700,22,39,0.8,18,9,73,78,39,
大庆市,大同区,124.81117,46.03138,2025-01-22T1700,65,70,0.6,19,6,66,64,88,细颗粒物(PM2.5)
大庆市,龙凤区,125.129,46.533,2025-01-22T1700,,,,,,,52,,
大庆市,红岗区,124.902,46.408,2025-01-22T1700,36,59,0.6,25,10,58,57,55,颗粒物(PM10)
大庆市,萨尔图区,125.153,46.586,2025-01-22T1700,30,32,0.7,39,,51,54,,
大庆市,让胡路区,124.9042,46.6215,2025-01-22T1700,38,43,0.5,28,10,57,60,54,细颗粒物(PM2.5)
大庆市,萨区政府监测点,125.141,46.634,2025-01-22T1700,29,56,0.6,34,8,54,58,53,颗粒物(PM10)
大同市,果树场,113.3819,40.1097,2025-01-22T1700,,,,,,,,,
大同市,云冈宾馆,113.2994,40.0758,2025-01-22T1700,40,84,0.6,36,18,60,48,67,颗粒物(PM10)
大同市,大同大学,113.3444,40.0917,2025-01-22T1700,38,58,0.6,27,17,67,53,54,"颗粒物(PM10),细颗粒物(PM2.5)"
大同市,安家小村,113.2661,40.1269,2025-01-22T1700,34,54,0.6,34,17,55,50,52,颗粒物(PM10)
大同市,教育学院,113.2711,40.0844,2025-01-22T1700,39,69,0.7,41,16,47,37,60,颗粒物(PM10)
大同市,大同市卫生学校,113.3397,40.0597,2025-01-22T1700,39,71,0.9,34,17,58,46,61,颗粒物(PM10)
大同市,云冈站,113.1367,40.1122,2025-01-22T1700,42,106,1.0,50,28,45,41,78,颗粒物(PM10)
大同市,图书馆,113.1186,40.2556,2025-01-22T1700,28,55,1.1,34,22,54,44,53,颗粒物(PM10)
大同市,区一中,113.5931,40.0461,2025-01-22T1700,20,,0.6,39,20,53,59,,
大同市,魏都大道141号,113.2798,40.0997,2025-01-22T1700,35,67,0.8,43,22,54,45,59,颗粒物(PM10)
大兴安岭地区,科技局,124.1069,50.4097,2025-01-22T1700,20,34,0.4,8,8,62,61,34,
大兴安岭地区,红旗社区,124.1164,50.4278,2025-01-22T1700,14,19,0.5,23,9,45,50,20,
丹东市,江湾东路,124.3303,40.0625,2025-01-22T1700,18,35,0.7,21,8,66,71,35,
丹东市,临江后街,124.4256,40.1503,2025-01-22T1700,13,27,0.6,17,6,69,72,27,
丹东市,元宝山,124.3933,40.1461,2025-01-22T1700,16,25,0.8,7,7,68,62,25,
丹东市,民主桥,124.3633,40.1092,2025-01-22T1700,13,33,0.8,30,10,56,66,33,
儋州市,第一中学子站,109.5726,19.5167,2025-01-22T1700,23,38,0.6,6,5,107,101,38,
儋州市,东坡学校子站,109.5567,19.5187,2025-01-22T1700,22,28,0.6,4,6,112,106,35,
德宏傣族景颇族自治州,德宏州监测站,98.5842,24.428,2025-01-22T1700,21,38,0.7,9,6,104,72,38,
德宏傣族景颇族自治州,芒市人民政府综合楼,98.5881,24.4368,2025-01-22T1700,25,46,0.4,9,6,91,62,46,
德阳市,东山公园,104.4239,31.1208,2025-01-22T1700,149,158,1.1,26,3,66,40,199,细颗粒物(PM2.5)
德阳市,西小区,104.3826,31.1317,2025-01-22T1700,148,174,1.1,51,4,36,23,198,细颗粒物(PM2.5)
德阳市,耐火材料厂,104.3553,31.1091,2025-01-22T1700,152,162,1.0,51,5,33,22,202,细颗粒物(PM2.5)
德阳市,市教育局,104.4019,31.1244,2025-01-22T1700,143,156,1.1,47,5,38,30,190,细颗粒物(PM2.5)
德州市,儿童乐园,116.3032,37.4674,2025-01-22T1700,17,51,0.6,16,6,59,61,51,颗粒物(PM10)
德州市,监理站,116.2991,37.4451,2025-01-22T1700,12,41,0.5,16,13,75,67,41,
德州市,九衢泉纯净水厂,116.2721,37.4379,2025-01-22T1700,22,48,0.4,16,12,74,66,48,
德州市,开发区人民医院,116.3728,37.4403,2025-01-22T1700,17,48,0,20,10,38,46,48,
德州市,太阳城中学,116.3572,37.4094,2025-01-22T1700,24,48,0.5,15,10,73,67,48,
德州市,陵城艺术中心,116.5652,37.3319,2025-01-22T1700,17,48,0.5,16,13,68,62,48,
迪庆藏族自治州,迪庆州站,99.7056,27.8317,2025-01-22T1700,9,19,0.3,9,8,70,67,22,
迪庆藏族自治州,质量技术监督局,99.7136,27.8094,2025-01-22T1700,7,19,0.3,7,8,74,65,24,
定西市,东关小学,104.6241,35.5734,2025-01-22T1700,42,64,0.6,5,15,68,50,59,细颗粒物(PM2.5)
定西市,供电公司,104.6194,35.5934,2025-01-22T1700,,,,,,,,,
东莞市,莞城梨川,113.7547,23.0494,2025-01-22T1700,29,47,,20,5,142,122,,
东莞市,东城石井,113.7944,23.0128,2025-01-22T1700,26,40,0.5,17,6,138,118,44,
东莞市,南城西平,113.7383,22.9658,2025-01-22T1700,31,50,0.7,20,3,143,118,50,
东莞市,万江金泰,113.7338,23.0381,2025-01-22T1700,29,50,0.4,29,6,139,127,50,
东莞市,南城元岭,113.7533,23.0202,2025-01-22T1700,33,49,0.6,16,6,140,116,49,
东莞市,东城主山,113.7875,23.0457,2025-01-22T1700,27,53,0.7,19,6,132,113,52,颗粒物(PM10)
东营市,市环保局,118.6614,37.4309,2025-01-22T1700,9,17,0.5,11,,72,71,,
东营市,开发区管委会,118.6904,37.4338,2025-01-22T1700,9,23,0.4,15,3,68,67,23,
东营市,垦利区民丰路,118.5719,37.565,2025-01-22T1700,3,19,0.2,14,9,68,64,22,
东营市,河口城区,118.5055,37.8612,2025-01-22T1700,3,31,0.7,18,3,67,68,31,
东营市,胜利站,118.4978,37.4623,2025-01-22T1700,14,28,0.7,17,7,65,64,28,
东营市,理想之城,118.35,37.26,2025-01-22T1700,9,27,0.3,18,,75,75,,
鄂尔多斯市,综合楼,110.0023,39.8129,2025-01-22T1700,29,70,1.0,41,19,65,72,60,颗粒物(PM10)
鄂尔多斯市,巴音孟克林场办事处,109.9486,39.8261,2025-01-22T1700,19,39,0.7,23,13,82,69,39,
鄂尔多斯市,康泽苑,109.7736,39.5986,2025-01-22T1700,22,36,0.7,33,18,72,59,36,
鄂尔多斯市,华泰汽车城,109.8119,39.5989,2025-01-22T1700,27,36,0.4,25,16,74,66,39,
鄂尔多斯市,奥林花园,109.9734,39.7884,2025-01-22T1700,19,36,0.7,30,11,74,70,36,
鄂州市,市政府,114.8938,30.3994,2025-01-22T1700,91,263,1.5,94,15,,95,157,颗粒物(PM10)
鄂州市,赵家坝,114.8989,30.3714,2025-01-22T1700,80,106,2.0,25,19,125,105,107,细颗粒物(PM2.5)
鄂州市,精准医疗中心,114.8094,30.4089,2025-01-22T1700,75,100,0.9,33,13,135,109,100,细颗粒物(PM2.5)
恩施土家族苗族自治州,湖北民院,109.4978,30.2981,2025-01-22T1700,104,106,1.3,85,8,40,19,137,细颗粒物(PM2.5)
恩施土家族苗族自治州,州电力总公司,109.4707,30.2798,2025-01-22T1700,112,134,1.4,76,9,41,21,147,细颗粒物(PM2.5)
恩施土家族苗族自治州,龙凤新区,109.5061,30.3772,2025-01-22T1700,79,122,1.4,49,6,,23,105,细颗粒物(PM2.5)
防城港市,沙万,108.3411,21.6158,2025-01-22T1700,26,52,2.1,26,16,105,98,51,颗粒物(PM10)
防城港市,防城档案局,108.3514,21.7731,2025-01-22T1700,,,0.8,27,,96,85,,
防城港市,大海花园,108.3506,21.6414,2025-01-22T1700,26,44,1.0,22,6,80,70,44,
佛山市,湾梁,113.1294,23.0067,2025-01-22T1700,30,70,0.6,39,7,110,93,60,颗粒物(PM10)
佛山市,华材职中,113.1083,23.0478,2025-01-22T1700,38,58,0.5,31,7,134,110,54,"颗粒物(PM10),细颗粒物(PM2.5)"
佛山市,南海气象局,113.144,23.0453,2025-01-22T1700,33,51,0.7,27,7,120,107,51,颗粒物(PM10)
佛山市,顺德苏岗,113.2881,22.8094,2025-01-22T1700,51,84,0.7,39,10,104,94,70,细颗粒物(PM2.5)
佛山市,高明孔堂,112.8383,22.8678,2025-01-22T1700,40,57,,40,123,113,89,,
佛山市,三水监测站,112.8836,23.1588,2025-01-22T1700,42,58,0.8,35,9,88,56,59,细颗粒物(PM2.5)
佛山市,三水云东海,112.867,23.185,2025-01-22T1700,32,48,0.8,34,9,127,87,48,
佛山市,容桂街道办,113.2544,22.7642,2025-01-22T1700,46,70,0.7,40,8,113,100,64,细颗粒物(PM2.5)
福州市,鼓山,119.3903,26.0543,2025-01-22T1700,,,,,,,127,,
福州市,师大,119.2681,26.0504,2025-01-22T1700,30,63,0.6,28,4,86,113,57,颗粒物(PM10)
福州市,五四北路,119.2984,26.1028,2025-01-22T1700,23,59,0.6,24,1,88,119,55,颗粒物(PM10)
福州市,杨桥西路,119.2648,26.0768,2025-01-22T1700,30,63,0.6,25,1,91,112,57,颗粒物(PM10)
福州市,紫阳,119.317,26.0746,2025-01-22T1700,30,75,0.6,43,4,72,117,63,颗粒物(PM10)
福州市,九龙,119.5799,26.0936,2025-01-22T1700,18,40,0.6,14,3,89,116,40,
福州市,吴航,119.5189,25.9664,2025-01-22T1700,34,56,0.8,40,2,64,123,53,颗粒物(PM10)
抚顺市,望花区,123.7977,41.8491,2025-01-22T1700,41,90,0.8,22,6,62,46,70,颗粒物(PM10)
抚顺市,顺城区,123.9161,41.8822,2025-01-22T1700,,,0.9,28,5,59,44,,
抚顺市,东洲区,124.0436,41.8611,2025-01-22T1700,52,83,0.8,32,12,49,52,72,细颗粒物(PM2.5)
抚顺市,新抚区,123.9247,41.8642,2025-01-22T1700,54,75,0.8,25,4,62,51,74,细颗粒物(PM2.5)
抚顺市,大伙房水库,124.0972,41.8961,2025-01-22T1700,53,70,0.8,35,9,50,54,73,细颗粒物(PM2.5)
抚顺市,沈抚新城,123.7086,41.8391,2025-01-22T1700,42,71,0.7,25,5,56,48,61,颗粒物(PM10)
抚州市,桐源党溪,116.2127,28.0814,2025-01-22T1700,21,47,0.5,3,15,108,85,47,
抚州市,市站,116.3544,27.9831,2025-01-22T1700,28,95,0.5,43,10,96,86,73,颗粒物(PM10)
抚州市,血防站,116.3565,27.963,2025-01-22T1700,22,47,1.0,,8,126,87,,
抚州市,采茶剧团,116.3564,28.0007,2025-01-22T1700,22,39,1.5,30,6,106,82,39,
抚州市,医学分院,116.385,27.9647,2025-01-22T1700,18,42,0.9,6,5,103,79,42,
阜新市,工业园区,121.6094,41.998,2025-01-22T1700,16,33,0.4,13,14,67,68,33,
阜新市,长青街,121.6697,42.0279,2025-01-22T1700,13,27,0.5,11,10,62,59,27,
阜新市,农业园区,121.6673,42.0705,2025-01-22T1700,17,35,0.8,9,11,60,57,35,
阜新市,东苑,121.6717,42.0224,2025-01-22T1700,13,43,0.3,34,6,44,53,43,
阜新市,玉龙新城,121.6506,42.0498,2025-01-22T1700,18,31,0.7,15,10,64,64,31,
阜阳市,市监测站,115.8277,32.8929,2025-01-22T1700,170,189,1.1,44,13,127,86,220,细颗粒物(PM2.5)
阜阳市,开发区,115.8554,32.8605,2025-01-22T1700,154,218,1.1,42,15,132,89,204,细颗粒物(PM2.5)
阜阳市,阜阳职业技术学院,115.784,32.8892,2025-01-22T1700,154,192,1.1,34,10,135,98,204,细颗粒物(PM2.5)
阜阳市,市规划展馆,115.7901,32.8613,2025-01-22T1700,164,191,1.2,40,13,140,96,214,细颗粒物(PM2.5)
阜阳市,枣园社区,115.836,32.9183,2025-01-22T1700,166,203,1.1,35,11,143,107,216,细颗粒物(PM2.5)
甘南藏族自治州,州政府,102.9099,34.9841,2025-01-22T1700,17,54,0.2,7,12,72,50,52,颗粒物(PM10)
甘南藏族自治州,甘肃民族师范学院,102.8914,34.9617,2025-01-22T1700,14,60,0.3,9,5,82,56,55,颗粒物(PM10)
甘孜藏族自治州,水桥子,101.9603,30.0475,2025-01-22T1700,12,28,0.6,6,3,86,62,28,
甘孜藏族自治州,州环保局,101.9533,29.9972,2025-01-22T1700,14,38,0.5,4,4,91,72,38,
赣江新区,桑海产业园,115.8347,28.932,2025-01-22T1700,37,53,0.4,32,12,105,87,53,细颗粒物(PM2.5)
赣州市,通天岩,114.9017,25.9149,2025-01-22T1700,7,40,0.5,13,11,136,122,43,
赣州市,地委,114.9367,25.8664,2025-01-22T1700,39,53,1.2,16,3,163,125,55,细颗粒物(PM2.5)
赣州市,气象台,114.9461,25.8481,2025-01-22T1700,30,54,0.7,30,10,154,128,52,颗粒物(PM10)
赣州市,市图书馆,114.9322,25.8333,2025-01-22T1700,31,51,1.0,25,3,162,130,53,臭氧1小时
赣州市,华坚鞋城,114.8905,25.8471,2025-01-22T1700,27,57,0.5,39,7,131,126,54,颗粒物(PM10)
赣州市,赣县区卫计委,115.0093,25.8613,2025-01-22T1700,31,41,0.7,13,3,146,110,46,
固原市,马园,106.2319,36.1417,2025-01-22T1700,27,71,0.7,25,9,101,76,61,颗粒物(PM10)
固原市,监测站,106.2792,36.0022,2025-01-22T1700,40,55,0.6,17,10,121,93,57,细颗粒物(PM2.5)
固原市,新区,106.2375,36.0211,2025-01-22T1700,33,45,0.5,17,10,114,84,48,
固原市,原州区十五小,106.2177,35.9959,2025-01-22T1700,38,60,0.7,17,10,106,84,55,颗粒物(PM10)
广安市,小平旧居,106.6308,30.5278,2025-01-22T1700,,,,,,,,,
广安市,市委,106.6303,30.4576,2025-01-22T1700,164,197,1.2,32,7,41,32,214,细颗粒物(PM2.5)
广安市,友谊中学,106.6271,30.4663,2025-01-22T1700,161,210,1.2,42,8,31,25,211,细颗粒物(PM2.5)
广安市,广电花园,106.6388,30.4551,2025-01-22T1700,154,171,1.3,33,6,37,27,204,细颗粒物(PM2.5)
广安市,北辰小学,106.6351,30.4865,2025-01-22T1700,158,197,1.4,49,10,30,22,208,细颗粒物(PM2.5)
广元市,黑石坡,105.8945,32.4535,2025-01-22T1700,67,136,1.2,59,4,0,22,93,颗粒物(PM10)
广元市,老城,105.821,32.4444,2025-01-22T1700,74,127,1.3,58,5,6,7,99,细颗粒物(PM2.5)
广元市,监测站,105.8628,32.4287,2025-01-22T1700,85,,1.4,65,11,9,13,113,细颗粒物(PM2.5)
广元市,经开区,105.8047,32.4166,2025-01-22T1700,100,130,1.6,63,14,6,6,132,细颗粒物(PM2.5)
广州市,广雅中学,113.2347,23.1423,2025-01-22T1700,,,,,,,91,,
广州市,市五中,113.2612,23.105,2025-01-22T1700,33,58,0.9,28,3,126,107,54,颗粒物(PM10)
广州市,广东商学院,113.3478,23.0916,2025-01-22T1700,37,53,0.9,34,4,121,104,53,细颗粒物(PM2.5)
广州市,市八十六中,113.4332,23.1047,2025-01-22T1700,35,64,0.8,38,5,118,100,57,颗粒物(PM10)
广州市,番禺中学,113.3505,22.9483,2025-01-22T1700,39,57,0.8,33,4,126,109,55,细颗粒物(PM2.5)
广州市,花都师范,113.2146,23.3916,2025-01-22T1700,24,37,0.6,18,5,118,90,37,
广州市,市监测站,113.2597,23.1331,2025-01-22T1700,,56,0.7,28,5,130,105,,
广州市,九龙镇镇龙,113.5618,23.312,2025-01-22T1700,22,36,0.6,14,4,127,102,40,
广州市,麓湖,113.2765,23.1544,2025-01-22T1700,29,47,0.8,28,2,122,104,47,
广州市,帽峰山森林公园,113.443,23.3035,2025-01-22T1700,17,27,0.5,15,5,128,117,40,
广州市,体育西,113.3221,23.1322,2025-01-22T1700,36,53,0.7,25,5,120,100,52,"颗粒物(PM10),细颗粒物(PM2.5)"
广州市,从化街口,113.5717,23.5491,2025-01-22T1700,,,0.7,,,132,92,,
广州市,白云竹料,113.3472,23.3692,2025-01-22T1700,24,42,0.6,13,6,133,101,42,
广州市,白云嘉禾,113.2981,23.237,2025-01-22T1700,28,58,1.4,30,7,126,104,54,颗粒物(PM10)
广州市,黄埔科学城,113.4256,23.1716,2025-01-22T1700,28,49,0.8,29,6,116,107,49,
广州市,番禺大学城,113.3942,23.0483,2025-01-22T1700,26,63,1.4,33,12,107,100,57,颗粒物(PM10)
广州市,南沙黄阁,113.4922,22.8168,2025-01-22T1700,47,64,0.9,51,4,89,99,65,细颗粒物(PM2.5)
广州市,南沙街,113.5342,22.7896,2025-01-22T1700,43,70,0.8,,5,98,103,,
广州市,花都梯面,113.2902,23.5544,2025-01-22T1700,25,42,0.6,15,5,140,114,44,
广州市,从化良口,113.7858,23.7478,2025-01-22T1700,30,37,0.7,14,5,123,106,43,
广州市,增城荔城,113.8051,23.2614,2025-01-22T1700,31,48,0.5,13,4,146,113,48,
贵港市,德智高中,109.568,23.1478,2025-01-22T1700,,,,,,,,,
贵港市,江南子站,109.6047,23.0666,2025-01-22T1700,34,66,0.8,19,6,156,138,58,颗粒物(PM10)
贵港市,贵城子站,109.6014,23.0948,2025-01-22T1700,31,65,0.6,15,9,155,133,58,颗粒物(PM10)
贵港市,荷城子站,109.5669,23.1065,2025-01-22T1700,36,68,0.6,22,12,140,128,59,颗粒物(PM10)
贵港市,新世纪学校,109.5886,23.1172,2025-01-22T1700,38,63,0.8,20,7,164,151,57,颗粒物(PM10)
贵阳市,马鞍山,106.6899,26.5998,2025-01-22T1700,66,110,0.7,22,9,127,102,89,细颗粒物(PM2.5)
贵阳市,鉴湖路,106.6243,26.6266,2025-01-22T1700,63,107,0.7,26,9,131,118,85,细颗粒物(PM2.5)
贵阳市,燕子冲,106.7487,26.6343,2025-01-22T1700,68,90,0.8,23,15,138,110,92,细颗粒物(PM2.5)
贵阳市,碧云窝,106.6555,26.4365,2025-01-22T1700,58,105,0.7,17,18,149,139,79,细颗粒物(PM2.5)
贵阳市,红边门,106.7109,26.6027,2025-01-22T1700,85,107,1.0,,,125,109,113,细颗粒物(PM2.5)
贵阳市,新华路,106.7164,26.5699,2025-01-22T1700,58,100,0.6,17,,150,132,,
贵阳市,太慈桥,106.674,26.5424,2025-01-22T1700,66,97,0.8,26,12,137,113,89,细颗粒物(PM2.5)
贵阳市,桐木岭,106.805,26.3003,2025-01-22T1700,80,110,1.0,7,13,137,136,107,细颗粒物(PM2.5)
贵阳市,花果园大街66号,106.6882,26.5695,2025-01-22T1700,78,105,0.4,41,18,124,118,104,细颗粒物(PM2.5)
贵阳市,漓江路57号,106.6873,26.5169,2025-01-22T1700,,,0.7,,15,120,102,,
桂林市,电子科大尧山校区,110.4144,25.3167,2025-01-22T1700,43,68,0.7,13,15,153,121,60,细颗粒物(PM2.5)
桂林市,监测站,110.2819,25.2697,2025-01-22T1700,50,95,1.1,29,11,142,92,73,颗粒物(PM10)
桂林市,龙隐路小学,110.3089,25.2708,2025-01-22T1700,60,65,0.6,19,11,163,114,82,细颗粒物(PM2.5)
桂林市,八中,110.2869,25.2178,2025-01-22T1700,59,82,0.8,27,11,144,96,80,细颗粒物(PM2.5)
桂林市,创业大厦,110.1764,25.2381,2025-01-22T1700,56,73,0.8,25,12,152,91,77,细颗粒物(PM2.5)
桂林市,旅游学院,110.296,25.1253,2025-01-22T1700,44,56,1.0,17,9,157,104,62,细颗粒物(PM2.5)
果洛藏族自治州,玛沁县大武镇,100.2561,34.4714,2025-01-22T1700,21,137,0.4,1,4,89,65,94,颗粒物(PM10)
哈尔滨市,岭北,126.5422,45.755,2025-01-22T1700,68,77,0.9,35,9,62,62,92,细颗粒物(PM2.5)
哈尔滨市,松北商大,126.561,45.8167,2025-01-22T1700,,,0.9,,,53,56,,
哈尔滨市,阿城会宁,126.979,45.5419,2025-01-22T1700,103,115,0.8,23,5,73,66,135,细颗粒物(PM2.5)
哈尔滨市,南岗学府路,126.599,45.7222,2025-01-22T1700,61,104,0.6,29,5,67,53,83,细颗粒物(PM2.5)
哈尔滨市,太平宏伟公园,126.689,45.7733,2025-01-22T1700,68,94,0.7,41,11,49,40,92,细颗粒物(PM2.5)
哈尔滨市,道外承德广场,126.635,45.7667,2025-01-22T1700,85,117,1.0,48,6,40,42,113,细颗粒物(PM2.5)
哈尔滨市,香坊红旗大街,126.685,45.7319,2025-01-22T1700,89,,0.7,,15,47,42,118,细颗粒物(PM2.5)
哈尔滨市,动力和平路,126.6411,45.7258,2025-01-22T1700,78,82,0.7,26,5,62,53,104,细颗粒物(PM2.5)
哈尔滨市,道里建国路,126.593,45.7478,2025-01-22T1700,80,,,,,,52,107,细颗粒物(PM2.5)
哈尔滨市,平房东轻厂,126.615,45.61,2025-01-22T1700,69,84,0.5,56,13,44,55,93,细颗粒物(PM2.5)
哈尔滨市,呼兰师专,126.595,45.9855,2025-01-22T1700,94,112,0.7,34,9,54,56,124,细颗粒物(PM2.5)
哈尔滨市,省农科院,126.6206,45.6842,2025-01-22T1700,88,103,0.8,37,9,57,59,117,细颗粒物(PM2.5)
哈密市,地区监测站,93.5128,42.8172,2025-01-22T1700,35,107,0.5,23,14,72,50,79,颗粒物(PM10)
哈密市,哈密师范学校,93.4961,42.8328,2025-01-22T1700,34,56,0.2,21,16,75,50,53,颗粒物(PM10)
海北藏族自治州,海晏县西海镇,100.9048,36.9639,2025-01-22T1700,11,27,0.4,3,12,90,77,29,
海东市,平安区公安北苑,102.0738,36.5056,2025-01-22T1700,26,36,0.9,14,,111,72,,
海口市,东寨港,110.576,19.9507,2025-01-22T1700,30,69,0.4,6,14,126,125,60,颗粒物(PM10)
海口市,海南大学,110.3232,20.0574,2025-01-22T1700,32,76,0.6,14,5,144,146,63,颗粒物(PM10)
海口市,秀英海南医院,110.283,20.0053,2025-01-22T1700,35,75,0.5,14,3,137,144,63,颗粒物(PM10)
海口市,海南师范大学,110.338,19.9969,2025-01-22T1700,32,80,0.5,10,6,146,148,65,颗粒物(PM10)
海口市,龙华路环保局宿舍,110.33,20.0356,2025-01-22T1700,36,80,0.6,14,6,143,148,65,颗粒物(PM10)
海口市,桂林洋子站,110.5111,19.9736,2025-01-22T1700,70,127,0.6,8,5,142,140,94,细颗粒物(PM2.5)
海南藏族自治州,共和县恰卜恰镇,100.6188,36.2866,2025-01-22T1700,23,33,0.4,3,13,102,76,33,
海西蒙古族藏族自治州,德令哈市,97.3731,37.3753,2025-01-22T1700,11,25,0.5,6,16,72,76,25,
邯郸市,东污水处理厂,114.5302,36.6116,2025-01-22T1700,19,38,0.5,12,4,71,62,38,
邯郸市,矿院,114.4918,36.5713,2025-01-22T1700,19,46,0.4,8,2,66,58,46,
邯郸市,丛台公园,114.484,36.6133,2025-01-22T1700,23,68,0.4,15,3,71,64,59,颗粒物(PM10)
邯郸市,香泉濮院小区,114.7895,36.5593,2025-01-22T1700,24,67,0.3,14,4,77,71,59,颗粒物(PM10)
邯郸市,永年区实验高中,114.50634,36.77178,2025-01-22T1700,12,42,0.5,14,7,68,63,42,
邯郸市,峰峰矿区临水派出所,114.20016,36.44293,2025-01-22T1700,18,38,0.6,14,8,78,76,38,
汉中市,汉川机床厂子校,106.9893,33.1842,2025-01-22T1700,129,,1.5,22,7,29,30,170,细颗粒物(PM2.5)
汉中市,市监测站,107.0154,33.0706,2025-01-22T1700,163,192,2.7,72,8,18,15,213,细颗粒物(PM2.5)
汉中市,鑫源开发区,107.0089,33.1138,2025-01-22T1700,141,,1.5,37,6,26,23,188,细颗粒物(PM2.5)
汉中市,南郑大河坎水厂,107.007,33.0323,2025-01-22T1700,173,191,1.7,53,6,22,20,223,细颗粒物(PM2.5)
杭州市,滨江,120.2072,30.2111,2025-01-22T1700,53,74,0.7,34,7,115,96,73,细颗粒物(PM2.5)
杭州市,西溪,120.0633,30.2747,2025-01-22T1700,58,71,0.7,32,7,108,100,79,细颗粒物(PM2.5)
杭州市,下沙,120.3461,30.3153,2025-01-22T1700,53,56,0.6,30,9,111,103,73,细颗粒物(PM2.5)
杭州市,卧龙桥,120.1269,30.2456,2025-01-22T1700,78,78,0.7,42,7,106,99,104,细颗粒物(PM2.5)
杭州市,浙江农大,120.1903,30.2692,2025-01-22T1700,59,74,0.6,39,7,95,92,80,细颗粒物(PM2.5)
杭州市,和睦小学,120.1197,30.3119,2025-01-22T1700,63,76,0.7,42,7,107,95,85,细颗粒物(PM2.5)
杭州市,临平镇,120.3019,30.4183,2025-01-22T1700,43,68,0.7,24,9,132,114,60,细颗粒物(PM2.5)
杭州市,城厢镇,120.2697,30.1819,2025-01-22T1700,64,75,1.0,34,6,108,95,87,细颗粒物(PM2.5)
杭州市,云栖,120.0883,30.1808,2025-01-22T1700,56,73,0.7,2,6,99,99,77,细颗粒物(PM2.5)
杭州市,镇二中,119.9464,30.0494,2025-01-22T1700,73,,0.9,49,7,94,83,98,细颗粒物(PM2.5)
杭州市,市府大楼,119.7183,30.2367,2025-01-22T1700,91,108,0.8,42,9,106,102,120,细颗粒物(PM2.5)
杭州市,消防大队,120.1556,30.2864,2025-01-22T1700,58,77,0.7,41,10,115,103,79,细颗粒物(PM2.5)
合肥市,明珠广场,117.1959,31.7848,2025-01-22T1700,110,127,0.8,34,12,152,106,144,细颗粒物(PM2.5)
合肥市,三里街,117.3072,31.8764,2025-01-22T1700,112,139,0.8,36,8,141,84,147,细颗粒物(PM2.5)
合肥市,琥珀山庄,117.2588,31.8707,2025-01-22T1700,118,141,0.9,32,10,134,89,155,细颗粒物(PM2.5)
合肥市,董铺水库,117.1604,31.9052,2025-01-22T1700,90,136,0.8,28,8,160,101,119,细颗粒物(PM2.5)
合肥市,长江中路,117.25,31.8571,2025-01-22T1700,,,0.9,31,12,151,106,,
合肥市,庐阳区,117.266,31.9436,2025-01-22T1700,124,156,0.9,36,9,151,107,163,细颗粒物(PM2.5)
合肥市,瑶海区,117.336,31.8586,2025-01-22T1700,112,149,0.8,,10,128,95,147,细颗粒物(PM2.5)
合肥市,包河区,117.3027,31.7964,2025-01-22T1700,110,144,,53,7,124,97,144,细颗粒物(PM2.5)
合肥市,滨湖新区,117.2776,31.7385,2025-01-22T1700,95,151,0.8,51,8,124,109,125,细颗粒物(PM2.5)
合肥市,高新区,117.1318,31.8403,2025-01-22T1700,113,139,1.0,36,11,153,112,148,细颗粒物(PM2.5)
合肥市,高教基地,117.3803,31.9147,2025-01-22T1700,121,154,0.8,38,13,147,108,159,细颗粒物(PM2.5)
和田地区,地区环保局,79.924,37.0877,2025-01-22T1700,,,,2,,90,71,,
和田地区,市环保局,79.9131,37.113,2025-01-22T1700,28,86,0.5,2,8,92,67,68,颗粒物(PM10)
河池市,东仁乐园,108.2011,24.715,2025-01-22T1700,80,127,1.0,25,12,142,90,107,细颗粒物(PM2.5)
河池市,市环保站,108.0497,24.6947,2025-01-22T1700,,,,16,11,133,76,,
河池市,市疾控中心,108.0983,24.6989,2025-01-22T1700,76,82,1.0,21,9,139,81,102,细颗粒物(PM2.5)
河源市,源西,114.6778,23.7569,2025-01-22T1700,18,28,0.4,8,5,110,104,35,
河源市,东埔,114.6944,23.7586,2025-01-22T1700,20,23,0.6,16,3,113,112,36,
河源市,老城,114.6892,23.7233,2025-01-22T1700,17,32,0.5,7,3,116,106,37,
菏泽市,气象局,115.4208,35.2464,2025-01-22T1700,68,139,0.7,35,14,58,50,95,颗粒物(PM10)
菏泽市,定陶老年大学,115.5564,35.0891,2025-01-22T1700,83,134,0.7,39,18,54,50,110,细颗粒物(PM2.5)
菏泽市,永昌路1号,115.4797,35.24401,2025-01-22T1700,80,134,0.6,34,12,57,52,107,细颗粒物(PM2.5)
菏泽市,长城路999号,115.4715,35.2800,2025-01-22T1700,62,124,1.0,36,11,52,46,87,颗粒物(PM10)
贺州市,环保小区,111.5264,24.4172,2025-01-22T1700,40,56,0.9,24,8,169,146,62,臭氧1小时
贺州市,政协大楼,111.5608,24.4078,2025-01-22T1700,31,53,0.7,16,8,160,140,52,颗粒物(PM10)
贺州市,西湾,111.4744,24.4553,2025-01-22T1700,41,64,0.6,25,8,170,150,63,臭氧1小时
鹤壁市,市监测站,114.17,35.9019,2025-01-22T1700,24,57,0.4,12,8,76,68,54,颗粒物(PM10)
鹤壁市,市交警支队,114.2956,35.7511,2025-01-22T1700,18,62,0.3,17,5,75,63,56,颗粒物(PM10)
鹤壁市,迎宾馆,114.2878,35.7306,2025-01-22T1700,28,74,0.5,28,1,77,70,62,颗粒物(PM10)
鹤壁市,大新区,114.2617,35.6822,2025-01-22T1700,19,52,0.3,18,8,78,68,51,颗粒物(PM10)
鹤壁市,南山宾馆,114.1572,35.9603,2025-01-22T1700,36,48,0.6,13,5,85,76,52,细颗粒物(PM2.5)
鹤岗市,哈啤分公司,130.2537,47.3416,2025-01-22T1700,55,94,1.0,36,20,39,48,75,细颗粒物(PM2.5)
鹤岗市,斯达机电,130.2684,47.3086,2025-01-22T1700,49,64,0.7,28,18,52,54,68,细颗粒物(PM2.5)
鹤岗市,东山纸板厂,130.3114,47.3388,2025-01-22T1700,29,135,1.0,66,25,20,37,93,颗粒物(PM10)
鹤岗市,五号水库,130.1097,47.3382,2025-01-22T1700,39,58,0.5,16,9,84,94,55,细颗粒物(PM2.5)
黑河市,交通局,127.4833,50.2524,2025-01-22T1700,39,58,0.9,45,9,16,48,55,细颗粒物(PM2.5)
黑河市,环保局,127.5144,50.2341,2025-01-22T1700,30,45,0.6,29,12,37,49,45,
黑河市,大黑河岛,127.5291,50.2472,2025-01-22T1700,54,,,40,1,20,15,,
衡水市,电机北厂,115.6838,37.7541,2025-01-22T1700,22,44,0.3,17,8,63,55,44,
衡水市,市监测站,115.6303,37.7316,2025-01-22T1700,17,28,0.3,21,9,67,56,28,
衡水市,市城管局,115.6683,37.7217,2025-01-22T1700,28,45,0.4,22,7,61,53,45,
衡水市,地表水厂,115.5989,37.5491,2025-01-22T1700,12,37,0.2,11,7,72,65,37,
衡阳市,原169医院,112.5003,26.9167,2025-01-22T1700,51,60,0.8,26,14,145,126,70,细颗粒物(PM2.5)
衡阳市,衡阳化工总厂,112.6194,26.9258,2025-01-22T1700,82,125,1.0,28,16,136,104,109,细颗粒物(PM2.5)
衡阳市,珠晖区环保局,112.6211,26.8956,2025-01-22T1700,68,93,1.3,36,14,135,103,92,细颗粒物(PM2.5)
衡阳市,市委党校,112.6197,26.8733,2025-01-22T1700,,,0.9,26,16,151,106,,
衡阳市,市监测站,112.6006,26.8919,2025-01-22T1700,59,98,1.2,28,16,139,98,80,细颗粒物(PM2.5)
衡阳市,真空机电公司,112.5664,26.9056,2025-01-22T1700,72,104,1.2,34,13,130,84,97,细颗粒物(PM2.5)
衡阳市,师范学院,112.6703,26.882,2025-01-22T1700,82,87,0.8,25,18,139,109,109,细颗粒物(PM2.5)
红河哈尼族彝族自治州,污水处理厂,103.3772,23.3993,2025-01-22T1700,52,62,0.5,12,6,104,128,72,细颗粒物(PM2.5)
红河哈尼族彝族自治州,监测站,103.3861,23.35,2025-01-22T1700,62,77,,8,10,110,144,,
红河哈尼族彝族自治州,州图书馆,103.3758,23.368,2025-01-22T1700,51,55,0.5,13,8,99,134,70,细颗粒物(PM2.5)
呼和浩特市,呼市一监,111.6507,40.7517,2025-01-22T1700,46,73,0.7,26,20,73,58,64,细颗粒物(PM2.5)
呼和浩特市,小召,111.6572,40.8033,2025-01-22T1700,76,127,0.9,49,27,50,57,102,细颗粒物(PM2.5)
呼和浩特市,如意水处理厂,111.7516,40.8369,2025-01-22T1700,33,58,0.7,31,15,63,53,54,颗粒物(PM10)
呼和浩特市,二十九中,111.7276,40.8062,2025-01-22T1700,36,60,0.6,31,7,61,48,55,颗粒物(PM10)
呼和浩特市,工大金川校区,111.5512,40.7866,2025-01-22T1700,32,64,0.6,32,16,60,46,57,颗粒物(PM10)
呼和浩特市,化肥厂生活区,111.717,40.7612,2025-01-22T1700,52,95,0.7,39,18,68,58,73,颗粒物(PM10)
呼和浩特市,红旗小学,111.5968,40.8178,2025-01-22T1700,36,75,0.8,40,24,60,50,63,颗粒物(PM10)
呼和浩特市,海东办,111.6518,40.8389,2025-01-22T1700,42,78,0.8,31,15,61,47,64,颗粒物(PM10)
呼伦贝尔市,区环保局,119.7594,49.2261,2025-01-22T1700,23,32,0.7,44,5,30,49,33,
呼伦贝尔市,国华电力东,119.7512,49.1577,2025-01-22T1700,20,26,0.3,16,4,54,62,29,
湖州市,城西水厂,120.0751,30.8669,2025-01-22T1700,55,70,0.7,,,131,112,,
湖州市,仁皇山新区,120.0875,30.8955,2025-01-22T1700,52,68,0.7,38,8,124,106,72,细颗粒物(PM2.5)
湖州市,吴兴区站,120.1844,30.8596,2025-01-22T1700,50,54,0.4,18,6,129,119,69,细颗粒物(PM2.5)
湖州市,南浔区站,120.4148,30.8538,2025-01-22T1700,26,36,0.3,32,8,124,128,39,
葫芦岛市,龙港区,120.9092,40.7136,2025-01-22T1700,,,,,,,,,
葫芦岛市,化工街,120.8392,40.7514,2025-01-22T1700,14,22,0.7,21,8,55,49,22,
葫芦岛市,新区,120.8341,40.7073,2025-01-22T1700,18,,1.3,16,8,67,,,
葫芦岛市,东城区,120.8695,40.7677,2025-01-22T1700,27,30,0.2,20,16,62,58,39,
怀化市,林科所,109.5981,27.5721,2025-01-22T1700,105,126,1.8,69,11,28,32,138,细颗粒物(PM2.5)
怀化市,河西地税局,109.9453,27.5444,2025-01-22T1700,128,179,1.6,97,10,11,17,169,细颗粒物(PM2.5)
怀化市,市四医院,109.9781,27.5342,2025-01-22T1700,113,165,2.5,74,11,30,24,148,细颗粒物(PM2.5)
怀化市,监测楼,109.9972,27.5578,2025-01-22T1700,108,144,1.7,,,42,23,142,细颗粒物(PM2.5)
怀化市,市委党校,110.0394,27.583,2025-01-22T1700,109,143,1.5,50,34,50,34,143,细颗粒物(PM2.5)
淮安市,钵池山,119.036,33.5981,2025-01-22T1700,39,41,0.5,15,8,101,90,55,细颗粒物(PM2.5)
淮安市,北京南路,119.007,33.575,2025-01-22T1700,37,48,0.6,17,9,94,81,53,细颗粒物(PM2.5)
淮安市,市监测站,118.989,33.6067,2025-01-22T1700,39,44,0.6,16,8,108,88,55,细颗粒物(PM2.5)
淮安市,楚州区监测站,119.135,33.5039,2025-01-22T1700,34,46,0.5,16,8,93,82,49,
淮安市,淮阴区监测站,119.0186,33.6297,2025-01-22T1700,46,63,0.5,28,8,96,82,64,细颗粒物(PM2.5)
淮安市,新华书店,118.8755,33.2894,2025-01-22T1700,31,53,0.6,22,9,104,87,52,颗粒物(PM10)
淮北市,监测站,116.8004,33.975,2025-01-22T1700,55,,0.6,17,7,118,103,,
淮北市,烈山区政府,116.8091,33.9007,2025-01-22T1700,55,79,0.6,,,131,114,,
淮北市,杜集区检察院,116.8873,33.9836,2025-01-22T1700,59,88,0.7,15,6,136,113,80,细颗粒物(PM2.5)
淮北市,市博物馆,116.7923,33.9535,2025-01-22T1700,50,75,0.7,21,10,126,108,69,细颗粒物(PM2.5)
淮南市,潘集区政府,116.8305,32.7727,2025-01-22T1700,158,192,1.0,34,14,127,87,208,细颗粒物(PM2.5)
淮南市,谢家集区政府,116.8569,32.5951,2025-01-22T1700,168,205,1.2,46,13,126,100,218,细颗粒物(PM2.5)
淮南市,八公山区政府,116.8281,32.633,2025-01-22T1700,158,196,1.0,30,15,142,103,208,细颗粒物(PM2.5)
淮南市,焦岗湖风景区管理处,116.6325,32.6201,2025-01-22T1700,110,153,0.7,24,7,72,54,144,细颗粒物(PM2.5)
淮南市,经济技术开发区消防队,117.0566,32.6531,2025-01-22T1700,175,212,1.1,43,12,115,92,225,细颗粒物(PM2.5)
淮南市,山南新区,117.0108,32.5893,2025-01-22T1700,186,217,1.2,53,14,128,108,236,细颗粒物(PM2.5)
淮南市,国庆中路369号,117.0031,32.6445,2025-01-22T1700,150,224,1.0,58,14,113,90,200,细颗粒物(PM2.5)
黄冈市,职工中心,114.9028,30.4742,2025-01-22T1700,59,87,0.4,31,13,130,113,80,细颗粒物(PM2.5)
黄冈市,红卫路,114.8858,30.4519,2025-01-22T1700,66,92,0.9,32,11,126,111,89,细颗粒物(PM2.5)
黄冈市,市林业局,114.9136,30.4445,2025-01-22T1700,65,88,0.9,24,15,136,116,88,细颗粒物(PM2.5)
黄南藏族自治州,同仁县隆务镇,102.0199,35.5102,2025-01-22T1700,28,57,0.8,10,11,86,72,54,颗粒物(PM10)
黄山市,延安路89号,118.2903,29.6963,2025-01-22T1700,50,80,0.5,26,6,104,80,69,细颗粒物(PM2.5)
黄山市,黄山东路89号,118.327,29.7178,2025-01-22T1700,49,93,0.7,33,6,76,,72,颗粒物(PM10)
黄山市,黄山区政府5号楼,118.1371,30.2756,2025-01-22T1700,32,52,0.6,15,9,101,85,51,颗粒物(PM10)
黄石市,沈家营,115.0601,30.2313,2025-01-22T1700,62,104,1.0,34,15,122,97,84,细颗粒物(PM2.5)
黄石市,铁山,114.8988,30.2019,2025-01-22T1700,67,84,0.9,26,14,130,108,90,细颗粒物(PM2.5)
黄石市,团城山,115.0307,30.2092,2025-01-22T1700,77,113,1.0,39,18,114,84,103,细颗粒物(PM2.5)
黄石市,笔架山北路,115.0235,30.1578,2025-01-22T1700,84,89,1.2,58,13,112,110,112,细颗粒物(PM2.5)
黄石市,磁湖东路29号,115.0780,30.21118,2025-01-22T1700,87,129,1.2,37,17,120,90,115,细颗粒物(PM2.5)
惠州市,河南岸金山湖子站,114.4183,23.0528,2025-01-22T1700,35,44,0.6,14,6,98,93,50,
惠州市,下埔横江三路子站,114.4053,23.0822,2025-01-22T1700,34,49,0.6,18,6,109,102,49,
惠州市,江北云山西路子站,114.4103,23.1142,2025-01-22T1700,29,42,0.9,18,6,112,105,42,
惠州市,惠阳区承修路船湖子站,114.4645,22.7833,2025-01-22T1700,24,39,,14,8,79,96,,
惠州市,大亚湾管委会子站,114.5317,22.7422,2025-01-22T1700,26,49,0.6,28,6,92,116,49,
惠州市,惠阳秋长,114.4338,22.8134,2025-01-22T1700,28,51,0.8,19,16,94,108,51,颗粒物(PM10)
惠州市,大亚湾霞涌,114.6517,22.775,2025-01-22T1700,22,35,0.3,11,5,92,103,35,
鸡西市,环保局,130.9762,45.3001,2025-01-22T1700,100,126,1.2,39,10,41,36,132,细颗粒物(PM2.5)
鸡西市,第一中学,130.9429,45.3039,2025-01-22T1700,97,117,0.7,25,4,54,45,128,细颗粒物(PM2.5)
鸡西市,欧美日汽修厂,131.0207,45.3073,2025-01-22T1700,,174,1.1,,22,13,8,112,颗粒物(PM10)
鸡西市,市政设施管理处,130.9967,45.3106,2025-01-22T1700,107,138,1.1,64,12,27,36,140,细颗粒物(PM2.5)
吉安市,红声器材厂,114.9754,27.0803,2025-01-22T1700,43,68,0.6,18,12,161,123,60,细颗粒物(PM2.5)
吉安市,市森林工业局,114.9658,27.0999,2025-01-22T1700,43,69,0.7,20,14,137,115,60,"颗粒物(PM10),细颗粒物(PM2.5)"
吉安市,市环境监测站,114.99,27.1312,2025-01-22T1700,40,68,0.2,22,15,139,120,59,颗粒物(PM10)
吉安市,青原区法院,115.0093,27.0968,2025-01-22T1700,37,64,0.5,26,13,164,131,57,颗粒物(PM10)
吉林市,哈达湾,126.54,43.8622,2025-01-22T1700,54,69,1.0,30,10,71,78,74,细颗粒物(PM2.5)
吉林市,东局子,126.5844,43.8358,2025-01-22T1700,52,64,0.4,28,7,64,73,72,细颗粒物(PM2.5)
吉林市,电力学院,126.5052,43.8245,2025-01-22T1700,62,,1.0,26,10,68,74,84,细颗粒物(PM2.5)
吉林市,江北,126.6133,43.8972,2025-01-22T1700,54,67,0.8,33,12,62,70,74,细颗粒物(PM2.5)
吉林市,江南公园,126.555,43.8306,2025-01-22T1700,59,61,1.7,36,7,54,70,80,细颗粒物(PM2.5)
吉林市,丰满,126.7061,43.7133,2025-01-22T1700,,,,,,,,,
吉林市,九站,126.4739,43.953,2025-01-22T1700,,,1.3,,9,45,65,,
济南市,科干所,116.9862,36.6114,2025-01-22T1700,,,1.2,,24,,36,,
济南市,农科所,116.9376,36.665,2025-01-22T1700,63,134,1.0,48,26,63,49,92,颗粒物(PM10)
济南市,开发区,117.1265,36.6734,2025-01-22T1700,88,139,1.2,48,23,51,49,117,细颗粒物(PM2.5)
济南市,省种子仓库,117.0624,36.6868,2025-01-22T1700,78,146,1.2,41,25,58,53,104,细颗粒物(PM2.5)
济南市,机床二厂,116.9489,36.6447,2025-01-22T1700,76,137,1.2,41,29,63,49,102,细颗粒物(PM2.5)
济南市,市监测站,117.0495,36.663,2025-01-22T1700,88,137,1.2,51,27,59,46,117,细颗粒物(PM2.5)
济南市,长清党校,116.7675,36.5484,2025-01-22T1700,73,137,1.1,50,19,70,50,98,细颗粒物(PM2.5)
济南市,技术学院,117.6795,36.229,2025-01-22T1700,141,175,1.5,45,19,115,94,188,细颗粒物(PM2.5)
济南市,东山小学,117.532,36.6868,2025-01-22T1700,81,147,1.2,50,15,57,57,108,细颗粒物(PM2.5)
济南市,泰兴公司,117.7161,36.2049,2025-01-22T1700,134,185,1.4,37,19,112,92,178,细颗粒物(PM2.5)
济南市,莱芜战役纪念馆,117.6867,36.2171,2025-01-22T1700,141,180,1.4,39,18,113,93,188,细颗粒物(PM2.5)
济南市,济阳区政府,117.1673,36.9782,2025-01-22T1700,32,76,0.5,15,16,63,59,63,颗粒物(PM10)
济南市,锦屏中学,117.1171,36.63,2025-01-22T1700,83,137,1.0,48,21,57,47,110,细颗粒物(PM2.5)
济南市,济南四建,116.9814,36.6819,2025-01-22T1700,,,,,,,59,,
济宁市,火炬城,116.6251,35.4302,2025-01-22T1700,,138,1.2,46,16,51,63,,
济宁市,电化厂,116.5491,35.4042,2025-01-22T1700,97,171,1.2,53,18,54,66,128,细颗粒物(PM2.5)
济宁市,北湖一中,116.5814,35.3707,2025-01-22T1700,90,138,1.6,73,14,56,66,119,细颗粒物(PM2.5)
济宁市,服务中心,116.8249,35.5593,2025-01-22T1700,122,197,1.5,54,22,55,81,160,细颗粒物(PM2.5)
济宁市,市第七中学,116.5907,35.4054,2025-01-22T1700,105,119,1.5,50,12,56,67,138,细颗粒物(PM2.5)
佳木斯市,佳纺,130.2751,46.8028,2025-01-22T1700,150,180,1.6,76,17,21,35,200,细颗粒物(PM2.5)
佳木斯市,发电厂,130.3995,46.8307,2025-01-22T1700,135,156,1.9,94,15,4,30,179,细颗粒物(PM2.5)
佳木斯市,环保局,130.3258,46.7975,2025-01-22T1700,111,129,1.3,,14,,32,145,细颗粒物(PM2.5)
佳木斯市,十一中,130.3648,46.8032,2025-01-22T1700,152,153,1.9,101,12,10,23,202,细颗粒物(PM2.5)
佳木斯市,四丰,130.3794,46.7588,2025-01-22T1700,99,126,2.2,27,1,64,65,130,细颗粒物(PM2.5)
嘉兴市,清河小学,120.7436,30.778,2025-01-22T1700,10,22,0.5,19,5,102,120,32,
嘉兴市,嘉兴学院,120.726,30.7478,2025-01-22T1700,9,32,0.6,16,8,101,121,32,
嘉兴市,南湖区残联,120.7846,30.7525,2025-01-22T1700,8,48,0.6,18,9,103,122,48,
嘉兴市,秀洲住建,120.6916,30.7739,2025-01-22T1700,15,,0.3,,6,105,123,,
嘉峪关市,气象局,98.2908,39.7711,2025-01-22T1700,31,70,0.5,11,14,86,73,60,颗粒物(PM10)
嘉峪关市,酒钢宾馆,98.2672,39.7978,2025-01-22T1700,31,88,1.3,33,62,61,50,69,颗粒物(PM10)
嘉峪关市,雄关区,98.2643,39.7724,2025-01-22T1700,26,65,0.2,16,11,88,71,58,颗粒物(PM10)
江门市,北街,113.1064,22.6058,2025-01-22T1700,57,66,0.8,41,5,121,102,78,细颗粒物(PM2.5)
江门市,西区,113.0731,22.5835,2025-01-22T1700,55,76,0.8,41,9,121,104,75,细颗粒物(PM2.5)
江门市,圭峰西,113.0219,22.5311,2025-01-22T1700,54,79,0.6,47,5,109,96,74,细颗粒物(PM2.5)
江门市,东湖,113.0828,22.5947,2025-01-22T1700,37,74,0.6,36,7,126,105,62,颗粒物(PM10)
江门市,江海富民,113.1075,22.5647,2025-01-22T1700,41,72,0.8,45,9,118,104,61,颗粒物(PM10)
江门市,新会银湖,113.05,22.4667,2025-01-22T1700,58,74,0.7,41,6,97,90,79,细颗粒物(PM2.5)
焦作市,市环保局,113.227,35.2125,2025-01-22T1700,147,216,1.4,50,27,75,54,196,细颗粒物(PM2.5)
焦作市,影视城,113.1992,35.2590,2025-01-22T1700,155,216,1.7,58,26,66,52,205,细颗粒物(PM2.5)
焦作市,太极体育中心,113.2725,35.2067,2025-01-22T1700,133,205,1.4,55,26,74,52,176,细颗粒物(PM2.5)
焦作市,马村街道办,113.3137,35.2641,2025-01-22T1700,165,165,,60,23,,46,215,细颗粒物(PM2.5)
焦作市,焦作技师学院,113.2465,35.2373,2025-01-22T1700,141,208,1.7,49,28,74,57,188,细颗粒物(PM2.5)
焦作市,中站许衡医院,113.1656,35.2539,2025-01-22T1700,135,187,1.9,54,28,67,52,179,细颗粒物(PM2.5)
焦作市,原李万街道办,113.2449,35.1803,2025-01-22T1700,129,184,1.4,40,20,82,55,170,细颗粒物(PM2.5)
揭阳市,新兴,116.3701,23.5345,2025-01-22T1700,29,36,0.8,15,5,108,103,42,
揭阳市,西马,116.3264,23.5443,2025-01-22T1700,33,48,0.8,17,6,98,96,48,
揭阳市,东兴,116.3611,23.5626,2025-01-22T1700,29,42,0.8,16,4,96,97,42,
揭阳市,渔湖,116.4151,23.5294,2025-01-22T1700,17,31,0.5,14,5,114,106,36,
揭阳市,曲溪,116.403,23.5699,2025-01-22T1700,27,43,0.8,29,2,100,108,43,
金昌市,天庆家园,102.1692,38.5167,2025-01-22T1700,36,63,1.1,12,44,91,75,57,颗粒物(PM10)
金昌市,金川区人防中心,102.1647,38.5371,2025-01-22T1700,36,89,1.1,18,18,94,80,70,颗粒物(PM10)
金昌市,长春路96号,102.1930,38.5319,2025-01-22T1700,39,59,0.3,14,18,101,76,55,"颗粒物(PM10),细颗粒物(PM2.5)"
金华市,十五中,119.647,29.077,2025-01-22T1700,33,55,0.9,44,7,96,114,53,颗粒物(PM10)
金华市,监测站,119.686,29.1029,2025-01-22T1700,30,58,0.6,42,10,90,91,54,颗粒物(PM10)
金华市,气象局,119.656,29.1131,2025-01-22T1700,32,50,0.7,35,9,93,100,50,
锦州市,南山,121.1115,41.0879,2025-01-22T1700,36,58,0.7,24,19,62,69,54,颗粒物(PM10)
锦州市,开发区,121.0533,40.8434,2025-01-22T1700,21,54,1.0,42,16,44,57,52,颗粒物(PM10)
锦州市,百股街道,121.1836,41.1119,2025-01-22T1700,36,51,0.6,24,22,57,66,52,细颗粒物(PM2.5)
锦州市,天安街道,121.1178,41.1222,2025-01-22T1700,30,53,0.7,31,18,50,58,52,颗粒物(PM10)
锦州市,北湖公园,121.1303,41.1386,2025-01-22T1700,30,,0.6,29,20,52,58,43,
晋城市,自来水公司,112.85,35.5051,2025-01-22T1700,129,145,1.3,38,20,110,83,170,细颗粒物(PM2.5)
晋城市,白云商贸,112.8318,35.4936,2025-01-22T1700,129,194,1.3,42,21,111,86,170,细颗粒物(PM2.5)
晋城市,市环保局,112.8508,35.4887,2025-01-22T1700,122,178,1.2,41,20,108,84,160,细颗粒物(PM2.5)
晋城市,技术学院,112.8676,35.4897,2025-01-22T1700,132,182,1.2,43,18,124,94,175,细颗粒物(PM2.5)
晋城市,白马寺,112.8453,35.546,2025-01-22T1700,,,,,,,48,,
晋城市,泽州一中,112.8271,35.4828,2025-01-22T1700,139,149,1.3,37,20,112,87,185,细颗粒物(PM2.5)
晋中市,南都小区,112.7249,37.7067,2025-01-22T1700,74,109,1.0,36,20,105,84,99,细颗粒物(PM2.5)
晋中市,榆次区政府,112.6991,37.6982,2025-01-22T1700,57,107,1.2,33,20,101,82,79,颗粒物(PM10)
晋中市,榆次三中,112.7195,37.6828,2025-01-22T1700,70,117,1.3,32,22,102,85,94,细颗粒物(PM2.5)
晋中市,榆次一中,112.7478,37.6954,2025-01-22T1700,75,112,1.1,37,20,106,86,100,细颗粒物(PM2.5)
荆门市,竹园小学,112.2014,31.0481,2025-01-22T1700,187,225,1.3,30,11,115,87,237,细颗粒物(PM2.5)
荆门市,掇刀,112.1969,30.9891,2025-01-22T1700,190,,1.1,29,1,82,,240,细颗粒物(PM2.5)
荆门市,石化一小,112.2213,31.0386,2025-01-22T1700,183,235,1.2,31,12,114,89,233,细颗粒物(PM2.5)
荆门市,西山林语,112.1849,31.0362,2025-01-22T1700,178,220,1.2,27,6,121,96,228,细颗粒物(PM2.5)
荆门市,龙泉中学南校,112.1632,31.0138,2025-01-22T1700,182,237,1.2,25,17,118,,232,细颗粒物(PM2.5)
荆州市,市图书馆,112.2494,30.3197,2025-01-22T1700,182,184,1.4,38,10,92,77,232,细颗粒物(PM2.5)
荆州市,市委党校,112.2008,30.3544,2025-01-22T1700,210,,1.0,,13,94,77,260,细颗粒物(PM2.5)
荆州市,管委会,112.2747,30.3122,2025-01-22T1700,196,204,1.2,37,12,106,94,246,细颗粒物(PM2.5)
荆州市,学苑路,112.1655,30.3364,2025-01-22T1700,206,222,1.6,37,15,94,81,256,细颗粒物(PM2.5)
景德镇市,王港中学,117.3102,29.3867,2025-01-22T1700,,,,,,,,,
景德镇市,老干部活动中心,117.2117,29.2933,2025-01-22T1700,25,39,0.5,18,5,107,81,39,
景德镇市,兽医站,117.1894,29.2789,2025-01-22T1700,36,75,0.5,14,9,108,88,63,颗粒物(PM10)
景德镇市,台达陶瓷,117.1547,29.2617,2025-01-22T1700,40,54,0.5,25,11,104,85,57,细颗粒物(PM2.5)
景德镇市,陶研所,117.2461,29.2956,2025-01-22T1700,95,,0.6,15,3,113,83,125,细颗粒物(PM2.5)
九江市,十里,115.9872,29.6815,2025-01-22T1700,38,52,0.6,20,8,123,84,54,细颗粒物(PM2.5)
九江市,茅山头,115.9584,29.7046,2025-01-22T1700,120,,,62,1,,32,,
九江市,西园,115.9877,29.7295,2025-01-22T1700,46,67,0.9,53,13,87,64,64,细颗粒物(PM2.5)
九江市,综合工业园,115.9114,29.6038,2025-01-22T1700,62,71,1.0,68,11,74,82,84,细颗粒物(PM2.5)
九江市,石化总厂,116.0721,29.7535,2025-01-22T1700,27,47,0.8,21,16,123,93,47,
九江市,庐山气象台,115.9773,29.5698,2025-01-22T1700,39,44,0.9,18,6,127,119,55,细颗粒物(PM2.5)
九江市,外国语学校,116.0254,29.6994,2025-01-22T1700,31,41,,13,11,135,96,,
九江市,莲花大道8号,116.0102,29.6594,2025-01-22T1700,37,49,0.6,20,8,119,82,53,细颗粒物(PM2.5)
酒泉市,仓门街子站,98.5061,39.7443,2025-01-22T1700,26,61,0.5,8,14,90,63,56,颗粒物(PM10)
酒泉市,玉门东路5号,98.4958,39.7339,2025-01-22T1700,29,75,0.5,8,12,86,59,63,颗粒物(PM10)
喀什地区,巡警大队,76.0072,39.4467,2025-01-22T1700,52,127,1.0,27,11,97,42,89,颗粒物(PM10)
喀什地区,吾办,75.9755,39.4694,2025-01-22T1700,90,130,1.0,27,4,94,41,119,细颗粒物(PM2.5)
喀什地区,老干局,75.9483,39.4689,2025-01-22T1700,47,162,0.9,24,8,97,36,106,颗粒物(PM10)
开封市,肿瘤医院,114.3389,34.7781,2025-01-22T1700,55,99,0.7,18,6,68,61,75,"颗粒物(PM10),细颗粒物(PM2.5)"
开封市,世纪星幼儿园,114.2885,34.7965,2025-01-22T1700,61,94,0.6,27,10,64,58,83,细颗粒物(PM2.5)
开封市,龙亭公园,114.3438,34.8106,2025-01-22T1700,45,113,0.2,25,8,68,60,82,颗粒物(PM10)
开封市,汴京公园,114.3644,34.7964,2025-01-22T1700,54,106,0.6,26,10,69,60,78,颗粒物(PM10)
开封市,技师学院,114.2485,34.8306,2025-01-22T1700,43,91,1.0,27,8,64,56,71,颗粒物(PM10)
开封市,祥符区生态环境局,114.4644,34.7556,2025-01-22T1700,62,106,0.7,18,8,62,58,84,细颗粒物(PM2.5)
克拉玛依市,长征新村,84.895,45.6094,2025-01-22T1700,137,156,1.1,34,8,68,65,182,细颗粒物(PM2.5)
克拉玛依市,南林小区,84.8988,45.5893,2025-01-22T1700,118,153,1.3,13,4,72,67,155,细颗粒物(PM2.5)
克拉玛依市,独山子区,84.905,44.3396,2025-01-22T1700,78,,0.9,31,5,119,81,104,细颗粒物(PM2.5)
克拉玛依市,乌尔禾区商贸楼,85.6979,46.098,2025-01-22T1700,62,62,0.9,18,5,99,90,84,细颗粒物(PM2.5)
克拉玛依市,白碱滩区新站,85.1045,45.6899,2025-01-22T1700,112,140,1.4,15,8,84,74,147,细颗粒物(PM2.5)
克孜勒苏柯尔克孜自治州,市人民政府,76.1454,39.7142,2025-01-22T1700,64,98,1.1,16,8,111,75,87,细颗粒物(PM2.5)
克孜勒苏柯尔克孜自治州,克州文化中心,76.1658,39.7157,2025-01-22T1700,58,69,0.8,17,12,104,74,79,细颗粒物(PM2.5)
昆明市,呈贡新区,102.8204,24.8886,2025-01-22T1700,14,26,0.4,7,4,91,85,29,
昆明市,西山森林公园,102.6251,24.9608,2025-01-22T1700,,,,,,,,,
昆明市,龙泉镇,102.7252,25.0902,2025-01-22T1700,14,17,0.8,10,7,94,77,30,
昆明市,东风东路,102.7266,25.0375,2025-01-22T1700,16,24,0.4,13,6,91,82,29,
昆明市,金鼎山,102.6742,25.0669,2025-01-22T1700,8,30,0.5,15,9,86,72,30,
昆明市,碧鸡广场,102.6644,25.0401,2025-01-22T1700,16,20,0.4,11,6,89,77,28,
昆明市,官渡区博物馆,102.7494,25.0119,2025-01-22T1700,15,27,0.3,6,7,96,87,30,
昆明市,青年创业园,102.8017,24.8336,2025-01-22T1700,15,21,0.3,4,,,86,,
昆明市,昆明学院,102.7997,24.9786,2025-01-22T1700,14,22,0.2,8,9,94,85,30,
昆明市,晋宁区生态环境分局,102.5967,24.6736,2025-01-22T1700,12,23,0.4,,3,94,83,,
昆明市,云天化总部,102.6678,24.9856,2025-01-22T1700,10,19,0.3,5,7,100,91,32,
拉萨市,八廓街,91.1319,29.6514,2025-01-22T1700,7,20,0.3,8,6,100,99,32,
拉萨市,市环保局,91.1221,29.6747,2025-01-22T1700,6,13,0.6,12,5,102,76,32,
拉萨市,区监测站,91.0874,29.6475,2025-01-22T1700,,,0.4,6,6,103,80,,
拉萨市,西藏大学,91.1774,29.6541,2025-01-22T1700,7,10,0.4,5,5,103,82,33,
拉萨市,区辐射站,90.9798,29.6588,2025-01-22T1700,8,10,0.4,6,6,103,72,33,
拉萨市,拉萨火车站,91.0834,29.6292,2025-01-22T1700,3,8,0.4,6,4,106,72,34,
来宾市,来宾技工学校,109.2203,23.7256,2025-01-22T1700,42,88,0.9,12,8,130,117,69,颗粒物(PM10)
来宾市,兴宾区政府,109.1781,23.7297,2025-01-22T1700,60,82,0.8,22,8,133,135,82,细颗粒物(PM2.5)
来宾市,中南小学,109.2416,23.7461,2025-01-22T1700,42,80,0.8,13,9,136,119,65,颗粒物(PM10)
兰州市,榆中兰大校区,104.1373,35.9454,2025-01-22T1700,,,,,,,,,
兰州市,生物制品所,103.8412,36.0726,2025-01-22T1700,,,,,,,,,
兰州市,铁路设计院,103.831,36.0464,2025-01-22T1700,64,98,1.5,91,28,57,31,87,细颗粒物(PM2.5)
兰州市,百合公园,103.7439,36.0842,2025-01-22T1700,56,85,1.1,47,28,103,61,77,细颗粒物(PM2.5)
兰州市,和平,103.9611,35.998,2025-01-22T1700,64,83,1.3,38,31,105,70,87,细颗粒物(PM2.5)
兰州市,庄浪东路808号,103.6293,36.0938,2025-01-22T1700,58,86,1.0,49,23,104,71,79,细颗粒物(PM2.5)
兰州市,安宁西路88号,103.7251,36.1043,2025-01-22T1700,61,91,1.5,57,38,112,78,83,细颗粒物(PM2.5)
兰州新区,新区管委会,103.6633,36.533,2025-01-22T1700,53,68,0.9,23,29,106,81,73,细颗粒物(PM2.5)
兰州新区,舟曲中学,103.6975,36.4789,2025-01-22T1700,44,62,0.9,36,26,,71,,
廊坊市,药材公司,116.6708,39.5111,2025-01-22T1700,40,57,0.7,22,10,66,57,57,细颗粒物(PM2.5)
廊坊市,开发区,116.7214,39.5589,2025-01-22T1700,41,69,1.0,20,12,63,57,60,颗粒物(PM10)
廊坊市,北华航天学院,116.7244,39.5269,2025-01-22T1700,42,56,0.7,18,12,65,57,59,细颗粒物(PM2.5)
廊坊市,河北工业大学,116.7022,39.5453,2025-01-22T1700,37,57,0.9,25,14,62,55,54,颗粒物(PM10)
乐山市,花湖湾,103.7723,29.5462,2025-01-22T1700,176,208,1.3,27,6,47,28,226,细颗粒物(PM2.5)
乐山市,牛耳桥,103.7627,29.5844,2025-01-22T1700,164,192,1.0,36,7,33,23,214,细颗粒物(PM2.5)
乐山市,市第三水厂,103.7508,29.6006,2025-01-22T1700,122,155,1.3,31,5,41,26,160,细颗粒物(PM2.5)
乐山市,市监测站,103.7571,29.5664,2025-01-22T1700,,168,1.2,29,5,37,23,109,颗粒物(PM10)
乐山市,理工大学,103.7311,29.5628,2025-01-22T1700,142,169,1.3,24,10,53,31,189,细颗粒物(PM2.5)
丽江市,西南郊,100.2143,26.8576,2025-01-22T1700,3,10,0.5,4,6,83,74,26,
丽江市,丽江古城,100.2497,26.8802,2025-01-22T1700,16,24,1.0,9,8,77,71,25,
丽江市,市中心,100.2203,26.8906,2025-01-22T1700,13,26,0.6,7,8,75,66,26,
丽水市,监测站大楼,119.914,28.4514,2025-01-22T1700,56,60,1.4,57,8,54,92,77,细颗粒物(PM2.5)
丽水市,莲都小学,119.93,28.4586,2025-01-22T1700,39,61,0.9,40,7,89,102,56,颗粒物(PM10)
丽水市,余庄前,119.879,28.4231,2025-01-22T1700,31,44,0.8,27,4,83,106,45,
连云港市,市环境监测站,119.176,34.5885,2025-01-22T1700,19,34,0.5,13,7,95,108,34,
连云港市,德源药业,119.3581,34.6972,2025-01-22T1700,14,27,0.3,15,5,81,81,27,
连云港市,新城一中,119.178,34.844,2025-01-22T1700,60,81,0.7,24,7,95,82,82,细颗粒物(PM2.5)
连云港市,胡沟管理处,119.3608,34.7519,2025-01-22T1700,12,17,0.5,33,6,65,64,21,
连云港市,矿山设计院,119.1478,34.5911,2025-01-22T1700,22,41,0.5,12,7,96,89,41,
连云港市,工贸学校,119.2413,34.6539,2025-01-22T1700,15,21,0.7,8,9,103,101,33,
连云港市,连云街道,119.4172,34.7341,2025-01-22T1700,9,11,0.4,7,6,99,89,31,
凉山彝族自治州,青龙寺,102.3431,27.8099,2025-01-22T1700,13,37,0.7,4,8,101,76,37,
凉山彝族自治州,邛海宾馆,102.2721,27.8415,2025-01-22T1700,22,38,0.5,6,11,88,68,38,
凉山彝族自治州,西昌市政府,102.2625,27.898,2025-01-22T1700,26,44,0.8,9,14,81,60,44,
凉山彝族自治州,凉山州政府,102.2685,27.8851,2025-01-22T1700,22,33,0.6,7,14,82,64,33,
凉山彝族自治州,长安,102.237,27.8914,2025-01-22T1700,25,43,1.2,14,19,82,57,43,
辽阳市,宏伟区,123.2,41.1953,2025-01-22T1700,38,41,0.5,15,4,68,62,54,细颗粒物(PM2.5)
辽阳市,新华园,123.1683,41.2495,2025-01-22T1700,29,40,0.7,20,10,60,52,42,
辽阳市,滨河路,123.2354,41.2639,2025-01-22T1700,,,0.5,12,,66,58,,
辽阳市,铁西工业园,123.149,41.2991,2025-01-22T1700,24,50,0.4,16,5,69,70,50,
辽源市,环保局,125.1358,42.8845,2025-01-22T1700,39,53,0.9,19,12,68,61,55,细颗粒物(PM2.5)
辽源市,银鹰制药,125.0764,42.9078,2025-01-22T1700,30,39,0.8,21,7,49,43,43,
聊城市,区政府,115.9848,36.4372,2025-01-22T1700,53,101,0.9,27,20,62,51,76,颗粒物(PM10)
聊城市,聊大东校,116.0072,36.4343,2025-01-22T1700,58,107,1.0,31,17,60,48,79,"颗粒物(PM10),细颗粒物(PM2.5)"
聊城市,监控中心,115.9819,36.4978,2025-01-22T1700,46,105,1.0,34,19,61,54,78,颗粒物(PM10)
聊城市,九州社区,116.0445,36.4361,2025-01-22T1700,55,99,0.7,30,18,63,50,75,"颗粒物(PM10),细颗粒物(PM2.5)"
聊城市,星美广场,116.0567,36.4608,2025-01-22T1700,55,100,0.8,28,20,57,48,75,"颗粒物(PM10),细颗粒物(PM2.5)"
林芝市,林芝监测站,94.3681,29.6376,2025-01-22T1700,3,16,0.1,1,,82,71,,
林芝市,林芝人民医院,94.3616,29.6616,2025-01-22T1700,3,16,0.1,2,6,71,62,23,
临沧市,市环保局,100.0781,23.8982,2025-01-22T1700,20,34,0.4,7,10,104,76,34,
临沧市,市气象局,100.0894,23.8822,2025-01-22T1700,19,38,0.3,6,7,100,75,38,
临汾市,临钢医院,111.5531,36.0783,2025-01-22T1700,81,136,1.3,39,24,97,59,108,细颗粒物(PM2.5)
临汾市,技工学校,111.5028,36.0714,2025-01-22T1700,85,116,1.3,39,23,96,54,113,细颗粒物(PM2.5)
临汾市,市委,111.5018,36.0855,2025-01-22T1700,84,137,0.7,37,22,92,54,112,细颗粒物(PM2.5)
临汾市,唐尧大酒店,111.505,36.1014,2025-01-22T1700,83,117,1.0,37,23,93,53,110,细颗粒物(PM2.5)
临汾市,启星学校,111.4879,36.0530,2025-01-22T1700,78,117,1.4,35,22,88,50,104,细颗粒物(PM2.5)
临夏回族自治州,环保局,103.2069,35.5993,2025-01-22T1700,27,78,0.9,14,23,109,70,64,颗粒物(PM10)
临夏回族自治州,建设大厦,103.2417,35.6057,2025-01-22T1700,32,76,1.0,15,28,121,77,63,颗粒物(PM10)
临沂市,沂河小区,118.3429,35.0532,2025-01-22T1700,61,83,0.7,18,13,94,79,83,细颗粒物(PM2.5)
临沂市,鲁南制药厂,118.295,35.0583,2025-01-22T1700,56,80,0.6,14,12,97,82,77,细颗粒物(PM2.5)
临沂市,新光毛纺厂,118.2794,34.9976,2025-01-22T1700,45,66,0.5,19,10,95,81,63,细颗粒物(PM2.5)
临沂市,河东保险公司,118.3956,35.0888,2025-01-22T1700,68,97,1.1,22,13,97,81,92,细颗粒物(PM2.5)
临沂市,十里堡居委,118.3564,35.0215,2025-01-22T1700,44,68,0.7,18,11,95,87,62,细颗粒物(PM2.5)
临沂市,南坊新区,118.3604,35.1084,2025-01-22T1700,70,95,1.3,26,12,96,83,94,细颗粒物(PM2.5)
临沂市,皇山花园小区,118.3920,35.0300,2025-01-22T1700,42,68,0.7,24,6,98,81,59,"颗粒物(PM10),细颗粒物(PM2.5)"
柳州市,柳东小学,109.4856,24.3895,2025-01-22T1700,52,61,0.8,17,12,140,116,72,细颗粒物(PM2.5)
柳州市,环保监测站,109.4157,24.3277,2025-01-22T1700,56,74,0.8,20,12,134,112,77,细颗粒物(PM2.5)
柳州市,河西水厂,109.389,24.341,2025-01-22T1700,45,68,0.8,20,12,132,112,63,细颗粒物(PM2.5)
柳州市,市四中,109.4311,24.2921,2025-01-22T1700,40,50,,19,11,134,112,,
柳州市,市九中,109.4006,24.3631,2025-01-22T1700,60,77,1.0,22,10,133,116,82,细颗粒物(PM2.5)
柳州市,古亭山,109.4958,24.3134,2025-01-22T1700,37,57,0.9,16,14,138,114,54,颗粒物(PM10)
柳州市,市二中,109.5422,24.3996,2025-01-22T1700,31,51,0.7,14,12,121,92,51,颗粒物(PM10)
六安市,监测大楼,116.5079,31.737,2025-01-22T1700,161,165,1.1,34,12,156,112,211,细颗粒物(PM2.5)
六安市,皖西学院,116.4738,31.7643,2025-01-22T1700,160,178,1.1,36,12,156,114,210,细颗粒物(PM2.5)
六安市,朝阳厂,116.4996,31.7905,2025-01-22T1700,165,183,1.0,38,8,150,111,215,细颗粒物(PM2.5)
六安市,开发区,116.5567,31.7886,2025-01-22T1700,150,199,1.2,39,10,149,111,200,细颗粒物(PM2.5)
六盘水市,窑上,104.8,26.5892,2025-01-22T1700,42,56,0.9,15,4,94,98,59,细颗粒物(PM2.5)
六盘水市,黄土坡,104.83,26.5917,2025-01-22T1700,50,64,1.0,20,7,95,99,69,细颗粒物(PM2.5)
六盘水市,水钢,104.89,26.5939,2025-01-22T1700,72,95,0.8,16,6,99,114,97,细颗粒物(PM2.5)
六盘水市,民中,104.8475,26.5894,2025-01-22T1700,51,52,0.9,16,8,95,103,70,细颗粒物(PM2.5)
六盘水市,双水,104.9544,26.5506,2025-01-22T1700,49,75,0.8,16,7,102,117,68,细颗粒物(PM2.5)
龙岩市,龙岩师专,117.0189,25.1181,2025-01-22T1700,,,,,,,,,
龙岩市,龙岩市监测站,117.0217,25.1033,2025-01-22T1700,22,31,0.5,18,3,117,110,37,
龙岩市,闽西职业技术学院,117.0258,25.0661,2025-01-22T1700,18,31,0.4,12,2,111,100,35,
龙岩市,龙岩学院,117.0196,25.0306,2025-01-22T1700,16,25,0.4,13,3,113,99,36,
陇南市,汉王镇固水子,105.0822,33.3261,2025-01-22T1700,,,,,,,,,
陇南市,滨江中学,104.9339,33.3826,2025-01-22T1700,48,81,0.9,25,11,66,47,67,细颗粒物(PM2.5)
陇南市,市总工会,104.955,33.371,2025-01-22T1700,52,74,0.7,19,9,73,61,72,细颗粒物(PM2.5)
娄底市,电视发射台,111.9589,27.8901,2025-01-22T1700,57,74,1.1,18,15,141,125,78,细颗粒物(PM2.5)
娄底市,市监测站,111.9975,27.725,2025-01-22T1700,72,91,0.9,28,18,131,79,97,细颗粒物(PM2.5)
娄底市,市委党校,112.0194,27.7314,2025-01-22T1700,66,136,0.8,41,12,110,99,93,颗粒物(PM10)
娄底市,涟钢,111.9561,27.7569,2025-01-22T1700,73,87,1.3,26,23,128,82,98,细颗粒物(PM2.5)
娄底市,市政府,111.9892,27.7044,2025-01-22T1700,79,107,1.0,44,15,107,76,105,细颗粒物(PM2.5)
泸州市,九狮山,105.4324,28.9634,2025-01-22T1700,,,,,,,,,
泸州市,小市上码头,105.4427,28.9063,2025-01-22T1700,114,139,1.0,28,4,62,48,149,细颗粒物(PM2.5)
泸州市,兰田宪桥,105.4241,28.8573,2025-01-22T1700,104,130,1.1,25,3,63,47,137,细颗粒物(PM2.5)
泸州市,市环监站,105.4379,28.8833,2025-01-22T1700,104,122,0.8,22,6,60,44,137,细颗粒物(PM2.5)
泸州市,纳溪区环保局,105.3617,28.7703,2025-01-22T1700,91,103,1.0,21,5,64,43,120,细颗粒物(PM2.5)
吕梁市,环保局,111.1406,37.5211,2025-01-22T1700,66,88,0.8,36,13,83,56,89,细颗粒物(PM2.5)
吕梁市,自来水公司,111.1297,37.5136,2025-01-22T1700,44,93,0.8,53,15,65,51,72,颗粒物(PM10)
吕梁市,马茂庄小学,111.1283,37.51,2025-01-22T1700,52,108,0.9,42,15,84,55,79,颗粒物(PM10)
洛阳市,市委党校,112.3931,34.6516,2025-01-22T1700,130,172,1.4,56,14,61,51,172,细颗粒物(PM2.5)
洛阳市,河南林校,112.494,34.6886,2025-01-22T1700,145,154,1.4,46,14,69,52,193,细颗粒物(PM2.5)
洛阳市,开发区管委会,112.3844,34.623,2025-01-22T1700,201,245,1.5,55,17,70,59,251,细颗粒物(PM2.5)
洛阳市,市委新办公区,112.4267,34.6258,2025-01-22T1700,137,238,1.3,58,17,63,56,182,细颗粒物(PM2.5)
洛阳市,伊滨,112.6005,34.6326,2025-01-22T1700,127,229,1.2,50,18,68,60,168,细颗粒物(PM2.5)
洛阳市,中移产业园,112.4951,34.6332,2025-01-22T1700,120,164,1.5,63,19,64,67,158,细颗粒物(PM2.5)
洛阳市,吉利监测站,112.5736,34.8993,2025-01-22T1700,127,190,1.4,46,17,70,55,168,细颗粒物(PM2.5)
洛阳市,河科大西苑校区,112.3677,34.662,2025-01-22T1700,117,188,1.5,54,16,68,57,153,细颗粒物(PM2.5)
洛阳市,英才小学,112.4388,34.6781,2025-01-22T1700,109,171,1.4,54,18,64,51,143,细颗粒物(PM2.5)
洛阳市,春都路1号院,112.4600,34.6949,2025-01-22T1700,109,170,1.7,69,14,51,43,143,细颗粒物(PM2.5)
漯河市,三五一五工厂,114.051,33.5699,2025-01-22T1700,162,193,0.9,31,12,90,70,212,细颗粒物(PM2.5)
漯河市,漯河大学,114.0055,33.5698,2025-01-22T1700,134,178,1.1,31,14,92,72,178,细颗粒物(PM2.5)
漯河市,市水利局,114.0138,33.5828,2025-01-22T1700,134,185,,30,12,87,68,178,细颗粒物(PM2.5)
漯河市,市广电局,114.0261,33.5698,2025-01-22T1700,133,188,1.0,28,16,88,69,176,细颗粒物(PM2.5)
漯河市,市图书馆,113.9749,33.5664,2025-01-22T1700,131,185,1.1,33,12,90,74,173,细颗粒物(PM2.5)
漯河市,召陵区卫健委,114.0967,33.5906,2025-01-22T1700,155,197,1.0,27,10,85,68,205,细颗粒物(PM2.5)
马鞍山市,湖东路四小,118.5092,31.6837,2025-01-22T1700,88,157,2.1,61,24,116,95,117,细颗粒物(PM2.5)
马鞍山市,开发区,118.5024,31.6449,2025-01-22T1700,116,138,3.3,78,40,92,100,152,细颗粒物(PM2.5)
马鞍山市,濮塘,118.6245,31.7241,2025-01-22T1700,90,124,0.6,43,7,148,128,119,细颗粒物(PM2.5)
马鞍山市,雨山,118.4918,31.6809,2025-01-22T1700,98,157,2.2,52,23,121,95,129,细颗粒物(PM2.5)
马鞍山市,慈湖高新区,118.5274,31.72227,2025-01-22T1700,81,126,1.6,39,17,130,100,108,细颗粒物(PM2.5)
茂名市,电白南海,111.0286,21.4688,2025-01-22T1700,22,56,0.5,23,6,113,113,53,颗粒物(PM10)
茂名市,茂石化七小,110.9294,21.6533,2025-01-22T1700,14,51,0.5,12,7,124,118,51,颗粒物(PM10)
茂名市,健康路,110.9107,21.6687,2025-01-22T1700,19,46,0.8,14,6,126,122,46,
茂名市,高岭,110.8592,21.6828,2025-01-22T1700,27,68,0.7,18,7,120,113,59,颗粒物(PM10)
茂名市,电白水东,111.01,21.5165,2025-01-22T1700,27,46,,,,,106,,
眉山市,黑龙滩水库,104.0308,30.0478,2025-01-22T1700,113,135,0.9,20,2,57,36,148,细颗粒物(PM2.5)
眉山市,气象局,103.8416,30.0874,2025-01-22T1700,153,204,1.2,30,7,51,20,203,细颗粒物(PM2.5)
眉山市,市委党校,103.8578,30.0744,2025-01-22T1700,149,183,1.1,38,8,38,16,199,细颗粒物(PM2.5)
眉山市,区人社局,103.8291,30.0564,2025-01-22T1700,161,,1.3,53,11,32,22,211,细颗粒物(PM2.5)
梅州市,梅江月梅,116.1231,24.3284,2025-01-22T1700,21,31,0.9,10,8,121,109,38,
梅州市,梅县新城,116.0797,24.2719,2025-01-22T1700,26,37,0.6,19,4,114,102,38,
梅州市,环境监控中心,116.1248,24.2654,2025-01-22T1700,28,,0.5,15,5,112,96,40,
梅州市,梅龙,116.1233,24.2991,2025-01-22T1700,18,39,0.7,27,5,107,110,39,
绵阳市,富乐山,104.7778,31.4741,2025-01-22T1700,110,138,1.3,33,3,19,14,144,细颗粒物(PM2.5)
绵阳市,高新区自来水公司,104.6697,31.4668,2025-01-22T1700,105,155,1.2,56,6,5,8,138,细颗粒物(PM2.5)
绵阳市,三水厂,104.7287,31.5075,2025-01-22T1700,113,154,,41,2,12,6,148,细颗粒物(PM2.5)
绵阳市,西科大附属小学,104.69,31.5322,2025-01-22T1700,104,145,1.1,46,6,8,16,137,细颗粒物(PM2.5)
绵阳市,安州区旅游局,104.5648,31.5343,2025-01-22T1700,102,122,1.1,46,9,11,13,134,细颗粒物(PM2.5)
绵阳市,绵阳市气象局,104.7651,31.4531,2025-01-22T1700,104,157,1.0,46,2,10,8,137,细颗粒物(PM2.5)
牡丹江市,环保大楼,129.61,44.561,2025-01-22T1700,100,100,0.8,41,10,63,43,132,细颗粒物(PM2.5)
牡丹江市,文化广场,129.6115,44.5782,2025-01-22T1700,75,93,0.8,38,,65,18,,
牡丹江市,第一医院,129.5904,44.5963,2025-01-22T1700,84,104,0.8,26,11,72,50,112,细颗粒物(PM2.5)
牡丹江市,机车工厂,129.6364,44.6075,2025-01-22T1700,66,105,1.2,29,13,71,49,89,细颗粒物(PM2.5)
牡丹江市,第一中学,129.6386,44.5462,2025-01-22T1700,75,104,1.1,35,8,60,50,100,细颗粒物(PM2.5)
内江市,市监测站,105.0703,29.61,2025-01-22T1700,164,165,1.6,39,7,10,10,214,细颗粒物(PM2.5)
内江市,东兴区政府,105.0717,29.5947,2025-01-22T1700,157,,1.5,30,5,17,16,207,细颗粒物(PM2.5)
内江市,内江二中,105.0653,29.5817,2025-01-22T1700,167,175,1.5,42,10,15,18,217,细颗粒物(PM2.5)
内江市,内江日报社,105.0406,29.5822,2025-01-22T1700,171,,1.3,47,10,8,16,221,细颗粒物(PM2.5)
那曲市,那曲监测站,92.0657,31.4846,2025-01-22T1700,26,,0.6,4,7,95,70,38,
那曲市,那曲会议中心,92.0506,31.4797,2025-01-22T1700,3,10,0.6,1,1,95,76,30,
南昌市,省外办,115.8931,28.6843,2025-01-22T1700,48,70,1.1,26,14,101,76,67,细颗粒物(PM2.5)
南昌市,省林业公司,115.8886,28.7003,2025-01-22T1700,41,73,0.5,35,10,106,78,62,颗粒物(PM10)
南昌市,林科所,115.8126,28.7442,2025-01-22T1700,39,70,2.1,32,6,123,93,60,颗粒物(PM10)
南昌市,建工学校,115.8518,28.687,2025-01-22T1700,56,86,1.3,39,17,113,84,77,细颗粒物(PM2.5)
南昌市,象湖,115.8921,28.6424,2025-01-22T1700,46,77,1.5,37,15,119,88,64,"颗粒物(PM10),细颗粒物(PM2.5)"
南昌市,武术学校,115.7423,28.7996,2025-01-22T1700,33,52,0.6,26,4,59,74,51,颗粒物(PM10)
南昌市,机电学校,115.9084,28.6062,2025-01-22T1700,39,81,0.9,28,16,121,89,66,颗粒物(PM10)
南昌市,外国语学校,115.9721,28.7031,2025-01-22T1700,50,70,0.6,15,10,124,94,69,细颗粒物(PM2.5)
南昌市,南京东路235号,115.9316,28.68677,2025-01-22T1700,37,81,0.8,29,10,115,84,66,颗粒物(PM10)
南充市,西山风景区,106.056,30.8064,2025-01-22T1700,127,,1.5,43,1,9,53,168,细颗粒物(PM2.5)
南充市,南充市委,106.0789,30.8023,2025-01-22T1700,136,161,1.2,45,4,12,11,180,细颗粒物(PM2.5)
南充市,南充炼油厂,106.1031,30.8217,2025-01-22T1700,119,151,1.2,49,4,16,12,156,细颗粒物(PM2.5)
南充市,嘉陵区环保局,106.0642,30.7636,2025-01-22T1700,112,147,1.2,47,4,21,14,147,细颗粒物(PM2.5)
南充市,市环境监测站,106.1087,30.8388,2025-01-22T1700,119,155,1.1,42,6,19,17,156,细颗粒物(PM2.5)
南充市,梨树横街98号,106.1083,30.7884,2025-01-22T1700,120,154,1.2,54,8,11,13,158,细颗粒物(PM2.5)
南京市,迈皋桥,118.8086,32.1065,2025-01-22T1700,75,119,0.8,79,14,102,102,100,细颗粒物(PM2.5)
南京市,草场门,118.7538,32.0551,2025-01-22T1700,90,,0.8,58,10,,89,119,细颗粒物(PM2.5)
南京市,山西路,118.7794,32.0745,2025-01-22T1700,95,134,0.7,67,7,101,102,125,细颗粒物(PM2.5)
南京市,中华门,118.7752,32.0023,2025-01-22T1700,88,132,,,,,99,117,细颗粒物(PM2.5)
南京市,瑞金路,118.8109,32.0309,2025-01-22T1700,90,134,0.6,51,4,88,97,119,细颗粒物(PM2.5)
南京市,玄武湖,118.7997,32.0754,2025-01-22T1700,94,123,0.9,38,10,88,95,124,细颗粒物(PM2.5)
南京市,浦口,118.6414,32.0931,2025-01-22T1700,101,143,0.9,44,9,101,93,133,细颗粒物(PM2.5)
南京市,奥体中心,118.7356,31.9996,2025-01-22T1700,,,,,,,116,,
南京市,仙林大学城,118.9125,32.1028,2025-01-22T1700,92,122,0.9,79,10,83,100,122,细颗粒物(PM2.5)
南京市,江宁彩虹桥,118.8436,31.9198,2025-01-22T1700,75,134,0.8,28,4,135,112,100,细颗粒物(PM2.5)
南京市,溧水永阳,119.0138,31.6494,2025-01-22T1700,112,,1.0,30,4,140,122,147,细颗粒物(PM2.5)
南京市,高淳老职中,118.879,31.3302,2025-01-22T1700,,,,,,,95,,
南京市,六合雄州,118.8554,32.3578,2025-01-22T1700,80,125,0.7,35,8,92,74,107,细颗粒物(PM2.5)
南宁市,二十一中,108.3103,22.7881,2025-01-22T1700,48,66,0.9,20,4,131,140,67,细颗粒物(PM2.5)
南宁市,北湖,108.3141,22.8528,2025-01-22T1700,38,79,0.8,17,6,120,115,65,颗粒物(PM10)
南宁市,市监测站,108.3206,22.8225,2025-01-22T1700,36,66,0.9,20,10,123,139,58,颗粒物(PM10)
南宁市,大自然花园,108.3829,22.8037,2025-01-22T1700,54,82,1.0,14,6,131,128,74,细颗粒物(PM2.5)
南宁市,仙葫,108.4394,22.7904,2025-01-22T1700,34,49,0.6,9,5,122,115,49,
南宁市,区农职院,108.2397,22.8467,2025-01-22T1700,39,71,0.8,21,8,124,126,61,颗粒物(PM10)
南宁市,英华嘉园,108.3275,22.735,2025-01-22T1700,40,58,0.9,14,9,125,123,57,细颗粒物(PM2.5)
南宁市,红星社区,108.4834,22.7618,2025-01-22T1700,25,32,0.7,10,9,127,116,40,
南宁市,乐贤路16号,108.2177,22.7774,2025-01-22T1700,45,76,0.9,20,5,122,118,63,"颗粒物(PM10),细颗粒物(PM2.5)"
南平市,茫荡山,118.0966,26.6761,2025-01-22T1700,,,,,,,,,
南平市,南平市监测站,118.1681,26.6369,2025-01-22T1700,45,68,1.0,30,5,79,86,63,细颗粒物(PM2.5)
南平市,南平铝业有限公司,118.1825,26.6489,2025-01-22T1700,43,60,0.9,41,6,70,89,60,细颗粒物(PM2.5)
南平市,南平七中,118.1756,26.6272,2025-01-22T1700,33,57,0.9,28,6,81,82,54,颗粒物(PM10)
南通市,狼山街道,120.9098,31.9663,2025-01-22T1700,16,38,0.4,13,6,96,86,38,
南通市,虹桥,120.86,32.0005,2025-01-22T1700,15,35,0.5,16,6,99,87,35,
南通市,城中,120.87,32.02,2025-01-22T1700,12,47,0.5,24,7,95,88,47,
南通市,星湖花园,120.94,31.93,2025-01-22T1700,15,31,0.4,17,6,92,85,31,
南通市,紫琅学院,120.81,32.0417,2025-01-22T1700,19,34,0.8,28,4,88,81,34,
南通市,通州监测站,121.067,32.062,2025-01-22T1700,14,36,0.5,19,4,92,99,36,
南通市,环境教育馆,120.9348,31.9883,2025-01-22T1700,16,31,0.3,31,6,103,85,33,
南阳市,瓦房庄,112.5224,33.0122,2025-01-22T1700,153,188,1.4,39,17,92,83,203,细颗粒物(PM2.5)
南阳市,汉画馆,112.5003,32.9735,2025-01-22T1700,136,185,1.2,44,15,91,81,180,细颗粒物(PM2.5)
南阳市,气象站,112.5573,33.027,2025-01-22T1700,151,219,1.4,41,18,96,85,201,细颗粒物(PM2.5)
南阳市,理工学院,112.5481,32.9689,2025-01-22T1700,145,190,1.3,49,18,,83,193,细颗粒物(PM2.5)
南阳市,卧龙区政府,112.5234,32.9922,2025-01-22T1700,149,203,1.3,50,17,90,80,199,细颗粒物(PM2.5)
宁波市,区环保大楼,121.8358,29.911,2025-01-22T1700,13,,0.7,16,6,85,93,27,
宁波市,万里学院,121.56,29.82,2025-01-22T1700,8,37,0.6,26,5,90,102,37,
宁波市,龙赛医院,121.713,29.9572,2025-01-22T1700,18,,0.4,17,9,86,104,27,
宁波市,钱湖水厂,121.633,29.7733,2025-01-22T1700,7,10,0.7,8,5,98,117,31,
宁波市,太古小学,121.5856,29.8635,2025-01-22T1700,9,18,0.6,10,7,88,99,28,
宁波市,市环境监测中心,121.524,29.8674,2025-01-22T1700,13,13,0.6,18,6,85,101,27,
宁波市,万里国际学校,121.6147,29.9017,2025-01-22T1700,7,31,0.5,14,6,95,112,31,
宁波市,白沙活动中心,121.5594,29.8975,2025-01-22T1700,14,30,0.5,9,6,93,107,30,
宁德市,金涵水库,119.5001,26.6946,2025-01-22T1700,,,,,,,,,
宁德市,宁德市监测站,119.5388,26.6612,2025-01-22T1700,71,115,0.8,27,5,38,74,95,细颗粒物(PM2.5)
宁德市,宁德一中,119.5231,26.6562,2025-01-22T1700,78,101,0.8,58,4,51,79,104,细颗粒物(PM2.5)
怒江傈僳族自治州,州监测站,98.8601,25.8567,2025-01-22T1700,15,29,0.5,4,5,93,65,30,
怒江傈僳族自治州,泸水一中,98.8546,25.8417,2025-01-22T1700,29,37,0.4,10,8,80,54,42,
攀枝花市,弄弄坪,101.6891,26.571,2025-01-22T1700,33,45,0.8,16,11,113,69,48,
攀枝花市,河门口,101.5769,26.5928,2025-01-22T1700,33,47,1.0,16,16,117,76,48,
攀枝花市,炳草岗,101.7169,26.585,2025-01-22T1700,28,47,0.8,11,19,124,75,47,
攀枝花市,仁和,101.7369,26.5008,2025-01-22T1700,30,43,0.6,10,16,111,78,43,
攀枝花市,四十中小,101.7227,26.567,2025-01-22T1700,41,68,0.9,16,18,119,64,59,颗粒物(PM10)
盘锦市,开发区,122.0303,41.1489,2025-01-22T1700,22,39,0.9,16,8,70,67,39,
盘锦市,兴隆台,122.0485,41.0883,2025-01-22T1700,22,32,0.6,23,11,62,64,32,
盘锦市,新生街道,121.8297,41.1028,2025-01-22T1700,14,19,0.5,16,9,66,63,21,
平顶山市,新华旅馆,113.3257,33.742,2025-01-22T1700,128,212,1.0,40,16,93,72,169,细颗粒物(PM2.5)
平顶山市,规划设计院,113.2919,33.737,2025-01-22T1700,140,225,1.0,34,16,96,78,186,细颗粒物(PM2.5)
平顶山市,平顶山工学院,113.182,33.774,2025-01-22T1700,136,251,1.1,,20,101,78,180,细颗粒物(PM2.5)
平顶山市,规划局,113.3025,33.73,2025-01-22T1700,,,1.4,36,15,97,76,,
平顶山市,石龙区,112.8867,33.9116,2025-01-22T1700,144,209,1.4,34,20,98,85,192,细颗粒物(PM2.5)
平凉市,聚贤嘉苑,106.6692,35.5461,2025-01-22T1700,,,0.9,26,20,135,96,,
平凉市,博物馆,106.7021,35.5307,2025-01-22T1700,47,91,0.8,37,22,142,97,71,颗粒物(PM10)
萍乡市,武功山,114.0997,27.5002,2025-01-22T1700,33,78,0.8,18,15,126,116,64,颗粒物(PM10)
萍乡市,中医院,113.8385,27.6434,2025-01-22T1700,33,60,0.9,22,10,120,93,55,颗粒物(PM10)
萍乡市,市政府车库,113.8493,27.6253,2025-01-22T1700,77,,0.7,17,20,127,114,103,细颗粒物(PM2.5)
萍乡市,市环保局,113.8676,27.6435,2025-01-22T1700,41,71,0.8,22,13,121,98,61,颗粒物(PM10)
萍乡市,安源区政府,113.866,27.6198,2025-01-22T1700,36,70,0.8,22,13,117,91,60,颗粒物(PM10)
莆田市,荔城区仓后路,119.0141,25.4325,2025-01-22T1700,23,24,0.7,16,1,84,114,33,
莆田市,莆田市监测站,119.0015,25.4553,2025-01-22T1700,20,42,0.3,17,4,84,124,42,
莆田市,涵江区六中,119.1119,25.4561,2025-01-22T1700,31,45,0.5,23,3,79,108,45,
莆田市,秀屿区政府,119.1013,25.3215,2025-01-22T1700,21,46,0.5,,,89,111,,
莆田市,东圳水库,118.981,25.4792,2025-01-22T1700,,,,,,,,,
濮阳市,环保局,115.0312,35.7636,2025-01-22T1700,54,57,0.8,33,8,51,52,74,细颗粒物(PM2.5)
濮阳市,油田运输公司,115.0574,35.7609,2025-01-22T1700,48,83,0.7,31,6,48,47,67,"颗粒物(PM10),细颗粒物(PM2.5)"
濮阳市,濮水河管理处,115,35.7668,2025-01-22T1700,46,91,0.9,28,8,53,51,71,颗粒物(PM10)
濮阳市,任丘路479号,115.0924,35.7686,2025-01-22T1700,55,96,0.9,25,9,54,49,75,细颗粒物(PM2.5)
普洱市,市环保局,100.98,22.7633,2025-01-22T1700,13,44,0.5,,6,87,73,,
普洱市,普洱第二中学,100.9817,22.8322,2025-01-22T1700,14,32,0.4,5,5,86,72,32,
七台河市,新一中,131.0518,45.8751,2025-01-22T1700,134,160,2.4,33,16,82,73,178,细颗粒物(PM2.5)
七台河市,中波台,131.0577,45.7879,2025-01-22T1700,141,148,1.4,44,10,61,59,188,细颗粒物(PM2.5)
七台河市,人民广场,131.0176,45.7761,2025-01-22T1700,144,202,,43,10,63,60,192,细颗粒物(PM2.5)
七台河市,新建矿广场,130.8781,45.8222,2025-01-22T1700,148,175,1.2,48,6,44,44,198,细颗粒物(PM2.5)
齐齐哈尔市,安居小区,123.9305,47.3636,2025-01-22T1700,36,52,0.5,26,10,55,59,52,细颗粒物(PM2.5)
齐齐哈尔市,中心广场,123.9488,47.3386,2025-01-22T1700,33,38,0.6,30,5,51,54,48,
齐齐哈尔市,农牧车辆厂,123.9483,47.3227,2025-01-22T1700,32,41,0.5,35,7,46,53,46,
齐齐哈尔市,市环境监测站,123.945,47.2988,2025-01-22T1700,33,56,0.5,44,4,41,51,53,颗粒物(PM10)
齐齐哈尔市,富区青少年活动中心,123.6333,47.2075,2025-01-22T1700,38,78,1.0,40,12,43,64,64,颗粒物(PM10)
黔东南苗族侗族自治州,市环境监测站,107.9783,26.5747,2025-01-22T1700,,,1.3,30,10,47,37,,
黔东南苗族侗族自治州,凯里学院,107.8908,26.5311,2025-01-22T1700,66,90,1.0,16,7,63,58,89,细颗粒物(PM2.5)
黔南布依族苗族自治州,小围寨,107.5228,26.2403,2025-01-22T1700,56,70,0.7,13,11,137,103,77,细颗粒物(PM2.5)
黔南布依族苗族自治州,沙坝,107.5175,26.2978,2025-01-22T1700,53,73,0.6,,8,119,83,,
黔西南布依族苗族自治州,场坝街,104.9022,25.0925,2025-01-22T1700,71,87,0.6,14,5,114,87,95,细颗粒物(PM2.5)
黔西南布依族苗族自治州,坪东大道,104.8811,25.0992,2025-01-22T1700,86,92,0.6,15,6,113,85,114,细颗粒物(PM2.5)
钦州市,市环保站,108.6236,21.9667,2025-01-22T1700,27,56,0.7,20,8,119,87,53,颗粒物(PM10)
钦州市,沙埠小学,108.6549,21.9481,2025-01-22T1700,35,45,0.9,16,8,132,96,50,
钦州市,港区一小,108.5989,21.7431,2025-01-22T1700,30,73,0.7,24,7,122,88,62,颗粒物(PM10)
钦州市,北职校,108.5959,21.9633,2025-01-22T1700,23,59,,21,,104,83,,
秦皇岛市,北戴河环保局,119.5134,39.8207,2025-01-22T1700,,,,,,,46,,
秦皇岛市,第一关,119.7493,40.0116,2025-01-22T1700,27,32,0.3,13,5,67,61,39,
秦皇岛市,监测站,119.5897,39.9499,2025-01-22T1700,,,,24,5,55,56,,
秦皇岛市,建设大厦,119.5251,39.9041,2025-01-22T1700,24,,0.3,19,6,62,59,35,
秦皇岛市,文明里,119.610547,39.943889,2025-01-22T1700,14,22,0.3,14,6,58,57,22,
青岛市,仰口,120.6659,36.2403,2025-01-22T1700,52,68,0.5,17,3,80,74,72,细颗粒物(PM2.5)
青岛市,市南区东部子站,120.4134,36.0658,2025-01-22T1700,34,63,0.8,21,10,76,71,57,颗粒物(PM10)
青岛市,四方区子站,120.3664,36.1032,2025-01-22T1700,,,,,,,49,,
青岛市,市南区西部子站,120.2994,36.054,2025-01-22T1700,32,44,0.7,17,6,81,72,46,
青岛市,崂山区子站,120.4581,36.0858,2025-01-22T1700,34,61,0.7,19,10,87,78,56,颗粒物(PM10)
青岛市,黄岛区子站,120.1983,35.9608,2025-01-22T1700,37,46,0.7,21,8,74,66,53,细颗粒物(PM2.5)
青岛市,城阳区子站,120.3999,36.3083,2025-01-22T1700,34,70,0.8,31,9,67,62,60,颗粒物(PM10)
青岛市,黄岛区4号,120.0405,35.8735,2025-01-22T1700,29,41,0.9,28,11,73,66,42,
青岛市,即墨2号,120.5014,36.4034,2025-01-22T1700,59,61,0.9,23,8,78,71,80,细颗粒物(PM2.5)
青岛市,市北区南部,120.3503,36.0736,2025-01-22T1700,34,56,0.7,19,8,73,66,53,颗粒物(PM10)
青岛市,李沧区北部,120.3948,36.1805,2025-01-22T1700,85,114,1.1,65,15,48,38,113,细颗粒物(PM2.5)
清远市,环保大楼,113.0426,23.691,2025-01-22T1700,32,48,0.8,18,4,165,118,57,臭氧1小时
清远市,凤城街办,113.0208,23.7106,2025-01-22T1700,32,52,0.8,22,8,145,113,51,颗粒物(PM10)
清远市,技师学院,113.0477,23.6344,2025-01-22T1700,40,68,0.6,23,7,151,107,59,颗粒物(PM10)
清远市,清新太和,112.9903,23.7403,2025-01-22T1700,32,54,0.6,20,9,156,109,52,颗粒物(PM10)
清远市,清城东城,113.076,23.7198,2025-01-22T1700,32,51,1.1,21,10,154,116,51,颗粒物(PM10)
庆阳市,庆阳五中,107.6325,35.7357,2025-01-22T1700,80,99,1.0,20,9,139,102,107,细颗粒物(PM2.5)
庆阳市,市环保局,107.6364,35.7067,2025-01-22T1700,72,92,0.8,20,8,143,109,97,细颗粒物(PM2.5)
曲靖市,环境监测站,103.7897,25.5035,2025-01-22T1700,23,32,0.6,15,6,109,84,35,
曲靖市,烟厂办公区,103.8,25.5364,2025-01-22T1700,15,21,0.2,9,4,101,78,32,
曲靖市,南苑二区,103.7947,25.462,2025-01-22T1700,20,25,0.4,10,4,111,89,35,
曲靖市,曲靖师范学院,103.7444,25.5261,2025-01-22T1700,16,31,0.2,10,6,118,88,37,
衢州市,环保大楼,118.8692,28.9398,2025-01-22T1700,55,83,1.3,,8,101,105,,
衢州市,实验学校,118.8709,28.9666,2025-01-22T1700,45,58,0.8,39,8,106,101,63,细颗粒物(PM2.5)
衢州市,衢州学院,118.8621,28.9808,2025-01-22T1700,41,58,0.6,37,7,110,102,58,细颗粒物(PM2.5)
泉州市,涂山街,118.5819,24.9117,2025-01-22T1700,37,48,0.8,23,4,90,112,53,细颗粒物(PM2.5)
泉州市,津头埔,118.5972,24.8978,2025-01-22T1700,42,92,0.7,25,1,84,105,71,颗粒物(PM10)
泉州市,万安,118.6663,24.9424,2025-01-22T1700,37,52,0.7,20,3,102,117,53,细颗粒物(PM2.5)
泉州市,清源山,118.6117,24.9604,2025-01-22T1700,,,,,,,,,
泉州市,城华南路,118.6333,24.9264,2025-01-22T1700,39,62,0.5,30,3,84,112,56,颗粒物(PM10)
日喀则市,日喀则监测站,88.8876,29.2718,2025-01-22T1700,,15,0.5,4,5,108,79,,
日喀则市,林业技术推广中心,88.8781,29.2426,2025-01-22T1700,3,10,0.3,3,6,96,74,30,
日照市,监测站,119.471,35.4209,2025-01-22T1700,37,63,0.6,23,7,78,73,57,颗粒物(PM10)
日照市,市政府广场,119.523,35.4216,2025-01-22T1700,33,56,0.6,21,4,86,77,53,颗粒物(PM10)
日照市,港务局,119.5587,35.4044,2025-01-22T1700,36,58,0.6,36,6,86,77,54,颗粒物(PM10)
日照市,职业技术学院,119.5328,35.4625,2025-01-22T1700,27,56,0.7,21,5,81,73,53,颗粒物(PM10)
日照市,岚山环保分局,119.3266,35.1044,2025-01-22T1700,55,80,0.9,23,5,88,85,75,细颗粒物(PM2.5)
三门峡市,市政府,111.1922,34.7752,2025-01-22T1700,170,,1.4,40,20,125,100,220,细颗粒物(PM2.5)
三门峡市,开发区,111.1587,34.7942,2025-01-22T1700,181,229,1.4,38,14,129,97,231,细颗粒物(PM2.5)
三门峡市,风景区,111.143,34.7955,2025-01-22T1700,153,184,1.4,36,19,129,98,203,细颗粒物(PM2.5)
三门峡市,三门峡市第一小学,111.1911,34.7829,2025-01-22T1700,165,186,1.3,36,19,123,95,215,细颗粒物(PM2.5)
三门峡市,富达温泉假日酒店,111.1,34.7167,2025-01-22T1700,170,209,1.4,58,19,121,84,220,细颗粒物(PM2.5)
三明市,三钢,117.6211,26.2625,2025-01-22T1700,34,47,0.7,37,7,80,101,49,
三明市,三明二中,117.635,26.2714,2025-01-22T1700,31,46,1.0,35,7,73,94,46,
三明市,三元区政府,117.6028,26.2378,2025-01-22T1700,40,63,1.2,47,9,58,92,57,"颗粒物(PM10),细颗粒物(PM2.5)"
三明市,洋溪,117.7275,26.3108,2025-01-22T1700,,,,,,,,,
三亚市,河东子站,109.5078,18.2489,2025-01-22T1700,16,38,0.4,6,1,128,113,40,
三亚市,河西子站,109.4964,18.2681,2025-01-22T1700,15,28,0.5,10,2,121,107,38,
三亚市,君悦子站,109.7348,18.3443,2025-01-22T1700,17,32,0.6,6,3,125,116,40,
山南市,山南监测站,91.7608,29.2313,2025-01-22T1700,9,60,0.3,2,4,99,72,55,颗粒物(PM10)
山南市,山南人民医院,91.7706,29.2436,2025-01-22T1700,11,96,0.3,1,2,92,65,73,颗粒物(PM10)
汕头市,金平子站,116.6794,23.3667,2025-01-22T1700,19,28,1.0,19,4,106,118,34,
汕头市,龙湖子站,116.7244,23.3633,2025-01-22T1700,22,32,0.7,12,4,102,112,32,
汕头市,濠江子站,116.7258,23.2775,2025-01-22T1700,25,31,0.8,12,4,102,113,36,
汕头市,澄海子站,116.7519,23.4714,2025-01-22T1700,30,46,1.0,21,12,101,112,46,
汕头市,潮阳子站,116.6092,23.2539,2025-01-22T1700,18,43,0.6,12,7,108,114,43,
汕头市,潮南峡山,116.454,23.2684,2025-01-22T1700,20,27,,,9,66,108,,
汕头市,潮南子站,116.4069,23.2533,2025-01-22T1700,21,36,0.9,18,8,104,110,36,
汕尾市,市环保局,115.3653,22.775,2025-01-22T1700,21,30,0.8,11,7,101,123,32,
汕尾市,市政府,115.3706,22.7898,2025-01-22T1700,25,31,0.7,10,9,96,115,36,
汕尾市,新城中学,115.3622,22.7925,2025-01-22T1700,22,36,0.4,8,7,100,120,36,
商洛市,监测站,109.9154,33.8715,2025-01-22T1700,82,100,1.0,34,8,128,111,109,细颗粒物(PM2.5)
商洛市,商州区中学,109.9643,33.8471,2025-01-22T1700,79,120,0.9,31,8,123,102,105,细颗粒物(PM2.5)
商丘市,环境监测站,115.6702,34.4285,2025-01-22T1700,166,210,1.0,49,12,62,58,216,细颗粒物(PM2.5)
商丘市,粮食局,115.6458,34.4045,2025-01-22T1700,154,197,1.4,47,,76,63,204,细颗粒物(PM2.5)
商丘市,睢阳区环保局,115.6293,34.3948,2025-01-22T1700,170,207,1.3,44,10,76,68,220,细颗粒物(PM2.5)
商丘市,梁园区档案局,115.6071,34.4465,2025-01-22T1700,174,189,1.1,39,13,73,67,224,细颗粒物(PM2.5)
上海市,普陀,121.4,31.238,2025-01-22T1700,9,20,0.6,29,6,94,98,30,
上海市,十五厂,121.478,31.2036,2025-01-22T1700,14,21,0.5,28,7,93,98,30,
上海市,虹口,121.467,31.3008,2025-01-22T1700,12,16,0.5,26,7,107,106,34,
上海市,静安监测站,121.425,31.2261,2025-01-22T1700,16,20,0.4,27,9,98,102,31,
上海市,浦东川沙,121.703,31.1907,2025-01-22T1700,9,19,0.3,30,6,88,101,28,
上海市,浦东新区监测站,121.533,31.2284,2025-01-22T1700,12,15,0.5,25,6,101,103,32,
上海市,浦东张江,121.577,31.2071,2025-01-22T1700,,16,0.8,17,6,101,103,,
上海市,宝山庙行,121.4316,31.3322,2025-01-22T1700,13,23,0.3,22,8,108,106,34,
上海市,崇明上实东滩,121.8791,31.4662,2025-01-22T1700,10,16,0.6,40,8,72,77,23,
上海市,嘉定南翔,121.3162,31.2838,2025-01-22T1700,14,20,0.3,32,7,95,100,30,
上海市,金山新城,121.3359,30.7456,2025-01-22T1700,11,,0.6,24,5,94,102,30,
上海市,闵行浦江,121.4996,31.0739,2025-01-22T1700,12,16,0.1,30,5,88,102,28,
上海市,青浦徐泾,121.2886,31.1663,2025-01-22T1700,15,16,0.3,17,10,108,112,34,
上海市,松江图书馆,121.2186,31.0378,2025-01-22T1700,,15,0.5,21,8,96,108,,
上海市,长宁仙霞,121.3902,31.2059,2025-01-22T1700,10,20,0.3,30,8,98,104,31,
上海市,浦东惠南,121.7965,31.0507,2025-01-22T1700,7,17,0.4,20,6,94,101,30,
上海市,奉贤南桥新城,121.4891,30.925,2025-01-22T1700,11,12,0.4,28,6,91,100,29,
上海市,冠生园路458号,121.4174,31.16637,2025-01-22T1700,15,16,0.0,23,6,82,85,26,
上海市,宁武路151号,121.5419,31.2683,2025-01-22T1700,13,27,0.2,24,5,94,98,30,
上饶市,百草园,118.005,28.4572,2025-01-22T1700,30,42,1.0,7,5,112,105,43,
上饶市,市监测站,117.9756,28.4436,2025-01-22T1700,30,52,0.7,17,7,112,105,51,颗粒物(PM10)
上饶市,凤凰光学,117.9519,28.4628,2025-01-22T1700,24,40,0.8,16,8,111,105,40,
上饶市,双创科技城,117.897,28.4315,2025-01-22T1700,22,41,0.7,22,6,109,111,41,
上饶市,裕丰大道,118.1904,28.4448,2025-01-22T1700,30,66,0.7,28,6,108,103,58,颗粒物(PM10)
韶关市,市八中,113.5824,24.7733,2025-01-22T1700,24,41,0.5,,8,142,114,,
韶关市,园林处,113.5917,24.7972,2025-01-22T1700,37,44,0.6,22,11,154,98,53,细颗粒物(PM2.5)
韶关市,韶关学院,113.6735,24.7791,2025-01-22T1700,37,58,0.9,19,17,137,86,54,颗粒物(PM10)
韶关市,曲江监测站,113.5971,24.6863,2025-01-22T1700,31,50,0.6,18,13,121,90,50,
韶关市,碧湖山庄,113.5556,24.8082,2025-01-22T1700,35,59,0.8,17,13,134,90,55,颗粒物(PM10)
邵阳市,市水土所,111.5239,27.3033,2025-01-22T1700,,,,,,,,,
邵阳市,市化工厂,111.5283,27.2442,2025-01-22T1700,69,100,0.8,26,14,124,98,93,细颗粒物(PM2.5)
邵阳市,市环保局,111.4328,27.2272,2025-01-22T1700,71,91,1.0,20,14,134,104,95,细颗粒物(PM2.5)
邵阳市,邵阳卫生学校,111.4399,27.2495,2025-01-22T1700,71,84,1.0,61,14,86,100,95,细颗粒物(PM2.5)
邵阳市,邵阳市第二中学图书馆,111.4684,27.2316,2025-01-22T1700,74,89,1.0,30,13,117,96,99,细颗粒物(PM2.5)
绍兴市,城东开发委,120.6053,29.9928,2025-01-22T1700,41,67,0.8,35,7,102,112,59,颗粒物(PM10)
绍兴市,树下王站,120.5483,30.0003,2025-01-22T1700,50,63,0.7,,7,110,118,,
绍兴市,绍兴中专,120.5683,29.9361,2025-01-22T1700,38,64,0.7,28,8,117,113,57,颗粒物(PM10)
绍兴市,柯桥区政府,120.4906,30.0861,2025-01-22T1700,40,60,0.9,28,8,106,110,57,细颗粒物(PM2.5)
绍兴市,重华小学,120.8752,30.0249,2025-01-22T1700,29,36,0.8,21,10,104,115,42,
绍兴市,上虞中学,120.8369,30.0137,2025-01-22T1700,40,,0.7,19,8,112,117,57,细颗粒物(PM2.5)
绍兴市,柯桥妇保,120.4722,30.0415,2025-01-22T1700,37,54,0.8,24,7,113,109,53,细颗粒物(PM2.5)
绍兴市,袍江中学,120.6153,30.0764,2025-01-22T1700,58,81,0.7,33,3,98,104,79,细颗粒物(PM2.5)
深圳市,通心岭子站,114.1063,22.5545,2025-01-22T1700,20,35,0.6,32,6,91,107,35,
深圳市,洪湖,114.117,22.5625,2025-01-22T1700,24,37,0.6,31,6,96,98,37,
深圳市,华侨城,113.987,22.5417,2025-01-22T1700,26,46,0.7,46,5,81,108,46,
深圳市,南海子站,113.9181,22.5171,2025-01-22T1700,32,52,0.7,40,6,88,106,51,颗粒物(PM10)
深圳市,盐田,114.2458,22.5689,2025-01-22T1700,29,53,0.7,25,6,68,82,52,颗粒物(PM10)
深圳市,龙岗,114.2283,22.7244,2025-01-22T1700,,,0.5,12,7,103,104,,
深圳市,南澳,114.494,22.5422,2025-01-22T1700,20,28,0.6,7,7,125,140,40,
深圳市,葵涌,114.41,22.6342,2025-01-22T1700,27,41,0.7,19,4,91,107,41,
深圳市,梅沙,114.297,22.5978,2025-01-22T1700,,,,9,6,86,125,,
深圳市,观澜,114.0678,22.738,2025-01-22T1700,18,31,0.7,15,6,95,106,31,
深圳市,莲花,114.0731,22.559,2025-01-22T1700,25,38,0.7,29,4,96,100,38,
深圳市,民治,114.0261,22.6198,2025-01-22T1700,30,44,0.7,31,6,91,109,44,
深圳市,横岗,114.1871,22.6451,2025-01-22T1700,27,45,0.7,20,7,111,108,45,
深圳市,坪山,114.3551,22.7151,2025-01-22T1700,29,48,0.7,27,4,85,113,48,
深圳市,西乡,113.8953,22.5861,2025-01-22T1700,18,40,0.6,25,7,71,91,40,
沈阳市,森林路,123.6836,41.9339,2025-01-22T1700,,,,,,,,,
沈阳市,浑南东路,123.505,41.7406,2025-01-22T1700,42,59,0.6,28,12,59,40,59,细颗粒物(PM2.5)
沈阳市,新秀街,123.4231,41.6989,2025-01-22T1700,34,56,0.8,26,14,47,45,53,颗粒物(PM10)
沈阳市,东陵路,123.5903,41.8411,2025-01-22T1700,41,53,0.8,29,10,54,41,58,细颗粒物(PM2.5)
沈阳市,陵东街,123.4264,41.8467,2025-01-22T1700,43,63,0.9,22,10,64,50,60,细颗粒物(PM2.5)
沈阳市,文化路,123.4114,41.7653,2025-01-22T1700,40,62,0.8,29,12,59,52,57,细颗粒物(PM2.5)
沈阳市,小河沿,123.4678,41.7867,2025-01-22T1700,35,58,0.9,26,9,59,41,54,颗粒物(PM10)
沈阳市,太原街,123.4017,41.7972,2025-01-22T1700,52,78,0.7,38,12,51,48,72,细颗粒物(PM2.5)
沈阳市,京沈街,123.3783,41.9228,2025-01-22T1700,62,77,0.6,24,13,58,53,84,细颗粒物(PM2.5)
沈阳市,沈辽西路,123.2444,41.7347,2025-01-22T1700,63,115,0.9,34,15,58,49,85,细颗粒物(PM2.5)
沈阳市,裕农路,123.5953,41.9086,2025-01-22T1700,40,56,0.7,28,9,59,52,57,细颗粒物(PM2.5)
十堰市,武当山,111.0419,32.395,2025-01-22T1700,90,136,1.0,25,16,155,141,119,细颗粒物(PM2.5)
十堰市,滨河新村,110.78,32.6494,2025-01-22T1700,146,161,1.1,39,12,121,83,195,细颗粒物(PM2.5)
十堰市,刘家沟,110.7258,32.6389,2025-01-22T1700,157,190,1.2,40,13,100,78,207,细颗粒物(PM2.5)
十堰市,铁二处,110.8839,32.5714,2025-01-22T1700,173,,1.2,32,13,118,86,223,细颗粒物(PM2.5)
十堰市,郧阳区金沙路,110.8054,32.8401,2025-01-22T1700,168,,1.3,39,6,83,66,218,细颗粒物(PM2.5)
石河子市,艾青诗歌馆,86.0497,44.2967,2025-01-22T1700,115,196,1.3,30,11,86,57,150,细颗粒物(PM2.5)
石河子市,南区管委会,86.047,44.2331,2025-01-22T1700,134,187,1.6,28,5,96,71,178,细颗粒物(PM2.5)
石河子市,世纪广场,86.0791,44.3017,2025-01-22T1700,,,1.1,37,7,86,60,,
石家庄市,职工医院,114.4422,38.0444,2025-01-22T1700,38,62,0.6,24,7,65,55,56,颗粒物(PM10)
石家庄市,高新区,114.6063,38.0266,2025-01-22T1700,37,75,0.6,24,7,76,62,63,颗粒物(PM10)
石家庄市,西北水源,114.4898,38.1328,2025-01-22T1700,36,56,0.6,16,7,71,54,53,颗粒物(PM10)
石家庄市,西南高教,114.4586,38.0058,2025-01-22T1700,39,51,0.4,22,7,77,61,55,细颗粒物(PM2.5)
石家庄市,世纪公园,114.5331,38.0178,2025-01-22T1700,36,44,0.6,18,8,72,62,52,细颗粒物(PM2.5)
石家庄市,人民会堂,114.509,38.0457,2025-01-22T1700,45,72,0.6,15,8,73,59,63,细颗粒物(PM2.5)
石家庄市,封龙山,114.3524,37.8911,2025-01-22T1700,34,49,1.0,30,16,81,78,49,
石家庄市,22中南校区,114.5481,38.0378,2025-01-22T1700,38,58,0.6,19,9,68,58,54,"颗粒物(PM10),细颗粒物(PM2.5)"
石家庄市,鹿泉一中,114.289,38.0906,2025-01-22T1700,43,73,0.6,28,8,74,59,62,颗粒物(PM10)
石家庄市,藁城区实验学校,114.8506765,38.0322033,2025-01-22T1700,33,44,0.6,25,7,67,58,48,
石家庄市,井陉矿区区委大楼,114.0504658,38.0591645,2025-01-22T1700,30,74,0.6,41,13,62,47,62,颗粒物(PM10)
石家庄市,栾城区星河路,114.6549,37.9020,2025-01-22T1700,31,47,0.8,16,7,75,67,47,
石嘴山市,沙湖旅游区,106.3394,38.817,2025-01-22T1700,,,,,,,,,
石嘴山市,大武口朝阳西街,106.3668,39.0145,2025-01-22T1700,66,86,2.0,36,62,74,50,89,细颗粒物(PM2.5)
石嘴山市,惠农南大街,106.7704,39.2282,2025-01-22T1700,63,112,1.8,41,89,69,42,85,细颗粒物(PM2.5)
石嘴山市,红果子镇惠新街,106.7099,39.1325,2025-01-22T1700,101,168,,45,82,,46,133,细颗粒物(PM2.5)
石嘴山市,妇女儿童医院,106.3495,38.9836,2025-01-22T1700,65,94,1.9,42,59,73,47,88,细颗粒物(PM2.5)
石嘴山市,石大公路,106.7492,39.2069,2025-01-22T1700,,110,1.7,45,95,85,50,,
双鸭山市,双合村,131.1511,46.6937,2025-01-22T1700,116,145,1.1,47,23,42,44,152,细颗粒物(PM2.5)
双鸭山市,南小市,131.1652,46.6191,2025-01-22T1700,114,156,1.1,53,16,51,33,149,细颗粒物(PM2.5)
双鸭山市,环保局,131.1524,46.6554,2025-01-22T1700,82,93,1.1,53,17,40,38,109,细颗粒物(PM2.5)
双鸭山市,苗圃,131.12,46.5656,2025-01-22T1700,131,,1.0,26,9,95,89,173,细颗粒物(PM2.5)
朔州市,平朔,112.4397,39.3522,2025-01-22T1700,51,88,0.9,28,19,53,47,70,细颗粒物(PM2.5)
朔州市,朔唯,112.4575,39.3617,2025-01-22T1700,58,87,0.9,33,21,55,48,79,细颗粒物(PM2.5)
朔州市,区政府,112.4258,39.3197,2025-01-22T1700,48,75,0.9,30,26,51,39,67,细颗粒物(PM2.5)
朔州市,市环保局,112.4072,39.3278,2025-01-22T1700,52,96,1.0,34,28,49,40,73,颗粒物(PM10)
朔州市,市二中,112.4272,39.3681,2025-01-22T1700,49,82,0.8,31,20,54,41,68,细颗粒物(PM2.5)
朔州市,一水厂,112.2931,39.53,2025-01-22T1700,63,143,0.9,52,33,45,40,97,颗粒物(PM10)
四平市,一商场,124.4002,43.1713,2025-01-22T1700,27,55,0.5,23,5,67,66,53,颗粒物(PM10)
四平市,境园,124.388,43.193,2025-01-22T1700,43,,0.4,18,2,68,62,60,细颗粒物(PM2.5)
四平市,植物园,124.4036,43.1411,2025-01-22T1700,34,50,0.4,,5,70,68,,
四平市,世纪城,124.3419,43.1666,2025-01-22T1700,31,48,0.3,10,6,80,71,48,
松原市,江南,124.8006,45.1214,2025-01-22T1700,67,68,0.2,24,7,66,69,90,细颗粒物(PM2.5)
松原市,江北,124.7965,45.1722,2025-01-22T1700,51,72,0.0,18,4,69,70,70,细颗粒物(PM2.5)
苏州市,上方山,120.561,31.2472,2025-01-22T1700,,,,,,,,,
苏州市,彩香,120.591,31.3019,2025-01-22T1700,21,36,0.5,13,10,115,121,36,
苏州市,轧钢厂,120.596,31.3264,2025-01-22T1700,22,36,0.6,18,7,111,116,36,
苏州市,吴中区,120.613,31.2703,2025-01-22T1700,20,33,0.5,,,110,116,,
苏州市,苏州新区,120.543,31.2994,2025-01-22T1700,22,34,0.6,27,9,119,128,38,
苏州市,苏州工业园区,120.669,31.3097,2025-01-22T1700,19,29,0.5,17,9,104,104,33,
苏州市,相城区,120.641,31.3708,2025-01-22T1700,16,32,0.5,21,9,108,88,34,
苏州市,方洲路,120.743,31.3188,2025-01-22T1700,,,0.5,19,7,118,116,,
苏州市,木渎中学,120.5031,31.2774,2025-01-22T1700,22,36,0.6,29,9,117,123,37,
苏州市,越秀幼儿园,120.624,31.1733,2025-01-22T1700,21,46,0.7,17,7,116,123,46,
苏州市,高铁新城,120.6505,31.416,2025-01-22T1700,16,29,0.6,26,9,106,109,34,
宿迁市,宿迁学院,118.293,33.9528,2025-01-22T1700,42,65,0.8,14,6,120,102,59,细颗粒物(PM2.5)
宿迁市,宿迁中学,118.2442,33.9592,2025-01-22T1700,44,62,0.6,18,7,117,99,62,细颗粒物(PM2.5)
宿迁市,市供电局,118.283,33.965,2025-01-22T1700,44,84,0.7,,3,120,101,,
宿迁市,宿豫区政府,118.3225,33.9447,2025-01-22T1700,40,,0.6,14,5,121,101,57,细颗粒物(PM2.5)
宿州市,远航博物馆,116.9509,33.666,2025-01-22T1700,70,97,0.3,23,6,120,100,94,细颗粒物(PM2.5)
宿州市,社会福利中心,116.9708,33.591,2025-01-22T1700,69,104,0.6,30,9,119,98,93,细颗粒物(PM2.5)
宿州市,宿州学院,116.9884,33.6305,2025-01-22T1700,64,99,,17,7,114,91,,
宿州市,皖北煤电集团,116.9648,33.6252,2025-01-22T1700,77,107,0.9,25,8,120,101,103,细颗粒物(PM2.5)
绥化市,人和东街,126.9785,46.6365,2025-01-22T1700,150,,0.8,32,7,72,69,200,细颗粒物(PM2.5)
绥化市,党政办公中心,126.964,46.6528,2025-01-22T1700,88,102,,,8,63,58,117,细颗粒物(PM2.5)
随州市,市委党校,113.3583,31.7275,2025-01-22T1700,128,162,1.2,37,14,118,83,169,细颗粒物(PM2.5)
随州市,市林业局,113.3833,31.6908,2025-01-22T1700,,,1.1,35,14,108,76,,
随州市,市立交桥水厂,113.3983,31.7308,2025-01-22T1700,117,155,1.1,50,16,96,73,153,细颗粒物(PM2.5)
遂宁市,石溪浩,105.5453,30.5678,2025-01-22T1700,99,136,1.4,,4,4,8,130,细颗粒物(PM2.5)
遂宁市,市监测站,105.5582,30.5232,2025-01-22T1700,134,174,1.2,72,6,6,14,178,细颗粒物(PM2.5)
遂宁市,行政中心,105.5861,30.5366,2025-01-22T1700,,,0.9,,10,5,12,,
遂宁市,美宁食品公司,105.5918,30.4728,2025-01-22T1700,122,170,1.0,42,8,38,13,160,细颗粒物(PM2.5)
塔城地区,东门外小游园,82.9994,46.7432,2025-01-22T1700,13,31,0.3,27,4,44,56,31,
台州市,黄岩环保大楼,121.273,28.6459,2025-01-22T1700,,,0.6,,4,79,97,,
台州市,台州环保大楼,121.419,28.6542,2025-01-22T1700,46,61,0.5,39,6,70,85,64,细颗粒物(PM2.5)
台州市,路桥田洋王,121.377,28.5773,2025-01-22T1700,44,62,0.6,25,5,77,78,62,细颗粒物(PM2.5)
台州市,台州科技职业学院,121.2568,28.6681,2025-01-22T1700,20,30,0.5,18,5,82,82,30,
太原市,尖草坪,112.522,37.8873,2025-01-22T1700,63,95,1.1,41,,77,62,,
太原市,上兰,112.434,38.0108,2025-01-22T1700,60,82,1.1,39,17,73,66,82,细颗粒物(PM2.5)
太原市,晋源,112.469,37.7124,2025-01-22T1700,65,79,0.9,36,18,76,66,88,细颗粒物(PM2.5)
太原市,小店,112.5583,37.7394,2025-01-22T1700,62,104,0.9,45,18,78,64,84,细颗粒物(PM2.5)
太原市,桃园,112.5369,37.8692,2025-01-22T1700,66,96,1.1,44,18,80,61,89,细颗粒物(PM2.5)
太原市,坞城,112.57,37.8195,2025-01-22T1700,69,104,0.8,44,19,80,65,93,细颗粒物(PM2.5)
太原市,南寨,112.549,37.9854,2025-01-22T1700,57,91,1.5,47,25,66,65,78,细颗粒物(PM2.5)
太原市,金胜,112.4719,37.7831,2025-01-22T1700,56,98,1.0,37,20,82,72,77,细颗粒物(PM2.5)
太原市,育英中学,112.5608,37.8807,2025-01-22T1700,61,94,1.0,41,22,80,66,83,细颗粒物(PM2.5)
泰安市,监测站,117.1437,36.1937,2025-01-22T1700,128,178,1.4,35,19,131,105,169,细颗粒物(PM2.5)
泰安市,人口学校,117.0885,36.2017,2025-01-22T1700,124,185,1.2,62,19,49,90,163,细颗粒物(PM2.5)
泰安市,电力学校,117.1089,36.1758,2025-01-22T1700,133,178,1.5,55,,97,102,176,细颗粒物(PM2.5)
泰安市,国网新校,117.1812,36.2275,2025-01-22T1700,132,166,1.5,79,30,140,110,175,细颗粒物(PM2.5)
泰安市,交通技校,117.0313,36.2018,2025-01-22T1700,119,171,1.4,71,16,45,82,156,细颗粒物(PM2.5)
泰安市,山东第一医科大学,117.0829,36.13,2025-01-22T1700,142,173,1.3,47,18,120,105,189,细颗粒物(PM2.5)
泰州市,公园路,119.905,32.4878,2025-01-22T1700,51,70,0.8,45,13,90,87,70,细颗粒物(PM2.5)
泰州市,莲花,119.9189,32.4625,2025-01-22T1700,51,71,1.0,48,12,91,88,70,细颗粒物(PM2.5)
泰州市,留学生创业园,119.888,32.4639,2025-01-22T1700,59,80,1.2,47,11,99,93,80,细颗粒物(PM2.5)
泰州市,王营,119.8767,32.3289,2025-01-22T1700,58,81,1.3,52,11,78,68,79,细颗粒物(PM2.5)
泰州市,姜堰区政府广场,120.1259,32.5099,2025-01-22T1700,29,46,0.6,28,7,98,100,46,
泰州市,周山河街区,119.9192,32.4322,2025-01-22T1700,51,80,,,,,78,,
唐山市,雷达站,118.131,39.6363,2025-01-22T1700,30,54,0.7,24,12,71,62,52,颗粒物(PM10)
唐山市,物资局,118.1725,39.6334,2025-01-22T1700,26,62,0.8,28,13,62,55,56,颗粒物(PM10)
唐山市,十二中,118.1705,39.6506,2025-01-22T1700,25,46,0.8,24,11,63,51,46,
唐山市,小山,118.1869,39.622,2025-01-22T1700,34,56,0.7,26,13,67,61,53,颗粒物(PM10)
唐山市,冀东油田职工医院,118.4359,39.2762,2025-01-22T1700,30,34,0.4,19,12,63,55,43,
唐山市,正泰大街热力站,118.09279,39.58089,2025-01-22T1700,30,48,0.4,22,10,68,60,48,
唐山市,丰润区政府,118.1562,39.8322,2025-01-22T1700,35,62,1.1,32,16,60,54,56,颗粒物(PM10)
唐山市,金山小学,118.43673,39.73809,2025-01-22T1700,27,56,0.5,19,9,60,57,53,颗粒物(PM10)
唐山市,政府服务中心,118.24498,39.66941,2025-01-22T1700,36,51,0.5,17,9,73,60,52,细颗粒物(PM2.5)
唐山市,消防缸窑路中队,118.2059,39.6585,2025-01-22T1700,20,58,0.4,,9,72,56,,
唐山市,路南电大,118.1436,39.6202,2025-01-22T1700,26,85,0.6,21,11,59,36,68,颗粒物(PM10)
天津市,勤俭道,117.1444,39.1661,2025-01-22T1700,29,50,1.0,35,11,48,47,50,
天津市,前进道,117.202,39.0927,2025-01-22T1700,28,53,,36,12,,34,,
天津市,淮河道,117.1837,39.2133,2025-01-22T1700,27,51,0.8,34,11,50,48,51,颗粒物(PM10)
天津市,跃进路,117.307,39.0877,2025-01-22T1700,39,49,1.7,34,11,49,,55,细颗粒物(PM2.5)
天津市,第四大街,117.707,39.0343,2025-01-22T1700,36,58,0.7,42,7,40,43,54,颗粒物(PM10)
天津市,永明路,117.457,38.8394,2025-01-22T1700,31,48,0.5,26,7,56,51,48,
天津市,汉北路,117.764,39.1587,2025-01-22T1700,35,60,0.4,24,7,55,50,55,颗粒物(PM10)
天津市,团泊洼,117.157,38.9194,2025-01-22T1700,,,,,,,,,
天津市,河西一经路,117.7918,39.2474,2025-01-22T1700,39,67,0.5,21,8,58,56,59,颗粒物(PM10)
天津市,津沽路,117.3747,38.9846,2025-01-22T1700,37,51,0.6,21,5,64,52,53,细颗粒物(PM2.5)
天津市,宾水西道,117.1589,39.0845,2025-01-22T1700,27,42,1.0,36,10,43,41,42,
天津市,大理道,117.1941,39.1067,2025-01-22T1700,26,47,0.8,38,11,51,49,47,
天津市,中山北路,117.2101,39.1699,2025-01-22T1700,24,47,0.7,44,9,48,47,47,
天津市,西四道,117.3876,39.1488,2025-01-22T1700,28,53,0.9,40,12,48,49,52,颗粒物(PM10)
天津市,雍阳西道,117.0365,39.3828,2025-01-22T1700,32,58,0.6,34,14,64,60,54,颗粒物(PM10)
天津市,辛老路,117.0296,39.0605,2025-01-22T1700,28,50,0.5,26,6,61,51,50,
天津市,地纬路,116.9638,38.9375,2025-01-22T1700,29,43,0.3,23,9,62,48,43,
天津市,北环路,117.4067,40.0583,2025-01-22T1700,51,77,1.2,29,14,73,64,70,细颗粒物(PM2.5)
天津市,建设路,117.3045,39.7169,2025-01-22T1700,42,71,1.4,33,19,61,54,61,颗粒物(PM10)
天津市,滨水东路,117.8199,39.3521,2025-01-22T1700,40,62,0.5,24,11,46,33,57,细颗粒物(PM2.5)
天津市,光华路,117.2437,39.1029,2025-01-22T1700,27,39,1.1,30,12,46,41,39,
天水市,麦积山,106.0055,34.343,2025-01-22T1700,,,,,,,,,
天水市,公园小学,105.7205,34.5786,2025-01-22T1700,43,63,0.9,36,20,78,51,60,细颗粒物(PM2.5)
天水市,麦积国土局,105.8945,34.5538,2025-01-22T1700,52,80,1.0,28,17,88,59,72,细颗粒物(PM2.5)
铁岭市,汇工街西,123.8139,42.3022,2025-01-22T1700,70,93,0.8,19,11,65,54,94,细颗粒物(PM2.5)
铁岭市,水上乐园,123.8649,42.2923,2025-01-22T1700,61,82,0.7,22,20,72,54,83,细颗粒物(PM2.5)
铁岭市,银州路东段,123.8486,42.2867,2025-01-22T1700,67,102,0.9,36,10,57,54,90,细颗粒物(PM2.5)
铁岭市,金沙江路北,123.7153,42.2217,2025-01-22T1700,101,132,1.1,37,9,55,46,133,细颗粒物(PM2.5)
通化市,光明,125.9358,41.7173,2025-01-22T1700,15,27,0.4,14,10,70,50,27,
通化市,铁路,125.9446,41.7325,2025-01-22T1700,16,27,0.4,14,8,75,56,27,
通辽市,艺术职业学校,122.2532,43.6801,2025-01-22T1700,34,40,0.3,15,12,61,56,49,
通辽市,老干部活动中心,122.2584,43.6333,2025-01-22T1700,42,52,0.4,16,10,64,56,59,细颗粒物(PM2.5)
通辽市,东方明珠社区,122.2922,43.6189,2025-01-22T1700,46,58,0.4,24,12,58,47,64,细颗粒物(PM2.5)
铜川市,党校,109.0656,35.0994,2025-01-22T1700,,,,,,,,,
铜川市,王益区政府,109.0697,35.0697,2025-01-22T1700,142,165,1.6,47,22,119,89,189,细颗粒物(PM2.5)
铜川市,新区管委会,108.9344,34.9058,2025-01-22T1700,136,175,1.3,32,25,124,94,180,细颗粒物(PM2.5)
铜川市,旺旺集团,108.9543,34.8732,2025-01-22T1700,142,177,1.5,30,22,135,106,189,细颗粒物(PM2.5)
铜陵市,市第四中学,117.8177,30.9412,2025-01-22T1700,103,165,1.1,115,19,44,56,135,细颗粒物(PM2.5)
铜陵市,市公路局,117.8059,30.9273,2025-01-22T1700,108,129,1.1,61,21,76,57,142,细颗粒物(PM2.5)
铜陵市,市新民污水厂,117.7807,30.9413,2025-01-22T1700,73,147,1.2,73,12,61,63,99,颗粒物(PM10)
铜陵市,市第九中学,117.7439,30.8792,2025-01-22T1700,94,129,1.0,92,11,59,62,124,细颗粒物(PM2.5)
铜陵市,车站新区,117.846,30.9413,2025-01-22T1700,90,126,1.1,76,23,69,60,119,细颗粒物(PM2.5)
铜陵市,市职教基地,117.8483,30.97,2025-01-22T1700,62,78,1.2,59,25,83,60,84,细颗粒物(PM2.5)
铜仁市,铜仁卫校,109.1839,27.7344,2025-01-22T1700,109,160,1.9,71,2,4,3,143,细颗粒物(PM2.5)
铜仁市,铜仁七中,109.1753,27.6944,2025-01-22T1700,115,138,1.6,63,5,4,8,150,细颗粒物(PM2.5)
吐鲁番市,市环保局,89.1904,42.9418,2025-01-22T1700,77,144,1.4,27,7,92,57,103,细颗粒物(PM2.5)
吐鲁番市,地区环保局,89.1673,42.9559,2025-01-22T1700,79,139,1.3,29,5,92,51,105,细颗粒物(PM2.5)
威海市,华夏技校,122.1214,37.4236,2025-01-22T1700,9,9,0.4,16,3,69,70,22,
威海市,山大分校,122.0508,37.5236,2025-01-22T1700,3,12,0.4,11,2,83,80,26,
威海市,市监测站,122.1067,37.5072,2025-01-22T1700,3,12,0.7,13,2,71,68,23,
威海市,文登开发区,122.0693,37.2174,2025-01-22T1700,12,23,,17,3,69,64,,
威海市,临港区管委会,122.1379,37.3414,2025-01-22T1700,6,19,0.4,19,3,64,63,20,
潍坊市,环保局,119.1437,36.7023,2025-01-22T1700,48,73,0.9,25,12,73,64,67,细颗粒物(PM2.5)
潍坊市,坊子邮政,119.1641,36.6523,2025-01-22T1700,53,78,0.9,20,11,70,59,73,细颗粒物(PM2.5)
潍坊市,潍坊七中,119.0587,36.721,2025-01-22T1700,59,95,1.0,31,13,64,58,80,细颗粒物(PM2.5)
潍坊市,高新实验学校,119.1977,36.6872,2025-01-22T1700,45,68,0.8,26,13,70,63,63,细颗粒物(PM2.5)
潍坊市,潍坊学院,119.1755,36.7149,2025-01-22T1700,40,68,1.0,21,16,68,65,59,颗粒物(PM10)
潍坊市,寒亭区实验一小,119.2041,36.7699,2025-01-22T1700,44,66,0.9,35,15,57,59,62,细颗粒物(PM2.5)
渭南市,农科所,109.5293,34.5101,2025-01-22T1700,,,,,,,,,
渭南市,体育馆,109.4636,34.493,2025-01-22T1700,164,227,1.5,41,17,108,68,214,细颗粒物(PM2.5)
渭南市,高新一小,109.4259,34.5023,2025-01-22T1700,166,212,1.6,41,17,107,64,216,细颗粒物(PM2.5)
渭南市,渭花路4号,109.5051,34.4921,2025-01-22T1700,188,210,1.6,44,18,108,64,238,细颗粒物(PM2.5)
温州市,瓯海,120.634,28.0089,2025-01-22T1700,71,95,0.8,54,8,57,75,95,细颗粒物(PM2.5)
温州市,南浦,120.6748,27.9939,2025-01-22T1700,45,58,0.8,38,6,79,86,63,细颗粒物(PM2.5)
温州市,龙湾,120.76,27.9747,2025-01-22T1700,34,57,0.7,32,,70,77,,
温州市,市站,120.6709,28.0167,2025-01-22T1700,32,52,0.6,23,7,86,87,51,颗粒物(PM10)
温州市,茶山,120.6985,27.9251,2025-01-22T1700,28,43,0.4,15,5,88,97,43,
文山壮族苗族自治州,州水务局,104.2533,23.3594,2025-01-22T1700,46,69,0.7,16,3,109,144,64,细颗粒物(PM2.5)
文山壮族苗族自治州,市便民服务中心,104.2319,23.3892,2025-01-22T1700,46,55,0.7,10,4,97,140,64,细颗粒物(PM2.5)
乌海市,市林业局,106.8174,39.6973,2025-01-22T1700,30,58,0.6,18,17,71,55,54,颗粒物(PM10)
乌海市,中海勃湾学校,106.7907,39.6667,2025-01-22T1700,25,52,0.5,22,18,80,55,51,颗粒物(PM10)
乌海市,海北新区,106.813,39.7274,2025-01-22T1700,13,44,0.4,17,14,86,63,44,
乌海市,聚英学校,106.8288,39.6778,2025-01-22T1700,16,59,0.7,28,28,68,51,55,颗粒物(PM10)
乌兰察布市,集宁新区,113.1306,40.9923,2025-01-22T1700,15,32,0.6,23,12,68,52,32,
乌兰察布市,光明街小学,113.1076,41.0385,2025-01-22T1700,25,37,0.5,23,16,73,65,37,
乌兰察布市,北京八中,113.1376,40.9509,2025-01-22T1700,27,29,1.6,22,19,72,52,39,
乌兰察布市,市委党校,113.1775,40.9779,2025-01-22T1700,14,30,0.4,19,17,77,55,30,
乌鲁木齐市,监测站,87.5801,43.8303,2025-01-22T1700,180,273,1.9,64,2,61,36,230,细颗粒物(PM2.5)
乌鲁木齐市,收费所,87.6046,43.768,2025-01-22T1700,210,224,1.7,57,3,56,30,260,细颗粒物(PM2.5)
乌鲁木齐市,新疆农科院农场,87.4754,43.9469,2025-01-22T1700,,329,2.3,42,5,50,28,190,颗粒物(PM10)
乌鲁木齐市,铁路局,87.5525,43.8711,2025-01-22T1700,265,289,1.8,76,3,46,37,315,细颗粒物(PM2.5)
乌鲁木齐市,三十一中学,87.6432,43.831,2025-01-22T1700,235,269,2.0,55,5,50,34,285,细颗粒物(PM2.5)
乌鲁木齐市,米东区环保局,87.7216,44.1747,2025-01-22T1700,368,423,2.3,74,7,62,48,412,细颗粒物(PM2.5)
乌鲁木齐市,培训基地,87.4651,43.4569,2025-01-22T1700,7,34,0.4,9,3,94,90,34,
乌鲁木齐市,达坂城区环保局,88.3118,43.3658,2025-01-22T1700,24,50,0.5,12,13,92,88,50,
乌鲁木齐市,红光山片区,87.6162,43.8801,2025-01-22T1700,299,,1.8,54,,60,30,349,细颗粒物(PM2.5)
乌鲁木齐市,新师大温泉校区,87.7024,43.8004,2025-01-22T1700,245,287,1.9,59,1,65,67,295,细颗粒物(PM2.5)
乌鲁木齐市,大绿谷,87.4921,43.8411,2025-01-22T1700,232,272,1.5,58,2,57,46,282,细颗粒物(PM2.5)
无锡市,雪浪,120.269,31.4867,2025-01-22T1700,31,48,0.5,18,10,138,129,48,
无锡市,黄巷,120.275,31.6219,2025-01-22T1700,29,68,0.6,34,8,94,98,59,颗粒物(PM10)
无锡市,曹张,120.294,31.56,2025-01-22T1700,29,66,0.5,25,4,115,109,58,颗粒物(PM10)
无锡市,漆塘,120.242,31.5031,2025-01-22T1700,31,53,,,,,124,,
无锡市,东亭,120.3489,31.5863,2025-01-22T1700,22,44,0.9,24,7,116,114,44,
无锡市,旺庄,120.354,31.5475,2025-01-22T1700,9,46,0.6,31,4,118,114,46,
无锡市,荣巷,120.245,31.5631,2025-01-22T1700,44,58,0.7,27,6,125,119,62,细颗粒物(PM2.5)
无锡市,堰桥,120.299,31.6817,2025-01-22T1700,19,51,1.2,47,9,114,108,51,颗粒物(PM10)
无锡市,华庄,120.3142,31.4753,2025-01-22T1700,27,45,0.6,19,9,130,122,45,
吴忠市,教育园区,106.1532,37.9648,2025-01-22T1700,72,85,1.2,42,30,129,65,97,细颗粒物(PM2.5)
吴忠市,新区二泵站,106.1856,37.9956,2025-01-22T1700,74,95,1.2,41,30,100,64,99,细颗粒物(PM2.5)
