area,positionname,longitude,latitude,timepoint,pm2_5,pm10,co,no2,so2,o3,o3_8h,aqi,primarypollutant
阿坝藏族羌族自治州,州农科所,102.1879,31.914,2025-01-02T2200,20,40,0.9,18,5,56,66,40,
阿坝藏族羌族自治州,马师校,102.2502,31.8896,2025-01-02T2200,18,30,0.5,21,6,38,54,30,
阿坝藏族羌族自治州,马尔康中学西区,102.2165,31.9024,2025-01-02T2200,24,42,0.7,18,6,48,62,42,
阿克苏地区,电视台,80.292,41.1694,2025-01-02T2200,87,148,,77,4,9,54,115,细颗粒物(PM2.5)
阿克苏地区,艺术中心,80.2613,41.1551,2025-01-02T2200,140,245,2.9,103,6,8,54,186,细颗粒物(PM2.5)
阿拉善盟,西城区西花园,105.6467,38.8363,2025-01-02T2200,30,72,1.2,39,9,26,78,61,颗粒物(PM10)
阿拉善盟,蒙二幼,105.6985,38.8411,2025-01-02T2200,26,79,0.7,36,4,25,76,65,颗粒物(PM10)
阿拉善盟,环保局新楼,105.724,38.8516,2025-01-02T2200,14,41,0.6,10,7,58,91,41,
阿勒泰地区,市站,88.1264,47.8517,2025-01-02T2200,12,,0.7,54,8,22,55,27,
阿里地区,阿里监测站,80.1161,32.5,2025-01-02T2200,,17,0.6,8,12,73,80,,
阿里地区,阿里藏医院,80.0903,32.5028,2025-01-02T2200,3,7,0.4,1,6,82,84,26,
安康市,香溪洞,109.0318,32.6537,2025-01-02T2200,39,49,0.6,14,9,80,93,55,细颗粒物(PM2.5)
安康市,汉滨区检察院,109.0072,32.6975,2025-01-02T2200,49,70,0.8,30,5,38,61,68,细颗粒物(PM2.5)
安康市,市邮政管理局,109.0325,32.6913,2025-01-02T2200,76,111,1.3,59,7,11,43,102,细颗粒物(PM2.5)
安庆市,环科院,117.0809,30.5177,2025-01-02T2200,161,204,1.1,34,8,76,106,211,细颗粒物(PM2.5)
安庆市,马山宾馆,117.0331,30.5119,2025-01-02T2200,192,,1.0,27,9,72,95,242,细颗粒物(PM2.5)
安庆市,安庆大学,116.9896,30.6145,2025-01-02T2200,202,209,1.1,40,12,81,116,252,细颗粒物(PM2.5)
安庆市,市人大,117.0598,30.5351,2025-01-02T2200,170,212,1.0,44,8,72,105,220,细颗粒物(PM2.5)
安顺市,伍家关,105.9606,26.2611,2025-01-02T2200,30,33,0.8,13,12,86,78,43,
安顺市,凤凰山,105.9408,26.2431,2025-01-02T2200,31,38,0.7,14,14,79,66,45,
安顺市,金钟山,105.9439,26.2564,2025-01-02T2200,33,34,0.9,12,17,76,65,48,
安顺市,娄家坡,105.8983,26.2481,2025-01-02T2200,,,,,,,44,,
安阳市,棉研所,114.4839,36.0621,2025-01-02T2200,50,67,0.6,30,10,43,59,69,细颗粒物(PM2.5)
安阳市,红庙街,114.3551,36.1017,2025-01-02T2200,63,87,1.1,61,4,10,60,85,细颗粒物(PM2.5)
安阳市,银杏小区,114.361,36.0681,2025-01-02T2200,64,106,1.1,59,3,6,56,87,细颗粒物(PM2.5)
安阳市,信访局,114.3922,36.0878,2025-01-02T2200,43,58,0.6,43,2,27,60,60,细颗粒物(PM2.5)
安阳市,左辅环卫站,114.4705,36.0637,2025-01-02T2200,51,72,0.6,34,6,39,60,70,细颗粒物(PM2.5)
安阳市,安钢职工学校,114.2917,36.0949,2025-01-02T2200,87,146,1.2,65,10,9,60,115,细颗粒物(PM2.5)
鞍山市,深沟寺,123.044,41.1196,2025-01-02T2200,32,61,1.4,36,23,32,56,56,颗粒物(PM10)
鞍山市,太阳城,123.011,41.0931,2025-01-02T2200,42,67,1.4,43,19,25,58,59,"颗粒物(PM10),细颗粒物(PM2.5)"
鞍山市,太平,123.0485,41.1442,2025-01-02T2200,55,82,1.6,64,26,11,56,75,细颗粒物(PM2.5)
鞍山市,铁西三道街,122.9642,41.0971,2025-01-02T2200,51,83,1.6,60,30,10,55,70,细颗粒物(PM2.5)
鞍山市,铁西工业园区,122.9341,41.0833,2025-01-02T2200,49,75,1.5,57,30,24,59,68,细颗粒物(PM2.5)
鞍山市,明达新区,123.022,41.0821,2025-01-02T2200,39,57,1.3,28,23,35,56,55,细颗粒物(PM2.5)
鞍山市,千山,123.1289,41.0228,2025-01-02T2200,,,,,,,40,,
巴彦淖尔市,附二中,107.4212,40.761,2025-01-02T2200,25,44,0.5,41,7,36,65,44,
巴彦淖尔市,市环保大楼,107.37,40.7372,2025-01-02T2200,9,36,0.6,62,4,16,69,36,
巴音郭楞蒙古自治州,孔雀公园,86.1472,41.7538,2025-01-02T2200,68,108,1.0,69,4,18,52,92,细颗粒物(PM2.5)
巴音郭楞蒙古自治州,棉纺厂,86.1972,41.7166,2025-01-02T2200,69,122,1.1,93,3,7,49,93,细颗粒物(PM2.5)
巴音郭楞蒙古自治州,经济开发区,86.2357,41.7173,2025-01-02T2200,64,89,0.9,56,3,24,63,87,细颗粒物(PM2.5)
巴中市,苏山坪,106.7677,31.8794,2025-01-02T2200,82,94,0.5,13,6,77,80,109,细颗粒物(PM2.5)
巴中市,丽阳花园,106.7656,31.8545,2025-01-02T2200,105,140,1.1,59,3,4,41,138,细颗粒物(PM2.5)
巴中市,圣泉水务公司,106.7418,31.8654,2025-01-02T2200,106,141,0.9,62,4,4,51,139,细颗粒物(PM2.5)
巴中市,市中心医院,106.7616,31.8344,2025-01-02T2200,93,150,1.1,58,4,5,52,123,细颗粒物(PM2.5)
白城市,洮北区环保局,122.7911,45.6077,2025-01-02T2200,12,24,0.5,9,3,59,59,24,
白城市,市环保局,122.8738,45.5725,2025-01-02T2200,11,17,0.4,12,6,46,55,17,
白山市,喜丰,126.4219,41.9171,2025-01-02T2200,30,70,1.0,41,22,17,56,60,颗粒物(PM10)
白山市,环保局,126.4077,41.9419,2025-01-02T2200,40,88,1.0,24,6,25,50,69,颗粒物(PM10)
白银市,第三小学,104.1724,36.5446,2025-01-02T2200,38,90,1.0,37,39,44,67,70,颗粒物(PM10)
白银市,动力公司,104.1465,36.5482,2025-01-02T2200,23,63,1.1,49,25,43,76,57,颗粒物(PM10)
百色市,市监测站,106.6103,23.9011,2025-01-02T2200,97,112,1.4,32,10,41,78,128,细颗粒物(PM2.5)
百色市,市中心血站,106.6538,23.8859,2025-01-02T2200,116,189,1.8,83,14,8,63,152,细颗粒物(PM2.5)
百色市,祈福高中,106.6085,23.8798,2025-01-02T2200,77,116,1.2,64,7,16,66,103,细颗粒物(PM2.5)
蚌埠市,工人疗养院,117.396,32.939,2025-01-02T2200,166,230,1.3,56,12,41,72,216,细颗粒物(PM2.5)
蚌埠市,百货大楼,117.3605,32.9427,2025-01-02T2200,164,236,1.4,52,11,38,64,214,细颗粒物(PM2.5)
蚌埠市,蚌埠学院,117.4185,32.8911,2025-01-02T2200,161,229,1.3,53,10,42,73,211,细颗粒物(PM2.5)
蚌埠市,淮上区政府,117.3533,32.9673,2025-01-02T2200,169,244,1.3,52,12,36,65,219,细颗粒物(PM2.5)
蚌埠市,高新区,117.3145,32.8977,2025-01-02T2200,165,237,1.4,61,15,45,60,215,细颗粒物(PM2.5)
蚌埠市,蚌埠田家炳中学,117.3092,32.9314,2025-01-02T2200,170,240,1.4,57,13,36,53,220,细颗粒物(PM2.5)
包头市,市环境监测站,109.8756,40.6532,2025-01-02T2200,30,50,0.8,74,11,8,62,50,
包头市,包头八中,109.9991,40.5842,2025-01-02T2200,,61,0.4,40,3,38,66,,
包头市,青山宾馆,109.8538,40.6821,2025-01-02T2200,28,42,1.0,65,10,14,58,42,
包头市,惠龙物流,109.8642,40.6288,2025-01-02T2200,21,47,1.0,68,9,11,64,47,
包头市,东河鸿龙湾,110.0377,40.5546,2025-01-02T2200,13,51,1.1,71,11,13,62,51,颗粒物(PM10)
包头市,滨河大厦,109.9154,40.5685,2025-01-02T2200,43,102,1.3,74,54,7,60,76,颗粒物(PM10)
包头市,包头市委党校,109.9447,40.6261,2025-01-02T2200,17,56,0.7,60,6,17,67,53,颗粒物(PM10)
包头市,昆区政府,109.8331,40.6576,2025-01-02T2200,11,32,0.6,33,8,46,60,32,
宝鸡市,庙沟村,107.185,34.3063,2025-01-02T2200,80,96,0.7,42,8,50,78,107,细颗粒物(PM2.5)
宝鸡市,竹园沟,107.0708,34.3017,2025-01-02T2200,54,74,0.6,32,6,41,81,74,细颗粒物(PM2.5)
宝鸡市,三陆医院,107.1906,34.3672,2025-01-02T2200,143,,1.1,77,8,15,66,190,细颗粒物(PM2.5)
宝鸡市,监测站,107.1431,34.3547,2025-01-02T2200,76,99,0.9,52,8,23,72,102,细颗粒物(PM2.5)
宝鸡市,技工学校,107.1186,34.3739,2025-01-02T2200,84,124,0.7,46,8,35,68,112,细颗粒物(PM2.5)
宝鸡市,陈仓区环保局家属楼,107.3906,34.3528,2025-01-02T2200,115,145,1.0,82,9,11,72,150,细颗粒物(PM2.5)
宝鸡市,文理学院,107.2058,34.3497,2025-01-02T2200,69,100,0.8,60,7,19,82,93,细颗粒物(PM2.5)
宝鸡市,三迪小学,107.2386,34.3622,2025-01-02T2200,84,117,0.8,76,13,10,66,112,细颗粒物(PM2.5)
保定市,游泳馆,115.493,38.8632,2025-01-02T2200,40,84,0.4,44,5,25,53,67,颗粒物(PM10)
保定市,华电二区,115.5213,38.8959,2025-01-02T2200,41,53,0.2,33,3,34,57,58,细颗粒物(PM2.5)
保定市,接待中心,115.4713,38.9108,2025-01-02T2200,35,59,0.6,33,2,33,54,55,颗粒物(PM10)
保定市,地表水厂,115.4612,38.8416,2025-01-02T2200,46,87,0.3,52,2,25,62,69,颗粒物(PM10)
保定市,满城区生态环境分局,115.31981,38.95208,2025-01-02T2200,63,90,0.4,45,3,26,52,85,细颗粒物(PM2.5)
保定市,清苑区第二中学,115.47694,38.76408,2025-01-02T2200,41,63,0.5,56,4,19,59,58,细颗粒物(PM2.5)
保定市,徐水物探局,115.62909,39.02311,2025-01-02T2200,34,50,0.3,44,2,18,47,50,
保定市,双鹰农机,115.4202,38.8656,2025-01-02T2200,44,70,0.5,59,8,16,58,62,细颗粒物(PM2.5)
保定市,植保所站,115.5150,38.8590,2025-01-02T2200,37,59,0.5,32,4,8,59,55,颗粒物(PM10)
保山市,市环境监测站,99.1678,25.1081,2025-01-02T2200,14,35,0.5,9,4,60,81,35,
保山市,市环保局,99.1711,25.1328,2025-01-02T2200,25,32,0.5,5,6,73,84,36,
北海市,牛尾岭水库,109.2262,21.588,2025-01-02T2200,98,,0.6,,5,73,139,129,细颗粒物(PM2.5)
北海市,海滩公园,109.1436,21.4086,2025-01-02T2200,71,75,1.2,48,7,116,165,95,细颗粒物(PM2.5)
北海市,新市环保局,109.0981,21.4661,2025-01-02T2200,92,92,1.1,44,8,109,162,122,细颗粒物(PM2.5)
北海市,北海工业园,109.1778,21.5233,2025-01-02T2200,83,103,1.1,54,8,85,157,110,细颗粒物(PM2.5)
北海市,龙潭自来水厂,109.1911,21.4415,2025-01-02T2200,104,124,1.2,58,6,25,150,137,细颗粒物(PM2.5)
北京市,万寿西宫,116.3621,39.8784,2025-01-02T2200,10,26,0.2,27,3,47,61,26,
北京市,定陵,116.2202,40.2915,2025-01-02T2200,,,,,,,,,
北京市,东四,116.4174,39.9289,2025-01-02T2200,3,16,0.1,8,1,62,62,20,
北京市,天坛,116.4072,39.8863,2025-01-02T2200,7,20,0.2,10,3,67,67,21,
北京市,农展馆,116.462,39.9365,2025-01-02T2200,3,16,0.3,10,1,71,71,23,
北京市,官园,116.3392,39.9295,2025-01-02T2200,3,19,0.3,5,3,69,61,22,
北京市,海淀万柳,116.2878,39.9611,2025-01-02T2200,3,15,0.3,5,2,63,57,20,
北京市,顺义新城,116.6636,40.135,2025-01-02T2200,14,35,0.3,35,3,34,62,35,
北京市,怀柔镇,116.6275,40.3275,2025-01-02T2200,3,12,0.5,1,3,72,64,23,
北京市,昌平镇,116.2296,40.217,2025-01-02T2200,7,25,0.4,10,1,59,72,25,
北京市,奥体中心,116.3966,39.9821,2025-01-02T2200,3,16,0.5,9,3,64,65,20,
北京市,古城,116.184,39.9136,2025-01-02T2200,14,32,0.5,26,6,41,70,32,
北京市,延庆夏都,115.9718,40.4529,2025-01-02T2200,3,19,0.2,5,1,62,65,20,
北京市,平谷新城,117.0709,40.1465,2025-01-02T2200,13,25,0.4,14,3,39,60,25,
北京市,密云新城,116.8336,40.4095,2025-01-02T2200,3,14,0.2,1,1,69,63,22,
北京市,门头沟三家店,116.088,39.9726,2025-01-02T2200,20,53,0.5,45,5,8,62,52,颗粒物(PM10)
北京市,丰台云岗,116.1541,39.8204,2025-01-02T2200,3,23,0.3,8,2,56,60,23,
北京市,通州东关,116.6804,39.9081,2025-01-02T2200,18,47,0.4,48,3,18,62,47,
北京市,房山燕山,115.9577,39.7603,2025-01-02T2200,,129,0.6,20,2,48,76,,
北京市,大兴旧宫,116.4672,39.7733,2025-01-02T2200,19,57,0.4,59,1,4,60,54,颗粒物(PM10)
北京市,延庆石河营,115.986,40.4563,2025-01-02T2200,3,20,0.2,8,3,53,69,20,
北京市,怀柔新城,116.6151,40.3053,2025-01-02T2200,3,14,0.2,1,3,67,64,21,
北京市,丰台小屯,116.2545,39.8768,2025-01-02T2200,19,46,0.3,56,4,14,58,46,
北京市,密云镇,116.84,40.3844,2025-01-02T2200,17,41,0.4,42,1,22,61,41,
本溪市,大峪,123.8275,41.3064,2025-01-02T2200,37,59,2.1,44,13,22,59,55,颗粒物(PM10)
本溪市,溪湖,123.7567,41.3325,2025-01-02T2200,69,100,1.3,50,16,12,59,93,细颗粒物(PM2.5)
本溪市,彩屯,123.7169,41.3094,2025-01-02T2200,25,32,0.6,22,8,39,53,36,
本溪市,东明,123.7669,41.2864,2025-01-02T2200,49,64,1.2,59,13,11,57,68,细颗粒物(PM2.5)
本溪市,新立屯,123.7992,41.2664,2025-01-02T2200,33,42,0.9,49,8,19,54,48,
本溪市,威宁,123.8142,41.3472,2025-01-02T2200,46,95,1.0,51,3,14,58,73,颗粒物(PM10)
毕节市,八中,105.2864,27.3125,2025-01-02T2200,84,111,0.9,27,8,42,93,112,细颗粒物(PM2.5)
毕节市,师专,105.31,27.2944,2025-01-02T2200,108,127,0.9,32,7,43,87,142,细颗粒物(PM2.5)
毕节市,长征村,105.3631,27.3533,2025-01-02T2200,99,114,0.8,17,8,59,99,130,细颗粒物(PM2.5)
滨州市,第二水厂,118.0018,37.3617,2025-01-02T2200,19,41,0.6,45,12,28,61,41,
滨州市,北中新校,117.9776,37.393,2025-01-02T2200,19,44,1.2,54,9,21,64,44,
滨州市,中海酒店,117.9378,37.3956,2025-01-02T2200,29,34,0.8,33,11,31,61,42,
滨州市,开发区一中,117.9378,37.3553,2025-01-02T2200,17,31,0.6,40,10,35,62,31,
滨州市,金海六路,118.0917,37.694,2025-01-02T2200,41,71,1.1,73,11,6,60,61,颗粒物(PM10)
滨州市,滨州市西街道办事处,117.9956,37.3753,2025-01-02T2200,31,44,0.9,44,10,26,59,45,
亳州市,污水处理厂,115.8072,33.8399,2025-01-02T2200,67,115,0.6,32,6,28,44,90,细颗粒物(PM2.5)
亳州市,三国揽胜宫,115.7789,33.8518,2025-01-02T2200,63,140,0.8,36,5,32,48,95,颗粒物(PM10)
亳州市,亳州学院,115.7633,33.8034,2025-01-02T2200,67,113,0.8,30,6,34,47,90,细颗粒物(PM2.5)
博尔塔拉蒙古自治州,市党校,82.0485,44.8556,2025-01-02T2200,72,93,1.6,28,7,57,50,97,细颗粒物(PM2.5)
博尔塔拉蒙古自治州,市环保局,82.0806,44.8969,2025-01-02T2200,88,171,2.4,73,8,18,60,117,细颗粒物(PM2.5)
沧州市,沧县城建局,116.8842,38.2991,2025-01-02T2200,30,50,0.6,49,6,29,60,50,
沧州市,电视转播站,116.8584,38.3254,2025-01-02T2200,27,47,0.7,63,6,21,67,47,
沧州市,市环保局,116.8709,38.3228,2025-01-02T2200,38,48,0.7,59,7,16,66,54,细颗粒物(PM2.5)
沧州市,河北水利电力学院,116.8136,38.3004,2025-01-02T2200,37,53,0.5,51,12,20,61,53,细颗粒物(PM2.5)
昌都市,昌都监测站,97.1806,31.1273,2025-01-02T2200,37,53,1.4,56,8,33,84,53,细颗粒物(PM2.5)
昌都市,昌都会议中心,97.1714,31.1406,2025-01-02T2200,10,,0.7,6,6,76,92,24,
昌吉回族自治州,天山天池,88.1236,43.8886,2025-01-02T2200,6,,0.4,2,7,85,91,27,
昌吉回族自治州,新区政务中心,87.2717,44.0297,2025-01-02T2200,240,311,2.2,76,5,23,46,290,细颗粒物(PM2.5)
昌吉回族自治州,亚心广场,87.3095,44.0142,2025-01-02T2200,298,359,2.5,72,8,37,59,348,细颗粒物(PM2.5)
长春市,食品厂,125.3325,43.9166,2025-01-02T2200,22,46,0.5,33,18,26,44,46,
长春市,客车厂,125.2863,43.9027,2025-01-02T2200,33,52,0.5,38,28,23,47,51,颗粒物(PM10)
长春市,邮电学院,125.2841,43.8463,2025-01-02T2200,38,65,0.5,49,26,16,48,58,颗粒物(PM10)
长春市,劳动公园,125.3716,43.8772,2025-01-02T2200,32,50,0.5,47,21,21,50,50,
长春市,园林处,125.3297,43.8805,2025-01-02T2200,24,45,0.6,39,10,22,46,45,
长春市,净月潭,125.4605,43.79,2025-01-02T2200,39,54,0.6,25,8,25,51,55,细颗粒物(PM2.5)
长春市,甩湾子,125.7194,43.515,2025-01-02T2200,,,,,,,,,
长春市,经开区环卫处,125.3863,43.8447,2025-01-02T2200,41,68,0.7,53,13,6,45,59,颗粒物(PM10)
长春市,高新区管委会,125.245,43.7783,2025-01-02T2200,55,60,0.7,52,8,11,48,75,细颗粒物(PM2.5)
长春市,岱山公园,125.1761,43.8325,2025-01-02T2200,52,60,0.8,47,9,15,52,72,细颗粒物(PM2.5)
长沙市,经开区环保局,113.0833,28.2325,2025-01-02T2200,144,212,0.9,34,7,99,131,192,细颗粒物(PM2.5)
长沙市,高开区环保局,112.8872,28.2189,2025-01-02T2200,144,207,1.1,27,10,108,135,192,细颗粒物(PM2.5)
长沙市,马坡岭,113.0792,28.2053,2025-01-02T2200,139,194,0.7,29,7,107,130,185,细颗粒物(PM2.5)
长沙市,湖南师范大学,112.9394,28.19,2025-01-02T2200,134,208,1.0,30,10,110,137,178,细颗粒物(PM2.5)
长沙市,雨花区环保局,113.0178,28.1322,2025-01-02T2200,142,187,1.0,34,10,100,126,189,细颗粒物(PM2.5)
长沙市,伍家岭,112.9792,28.2597,2025-01-02T2200,141,209,1.0,34,8,99,128,188,细颗粒物(PM2.5)
长沙市,火车新站,113.0014,28.1944,2025-01-02T2200,146,210,1.0,34,8,108,131,195,细颗粒物(PM2.5)
长沙市,天心区环保局,112.9844,28.1178,2025-01-02T2200,137,204,1.2,29,8,111,137,182,细颗粒物(PM2.5)
长沙市,湖南中医药大学,112.8908,28.1308,2025-01-02T2200,152,204,0.9,28,12,116,142,202,细颗粒物(PM2.5)
长沙市,沙坪,112.9581,28.3611,2025-01-02T2200,155,,1.4,29,11,96,130,205,细颗粒物(PM2.5)
长治市,清华站,113.1147,36.1547,2025-01-02T2200,70,100,1.2,61,23,16,50,94,细颗粒物(PM2.5)
长治市,监测站,113.1031,36.1989,2025-01-02T2200,78,102,1.5,49,23,26,54,104,细颗粒物(PM2.5)
长治市,审计局,113.0886,36.2125,2025-01-02T2200,80,112,1.2,49,23,34,48,107,细颗粒物(PM2.5)
长治市,长治八中,113.0844,36.1856,2025-01-02T2200,103,146,1.3,42,23,40,50,135,细颗粒物(PM2.5)
长治市,德盛苑,113.1569,36.1911,2025-01-02T2200,78,105,1.5,38,34,48,60,104,细颗粒物(PM2.5)
长治市,向阳小学,113.06,36.0464,2025-01-02T2200,106,150,1.4,47,25,46,54,139,细颗粒物(PM2.5)
长治市,屯留一中,112.8792,36.3144,2025-01-02T2200,93,142,1.8,82,26,5,56,123,细颗粒物(PM2.5)
长治市,潞城四中,113.235,36.3489,2025-01-02T2200,49,86,1.4,56,23,12,70,68,"颗粒物(PM10),细颗粒物(PM2.5)"
常德市,市二中,111.6975,28.9703,2025-01-02T2200,116,167,1.0,30,9,96,135,152,细颗粒物(PM2.5)
常德市,白鹤山,111.7158,29.1456,2025-01-02T2200,,,,,,,,,
常德市,武陵区永安,111.7153,29.0289,2025-01-02T2200,96,151,1.0,15,9,113,138,127,细颗粒物(PM2.5)
常德市,鼎城区玉霞,111.6892,28.9881,2025-01-02T2200,96,191,1.0,19,10,105,135,127,细颗粒物(PM2.5)
常德市,武陵区长庚,111.6625,29.0531,2025-01-02T2200,132,177,1.1,33,7,86,139,175,细颗粒物(PM2.5)
常州市,市监测站,119.9633,31.762,2025-01-02T2200,49,83,0.7,51,8,37,72,68,细颗粒物(PM2.5)
常州市,武进监测站,119.9468,31.7069,2025-01-02T2200,47,76,0.8,54,5,35,72,65,细颗粒物(PM2.5)
常州市,安家,119.9255,31.9087,2025-01-02T2200,28,53,0.6,31,8,58,80,52,颗粒物(PM10)
常州市,行政中心,119.9805,31.8174,2025-01-02T2200,43,68,0.5,31,10,50,71,60,细颗粒物(PM2.5)
常州市,经开区,120.0522,31.7748,2025-01-02T2200,38,88,0.3,60,11,24,77,69,颗粒物(PM10)
常州市,钟楼,119.9025,31.7964,2025-01-02T2200,45,75,0.6,32,8,55,74,63,"颗粒物(PM10),细颗粒物(PM2.5)"
常州市,武进经发区,119.8598,31.7066,2025-01-02T2200,56,92,0.6,55,8,38,65,77,细颗粒物(PM2.5)
常州市,金坛城区,119.5826,31.7245,2025-01-02T2200,67,102,0.9,39,11,54,88,90,细颗粒物(PM2.5)
朝阳市,西梁,120.4318,41.5881,2025-01-02T2200,12,26,0.4,,3,62,63,,
朝阳市,河畔小区,120.4521,41.5646,2025-01-02T2200,6,34,0.6,11,4,60,62,34,
朝阳市,八里堡,120.4176,41.5648,2025-01-02T2200,3,25,0.0,7,8,59,56,25,
朝阳市,农业园区,120.3806,41.5969,2025-01-02T2200,7,20,0.4,7,5,65,66,21,
潮州市,西园路,116.6367,23.6719,2025-01-02T2200,66,92,0.4,37,9,71,122,89,细颗粒物(PM2.5)
潮州市,市政府,116.6183,23.6608,2025-01-02T2200,41,68,0.5,27,8,81,121,59,颗粒物(PM10)
潮州市,金山,116.6461,23.6761,2025-01-02T2200,62,73,0.8,34,8,58,117,84,细颗粒物(PM2.5)
郴州市,马头岭,113.0073,25.9061,2025-01-02T2200,58,91,0.8,30,16,105,130,79,细颗粒物(PM2.5)
郴州市,市职中,113.0116,25.8226,2025-01-02T2200,69,107,0.8,80,8,16,137,93,细颗粒物(PM2.5)
郴州市,兴隆步行街,113.0161,25.8001,2025-01-02T2200,64,98,0.9,51,8,70,137,87,细颗粒物(PM2.5)
郴州市,市审计局,113.0383,25.8071,2025-01-02T2200,78,103,1.5,52,8,46,137,104,细颗粒物(PM2.5)
郴州市,市环保局,113.0348,25.7759,2025-01-02T2200,61,92,0.9,46,8,68,130,83,细颗粒物(PM2.5)
成都市,金泉两河,103.9728,30.7236,2025-01-02T2200,59,108,3.1,97,4,2,78,80,细颗粒物(PM2.5)
成都市,十里店,104.176,30.6872,2025-01-02T2200,78,107,0.7,91,4,14,83,104,细颗粒物(PM2.5)
成都市,三瓦窑,104.079,30.5706,2025-01-02T2200,59,96,1.1,103,2,3,78,80,细颗粒物(PM2.5)
成都市,沙河铺,104.1114,30.63,2025-01-02T2200,75,97,1.1,82,1,5,73,100,细颗粒物(PM2.5)
成都市,君平街,104.0786,30.6531,2025-01-02T2200,61,93,1.1,109,5,6,79,83,细颗粒物(PM2.5)
成都市,灵岩寺,103.613,31.0283,2025-01-02T2200,,,,,,,,,
成都市,大石西路,104.0239,30.65639,2025-01-02T2200,76,101,1.6,92,3,2,79,102,细颗粒物(PM2.5)
成都市,龙泉驿区区政府,104.2725,30.5589,2025-01-02T2200,85,112,0.6,27,4,96,105,113,细颗粒物(PM2.5)
成都市,金博路,104.0106,30.6931,2025-01-02T2200,69,111,1.9,101,2,3,74,93,细颗粒物(PM2.5)
成都市,华阳,104.0578,30.5225,2025-01-02T2200,68,90,1.3,104,3,5,75,92,细颗粒物(PM2.5)
成都市,车城东七路,104.2394,30.5319,2025-01-02T2200,76,107,0.7,25,3,92,105,102,细颗粒物(PM2.5)
成都市,青白江技师分院,104.3853,30.7453,2025-01-02T2200,57,60,0.4,66,4,36,103,78,细颗粒物(PM2.5)
成都市,科学城,104.0789,30.4072,2025-01-02T2200,59,83,0.7,60,4,32,99,80,细颗粒物(PM2.5)
成都市,光华大道三段,103.8506,30.6947,2025-01-02T2200,92,158,1.7,80,2,0,85,122,细颗粒物(PM2.5)
承德市,铁路,117.9531,40.9081,2025-01-02T2200,6,31,0.2,4,3,68,64,31,
承德市,中国银行,117.9392,40.9763,2025-01-02T2200,6,32,0.2,2,1,63,64,32,
承德市,开发区,117.9503,40.928,2025-01-02T2200,15,37,0.3,4,3,72,73,37,
承德市,文化中心,117.8051,40.9655,2025-01-02T2200,3,25,0.2,7,2,67,71,25,
承德市,离宫,117.9268,41.0026,2025-01-02T2200,20,38,0.2,6,4,64,66,38,
池州市,池州学院,117.47,30.6618,2025-01-02T2200,172,249,0.9,44,6,54,89,222,细颗粒物(PM2.5)
池州市,展览馆,117.4918,30.6617,2025-01-02T2200,145,206,1.0,49,7,42,81,193,细颗粒物(PM2.5)
池州市,第八中学,117.5627,30.695,2025-01-02T2200,187,269,1.0,46,7,52,86,237,细颗粒物(PM2.5)
池州市,第十二中学,117.5038,30.6243,2025-01-02T2200,148,207,0.9,54,7,46,90,198,细颗粒物(PM2.5)
赤峰市,松山一中,118.9233,42.2816,2025-01-02T2200,8,15,0.6,18,14,52,63,17,
赤峰市,哈达街,118.9576,42.2728,2025-01-02T2200,13,14,0.6,16,8,55,55,19,
赤峰市,天义路,118.8788,42.2554,2025-01-02T2200,6,10,0.6,12,7,54,59,17,
赤峰市,银河街,119.2658,42.0353,2025-01-02T2200,13,18,0.4,10,12,58,58,19,
赤峰市,桥北物流园区,118.9359,42.3147,2025-01-02T2200,8,8,0.6,26,6,44,61,14,
崇左市,市环保局江州分局,107.3476,22.4136,2025-01-02T2200,82,169,1.4,57,5,47,169,110,颗粒物(PM10)
崇左市,城南新区,107.3702,22.3707,2025-01-02T2200,75,127,1.0,91,6,18,170,100,细颗粒物(PM2.5)
滁州市,老年大学,118.3093,32.3153,2025-01-02T2200,81,121,1.1,57,9,45,91,108,细颗粒物(PM2.5)
滁州市,人大宾馆,118.3244,32.2786,2025-01-02T2200,92,135,1.0,58,11,57,83,122,细颗粒物(PM2.5)
滁州市,市政府原办公楼,118.3118,32.3038,2025-01-02T2200,91,126,0.9,65,13,40,84,120,细颗粒物(PM2.5)
滁州市,图书馆,118.3267,32.2634,2025-01-02T2200,76,135,1.5,44,9,65,83,102,细颗粒物(PM2.5)
楚雄彝族自治州,州环境监测站,101.5482,25.0441,2025-01-02T2200,28,,0.6,40,6,20,72,40,
楚雄彝族自治州,市经济开发区,101.538,25.0492,2025-01-02T2200,26,37,0.6,26,7,33,70,38,
达州市,达州职业技术学院,107.5277,31.2827,2025-01-02T2200,220,244,1.6,16,6,12,12,270,细颗粒物(PM2.5)
达州市,市环境监测站,107.5086,31.2186,2025-01-02T2200,158,198,1.8,55,7,8,8,208,细颗粒物(PM2.5)
达州市,凤凰小区,107.4988,31.2132,2025-01-02T2200,158,195,1.5,54,9,6,8,208,细颗粒物(PM2.5)
达州市,达县机关宾馆,107.5082,31.1986,2025-01-02T2200,161,185,1.8,50,8,5,8,211,细颗粒物(PM2.5)
达州市,市政中心,107.4644,31.2124,2025-01-02T2200,153,195,2.6,69,9,5,6,203,细颗粒物(PM2.5)
大理白族自治州,大理市环境监测站,100.1542,25.7054,2025-01-02T2200,24,24,0.6,10,7,82,83,35,
大理白族自治州,大理古城,100.2171,25.5811,2025-01-02T2200,18,39,0.7,32,6,52,88,39,
大连市,甘井子,121.612,38.9741,2025-01-02T2200,22,51,0.8,71,11,12,73,51,颗粒物(PM10)
大连市,周水子,121.565,38.9511,2025-01-02T2200,36,40,1.0,62,14,13,60,52,细颗粒物(PM2.5)
大连市,星海三站,121.5637,38.8845,2025-01-02T2200,26,33,0.7,42,11,21,66,38,
大连市,青泥洼桥,121.6302,38.9117,2025-01-02T2200,20,44,0.6,51,13,18,58,44,
大连市,傅家庄,121.6251,38.8638,2025-01-02T2200,16,29,0.5,39,22,38,66,29,
大连市,七贤岭,121.5213,38.8661,2025-01-02T2200,18,29,0.7,13,10,52,70,29,
大连市,旅顺,121.2529,38.8061,2025-01-02T2200,12,15,0.6,19,15,60,72,19,
大连市,金州,121.7485,39.1311,2025-01-02T2200,16,24,0.6,10,11,60,68,24,
大连市,开发区,121.7811,39.0496,2025-01-02T2200,19,25,0.6,64,16,13,64,32,
大连市,双D港,121.9762,39.0631,2025-01-02T2200,14,18,0.5,13,13,63,77,20,
大庆市,大同区,124.81117,46.03138,2025-01-02T2200,79,92,1.0,37,16,16,38,105,细颗粒物(PM2.5)
大庆市,龙凤区,125.129,46.533,2025-01-02T2200,54,68,0.9,45,5,21,38,74,细颗粒物(PM2.5)
大庆市,红岗区,124.902,46.408,2025-01-02T2200,41,45,0.7,33,8,22,36,58,细颗粒物(PM2.5)
大庆市,萨尔图区,125.153,46.586,2025-01-02T2200,37,58,0.7,54,7,22,30,54,颗粒物(PM10)
大庆市,让胡路区,124.9042,46.6215,2025-01-02T2200,31,42,0.5,32,6,34,49,45,
大庆市,萨区政府监测点,125.141,46.634,2025-01-02T2200,24,40,0.6,34,7,30,42,40,
大同市,果树场,113.3819,40.1097,2025-01-02T2200,39,84,1.0,57,12,20,65,67,颗粒物(PM10)
大同市,云冈宾馆,113.2994,40.0758,2025-01-02T2200,10,30,0.5,26,13,48,71,30,
大同市,大同大学,113.3444,40.0917,2025-01-02T2200,12,28,0.6,22,16,48,66,28,
大同市,安家小村,113.2661,40.1269,2025-01-02T2200,6,36,0.4,22,19,47,68,36,
大同市,教育学院,113.2711,40.0844,2025-01-02T2200,9,42,0.4,32,14,41,64,42,
大同市,大同市卫生学校,113.3397,40.0597,2025-01-02T2200,17,38,0.6,23,11,50,63,38,
大同市,云冈站,113.1367,40.1122,2025-01-02T2200,7,43,0.3,43,16,21,73,43,
大同市,图书馆,113.1186,40.2556,2025-01-02T2200,14,32,0.8,24,26,41,77,32,
大同市,区一中,113.5931,40.0461,2025-01-02T2200,18,50,1.1,36,25,31,61,50,
大同市,第二人民医院,113.2802,40.0995,2025-01-02T2200,10,24,0.4,26,18,48,67,24,
大兴安岭地区,科技局,124.1069,50.4097,2025-01-02T2200,23,,0.5,6,5,48,55,33,
大兴安岭地区,红旗社区,124.1164,50.4278,2025-01-02T2200,43,63,0.7,41,8,7,49,60,细颗粒物(PM2.5)
丹东市,江湾东路,124.3303,40.0625,2025-01-02T2200,46,52,1.4,27,26,36,58,64,细颗粒物(PM2.5)
丹东市,临江后街,124.4256,40.1503,2025-01-02T2200,28,41,0.8,29,15,37,61,41,
丹东市,元宝山,124.3933,40.1461,2025-01-02T2200,18,27,0.8,15,13,47,57,27,
丹东市,民主桥,124.3633,40.1092,2025-01-02T2200,37,46,1.3,49,11,12,56,53,细颗粒物(PM2.5)
儋州市,第一中学子站,109.5726,19.5167,2025-01-02T2200,35,51,0.7,11,5,93,110,51,颗粒物(PM10)
儋州市,东坡学校子站,109.5567,19.5187,2025-01-02T2200,35,54,0.7,8,6,,123,,
德宏傣族景颇族自治州,德宏州监测站,98.5842,24.428,2025-01-02T2200,33,53,0.6,35,8,36,80,52,颗粒物(PM10)
德宏傣族景颇族自治州,芒市人民政府综合楼,98.5881,24.4368,2025-01-02T2200,25,53,0.5,13,8,46,76,52,颗粒物(PM10)
德阳市,东山公园,104.4239,31.1208,2025-01-02T2200,54,69,0.7,18,3,92,99,74,细颗粒物(PM2.5)
德阳市,西小区,104.3826,31.1317,2025-01-02T2200,75,94,1.1,84,3,15,78,100,细颗粒物(PM2.5)
德阳市,耐火材料厂,104.3553,31.1091,2025-01-02T2200,87,110,1.1,60,5,25,80,115,细颗粒物(PM2.5)
德阳市,市教育局,104.4019,31.1244,2025-01-02T2200,65,80,1.0,94,5,4,80,88,细颗粒物(PM2.5)
德州市,儿童乐园,116.3032,37.4674,2025-01-02T2200,68,117,1.7,78,13,9,61,92,细颗粒物(PM2.5)
德州市,监理站,116.2991,37.4451,2025-01-02T2200,53,100,1.1,81,16,10,67,75,颗粒物(PM10)
德州市,九衢泉纯净水厂,116.2721,37.4379,2025-01-02T2200,41,78,0.9,81,14,8,65,64,颗粒物(PM10)
德州市,开发区人民医院,116.3728,37.4403,2025-01-02T2200,36,78,1.0,80,13,8,61,64,颗粒物(PM10)
德州市,太阳城中学,116.3572,37.4094,2025-01-02T2200,36,44,0.7,48,11,33,64,52,细颗粒物(PM2.5)
德州市,陵城艺术中心,116.5652,37.3319,2025-01-02T2200,75,105,1.2,40,23,34,62,100,细颗粒物(PM2.5)
迪庆藏族自治州,迪庆州站,99.7056,27.8317,2025-01-02T2200,33,54,1.2,26,8,55,83,52,颗粒物(PM10)
迪庆藏族自治州,质量技术监督局,99.7136,27.8094,2025-01-02T2200,53,66,1.4,38,8,39,80,73,细颗粒物(PM2.5)
定西市,东关小学,104.6241,35.5734,2025-01-02T2200,77,111,1.5,58,33,11,59,103,细颗粒物(PM2.5)
定西市,供电公司,104.6194,35.5934,2025-01-02T2200,89,109,2.2,70,38,4,71,118,细颗粒物(PM2.5)
东莞市,莞城梨川,113.7547,23.0494,2025-01-02T2200,67,126,1.1,125,9,6,120,90,细颗粒物(PM2.5)
东莞市,东城石井,113.7944,23.0128,2025-01-02T2200,42,65,0.9,68,7,32,118,59,细颗粒物(PM2.5)
东莞市,南城西平,113.7383,22.9658,2025-01-02T2200,60,112,1.2,138,9,5,129,82,细颗粒物(PM2.5)
东莞市,万江金泰,113.7338,23.0381,2025-01-02T2200,71,143,1.3,121,9,2,113,97,颗粒物(PM10)
东莞市,南城元岭,113.7533,23.0202,2025-01-02T2200,63,108,1.3,108,10,14,127,85,细颗粒物(PM2.5)
东莞市,东城主山,113.7875,23.0457,2025-01-02T2200,62,110,1.2,122,12,3,108,84,细颗粒物(PM2.5)
东营市,市环保局,118.6614,37.4309,2025-01-02T2200,27,53,0.8,43,8,22,66,52,颗粒物(PM10)
东营市,开发区管委会,118.6904,37.4338,2025-01-02T2200,27,43,0.7,40,4,38,66,43,
东营市,垦利区民丰路,118.5719,37.565,2025-01-02T2200,19,48,0.7,54,13,18,61,48,
东营市,河口城区,118.5055,37.8612,2025-01-02T2200,20,44,0.7,64,3,18,68,44,
东营市,胜利站,118.4978,37.4623,2025-01-02T2200,29,46,0.8,35,17,38,64,46,
东营市,理想之城,118.35,37.26,2025-01-02T2200,27,44,0.3,49,4,18,67,44,
鄂尔多斯市,综合楼,110.0023,39.8129,2025-01-02T2200,9,44,0.7,42,17,44,71,44,
鄂尔多斯市,巴音孟克林场办事处,109.9486,39.8261,2025-01-02T2200,9,24,0.5,39,7,42,63,24,
鄂尔多斯市,康泽苑,109.7736,39.5986,2025-01-02T2200,7,22,0.4,19,6,40,66,22,
鄂尔多斯市,华泰汽车城,109.8119,39.5989,2025-01-02T2200,7,29,0.7,55,7,11,68,29,
鄂尔多斯市,奥林花园,109.9734,39.7884,2025-01-02T2200,12,36,0.7,60,8,20,64,36,
鄂州市,市政府,114.8938,30.3994,2025-01-02T2200,,,,,,,26,,
鄂州市,赵家坝,114.8989,30.3714,2025-01-02T2200,155,206,1.2,44,10,73,117,205,细颗粒物(PM2.5)
鄂州市,精准医疗中心,114.8094,30.4089,2025-01-02T2200,159,200,1.0,44,15,81,127,209,细颗粒物(PM2.5)
恩施土家族苗族自治州,湖北民院,109.4978,30.2981,2025-01-02T2200,197,,1.5,35,8,23,34,247,细颗粒物(PM2.5)
恩施土家族苗族自治州,州电力总公司,109.4707,30.2798,2025-01-02T2200,,,1.7,,8,11,24,,
恩施土家族苗族自治州,龙凤新区,109.5061,30.3772,2025-01-02T2200,135,154,1.5,26,6,8,30,179,细颗粒物(PM2.5)
防城港市,沙万,108.3411,21.6158,2025-01-02T2200,62,107,1.2,42,8,98,138,84,细颗粒物(PM2.5)
防城港市,防城档案局,108.3514,21.7731,2025-01-02T2200,94,179,1.1,69,6,21,124,124,细颗粒物(PM2.5)
防城港市,大海花园,108.3506,21.6414,2025-01-02T2200,83,,1.1,23,7,122,150,110,细颗粒物(PM2.5)
佛山市,湾梁,113.1294,23.0067,2025-01-02T2200,58,124,1.2,54,7,16,100,87,颗粒物(PM10)
佛山市,华材职中,113.1083,23.0478,2025-01-02T2200,62,122,1.2,132,9,8,119,86,颗粒物(PM10)
佛山市,南海气象局,113.144,23.0453,2025-01-02T2200,54,91,1.1,120,9,14,110,74,细颗粒物(PM2.5)
佛山市,顺德苏岗,113.2881,22.8094,2025-01-02T2200,56,82,1.0,59,8,40,88,77,细颗粒物(PM2.5)
佛山市,高明孔堂,112.8383,22.8678,2025-01-02T2200,72,90,0.7,44,9,73,142,97,细颗粒物(PM2.5)
佛山市,三水监测站,112.8836,23.1588,2025-01-02T2200,50,68,0.8,53,13,70,127,69,细颗粒物(PM2.5)
佛山市,三水云东海,112.867,23.185,2025-01-02T2200,37,51,0.8,40,10,60,131,53,细颗粒物(PM2.5)
佛山市,容桂街道办,113.2544,22.7642,2025-01-02T2200,61,114,1.1,94,8,31,91,83,细颗粒物(PM2.5)
福州市,鼓山,119.3903,26.0543,2025-01-02T2200,,,,,,,92,,
福州市,师大,119.2681,26.0504,2025-01-02T2200,20,45,0.3,24,4,93,104,45,
福州市,五四北路,119.2984,26.1028,2025-01-02T2200,14,40,0.4,23,1,95,103,40,
福州市,杨桥西路,119.2648,26.0768,2025-01-02T2200,18,46,0.3,22,1,95,106,46,
福州市,紫阳,119.317,26.0746,2025-01-02T2200,13,38,0.3,20,3,104,102,38,
福州市,九龙,119.5799,26.0936,2025-01-02T2200,10,35,0.4,24,4,78,102,35,
福州市,吴航,119.5189,25.9664,2025-01-02T2200,14,32,0.2,18,2,94,108,32,
抚顺市,望花区,123.7977,41.8491,2025-01-02T2200,92,140,1.9,52,10,11,54,122,细颗粒物(PM2.5)
抚顺市,顺城区,123.9161,41.8822,2025-01-02T2200,78,114,1.5,50,10,15,50,104,细颗粒物(PM2.5)
抚顺市,东洲区,124.0436,41.8611,2025-01-02T2200,49,88,1.0,37,4,25,50,69,颗粒物(PM10)
抚顺市,新抚区,123.9247,41.8642,2025-01-02T2200,70,105,1.5,46,7,14,51,94,细颗粒物(PM2.5)
抚顺市,大伙房水库,124.0972,41.8961,2025-01-02T2200,47,89,1.0,33,9,24,52,70,颗粒物(PM10)
抚顺市,沈抚新城,123.7086,41.8391,2025-01-02T2200,76,100,1.1,53,6,15,58,102,细颗粒物(PM2.5)
抚州市,桐源党溪,116.2127,28.0814,2025-01-02T2200,47,85,0.4,3,3,69,110,68,颗粒物(PM10)
抚州市,市站,116.3544,27.9831,2025-01-02T2200,64,97,1.0,29,7,90,124,87,细颗粒物(PM2.5)
抚州市,血防站,116.3565,27.963,2025-01-02T2200,62,96,0.8,20,8,93,127,84,细颗粒物(PM2.5)
抚州市,采茶剧团,116.3564,28.0007,2025-01-02T2200,59,88,1.6,20,2,81,115,80,细颗粒物(PM2.5)
抚州市,医学分院,116.385,27.9647,2025-01-02T2200,57,95,0.9,26,11,73,103,78,细颗粒物(PM2.5)
阜新市,工业园区,121.6094,41.998,2025-01-02T2200,82,161,1.3,55,18,12,61,109,细颗粒物(PM2.5)
阜新市,长青街,121.6697,42.0279,2025-01-02T2200,60,99,0.9,54,11,6,65,82,细颗粒物(PM2.5)
阜新市,农业园区,121.6673,42.0705,2025-01-02T2200,9,20,0.6,16,10,43,64,20,
阜新市,东苑,121.6717,42.0224,2025-01-02T2200,59,106,1.4,47,18,18,61,80,细颗粒物(PM2.5)
阜新市,玉龙新城,121.6506,42.0498,2025-01-02T2200,84,160,1.7,46,13,16,69,112,细颗粒物(PM2.5)
阜阳市,市监测站,115.8277,32.8929,2025-01-02T2200,127,181,0.9,44,10,25,46,168,细颗粒物(PM2.5)
阜阳市,开发区,115.8554,32.8605,2025-01-02T2200,117,211,0.9,45,10,27,49,153,细颗粒物(PM2.5)
阜阳市,阜阳职业技术学院,115.784,32.8892,2025-01-02T2200,118,177,0.8,37,10,32,50,155,细颗粒物(PM2.5)
阜阳市,市规划展馆,115.7901,32.8613,2025-01-02T2200,114,193,0.9,38,10,34,52,149,细颗粒物(PM2.5)
阜阳市,枣园社区,115.836,32.9183,2025-01-02T2200,123,187,0.9,40,8,33,52,162,细颗粒物(PM2.5)
甘南藏族自治州,州政府,102.9099,34.9841,2025-01-02T2200,44,110,1.4,66,20,6,81,80,颗粒物(PM10)
甘南藏族自治州,甘肃民族师范学院,102.8914,34.9617,2025-01-02T2200,33,,0.8,,10,,83,,
甘孜藏族自治州,水桥子,101.9603,30.0475,2025-01-02T2200,28,39,0.5,42,2,32,71,40,
甘孜藏族自治州,州环保局,101.9533,29.9972,2025-01-02T2200,27,40,0.6,25,4,52,72,40,
赣江新区,桑海产业园,115.8347,28.932,2025-01-02T2200,80,119,0.7,72,14,53,122,107,细颗粒物(PM2.5)
赣州市,通天岩,114.9017,25.9149,2025-01-02T2200,41,54,0.5,4,2,80,131,58,细颗粒物(PM2.5)
赣州市,地委,114.9367,25.8664,2025-01-02T2200,39,72,1.3,39,12,82,132,61,颗粒物(PM10)
赣州市,气象台,114.9461,25.8481,2025-01-02T2200,36,78,0.8,43,15,105,131,64,颗粒物(PM10)
赣州市,市图书馆,114.9322,25.8333,2025-01-02T2200,40,69,1.0,27,4,120,132,60,颗粒物(PM10)
赣州市,华坚鞋城,114.8905,25.8471,2025-01-02T2200,45,67,0.5,17,10,116,123,63,细颗粒物(PM2.5)
赣州市,赣县区卫计委,115.0093,25.8613,2025-01-02T2200,58,77,0.4,56,7,50,114,79,细颗粒物(PM2.5)
固原市,马园,106.2319,36.1417,2025-01-02T2200,54,111,1.3,52,11,12,75,81,颗粒物(PM10)
固原市,监测站,106.2792,36.0022,2025-01-02T2200,66,116,1.4,58,18,23,81,89,细颗粒物(PM2.5)
固原市,新区,106.2375,36.0211,2025-01-02T2200,43,98,0.9,70,8,10,71,74,颗粒物(PM10)
固原市,原州区十五小,106.2177,35.9959,2025-01-02T2200,41,85,0.9,37,14,39,78,68,颗粒物(PM10)
广安市,小平旧居,106.6308,30.5278,2025-01-02T2200,,,,,,,,,
广安市,市委,106.6303,30.4576,2025-01-02T2200,206,256,1.9,72,4,9,43,256,细颗粒物(PM2.5)
广安市,友谊中学,106.6271,30.4663,2025-01-02T2200,195,242,1.5,62,3,5,34,245,细颗粒物(PM2.5)
广安市,广电花园,106.6388,30.4551,2025-01-02T2200,179,220,1.6,67,5,5,34,229,细颗粒物(PM2.5)
广安市,北辰小学,106.6351,30.4865,2025-01-02T2200,178,219,1.8,60,3,9,37,228,细颗粒物(PM2.5)
广元市,黑石坡,105.8945,32.4535,2025-01-02T2200,39,57,0.5,7,12,79,90,55,细颗粒物(PM2.5)
广元市,老城,105.821,32.4444,2025-01-02T2200,40,77,0.9,84,2,2,76,64,颗粒物(PM10)
广元市,监测站,105.8628,32.4287,2025-01-02T2200,43,61,0.8,22,1,65,88,60,细颗粒物(PM2.5)
广元市,经开区,105.8047,32.4166,2025-01-02T2200,54,80,1.1,79,6,6,78,74,细颗粒物(PM2.5)
广州市,广雅中学,113.2347,23.1423,2025-01-02T2200,62,115,1.3,127,10,9,105,84,细颗粒物(PM2.5)
广州市,市五中,113.2612,23.105,2025-01-02T2200,59,87,0.9,70,6,58,115,80,细颗粒物(PM2.5)
广州市,广东商学院,113.3478,23.0916,2025-01-02T2200,48,80,0.9,62,6,65,119,67,细颗粒物(PM2.5)
广州市,市八十六中,113.4332,23.1047,2025-01-02T2200,49,91,0.9,78,6,48,104,71,颗粒物(PM10)
广州市,番禺中学,113.3505,22.9483,2025-01-02T2200,61,106,1.4,124,5,22,112,83,细颗粒物(PM2.5)
广州市,花都师范,113.2146,23.3916,2025-01-02T2200,44,72,0.8,34,10,96,117,62,细颗粒物(PM2.5)
广州市,市监测站,113.2597,23.1331,2025-01-02T2200,46,78,1.1,62,8,68,121,64,"颗粒物(PM10),细颗粒物(PM2.5)"
广州市,九龙镇镇龙,113.5618,23.312,2025-01-02T2200,59,102,1.0,94,6,7,111,80,细颗粒物(PM2.5)
广州市,麓湖,113.2765,23.1544,2025-01-02T2200,41,58,0.8,30,7,98,128,58,细颗粒物(PM2.5)
广州市,帽峰山森林公园,113.443,23.3035,2025-01-02T2200,28,35,0.6,15,8,112,136,40,
广州市,体育西,113.3221,23.1322,2025-01-02T2200,52,90,1.3,47,7,71,109,72,细颗粒物(PM2.5)
广州市,从化街口,113.5717,23.5491,2025-01-02T2200,45,69,1.0,72,6,26,125,63,细颗粒物(PM2.5)
广州市,白云竹料,113.3472,23.3692,2025-01-02T2200,60,84,1.0,48,9,68,134,82,细颗粒物(PM2.5)
广州市,白云嘉禾,113.2981,23.237,2025-01-02T2200,51,100,1.1,90,9,34,116,75,颗粒物(PM10)
广州市,黄埔科学城,113.4256,23.1716,2025-01-02T2200,41,72,0.9,46,7,70,116,61,颗粒物(PM10)
广州市,番禺大学城,113.3942,23.0483,2025-01-02T2200,55,89,1.2,118,9,24,121,75,细颗粒物(PM2.5)
广州市,南沙黄阁,113.4922,22.8168,2025-01-02T2200,63,104,1.2,106,9,25,108,85,细颗粒物(PM2.5)
广州市,南沙街,113.5342,22.7896,2025-01-02T2200,42,121,1.1,83,6,29,121,86,颗粒物(PM10)
广州市,花都梯面,113.2902,23.5544,2025-01-02T2200,43,56,0.9,27,9,53,137,60,细颗粒物(PM2.5)
广州市,从化良口,113.7858,23.7478,2025-01-02T2200,27,39,0.7,10,6,97,128,39,
广州市,增城荔城,113.8051,23.2614,2025-01-02T2200,42,63,1.0,26,6,88,127,59,细颗粒物(PM2.5)
贵港市,德智高中,109.568,23.1478,2025-01-02T2200,,,,,,,,,
贵港市,江南子站,109.6047,23.0666,2025-01-02T2200,79,114,0.9,35,11,123,154,105,细颗粒物(PM2.5)
贵港市,贵城子站,109.6014,23.0948,2025-01-02T2200,68,105,1.0,25,11,122,146,92,细颗粒物(PM2.5)
贵港市,荷城子站,109.5669,23.1065,2025-01-02T2200,66,97,1.0,29,13,,138,,
贵港市,新世纪学校,109.5886,23.1172,2025-01-02T2200,75,117,1.0,32,14,124,152,100,细颗粒物(PM2.5)
贵阳市,马鞍山,106.6899,26.5998,2025-01-02T2200,31,41,0.4,25,5,34,34,45,
贵阳市,市环保站,106.6971,26.5694,2025-01-02T2200,35,46,0.9,29,12,34,42,50,
贵阳市,鉴湖路,106.6243,26.6266,2025-01-02T2200,34,41,0.8,18,5,37,40,49,
贵阳市,燕子冲,106.7487,26.6343,2025-01-02T2200,34,34,0.8,20,9,37,42,49,
贵阳市,碧云窝,106.6555,26.4365,2025-01-02T2200,31,48,0.8,24,13,34,31,48,
贵阳市,中院村,106.694,26.5161,2025-01-02T2200,39,46,1.0,28,16,36,35,55,细颗粒物(PM2.5)
贵阳市,红边门,106.7109,26.6027,2025-01-02T2200,34,53,1.3,30,15,34,39,52,颗粒物(PM10)
贵阳市,新华路,106.7164,26.5699,2025-01-02T2200,36,46,0.8,19,8,40,42,52,细颗粒物(PM2.5)
贵阳市,太慈桥,106.674,26.5424,2025-01-02T2200,29,39,0.9,23,5,37,38,42,
贵阳市,桐木岭,106.805,26.3003,2025-01-02T2200,46,58,0.7,5,9,43,54,64,细颗粒物(PM2.5)
桂林市,电子科大尧山校区,110.4144,25.3167,2025-01-02T2200,49,75,0.6,16,10,137,137,68,细颗粒物(PM2.5)
桂林市,监测站,110.2819,25.2697,2025-01-02T2200,65,74,1.3,27,12,123,121,88,细颗粒物(PM2.5)
桂林市,龙隐路小学,110.3089,25.2708,2025-01-02T2200,68,,,25,,134,135,,
桂林市,八中,110.2869,25.2178,2025-01-02T2200,68,76,0.9,19,11,124,122,92,细颗粒物(PM2.5)
桂林市,创业大厦,110.1764,25.2381,2025-01-02T2200,73,92,0.7,,11,136,131,,
桂林市,旅游学院,110.296,25.1253,2025-01-02T2200,66,73,1.0,20,12,112,120,89,细颗粒物(PM2.5)
果洛藏族自治州,玛沁县大武镇,100.2561,34.4714,2025-01-02T2200,24,40,0.5,8,18,50,98,40,
哈尔滨市,岭北,126.5422,45.755,2025-01-02T2200,59,72,0.3,46,15,20,48,80,细颗粒物(PM2.5)
哈尔滨市,松北商大,126.561,45.8167,2025-01-02T2200,50,55,0.7,40,4,22,36,69,细颗粒物(PM2.5)
哈尔滨市,阿城会宁,126.979,45.5419,2025-01-02T2200,94,,1.2,31,13,26,45,124,细颗粒物(PM2.5)
哈尔滨市,南岗学府路,126.599,45.7222,2025-01-02T2200,51,78,0.7,43,8,16,35,70,细颗粒物(PM2.5)
哈尔滨市,太平宏伟公园,126.689,45.7733,2025-01-02T2200,67,,1.0,55,8,6,29,90,细颗粒物(PM2.5)
哈尔滨市,道外承德广场,126.635,45.7667,2025-01-02T2200,50,78,0.6,56,12,8,32,69,细颗粒物(PM2.5)
哈尔滨市,香坊红旗大街,126.685,45.7319,2025-01-02T2200,73,78,1.1,58,10,8,26,98,细颗粒物(PM2.5)
哈尔滨市,动力和平路,126.6411,45.7258,2025-01-02T2200,50,67,0.7,46,10,9,30,69,细颗粒物(PM2.5)
哈尔滨市,道里建国路,126.593,45.7478,2025-01-02T2200,66,76,0.8,55,11,11,31,89,细颗粒物(PM2.5)
哈尔滨市,平房东轻厂,126.615,45.61,2025-01-02T2200,60,70,0.6,51,7,11,33,82,细颗粒物(PM2.5)
哈尔滨市,呼兰师专,126.595,45.9855,2025-01-02T2200,42,48,0.6,36,10,21,39,59,细颗粒物(PM2.5)
哈尔滨市,省农科院,126.6206,45.6842,2025-01-02T2200,65,80,0.9,48,11,15,32,88,细颗粒物(PM2.5)
哈密市,地区监测站,93.5128,42.8172,2025-01-02T2200,53,153,0.5,40,4,29,44,102,颗粒物(PM10)
哈密市,哈密师范学校,93.4961,42.8328,2025-01-02T2200,57,147,0.9,46,5,23,44,99,颗粒物(PM10)
海北藏族自治州,海晏县西海镇,100.9048,36.9639,2025-01-02T2200,10,27,0.5,4,6,62,92,27,
海东市,平安区公安北苑,102.0738,36.5056,2025-01-02T2200,47,84,0.9,38,43,44,76,67,颗粒物(PM10)
海口市,东寨港,110.576,19.9507,2025-01-02T2200,49,,0.7,6,13,115,114,68,细颗粒物(PM2.5)
海口市,海南大学,110.3232,20.0574,2025-01-02T2200,43,65,0.6,16,7,137,138,60,细颗粒物(PM2.5)
海口市,秀英海南医院,110.283,20.0053,2025-01-02T2200,39,54,0.6,17,5,130,133,55,细颗粒物(PM2.5)
海口市,海南师范大学,110.338,19.9969,2025-01-02T2200,39,57,0.6,12,6,138,141,55,细颗粒物(PM2.5)
海口市,龙华路环保局宿舍,110.33,20.0356,2025-01-02T2200,39,53,0.6,14,7,132,139,55,细颗粒物(PM2.5)
海口市,桂林洋子站,110.5111,19.9736,2025-01-02T2200,47,65,0.5,14,6,135,133,65,细颗粒物(PM2.5)
海南藏族自治州,共和县恰卜恰镇,100.6188,36.2866,2025-01-02T2200,3,37,1.0,43,4,34,106,37,
海西蒙古族藏族自治州,德令哈市,97.3731,37.3753,2025-01-02T2200,12,25,0.5,7,14,73,90,25,
邯郸市,东污水处理厂,114.5302,36.6116,2025-01-02T2200,44,56,0.8,73,2,5,61,62,细颗粒物(PM2.5)
邯郸市,矿院,114.4918,36.5713,2025-01-02T2200,34,67,0.7,71,2,2,57,59,颗粒物(PM10)
邯郸市,丛台公园,114.484,36.6133,2025-01-02T2200,37,103,0.7,71,2,4,61,77,颗粒物(PM10)
邯郸市,香泉濮院小区,114.7895,36.5593,2025-01-02T2200,27,55,0.4,38,4,36,68,53,颗粒物(PM10)
邯郸市,永年区实验高中,114.50634,36.77178,2025-01-02T2200,52,96,0.8,66,7,7,54,73,颗粒物(PM10)
邯郸市,峰峰矿区临水派出所,114.20016,36.44293,2025-01-02T2200,24,52,0.3,17,8,57,62,51,颗粒物(PM10)
汉中市,汉川机床厂子校,106.9893,33.1842,2025-01-02T2200,29,,0.7,7,6,62,103,42,
汉中市,市监测站,107.0154,33.0706,2025-01-02T2200,93,119,1.4,59,8,36,86,123,细颗粒物(PM2.5)
汉中市,鑫源开发区,107.0089,33.1138,2025-01-02T2200,96,110,1.5,68,8,28,94,127,细颗粒物(PM2.5)
汉中市,南郑大河坎水厂,107.007,33.0323,2025-01-02T2200,109,136,1.4,42,,44,86,143,细颗粒物(PM2.5)
杭州市,滨江,120.2072,30.2111,2025-01-02T2200,62,99,0.5,103,6,6,76,84,细颗粒物(PM2.5)
杭州市,西溪,120.0633,30.2747,2025-01-02T2200,59,98,0.7,63,6,8,41,80,细颗粒物(PM2.5)
杭州市,下沙,120.3461,30.3153,2025-01-02T2200,49,69,0.6,99,7,2,77,68,细颗粒物(PM2.5)
杭州市,卧龙桥,120.1269,30.2456,2025-01-02T2200,59,84,0.7,51,5,10,78,80,细颗粒物(PM2.5)
杭州市,浙江农大,120.1903,30.2692,2025-01-02T2200,67,115,0.7,112,7,2,76,90,细颗粒物(PM2.5)
杭州市,和睦小学,120.1197,30.3119,2025-01-02T2200,55,83,0.7,79,8,16,78,75,细颗粒物(PM2.5)
杭州市,临平镇,120.3019,30.4183,2025-01-02T2200,42,77,0.7,56,7,30,88,64,颗粒物(PM10)
杭州市,城厢镇,120.2697,30.1819,2025-01-02T2200,65,126,1.2,108,6,2,75,88,"颗粒物(PM10),细颗粒物(PM2.5)"
杭州市,云栖,120.0883,30.1808,2025-01-02T2200,52,98,0.5,53,6,17,81,74,颗粒物(PM10)
杭州市,镇二中,119.9464,30.0494,2025-01-02T2200,85,116,1.2,79,7,4,75,113,细颗粒物(PM2.5)
杭州市,市府大楼,119.7183,30.2367,2025-01-02T2200,78,109,1.3,83,6,9,92,104,细颗粒物(PM2.5)
杭州市,消防大队,120.1556,30.2864,2025-01-02T2200,67,104,0.8,90,9,7,77,90,细颗粒物(PM2.5)
合肥市,明珠广场,117.1959,31.7848,2025-01-02T2200,205,266,1.3,64,13,28,54,255,细颗粒物(PM2.5)
合肥市,三里街,117.3072,31.8764,2025-01-02T2200,219,290,1.4,70,10,23,64,269,细颗粒物(PM2.5)
合肥市,琥珀山庄,117.2588,31.8707,2025-01-02T2200,192,288,1.2,70,8,28,61,242,细颗粒物(PM2.5)
合肥市,董铺水库,117.1604,31.9052,2025-01-02T2200,207,295,1.1,73,6,17,70,257,细颗粒物(PM2.5)
合肥市,长江中路,117.25,31.8571,2025-01-02T2200,216,278,1.3,78,9,14,58,266,细颗粒物(PM2.5)
合肥市,庐阳区,117.266,31.9436,2025-01-02T2200,197,293,1.3,60,6,23,72,247,细颗粒物(PM2.5)
合肥市,瑶海区,117.336,31.8586,2025-01-02T2200,205,285,1.5,87,9,20,66,255,细颗粒物(PM2.5)
合肥市,包河区,117.3027,31.7964,2025-01-02T2200,217,273,1.2,81,8,18,59,267,细颗粒物(PM2.5)
合肥市,滨湖新区,117.2776,31.7385,2025-01-02T2200,193,285,1.0,74,14,17,54,243,细颗粒物(PM2.5)
合肥市,高新区,117.1318,31.8403,2025-01-02T2200,208,273,1.5,71,5,30,61,258,细颗粒物(PM2.5)
合肥市,高教基地,117.3803,31.9147,2025-01-02T2200,226,276,1.2,74,13,36,79,276,细颗粒物(PM2.5)
和田地区,地区环保局,79.924,37.0877,2025-01-02T2200,74,146,1.3,48,22,24,52,99,细颗粒物(PM2.5)
和田地区,市环保局,79.9131,37.113,2025-01-02T2200,75,159,1.9,87,33,10,56,105,颗粒物(PM10)
河池市,东仁乐园,108.2011,24.715,2025-01-02T2200,58,63,1.0,36,14,29,54,79,细颗粒物(PM2.5)
河池市,市环保站,108.0497,24.6947,2025-01-02T2200,45,56,0.9,17,7,60,103,63,细颗粒物(PM2.5)
河池市,市疾控中心,108.0983,24.6989,2025-01-02T2200,46,70,0.8,33,7,54,89,64,细颗粒物(PM2.5)
河源市,源西,114.6778,23.7569,2025-01-02T2200,36,53,0.5,25,8,105,105,52,"颗粒物(PM10),细颗粒物(PM2.5)"
河源市,东埔,114.6944,23.7586,2025-01-02T2200,41,42,0.8,26,7,117,128,58,细颗粒物(PM2.5)
河源市,老城,114.6892,23.7233,2025-01-02T2200,39,58,0.6,33,6,94,120,55,细颗粒物(PM2.5)
菏泽市,气象局,115.4208,35.2464,2025-01-02T2200,70,116,0.7,36,8,32,49,94,细颗粒物(PM2.5)
菏泽市,市政协,115.4747,35.2375,2025-01-02T2200,57,96,0.9,45,9,30,50,78,细颗粒物(PM2.5)
菏泽市,定陶老年大学,115.5564,35.0891,2025-01-02T2200,58,97,0.9,50,12,25,50,79,细颗粒物(PM2.5)
菏泽市,菏泽医专,115.4702,35.2706,2025-01-02T2200,58,102,0.7,41,11,33,52,79,细颗粒物(PM2.5)
贺州市,环保小区,111.5264,24.4172,2025-01-02T2200,64,98,1.0,35,9,,124,,
贺州市,政协大楼,111.5608,24.4078,2025-01-02T2200,67,102,0.9,40,8,61,132,90,细颗粒物(PM2.5)
贺州市,西湾,111.4744,24.4553,2025-01-02T2200,55,82,0.8,22,10,100,132,75,细颗粒物(PM2.5)
鹤壁市,市监测站,114.17,35.9019,2025-01-02T2200,65,121,0.1,54,7,2,61,88,细颗粒物(PM2.5)
鹤壁市,市交警支队,114.2956,35.7511,2025-01-02T2200,68,114,1.0,66,2,2,57,92,细颗粒物(PM2.5)
鹤壁市,迎宾馆,114.2878,35.7306,2025-01-02T2200,53,93,0.8,53,3,7,58,73,细颗粒物(PM2.5)
鹤壁市,大新区,114.2617,35.6822,2025-01-02T2200,54,86,0.6,54,6,14,60,74,细颗粒物(PM2.5)
鹤壁市,南山宾馆,114.1572,35.9603,2025-01-02T2200,69,80,0.6,23,3,46,61,93,细颗粒物(PM2.5)
鹤岗市,哈啤分公司,130.2537,47.3416,2025-01-02T2200,31,39,0.4,9,15,49,42,45,
鹤岗市,斯达机电,130.2684,47.3086,2025-01-02T2200,32,39,0.3,11,16,55,50,46,
鹤岗市,东山纸板厂,130.3114,47.3388,2025-01-02T2200,107,,3.6,60,15,11,24,140,细颗粒物(PM2.5)
鹤岗市,五号水库,130.1097,47.3382,2025-01-02T2200,40,54,0.5,21,6,39,58,57,细颗粒物(PM2.5)
黑河市,交通局,127.4833,50.2524,2025-01-02T2200,58,94,1.2,40,15,10,24,79,细颗粒物(PM2.5)
黑河市,环保局,127.5144,50.2341,2025-01-02T2200,68,81,1.3,46,20,6,24,92,细颗粒物(PM2.5)
黑河市,大黑河岛,127.5291,50.2472,2025-01-02T2200,63,82,,13,2,5,22,,
衡水市,电机北厂,115.6838,37.7541,2025-01-02T2200,34,,0.4,24,6,51,71,49,
衡水市,市监测站,115.6303,37.7316,2025-01-02T2200,26,51,0.5,39,6,27,64,51,颗粒物(PM10)
衡水市,市城管局,115.6683,37.7217,2025-01-02T2200,32,42,0.5,39,5,33,66,46,
衡水市,地表水厂,115.5989,37.5491,2025-01-02T2200,40,61,0.7,78,32,13,66,57,细颗粒物(PM2.5)
衡阳市,原169医院,112.5003,26.9167,2025-01-02T2200,95,96,0.6,23,13,116,120,125,细颗粒物(PM2.5)
衡阳市,衡阳化工总厂,112.6194,26.9258,2025-01-02T2200,108,139,1.2,37,18,93,131,142,细颗粒物(PM2.5)
衡阳市,珠晖区环保局,112.6211,26.8956,2025-01-02T2200,107,112,1.0,36,14,99,134,140,细颗粒物(PM2.5)
衡阳市,市委党校,112.6197,26.8733,2025-01-02T2200,103,109,0.9,21,10,133,147,135,细颗粒物(PM2.5)
衡阳市,市监测站,112.6006,26.8919,2025-01-02T2200,108,135,1.0,26,11,117,135,142,细颗粒物(PM2.5)
衡阳市,真空机电公司,112.5664,26.9056,2025-01-02T2200,113,134,0.8,20,10,136,140,148,细颗粒物(PM2.5)
衡阳市,师范学院,112.6703,26.882,2025-01-02T2200,112,137,1.0,25,12,126,141,147,细颗粒物(PM2.5)
红河哈尼族彝族自治州,污水处理厂,103.3772,23.3993,2025-01-02T2200,52,,0.4,8,12,66,65,72,细颗粒物(PM2.5)
红河哈尼族彝族自治州,监测站,103.3861,23.35,2025-01-02T2200,47,,0.7,7,7,71,72,65,细颗粒物(PM2.5)
红河哈尼族彝族自治州,州图书馆,103.3758,23.368,2025-01-02T2200,43,,0.6,7,7,59,62,60,细颗粒物(PM2.5)
呼和浩特市,呼市一监,111.6507,40.7517,2025-01-02T2200,54,100,0.8,49,9,16,66,75,颗粒物(PM10)
呼和浩特市,小召,111.6572,40.8033,2025-01-02T2200,12,41,0.5,39,6,41,65,41,
呼和浩特市,如意水处理厂,111.7516,40.8369,2025-01-02T2200,21,47,0.6,56,7,10,58,47,
呼和浩特市,二十九中,111.7276,40.8062,2025-01-02T2200,20,56,0.5,57,8,18,56,53,颗粒物(PM10)
呼和浩特市,工大金川校区,111.5512,40.7866,2025-01-02T2200,15,42,0.6,68,7,6,59,42,
呼和浩特市,化肥厂生活区,111.717,40.7612,2025-01-02T2200,52,100,0.9,64,9,12,56,75,颗粒物(PM10)
呼和浩特市,红旗小学,111.5968,40.8178,2025-01-02T2200,3,12,0.3,18,3,54,52,17,
呼和浩特市,海东办,111.6518,40.8389,2025-01-02T2200,9,19,0.6,39,5,37,62,20,
呼伦贝尔市,区环保局,119.7594,49.2261,2025-01-02T2200,27,34,0.5,30,7,34,54,39,
呼伦贝尔市,国华电力东,119.7512,49.1577,2025-01-02T2200,25,,0.3,8,5,54,58,36,
湖州市,城西水厂,120.0751,30.8669,2025-01-02T2200,56,93,0.7,98,9,8,75,77,细颗粒物(PM2.5)
湖州市,仁皇山新区,120.0875,30.8955,2025-01-02T2200,33,55,0.4,71,7,47,79,53,颗粒物(PM10)
湖州市,吴兴区站,120.1844,30.8596,2025-01-02T2200,36,60,0.4,85,6,22,68,55,颗粒物(PM10)
湖州市,南浔区站,120.4148,30.8538,2025-01-02T2200,37,58,0.3,54,8,39,53,54,颗粒物(PM10)
葫芦岛市,龙港区,120.9092,40.7136,2025-01-02T2200,39,,0.8,38,24,44,76,55,细颗粒物(PM2.5)
葫芦岛市,化工街,120.8392,40.7514,2025-01-02T2200,80,153,1.8,72,,9,67,107,细颗粒物(PM2.5)
葫芦岛市,新区,120.8341,40.7073,2025-01-02T2200,55,,1.1,71,20,6,71,75,细颗粒物(PM2.5)
葫芦岛市,东城区,120.8695,40.7677,2025-01-02T2200,97,,1.5,64,82,11,65,128,细颗粒物(PM2.5)
怀化市,林科所,109.5981,27.5721,2025-01-02T2200,70,83,0.9,29,43,120,121,94,细颗粒物(PM2.5)
怀化市,河西地税局,109.9453,27.5444,2025-01-02T2200,107,127,1.0,32,12,102,104,140,细颗粒物(PM2.5)
怀化市,市四医院,109.9781,27.5342,2025-01-02T2200,105,138,1.1,21,17,99,104,138,细颗粒物(PM2.5)
怀化市,监测楼,109.9972,27.5578,2025-01-02T2200,116,154,0.8,35,19,83,95,152,细颗粒物(PM2.5)
怀化市,市委党校,110.0394,27.583,2025-01-02T2200,55,138,0.9,23,24,101,106,94,颗粒物(PM10)
淮安市,钵池山,119.036,33.5981,2025-01-02T2200,108,144,1.0,48,6,28,79,142,细颗粒物(PM2.5)
淮安市,北京南路,119.007,33.575,2025-01-02T2200,90,127,0.9,33,8,38,78,119,细颗粒物(PM2.5)
淮安市,市监测站,118.989,33.6067,2025-01-02T2200,107,146,1.0,42,6,34,80,140,细颗粒物(PM2.5)
淮安市,楚州区监测站,119.135,33.5039,2025-01-02T2200,89,142,0.8,39,6,31,76,118,细颗粒物(PM2.5)
淮安市,淮阴区监测站,119.0186,33.6297,2025-01-02T2200,102,163,0.9,41,6,35,79,134,细颗粒物(PM2.5)
淮安市,新华书店,118.8755,33.2894,2025-01-02T2200,114,149,1.1,51,9,30,69,149,细颗粒物(PM2.5)
淮北市,监测站,116.8004,33.975,2025-01-02T2200,156,242,1.4,62,13,21,34,206,细颗粒物(PM2.5)
淮北市,烈山区政府,116.8091,33.9007,2025-01-02T2200,174,265,1.4,82,11,16,40,224,细颗粒物(PM2.5)
淮北市,杜集区检察院,116.8873,33.9836,2025-01-02T2200,189,252,1.0,80,12,1,36,239,细颗粒物(PM2.5)
淮北市,市博物馆,116.7923,33.9535,2025-01-02T2200,161,244,1.3,64,17,27,36,211,细颗粒物(PM2.5)
淮南市,潘集区政府,116.8305,32.7727,2025-01-02T2200,207,271,1.5,74,16,14,52,257,细颗粒物(PM2.5)
淮南市,师范学院,117.0067,32.6524,2025-01-02T2200,192,298,1.3,64,8,16,55,242,细颗粒物(PM2.5)
淮南市,谢家集区政府,116.8569,32.5951,2025-01-02T2200,188,277,1.3,71,13,17,55,238,细颗粒物(PM2.5)
淮南市,八公山区政府,116.8281,32.633,2025-01-02T2200,192,277,1.5,66,11,18,54,242,细颗粒物(PM2.5)
淮南市,焦岗湖风景区管理处,116.6325,32.6201,2025-01-02T2200,137,206,1.2,32,4,17,40,182,细颗粒物(PM2.5)
淮南市,经济技术开发区消防队,117.0566,32.6531,2025-01-02T2200,202,288,1.2,59,10,23,64,252,细颗粒物(PM2.5)
淮南市,山南新区,117.0108,32.5893,2025-01-02T2200,241,301,1.4,65,13,33,64,291,细颗粒物(PM2.5)
黄冈市,职工中心,114.9028,30.4742,2025-01-02T2200,144,199,1.1,56,12,67,116,192,细颗粒物(PM2.5)
黄冈市,红卫路,114.8858,30.4519,2025-01-02T2200,139,201,1.2,44,10,66,109,185,细颗粒物(PM2.5)
黄冈市,市林业局,114.9136,30.4445,2025-01-02T2200,156,195,1.1,39,14,68,116,206,细颗粒物(PM2.5)
黄南藏族自治州,同仁县隆务镇,102.0199,35.5102,2025-01-02T2200,29,42,1.0,12,13,60,82,42,
黄山市,延安路89号,118.2903,29.6963,2025-01-02T2200,62,89,0.4,22,7,96,107,84,细颗粒物(PM2.5)
黄山市,黄山东路89号,118.327,29.7178,2025-01-02T2200,62,100,0.5,22,8,91,84,84,细颗粒物(PM2.5)
黄山市,黄山区政府5号楼,118.1371,30.2756,2025-01-02T2200,45,67,0.6,14,7,64,116,63,细颗粒物(PM2.5)
黄石市,沈家营,115.0601,30.2313,2025-01-02T2200,146,213,1.2,38,16,82,118,195,细颗粒物(PM2.5)
黄石市,陈家湾,115.0817,30.2006,2025-01-02T2200,164,209,,35,12,74,109,214,细颗粒物(PM2.5)
黄石市,铁山,114.8988,30.2019,2025-01-02T2200,165,170,1.7,42,,79,125,215,细颗粒物(PM2.5)
黄石市,团城山,115.0307,30.2092,2025-01-02T2200,147,197,1.2,46,14,87,120,196,细颗粒物(PM2.5)
黄石市,笔架山北路,115.0235,30.1578,2025-01-02T2200,168,189,1.4,55,20,67,121,218,细颗粒物(PM2.5)
惠州市,河南岸金山湖子站,114.4183,23.0528,2025-01-02T2200,35,56,0.6,22,11,100,113,53,颗粒物(PM10)
惠州市,下埔横江三路子站,114.4053,23.0822,2025-01-02T2200,39,60,0.8,,11,84,123,,
惠州市,江北云山西路子站,114.4103,23.1142,2025-01-02T2200,36,59,0.7,27,12,110,130,55,颗粒物(PM10)
惠州市,惠阳区承修路船湖子站,114.4645,22.7833,2025-01-02T2200,50,99,0.9,50,10,51,106,75,颗粒物(PM10)
惠州市,大亚湾管委会子站,114.5317,22.7422,2025-01-02T2200,50,97,0.7,70,12,62,109,74,颗粒物(PM10)
惠州市,惠阳秋长,114.4338,22.8134,2025-01-02T2200,40,88,0.8,43,12,78,122,69,颗粒物(PM10)
惠州市,大亚湾霞涌,114.6517,22.775,2025-01-02T2200,50,69,0.6,28,7,71,121,69,细颗粒物(PM2.5)
鸡西市,环保局,130.9762,45.3001,2025-01-02T2200,28,43,0.4,13,8,49,54,43,
鸡西市,第一中学,130.9429,45.3039,2025-01-02T2200,22,32,0.2,8,8,54,62,32,
鸡西市,欧美日汽修厂,131.0207,45.3073,2025-01-02T2200,74,95,0.6,35,23,12,49,99,细颗粒物(PM2.5)
鸡西市,市政设施管理处,130.9967,45.3106,2025-01-02T2200,31,69,0.7,22,8,40,52,60,颗粒物(PM10)
吉安市,红声器材厂,114.9754,27.0803,2025-01-02T2200,62,95,0.8,38,16,102,133,84,细颗粒物(PM2.5)
吉安市,市森林工业局,114.9658,27.0999,2025-01-02T2200,61,94,1.3,51,18,82,125,83,细颗粒物(PM2.5)
吉安市,市环境监测站,114.99,27.1312,2025-01-02T2200,76,101,0.7,35,16,101,136,102,细颗粒物(PM2.5)
吉安市,青原区法院,115.0093,27.0968,2025-01-02T2200,67,104,0.9,48,16,97,136,90,细颗粒物(PM2.5)
吉林市,哈达湾,126.54,43.8622,2025-01-02T2200,24,35,0.6,23,9,39,56,35,
吉林市,东局子,126.5844,43.8358,2025-01-02T2200,23,42,0.7,31,8,30,58,42,
吉林市,电力学院,126.5052,43.8245,2025-01-02T2200,58,88,1.4,42,11,15,56,79,细颗粒物(PM2.5)
吉林市,江北,126.6133,43.8972,2025-01-02T2200,24,41,0.7,28,10,34,56,41,
吉林市,江南公园,126.555,43.8306,2025-01-02T2200,36,50,0.8,36,10,25,56,52,细颗粒物(PM2.5)
吉林市,丰满,126.7061,43.7133,2025-01-02T2200,16,19,0.5,6,7,52,57,23,
吉林市,九站,126.4739,43.953,2025-01-02T2200,16,22,0.5,16,4,47,56,23,
济南市,科干所,116.9862,36.6114,2025-01-02T2200,34,63,1.1,53,17,24,55,57,颗粒物(PM10)
济南市,农科所,116.9376,36.665,2025-01-02T2200,32,90,1.1,88,17,9,50,70,颗粒物(PM10)
济南市,开发区,117.1265,36.6734,2025-01-02T2200,46,83,1.3,78,12,8,52,67,颗粒物(PM10)
济南市,省种子仓库,117.0624,36.6868,2025-01-02T2200,34,85,1.0,80,13,9,54,68,颗粒物(PM10)
济南市,机床二厂,116.9489,36.6447,2025-01-02T2200,39,88,1.4,72,23,9,56,69,颗粒物(PM10)
济南市,市监测站,117.0495,36.663,2025-01-02T2200,34,71,1.2,72,8,10,56,61,颗粒物(PM10)
济南市,长清党校,116.7675,36.5484,2025-01-02T2200,37,83,1.2,80,16,8,57,67,颗粒物(PM10)
济南市,技术学院,117.6795,36.229,2025-01-02T2200,58,90,1.5,73,14,7,53,79,细颗粒物(PM2.5)
济南市,东山小学,117.532,36.6868,2025-01-02T2200,37,71,0.9,67,10,10,51,61,颗粒物(PM10)
济南市,泰兴公司,117.7161,36.2049,2025-01-02T2200,75,124,1.3,81,19,9,57,100,细颗粒物(PM2.5)
济南市,莱芜战役纪念馆,117.6867,36.2171,2025-01-02T2200,63,141,1.4,81,14,11,58,96,颗粒物(PM10)
济南市,济阳区政府,117.1673,36.9782,2025-01-02T2200,34,63,0.8,62,12,32,51,57,颗粒物(PM10)
济南市,锦屏中学,117.1171,36.63,2025-01-02T2200,29,51,0.8,53,6,19,61,51,颗粒物(PM10)
济南市,济南四建,116.9814,36.6819,2025-01-02T2200,34,73,1.2,85,13,6,44,62,颗粒物(PM10)
济宁市,火炬城,116.6251,35.4302,2025-01-02T2200,46,72,1.1,51,13,20,56,64,细颗粒物(PM2.5)
济宁市,电化厂,116.5491,35.4042,2025-01-02T2200,46,81,1.1,53,18,23,50,66,颗粒物(PM10)
济宁市,北湖一中,116.5814,35.3707,2025-01-02T2200,44,72,1.3,47,12,27,56,62,细颗粒物(PM2.5)
济宁市,服务中心,116.8249,35.5593,2025-01-02T2200,70,125,1.0,69,23,11,63,94,细颗粒物(PM2.5)
济宁市,市第七中学,116.5907,35.4054,2025-01-02T2200,39,69,1.2,44,10,30,56,60,颗粒物(PM10)
佳木斯市,佳纺,130.2751,46.8028,2025-01-02T2200,55,55,0.7,18,5,49,60,75,细颗粒物(PM2.5)
佳木斯市,发电厂,130.3995,46.8307,2025-01-02T2200,54,,0.6,21,7,45,40,74,细颗粒物(PM2.5)
佳木斯市,环保局,130.3258,46.7975,2025-01-02T2200,49,58,0.7,26,9,42,50,68,细颗粒物(PM2.5)
佳木斯市,十一中,130.3648,46.8032,2025-01-02T2200,48,51,0.7,27,7,44,43,67,细颗粒物(PM2.5)
佳木斯市,四丰,130.3794,46.7588,2025-01-02T2200,36,54,0.7,12,1,52,60,52,"颗粒物(PM10),细颗粒物(PM2.5)"
嘉兴市,清河小学,120.7436,30.778,2025-01-02T2200,33,56,0.1,58,9,33,67,53,颗粒物(PM10)
嘉兴市,嘉兴学院,120.726,30.7478,2025-01-02T2200,32,69,0.5,60,6,28,76,60,颗粒物(PM10)
嘉兴市,南湖区残联,120.7846,30.7525,2025-01-02T2200,35,58,0.5,62,8,31,82,54,颗粒物(PM10)
嘉兴市,秀洲住建,120.6916,30.7739,2025-01-02T2200,34,61,0.4,67,7,23,60,56,颗粒物(PM10)
嘉峪关市,气象局,98.2908,39.7711,2025-01-02T2200,44,83,0.5,36,7,37,69,67,颗粒物(PM10)
嘉峪关市,酒钢宾馆,98.2672,39.7978,2025-01-02T2200,36,88,0.7,24,20,51,64,69,颗粒物(PM10)
嘉峪关市,雄关区,98.2643,39.7724,2025-01-02T2200,36,82,0.8,34,12,46,73,66,颗粒物(PM10)
江门市,北街,113.1064,22.6058,2025-01-02T2200,63,95,2.0,111,5,22,102,85,细颗粒物(PM2.5)
江门市,西区,113.0731,22.5835,2025-01-02T2200,58,171,1.4,123,10,10,100,111,颗粒物(PM10)
江门市,圭峰西,113.0219,22.5311,2025-01-02T2200,48,64,0.8,38,8,98,119,67,细颗粒物(PM2.5)
江门市,东湖,113.0828,22.5947,2025-01-02T2200,72,130,1.5,122,8,4,102,97,细颗粒物(PM2.5)
江门市,江海富民,113.1075,22.5647,2025-01-02T2200,55,112,1.7,124,9,16,104,81,颗粒物(PM10)
江门市,新会银湖,113.05,22.4667,2025-01-02T2200,61,88,1.0,100,6,9,98,83,细颗粒物(PM2.5)
焦作市,市环保局,113.227,35.2125,2025-01-02T2200,77,119,1.3,63,8,8,48,103,细颗粒物(PM2.5)
焦作市,影视城,113.1992,35.2590,2025-01-02T2200,53,152,1.0,31,11,48,48,101,颗粒物(PM10)
焦作市,太极体育中心,113.2725,35.2067,2025-01-02T2200,81,137,1.2,65,13,13,46,108,细颗粒物(PM2.5)
焦作市,马村街道办,113.3137,35.2641,2025-01-02T2200,72,127,1.3,56,12,9,43,97,细颗粒物(PM2.5)
焦作市,焦作技师学院,113.2465,35.2373,2025-01-02T2200,92,153,1.3,59,10,21,51,122,细颗粒物(PM2.5)
焦作市,中站许衡医院,113.1656,35.2539,2025-01-02T2200,66,120,0.9,52,10,20,48,89,细颗粒物(PM2.5)
焦作市,原李万街道办,113.2449,35.1803,2025-01-02T2200,46,107,0.9,41,10,25,42,79,颗粒物(PM10)
揭阳市,新兴,116.3701,23.5345,2025-01-02T2200,49,72,0.7,29,7,88,143,68,细颗粒物(PM2.5)
揭阳市,西马,116.3264,23.5443,2025-01-02T2200,38,74,0.8,24,9,100,152,62,颗粒物(PM10)
揭阳市,东兴,116.3611,23.5626,2025-01-02T2200,38,76,0.9,27,14,100,146,63,颗粒物(PM10)
揭阳市,渔湖,116.4151,23.5294,2025-01-02T2200,33,90,0.7,42,11,85,150,70,颗粒物(PM10)
揭阳市,曲溪,116.403,23.5699,2025-01-02T2200,41,78,0.8,37,7,105,157,64,颗粒物(PM10)
金昌市,天庆家园,102.1692,38.5167,2025-01-02T2200,59,85,0.8,19,14,52,70,80,细颗粒物(PM2.5)
金昌市,市委党校,102.1864,38.5253,2025-01-02T2200,41,111,0.7,13,6,71,79,81,颗粒物(PM10)
金昌市,金川区人防中心,102.1647,38.5371,2025-01-02T2200,80,95,0.7,12,9,55,71,107,细颗粒物(PM2.5)
金华市,十五中,119.647,29.077,2025-01-02T2200,77,135,0.7,50,4,62,99,103,细颗粒物(PM2.5)
金华市,监测站,119.686,29.1029,2025-01-02T2200,87,136,0.8,62,6,54,95,115,细颗粒物(PM2.5)
金华市,气象局,119.656,29.1131,2025-01-02T2200,77,144,0.9,57,5,56,94,103,细颗粒物(PM2.5)
锦州市,南山,121.1115,41.0879,2025-01-02T2200,88,,1.2,62,98,21,70,117,细颗粒物(PM2.5)
锦州市,开发区,121.0533,40.8434,2025-01-02T2200,42,90,1.0,89,38,7,53,70,颗粒物(PM10)
锦州市,百股街道,121.1836,41.1119,2025-01-02T2200,88,,1.4,72,18,13,72,117,细颗粒物(PM2.5)
锦州市,天安街道,121.1178,41.1222,2025-01-02T2200,52,75,1.9,57,73,18,70,72,细颗粒物(PM2.5)
锦州市,北湖公园,121.1303,41.1386,2025-01-02T2200,44,64,1.9,53,89,19,66,62,细颗粒物(PM2.5)
晋城市,自来水公司,112.85,35.5051,2025-01-02T2200,110,184,1.5,63,18,28,54,144,细颗粒物(PM2.5)
晋城市,白云商贸,112.8318,35.4936,2025-01-02T2200,112,194,1.4,67,16,22,50,147,细颗粒物(PM2.5)
晋城市,市环保局,112.8508,35.4887,2025-01-02T2200,110,194,1.5,58,18,35,52,144,细颗粒物(PM2.5)
晋城市,技术学院,112.8676,35.4897,2025-01-02T2200,107,190,1.5,57,17,36,54,140,细颗粒物(PM2.5)
晋城市,白马寺,112.8453,35.546,2025-01-02T2200,96,171,1.4,43,23,29,44,127,细颗粒物(PM2.5)
晋城市,泽州一中,112.8271,35.4828,2025-01-02T2200,112,161,1.6,69,18,25,53,147,细颗粒物(PM2.5)
晋中市,锦纶小区,112.7532,37.6945,2025-01-02T2200,39,88,0.7,53,14,20,46,69,颗粒物(PM10)
晋中市,南都小区,112.7249,37.7067,2025-01-02T2200,45,78,0.7,65,12,11,46,64,颗粒物(PM10)
晋中市,榆次区政府,112.6991,37.6982,2025-01-02T2200,21,66,0.4,66,7,15,45,58,颗粒物(PM10)
晋中市,榆次三中,112.7195,37.6828,2025-01-02T2200,39,100,0.8,68,13,7,44,75,颗粒物(PM10)
荆门市,竹园小学,112.2014,31.0481,2025-01-02T2200,120,206,1.0,42,12,62,99,158,细颗粒物(PM2.5)
荆门市,掇刀,112.1969,30.9891,2025-01-02T2200,113,192,1.0,42,16,69,105,148,细颗粒物(PM2.5)
荆门市,石化一小,112.2213,31.0386,2025-01-02T2200,124,225,0.8,46,13,60,100,163,细颗粒物(PM2.5)
荆门市,西山林语,112.1849,31.0362,2025-01-02T2200,109,184,0.7,38,13,70,105,143,细颗粒物(PM2.5)
荆门市,龙泉中学南校,112.1632,31.0138,2025-01-02T2200,119,183,0.9,28,18,79,102,156,细颗粒物(PM2.5)
荆州市,市图书馆,112.2494,30.3197,2025-01-02T2200,133,179,1.0,38,10,66,112,176,细颗粒物(PM2.5)
荆州市,市委党校,112.2008,30.3544,2025-01-02T2200,130,187,1.0,39,13,65,114,172,细颗粒物(PM2.5)
荆州市,管委会,112.2747,30.3122,2025-01-02T2200,135,185,1.1,42,10,62,110,179,细颗粒物(PM2.5)
荆州市,学苑路,112.1655,30.3364,2025-01-02T2200,133,170,1.2,55,15,68,112,176,细颗粒物(PM2.5)
景德镇市,王港中学,117.3102,29.3867,2025-01-02T2200,,,,,,,,,
景德镇市,老干部活动中心,117.2117,29.2933,2025-01-02T2200,56,96,0.8,50,13,34,89,77,细颗粒物(PM2.5)
景德镇市,兽医站,117.1894,29.2789,2025-01-02T2200,53,101,0.2,47,18,50,96,76,颗粒物(PM10)
景德镇市,台达陶瓷,117.1547,29.2617,2025-01-02T2200,66,131,0.7,117,19,31,94,91,颗粒物(PM10)
景德镇市,陶研所,117.2461,29.2956,2025-01-02T2200,36,67,0.9,46,3,28,87,59,颗粒物(PM10)
九江市,十里,115.9872,29.6815,2025-01-02T2200,98,138,0.9,42,11,67,100,129,细颗粒物(PM2.5)
九江市,茅山头,115.9584,29.7046,2025-01-02T2200,89,133,1.1,65,9,62,101,118,细颗粒物(PM2.5)
九江市,西园,115.9877,29.7295,2025-01-02T2200,71,106,0.7,61,11,60,92,95,细颗粒物(PM2.5)
九江市,五七二七厂,116.0172,29.6547,2025-01-02T2200,67,129,0.5,32,14,84,104,90,"颗粒物(PM10),细颗粒物(PM2.5)"
九江市,综合工业园,115.9114,29.6038,2025-01-02T2200,92,124,1.0,84,14,48,108,122,细颗粒物(PM2.5)
九江市,石化总厂,116.0721,29.7535,2025-01-02T2200,94,122,0.9,40,13,75,101,124,细颗粒物(PM2.5)
九江市,庐山气象台,115.9773,29.5698,2025-01-02T2200,52,83,1.1,16,7,120,120,72,细颗粒物(PM2.5)
九江市,外国语学校,116.0254,29.6994,2025-01-02T2200,82,128,0.6,32,13,80,100,109,细颗粒物(PM2.5)
酒泉市,仓门街子站,98.5061,39.7443,2025-01-02T2200,23,48,0.5,9,8,71,80,48,
酒泉市,油田生活基地,98.4989,39.7256,2025-01-02T2200,33,61,0.5,8,68,52,54,56,颗粒物(PM10)
喀什地区,巡警大队,76.0072,39.4467,2025-01-02T2200,78,134,1.8,50,3,51,62,104,细颗粒物(PM2.5)
喀什地区,吾办,75.9755,39.4694,2025-01-02T2200,99,139,2.0,56,3,43,58,130,细颗粒物(PM2.5)
喀什地区,老干局,75.9483,39.4689,2025-01-02T2200,81,169,2.4,51,4,47,65,110,颗粒物(PM10)
开封市,肿瘤医院,114.3389,34.7781,2025-01-02T2200,46,92,0.7,33,3,35,57,71,颗粒物(PM10)
开封市,世纪星幼儿园,114.2885,34.7965,2025-01-02T2200,66,81,0.6,34,4,37,58,89,细颗粒物(PM2.5)
开封市,龙亭公园,114.3438,34.8106,2025-01-02T2200,45,73,0.9,48,4,27,55,63,细颗粒物(PM2.5)
开封市,汴京公园,114.3644,34.7964,2025-01-02T2200,48,80,0.8,42,4,26,56,67,细颗粒物(PM2.5)
开封市,技师学院,114.2485,34.8306,2025-01-02T2200,46,82,0.9,56,6,18,53,66,颗粒物(PM10)
开封市,祥符区生态环境局,114.4644,34.7556,2025-01-02T2200,58,102,0.6,40,4,,,,
克拉玛依市,长征新村,84.895,45.6094,2025-01-02T2200,97,157,1.2,46,6,34,36,128,细颗粒物(PM2.5)
克拉玛依市,南林小区,84.8988,45.5893,2025-01-02T2200,105,134,1.3,28,1,53,36,138,细颗粒物(PM2.5)
克拉玛依市,独山子区,84.905,44.3396,2025-01-02T2200,260,279,1.4,70,5,40,56,310,细颗粒物(PM2.5)
克拉玛依市,乌尔禾区商贸楼,85.6979,46.098,2025-01-02T2200,148,,1.2,33,5,79,66,198,细颗粒物(PM2.5)
克拉玛依市,白碱滩区新站,85.1045,45.6899,2025-01-02T2200,103,141,1.4,28,9,63,42,135,细颗粒物(PM2.5)
克孜勒苏柯尔克孜自治州,市人民政府,76.1454,39.7142,2025-01-02T2200,72,117,1.3,30,6,59,62,97,细颗粒物(PM2.5)
克孜勒苏柯尔克孜自治州,克州文化中心,76.1658,39.7157,2025-01-02T2200,73,118,1.4,43,10,54,62,98,细颗粒物(PM2.5)
昆明市,呈贡新区,102.8204,24.8886,2025-01-02T2200,37,38,0.6,28,6,42,75,53,细颗粒物(PM2.5)
昆明市,西山森林公园,102.6251,24.9608,2025-01-02T2200,,,,,,,,,
昆明市,龙泉镇,102.7252,25.0902,2025-01-02T2200,40,66,0.7,47,6,17,66,58,颗粒物(PM10)
昆明市,东风东路,102.7266,25.0375,2025-01-02T2200,39,64,0.8,37,8,28,68,57,颗粒物(PM10)
昆明市,金鼎山,102.6742,25.0669,2025-01-02T2200,54,,0.7,38,9,33,66,74,细颗粒物(PM2.5)
昆明市,碧鸡广场,102.6644,25.0401,2025-01-02T2200,46,68,0.9,68,9,6,68,64,细颗粒物(PM2.5)
昆明市,官渡区博物馆,102.7494,25.0119,2025-01-02T2200,47,60,0.9,64,8,6,72,65,细颗粒物(PM2.5)
昆明市,青年创业园,102.8017,24.8336,2025-01-02T2200,30,57,0.8,14,8,59,83,54,颗粒物(PM10)
昆明市,昆明学院,102.7997,24.9786,2025-01-02T2200,45,66,0.6,28,9,44,76,63,细颗粒物(PM2.5)
昆明市,晋宁区生态环境分局,102.5967,24.6736,2025-01-02T2200,36,48,0.7,30,3,34,78,52,细颗粒物(PM2.5)
昆明市,云天化总部,102.6678,24.9856,2025-01-02T2200,28,46,0.6,56,6,11,76,46,
拉萨市,八廓街,91.1319,29.6514,2025-01-02T2200,41,66,1.3,77,9,26,88,58,"颗粒物(PM10),细颗粒物(PM2.5)"
拉萨市,市环保局,91.1221,29.6747,2025-01-02T2200,88,139,2.5,64,14,14,90,117,细颗粒物(PM2.5)
拉萨市,区监测站,91.0874,29.6475,2025-01-02T2200,34,54,1.2,87,9,18,90,52,颗粒物(PM10)
拉萨市,西藏大学,91.1774,29.6541,2025-01-02T2200,24,63,1.0,48,7,43,93,57,颗粒物(PM10)
拉萨市,区辐射站,90.9798,29.6588,2025-01-02T2200,57,76,1.1,60,12,38,87,78,细颗粒物(PM2.5)
拉萨市,拉萨火车站,91.0834,29.6292,2025-01-02T2200,20,45,1.0,64,5,29,93,45,
来宾市,来宾技工学校,109.2203,23.7256,2025-01-02T2200,96,129,1.6,43,12,77,141,127,细颗粒物(PM2.5)
来宾市,兴宾区政府,109.1781,23.7297,2025-01-02T2200,78,120,1.4,31,12,97,141,104,细颗粒物(PM2.5)
来宾市,中南小学,109.2416,23.7461,2025-01-02T2200,96,148,1.6,44,15,72,137,127,细颗粒物(PM2.5)
兰州市,兰炼宾馆,103.631,36.1031,2025-01-02T2200,85,119,1.8,110,28,10,64,113,细颗粒物(PM2.5)
兰州市,榆中兰大校区,104.1373,35.9454,2025-01-02T2200,,,,,,,,,
兰州市,生物制品所,103.8412,36.0726,2025-01-02T2200,64,103,1.4,86,18,3,31,87,细颗粒物(PM2.5)
兰州市,铁路设计院,103.831,36.0464,2025-01-02T2200,74,119,2.0,103,22,4,23,99,细颗粒物(PM2.5)
兰州市,教育港,103.7158,36.1058,2025-01-02T2200,69,105,1.6,88,23,2,55,93,细颗粒物(PM2.5)
兰州市,百合公园,103.7439,36.0842,2025-01-02T2200,69,100,2.4,86,19,6,44,93,细颗粒物(PM2.5)
兰州市,和平,103.9611,35.998,2025-01-02T2200,45,80,1.4,79,23,22,62,65,颗粒物(PM10)
兰州新区,新区管委会,103.6633,36.533,2025-01-02T2200,40,65,0.5,31,17,40,68,58,颗粒物(PM10)
兰州新区,舟曲中学,103.6975,36.4789,2025-01-02T2200,32,75,0.8,53,28,31,73,63,颗粒物(PM10)
廊坊市,药材公司,116.6708,39.5111,2025-01-02T2200,20,40,0.5,43,3,36,65,40,
廊坊市,开发区,116.7214,39.5589,2025-01-02T2200,21,45,0.4,36,5,42,70,45,
廊坊市,北华航天学院,116.7244,39.5269,2025-01-02T2200,19,50,0.4,24,10,53,70,50,
廊坊市,河北工业大学,116.7022,39.5453,2025-01-02T2200,20,46,0.4,30,5,52,70,46,
乐山市,花湖湾,103.7723,29.5462,2025-01-02T2200,61,188,0.8,35,6,77,116,119,颗粒物(PM10)
乐山市,牛耳桥,103.7627,29.5844,2025-01-02T2200,125,159,0.9,61,6,10,80,165,细颗粒物(PM2.5)
乐山市,市第三水厂,103.7508,29.6006,2025-01-02T2200,128,157,1.3,74,4,5,79,169,细颗粒物(PM2.5)
乐山市,市监测站,103.7571,29.5664,2025-01-02T2200,95,118,1.7,74,4,10,101,125,细颗粒物(PM2.5)
乐山市,理工大学,103.7311,29.5628,2025-01-02T2200,106,129,1.1,66,6,19,78,139,细颗粒物(PM2.5)
丽江市,西南郊,100.2143,26.8576,2025-01-02T2200,49,84,1.4,48,6,41,94,68,细颗粒物(PM2.5)
丽江市,丽江古城,100.2497,26.8802,2025-01-02T2200,30,50,0.7,18,11,70,93,50,
丽江市,市中心,100.2203,26.8906,2025-01-02T2200,23,27,0.8,14,13,78,90,33,
丽水市,监测站大楼,119.914,28.4514,2025-01-02T2200,52,77,0.6,51,5,43,105,72,细颗粒物(PM2.5)
丽水市,莲都小学,119.93,28.4586,2025-01-02T2200,57,90,0.7,58,6,42,121,78,细颗粒物(PM2.5)
丽水市,余庄前,119.879,28.4231,2025-01-02T2200,36,59,0.4,21,4,57,111,55,颗粒物(PM10)
连云港市,市环境监测站,119.176,34.5885,2025-01-02T2200,34,61,0.8,48,11,38,72,56,颗粒物(PM10)
连云港市,德源药业,119.3581,34.6972,2025-01-02T2200,22,36,0.3,33,8,53,68,36,
连云港市,新城一中,119.178,34.844,2025-01-02T2200,40,83,0.8,63,15,16,61,67,颗粒物(PM10)
连云港市,胡沟管理处,119.3608,34.7519,2025-01-02T2200,7,29,0.5,20,6,59,75,29,
连云港市,矿山设计院,119.1478,34.5911,2025-01-02T2200,36,70,0.6,49,8,28,73,60,颗粒物(PM10)
连云港市,工贸学校,119.2413,34.6539,2025-01-02T2200,24,41,0.5,25,10,56,74,41,
连云港市,连云街道,119.4172,34.7341,2025-01-02T2200,18,30,0.4,41,8,33,55,30,
凉山彝族自治州,青龙寺,102.3431,27.8099,2025-01-02T2200,16,47,0.9,16,5,60,106,47,
凉山彝族自治州,邛海宾馆,102.2721,27.8415,2025-01-02T2200,32,51,0.7,18,11,68,90,51,颗粒物(PM10)
凉山彝族自治州,西昌市政府,102.2625,27.898,2025-01-02T2200,34,43,0.7,10,8,66,88,49,
凉山彝族自治州,凉山州政府,102.2685,27.8851,2025-01-02T2200,38,54,0.5,18,8,59,87,54,细颗粒物(PM2.5)
凉山彝族自治州,长安,102.237,27.8914,2025-01-02T2200,32,54,0.6,8,7,72,88,52,颗粒物(PM10)
辽阳市,宏伟区,123.2,41.1953,2025-01-02T2200,57,92,1.0,43,28,12,52,78,细颗粒物(PM2.5)
辽阳市,新华园,123.1683,41.2495,2025-01-02T2200,74,150,1.2,87,25,6,53,100,颗粒物(PM10)
辽阳市,滨河路,123.2354,41.2639,2025-01-02T2200,61,93,0.9,63,23,11,56,83,细颗粒物(PM2.5)
辽阳市,铁西工业园,123.149,41.2991,2025-01-02T2200,104,180,1.8,73,21,4,55,137,细颗粒物(PM2.5)
辽源市,环保局,125.1358,42.8845,2025-01-02T2200,39,69,1.5,44,10,10,61,60,颗粒物(PM10)
辽源市,银鹰制药,125.0764,42.9078,2025-01-02T2200,38,66,1.0,49,8,7,60,58,颗粒物(PM10)
聊城市,区政府,115.9848,36.4372,2025-01-02T2200,34,57,1.0,52,15,29,57,54,颗粒物(PM10)
聊城市,聊大东校,116.0072,36.4343,2025-01-02T2200,46,68,1.0,61,14,23,54,64,细颗粒物(PM2.5)
聊城市,监控中心,115.9819,36.4978,2025-01-02T2200,85,114,1.3,68,19,21,58,113,细颗粒物(PM2.5)
聊城市,九州社区,116.0445,36.4361,2025-01-02T2200,50,74,0.9,61,16,13,56,69,细颗粒物(PM2.5)
聊城市,星美广场,116.0567,36.4608,2025-01-02T2200,57,93,1.2,66,16,15,58,78,细颗粒物(PM2.5)
林芝市,林芝监测站,94.3681,29.6376,2025-01-02T2200,36,49,1.2,57,7,23,85,52,细颗粒物(PM2.5)
林芝市,林芝人民医院,94.3616,29.6616,2025-01-02T2200,23,37,0.9,24,6,49,76,37,
临沧市,市环保局,100.0781,23.8982,2025-01-02T2200,36,59,0.5,22,12,38,75,55,颗粒物(PM10)
临沧市,市气象局,100.0894,23.8822,2025-01-02T2200,38,41,0.6,18,10,42,75,54,细颗粒物(PM2.5)
临汾市,临钢医院,111.5531,36.0783,2025-01-02T2200,41,93,0.7,44,9,27,50,72,颗粒物(PM10)
临汾市,技工学校,111.5028,36.0714,2025-01-02T2200,,,,,,,,,
临汾市,市委,111.5018,36.0855,2025-01-02T2200,60,122,1.1,58,10,20,52,86,颗粒物(PM10)
临汾市,唐尧大酒店,111.505,36.1014,2025-01-02T2200,28,64,0.5,35,8,35,50,57,颗粒物(PM10)
临汾市,城南,111.5036,36.0414,2025-01-02T2200,60,116,1.2,56,10,9,48,83,颗粒物(PM10)
临夏回族自治州,环保局,103.2069,35.5993,2025-01-02T2200,104,159,2.3,58,19,22,77,137,细颗粒物(PM2.5)
临夏回族自治州,建设大厦,103.2417,35.6057,2025-01-02T2200,123,178,2.0,63,15,13,82,162,细颗粒物(PM2.5)
临沂市,沂河小区,118.3429,35.0532,2025-01-02T2200,39,58,0.6,34,14,46,61,55,细颗粒物(PM2.5)
临沂市,鲁南制药厂,118.295,35.0583,2025-01-02T2200,32,61,0.7,43,12,38,56,56,颗粒物(PM10)
临沂市,新光毛纺厂,118.2794,34.9976,2025-01-02T2200,30,53,0.6,34,11,45,59,52,颗粒物(PM10)
临沂市,河东保险公司,118.3956,35.0888,2025-01-02T2200,52,80,0.9,69,14,9,60,72,细颗粒物(PM2.5)
临沂市,十里堡居委,118.3564,35.0215,2025-01-02T2200,46,68,0.9,43,15,31,59,64,细颗粒物(PM2.5)
临沂市,南坊新区,118.3604,35.1084,2025-01-02T2200,51,75,0.6,64,11,19,68,70,细颗粒物(PM2.5)
临沂市,皇山花园小区,118.3920,35.0300,2025-01-02T2200,47,85,1.1,76,16,10,63,68,颗粒物(PM10)
柳州市,柳东小学,109.4856,24.3895,2025-01-02T2200,56,65,0.4,19,15,115,128,77,细颗粒物(PM2.5)
柳州市,环保监测站,109.4157,24.3277,2025-01-02T2200,56,75,0.9,34,15,93,119,77,细颗粒物(PM2.5)
柳州市,河西水厂,109.389,24.341,2025-01-02T2200,50,88,1.0,56,15,61,123,69,"颗粒物(PM10),细颗粒物(PM2.5)"
柳州市,市四中,109.4311,24.2921,2025-01-02T2200,48,62,1.4,26,13,105,123,67,细颗粒物(PM2.5)
柳州市,市九中,109.4006,24.3631,2025-01-02T2200,63,69,0.7,18,12,107,124,85,细颗粒物(PM2.5)
柳州市,古亭山,109.4958,24.3134,2025-01-02T2200,41,54,1.0,17,16,122,123,58,细颗粒物(PM2.5)
柳州市,市二中,109.5422,24.3996,2025-01-02T2200,46,58,0.8,22,14,100,111,64,细颗粒物(PM2.5)
六安市,监测大楼,116.5079,31.737,2025-01-02T2200,202,238,1.3,57,8,35,77,252,细颗粒物(PM2.5)
六安市,皖西学院,116.4738,31.7643,2025-01-02T2200,209,252,1.4,70,8,28,78,259,细颗粒物(PM2.5)
六安市,朝阳厂,116.4996,31.7905,2025-01-02T2200,184,229,1.5,62,5,29,74,234,细颗粒物(PM2.5)
六安市,开发区,116.5567,31.7886,2025-01-02T2200,188,293,1.4,60,7,36,76,238,细颗粒物(PM2.5)
六盘水市,窑上,104.8,26.5892,2025-01-02T2200,47,62,0.8,10,16,71,66,65,细颗粒物(PM2.5)
六盘水市,黄土坡,104.83,26.5917,2025-01-02T2200,52,61,0.8,16,14,76,66,72,细颗粒物(PM2.5)
六盘水市,水钢,104.89,26.5939,2025-01-02T2200,56,63,1.1,25,15,64,60,77,细颗粒物(PM2.5)
六盘水市,民中,104.8475,26.5894,2025-01-02T2200,51,57,0.8,16,9,72,62,70,细颗粒物(PM2.5)
六盘水市,双水,104.9544,26.5506,2025-01-02T2200,49,63,0.8,14,10,74,74,68,细颗粒物(PM2.5)
龙岩市,龙岩师专,117.0189,25.1181,2025-01-02T2200,,,,,,,,,
龙岩市,龙岩市监测站,117.0217,25.1033,2025-01-02T2200,49,70,1.3,66,5,18,109,68,细颗粒物(PM2.5)
龙岩市,闽西职业技术学院,117.0258,25.0661,2025-01-02T2200,37,71,0.7,54,34,23,103,61,颗粒物(PM10)
龙岩市,龙岩学院,117.0196,25.0306,2025-01-02T2200,39,52,0.6,30,15,42,110,55,细颗粒物(PM2.5)
陇南市,汉王镇固水子,105.0822,33.3261,2025-01-02T2200,,,,,,,,,
陇南市,滨江中学,104.9339,33.3826,2025-01-02T2200,99,136,4.3,80,45,8,68,130,细颗粒物(PM2.5)
陇南市,市总工会,104.955,33.371,2025-01-02T2200,44,88,1.1,50,10,36,79,69,颗粒物(PM10)
娄底市,电视发射台,111.9589,27.8901,2025-01-02T2200,102,,0.7,23,12,142,150,134,细颗粒物(PM2.5)
娄底市,市监测站,111.9975,27.725,2025-01-02T2200,122,156,0.7,36,15,118,145,160,细颗粒物(PM2.5)
娄底市,市委党校,112.0194,27.7314,2025-01-02T2200,115,153,0.8,28,9,132,139,150,细颗粒物(PM2.5)
娄底市,涟钢,111.9561,27.7569,2025-01-02T2200,115,146,0.9,20,12,114,140,150,细颗粒物(PM2.5)
娄底市,市政府,111.9892,27.7044,2025-01-02T2200,119,146,0.9,37,10,115,135,156,细颗粒物(PM2.5)
泸州市,九狮山,105.4324,28.9634,2025-01-02T2200,,,,,,,,,
泸州市,小市上码头,105.4427,28.9063,2025-01-02T2200,111,146,0.6,30,3,65,72,145,细颗粒物(PM2.5)
泸州市,兰田宪桥,105.4241,28.8573,2025-01-02T2200,125,149,1.1,56,3,20,70,165,细颗粒物(PM2.5)
泸州市,市环监站,105.4379,28.8833,2025-01-02T2200,105,137,0.8,53,4,30,68,138,细颗粒物(PM2.5)
泸州市,纳溪区环保局,105.3617,28.7703,2025-01-02T2200,111,145,1.2,46,5,14,61,145,细颗粒物(PM2.5)
吕梁市,环保局,111.1406,37.5211,2025-01-02T2200,31,81,0.5,56,4,2,45,66,颗粒物(PM10)
吕梁市,自来水公司,111.1297,37.5136,2025-01-02T2200,23,66,0.4,33,4,27,44,58,颗粒物(PM10)
吕梁市,马茂庄小学,111.1283,37.51,2025-01-02T2200,22,68,0.4,47,16,16,44,59,颗粒物(PM10)
洛阳市,市委党校,112.3931,34.6516,2025-01-02T2200,66,125,1.2,58,8,18,30,89,细颗粒物(PM2.5)
洛阳市,豫西宾馆,112.4657,34.6871,2025-01-02T2200,80,210,0.9,54,9,18,36,130,颗粒物(PM10)
洛阳市,河南林校,112.494,34.6886,2025-01-02T2200,90,129,1.0,59,5,13,28,119,细颗粒物(PM2.5)
洛阳市,开发区管委会,112.3844,34.623,2025-01-02T2200,87,133,1.0,44,7,25,32,115,细颗粒物(PM2.5)
洛阳市,市委新办公区,112.4267,34.6258,2025-01-02T2200,75,141,1.0,64,7,16,31,100,细颗粒物(PM2.5)
洛阳市,伊滨,112.6005,34.6326,2025-01-02T2200,201,349,1.8,78,6,7,24,251,细颗粒物(PM2.5)
洛阳市,中移产业园,112.4951,34.6332,2025-01-02T2200,67,108,0.9,64,9,16,29,90,细颗粒物(PM2.5)
洛阳市,吉利监测站,112.5736,34.8993,2025-01-02T2200,115,153,1.2,66,4,3,42,150,细颗粒物(PM2.5)
洛阳市,河科大西苑校区,112.3677,34.662,2025-01-02T2200,130,234,1.6,81,10,6,34,172,细颗粒物(PM2.5)
洛阳市,英才小学,112.4388,34.6781,2025-01-02T2200,68,123,0.9,56,7,12,27,92,细颗粒物(PM2.5)
漯河市,三五一五工厂,114.051,33.5699,2025-01-02T2200,74,117,0.8,31,9,32,57,99,细颗粒物(PM2.5)
漯河市,漯河大学,114.0055,33.5698,2025-01-02T2200,75,121,0.8,30,8,38,58,100,细颗粒物(PM2.5)
漯河市,市水利局,114.0138,33.5828,2025-01-02T2200,88,132,0.7,29,9,35,54,117,细颗粒物(PM2.5)
漯河市,市广电局,114.0261,33.5698,2025-01-02T2200,94,134,0.7,31,8,33,54,124,细颗粒物(PM2.5)
漯河市,市图书馆,113.9749,33.5664,2025-01-02T2200,72,131,0.7,45,7,25,55,97,细颗粒物(PM2.5)
漯河市,召陵区卫健委,114.0967,33.5906,2025-01-02T2200,87,159,0.7,58,10,9,56,115,细颗粒物(PM2.5)
马鞍山市,湖东路四小,118.5092,31.6837,2025-01-02T2200,61,111,1.0,52,6,65,85,83,细颗粒物(PM2.5)
马鞍山市,开发区,118.5024,31.6449,2025-01-02T2200,75,114,1.1,37,10,72,84,100,细颗粒物(PM2.5)
马鞍山市,慈湖,118.5228,31.7231,2025-01-02T2200,75,102,0.9,33,9,87,77,100,细颗粒物(PM2.5)
马鞍山市,濮塘,118.6245,31.7241,2025-01-02T2200,65,103,0.5,42,9,71,102,88,细颗粒物(PM2.5)
马鞍山市,雨山,118.4918,31.6809,2025-01-02T2200,65,115,1.0,44,10,68,80,88,细颗粒物(PM2.5)
茂名市,电白南海,111.0286,21.4688,2025-01-02T2200,112,173,1.4,110,8,43,162,147,细颗粒物(PM2.5)
茂名市,茂石化七小,110.9294,21.6533,2025-01-02T2200,80,149,1.2,45,17,108,151,107,细颗粒物(PM2.5)
茂名市,健康路,110.9107,21.6687,2025-01-02T2200,100,151,1.2,41,21,123,161,132,细颗粒物(PM2.5)
茂名市,高岭,110.8592,21.6828,2025-01-02T2200,100,156,1.1,67,15,76,156,132,细颗粒物(PM2.5)
茂名市,电白水东,111.01,21.5165,2025-01-02T2200,68,127,1.0,25,13,152,172,92,细颗粒物(PM2.5)
眉山市,黑龙滩水库,104.0308,30.0478,2025-01-02T2200,56,87,0.8,9,3,87,118,77,细颗粒物(PM2.5)
眉山市,气象局,103.8416,30.0874,2025-01-02T2200,136,166,1.1,86,5,6,90,180,细颗粒物(PM2.5)
眉山市,市委党校,103.8578,30.0744,2025-01-02T2200,117,144,1.8,105,6,8,78,153,细颗粒物(PM2.5)
眉山市,区人社局,103.8291,30.0564,2025-01-02T2200,124,143,1.6,105,9,7,92,163,细颗粒物(PM2.5)
梅州市,梅江月梅,116.1231,24.3284,2025-01-02T2200,45,62,0.7,31,12,68,112,63,细颗粒物(PM2.5)
梅州市,梅县新城,116.0797,24.2719,2025-01-02T2200,50,89,1.1,77,5,5,106,70,颗粒物(PM10)
梅州市,环境监控中心,116.1248,24.2654,2025-01-02T2200,41,63,1.0,51,6,37,99,58,细颗粒物(PM2.5)
梅州市,梅龙,116.1233,24.2991,2025-01-02T2200,52,105,1.1,68,10,11,99,78,颗粒物(PM10)
绵阳市,富乐山,104.7778,31.4741,2025-01-02T2200,38,55,0.7,23,2,68,76,54,细颗粒物(PM2.5)
绵阳市,市人大,104.7563,31.4535,2025-01-02T2200,65,98,1.8,89,3,3,51,88,细颗粒物(PM2.5)
绵阳市,高新区自来水公司,104.6697,31.4668,2025-01-02T2200,66,149,1.2,71,10,2,59,100,颗粒物(PM10)
绵阳市,三水厂,104.7287,31.5075,2025-01-02T2200,61,104,1.2,81,9,6,53,83,细颗粒物(PM2.5)
绵阳市,西科大附属小学,104.69,31.5322,2025-01-02T2200,62,97,0.9,84,7,8,49,84,细颗粒物(PM2.5)
绵阳市,安州区旅游局,104.5648,31.5343,2025-01-02T2200,124,193,1.8,74,8,6,54,163,细颗粒物(PM2.5)
牡丹江市,环保大楼,129.61,44.561,2025-01-02T2200,35,54,0.6,35,12,26,42,52,颗粒物(PM10)
牡丹江市,文化广场,129.6115,44.5782,2025-01-02T2200,31,48,0.9,35,10,30,42,48,
牡丹江市,第一医院,129.5904,44.5963,2025-01-02T2200,79,,0.8,37,9,22,42,105,细颗粒物(PM2.5)
牡丹江市,机车工厂,129.6364,44.6075,2025-01-02T2200,44,66,0.8,35,37,18,42,62,细颗粒物(PM2.5)
牡丹江市,第一中学,129.6386,44.5462,2025-01-02T2200,37,49,0.8,39,7,12,44,53,细颗粒物(PM2.5)
内江市,市监测站,105.0703,29.61,2025-01-02T2200,137,,1.0,74,6,32,77,182,细颗粒物(PM2.5)
内江市,东兴区政府,105.0717,29.5947,2025-01-02T2200,127,132,1.1,47,4,54,84,168,细颗粒物(PM2.5)
内江市,内江二中,105.0653,29.5817,2025-01-02T2200,145,152,1.1,45,9,54,86,193,细颗粒物(PM2.5)
内江市,内江日报社,105.0406,29.5822,2025-01-02T2200,137,152,1.1,52,10,48,86,182,细颗粒物(PM2.5)
那曲市,那曲监测站,92.0657,31.4846,2025-01-02T2200,27,40,1.4,38,15,48,89,40,
那曲市,那曲会议中心,92.0506,31.4797,2025-01-02T2200,11,27,0.4,11,3,75,96,27,
南昌市,省外办,115.8931,28.6843,2025-01-02T2200,78,104,0.8,42,11,88,109,104,细颗粒物(PM2.5)
南昌市,省林业公司,115.8886,28.7003,2025-01-02T2200,66,105,0.9,50,12,85,114,89,细颗粒物(PM2.5)
南昌市,林科所,115.8126,28.7442,2025-01-02T2200,68,105,1.0,31,19,117,130,92,细颗粒物(PM2.5)
南昌市,建工学校,115.8518,28.687,2025-01-02T2200,74,113,0.9,32,14,101,124,99,细颗粒物(PM2.5)
南昌市,象湖,115.8921,28.6424,2025-01-02T2200,74,106,0.9,34,14,100,130,99,细颗粒物(PM2.5)
南昌市,武术学校,115.7423,28.7996,2025-01-02T2200,54,68,0.9,21,2,62,99,74,细颗粒物(PM2.5)
南昌市,省站,115.9314,28.6842,2025-01-02T2200,74,124,0.8,26,12,92,114,99,细颗粒物(PM2.5)
南昌市,机电学校,115.9084,28.6062,2025-01-02T2200,75,123,0.7,36,17,90,118,100,细颗粒物(PM2.5)
南昌市,外国语学校,115.9721,28.7031,2025-01-02T2200,68,115,0.7,34,12,89,112,92,细颗粒物(PM2.5)
南充市,西山风景区,106.056,30.8064,2025-01-02T2200,154,157,1.1,25,4,61,69,204,细颗粒物(PM2.5)
南充市,南充市委,106.0789,30.8023,2025-01-02T2200,180,230,1.7,63,4,6,28,230,细颗粒物(PM2.5)
南充市,南充炼油厂,106.1031,30.8217,2025-01-02T2200,170,200,1.5,70,4,3,36,220,细颗粒物(PM2.5)
南充市,高坪区监测站,106.1064,30.7856,2025-01-02T2200,173,225,1.7,67,4,2,29,223,细颗粒物(PM2.5)
南充市,嘉陵区环保局,106.0642,30.7636,2025-01-02T2200,158,191,1.9,74,6,3,26,208,细颗粒物(PM2.5)
南充市,市环境监测站,106.1087,30.8388,2025-01-02T2200,149,199,1.0,60,5,14,38,199,细颗粒物(PM2.5)
南京市,迈皋桥,118.8086,32.1065,2025-01-02T2200,61,104,0.8,74,9,52,91,83,细颗粒物(PM2.5)
南京市,草场门,118.7538,32.0551,2025-01-02T2200,63,114,0.6,77,10,38,96,85,细颗粒物(PM2.5)
南京市,山西路,118.7794,32.0745,2025-01-02T2200,68,119,1.0,76,6,57,97,92,细颗粒物(PM2.5)
南京市,中华门,118.7752,32.0023,2025-01-02T2200,66,102,1.0,60,11,52,73,89,细颗粒物(PM2.5)
南京市,瑞金路,118.8109,32.0309,2025-01-02T2200,66,105,1.3,45,7,60,83,89,细颗粒物(PM2.5)
南京市,玄武湖,118.7997,32.0754,2025-01-02T2200,64,115,0.9,40,9,51,91,87,细颗粒物(PM2.5)
南京市,浦口,118.6414,32.0931,2025-01-02T2200,63,123,1.3,28,14,68,90,87,颗粒物(PM10)
南京市,奥体中心,118.7356,31.9996,2025-01-02T2200,66,108,0.8,44,11,73,92,89,细颗粒物(PM2.5)
南京市,仙林大学城,118.9125,32.1028,2025-01-02T2200,68,110,0.7,70,8,35,90,92,细颗粒物(PM2.5)
南京市,江宁彩虹桥,118.8436,31.9198,2025-01-02T2200,56,104,0.6,34,10,76,91,77,"颗粒物(PM10),细颗粒物(PM2.5)"
南京市,溧水永阳,119.0138,31.6494,2025-01-02T2200,70,102,0.7,48,5,55,91,94,细颗粒物(PM2.5)
南京市,高淳老职中,118.879,31.3302,2025-01-02T2200,62,96,0.6,46,6,60,96,84,细颗粒物(PM2.5)
南京市,六合雄州,118.8554,32.3578,2025-01-02T2200,79,120,1.0,24,7,50,84,105,细颗粒物(PM2.5)
南宁市,二十一中,108.3103,22.7881,2025-01-02T2200,63,88,1.4,69,9,65,166,85,细颗粒物(PM2.5)
南宁市,北湖,108.3141,22.8528,2025-01-02T2200,90,167,1.8,122,16,5,137,119,细颗粒物(PM2.5)
南宁市,市监测站,108.3206,22.8225,2025-01-02T2200,67,98,1.2,69,14,63,148,90,细颗粒物(PM2.5)
南宁市,大自然花园,108.3829,22.8037,2025-01-02T2200,62,84,0.9,35,16,127,147,84,细颗粒物(PM2.5)
南宁市,仙葫,108.4394,22.7904,2025-01-02T2200,76,109,1.1,86,13,54,128,102,细颗粒物(PM2.5)
南宁市,区农职院,108.2397,22.8467,2025-01-02T2200,63,107,1.1,38,14,71,152,85,细颗粒物(PM2.5)
南宁市,英华嘉园,108.3275,22.735,2025-01-02T2200,77,162,1.9,109,11,4,134,106,颗粒物(PM10)
南宁市,沙井镇街道办,108.2257,22.7757,2025-01-02T2200,96,213,1.3,122,8,4,127,132,颗粒物(PM10)
南宁市,红星社区,108.4834,22.7618,2025-01-02T2200,68,86,1.1,56,9,52,139,92,细颗粒物(PM2.5)
南平市,茫荡山,118.0966,26.6761,2025-01-02T2200,,,,,,,,,
南平市,南平市监测站,118.1681,26.6369,2025-01-02T2200,42,54,0.9,46,5,30,102,59,细颗粒物(PM2.5)
南平市,南平铝业有限公司,118.1825,26.6489,2025-01-02T2200,43,55,0.8,54,7,17,96,60,细颗粒物(PM2.5)
南平市,南平七中,118.1756,26.6272,2025-01-02T2200,37,38,0.6,25,2,48,102,53,细颗粒物(PM2.5)
南通市,狼山街道,120.9098,31.9663,2025-01-02T2200,28,45,0.4,28,4,56,93,45,
南通市,虹桥,120.86,32.0005,2025-01-02T2200,29,50,0.5,36,4,47,92,50,
南通市,城中,120.87,32.02,2025-01-02T2200,28,53,0.5,36,6,55,92,52,颗粒物(PM10)
南通市,星湖花园,120.94,31.93,2025-01-02T2200,20,42,0.5,20,4,68,90,42,
南通市,紫琅学院,120.81,32.0417,2025-01-02T2200,23,41,0.5,42,3,44,97,41,
南通市,通州监测站,121.067,32.062,2025-01-02T2200,19,39,0.5,16,2,86,99,39,
南通市,环境教育馆,120.9348,31.9883,2025-01-02T2200,31,51,0.4,53,3,36,106,51,颗粒物(PM10)
南阳市,瓦房庄,112.5224,33.0122,2025-01-02T2200,119,188,1.2,40,12,48,69,156,细颗粒物(PM2.5)
南阳市,汉画馆,112.5003,32.9735,2025-01-02T2200,107,173,1.0,43,10,45,68,140,细颗粒物(PM2.5)
南阳市,气象站,112.5573,33.027,2025-01-02T2200,114,219,1.2,47,12,43,72,149,细颗粒物(PM2.5)
南阳市,理工学院,112.5481,32.9689,2025-01-02T2200,106,176,1.0,53,12,37,70,139,细颗粒物(PM2.5)
南阳市,卧龙区政府,112.5234,32.9922,2025-01-02T2200,108,186,1.1,44,10,43,63,142,细颗粒物(PM2.5)
宁波市,区环保大楼,121.8358,29.911,2025-01-02T2200,15,30,0.4,57,8,45,57,30,
宁波市,万里学院,121.56,29.82,2025-01-02T2200,26,49,0.5,60,4,32,85,49,
宁波市,龙赛医院,121.713,29.9572,2025-01-02T2200,22,33,0.4,39,9,63,62,33,
宁波市,钱湖水厂,121.633,29.7733,2025-01-02T2200,21,43,0.6,47,5,36,73,43,
宁波市,太古小学,121.5856,29.8635,2025-01-02T2200,21,51,0.8,66,7,21,59,51,颗粒物(PM10)
宁波市,市环境监测中心,121.524,29.8674,2025-01-02T2200,40,63,0.8,73,8,8,87,57,"颗粒物(PM10),细颗粒物(PM2.5)"
宁波市,万里国际学校,121.6147,29.9017,2025-01-02T2200,15,46,0.5,57,6,38,76,46,
宁波市,白沙活动中心,121.5594,29.8975,2025-01-02T2200,31,75,0.5,83,8,6,83,63,颗粒物(PM10)
宁德市,金涵水库,119.5001,26.6946,2025-01-02T2200,,,,,,,,,
宁德市,宁德市监测站,119.5388,26.6612,2025-01-02T2200,28,48,0.5,18,2,74,107,48,
宁德市,宁德一中,119.5231,26.6562,2025-01-02T2200,24,40,0.5,14,2,71,110,40,
怒江傈僳族自治州,州监测站,98.8601,25.8567,2025-01-02T2200,,,,,,,,,
怒江傈僳族自治州,泸水一中,98.8546,25.8417,2025-01-02T2200,30,36,0.9,31,8,25,60,43,
攀枝花市,弄弄坪,101.6891,26.571,2025-01-02T2200,32,55,0.7,32,17,54,86,53,颗粒物(PM10)
攀枝花市,河门口,101.5769,26.5928,2025-01-02T2200,32,59,0.8,30,16,55,102,55,颗粒物(PM10)
攀枝花市,炳草岗,101.7169,26.585,2025-01-02T2200,41,94,1.1,92,20,7,86,72,颗粒物(PM10)
攀枝花市,仁和,101.7369,26.5008,2025-01-02T2200,37,61,0.7,41,8,30,93,56,颗粒物(PM10)
攀枝花市,四十中小,101.7227,26.567,2025-01-02T2200,48,78,1.7,91,22,12,76,67,细颗粒物(PM2.5)
盘锦市,开发区,122.0303,41.1489,2025-01-02T2200,33,54,0.6,35,11,32,62,52,颗粒物(PM10)
盘锦市,兴隆台,122.0485,41.0883,2025-01-02T2200,20,37,0.6,36,14,33,60,37,
盘锦市,新生街道,121.8297,41.1028,2025-01-02T2200,19,44,0.6,53,10,18,66,44,
平顶山市,新华旅馆,113.3257,33.742,2025-01-02T2200,59,128,0.5,42,11,26,62,89,颗粒物(PM10)
平顶山市,规划设计院,113.2919,33.737,2025-01-02T2200,61,124,0.6,22,8,42,70,87,颗粒物(PM10)
平顶山市,平顶山工学院,113.182,33.774,2025-01-02T2200,51,130,0.9,36,3,38,60,90,颗粒物(PM10)
平顶山市,规划局,113.3025,33.73,2025-01-02T2200,72,134,0.7,38,9,31,61,97,细颗粒物(PM2.5)
平顶山市,石龙区,112.8867,33.9116,2025-01-02T2200,102,191,1.3,60,12,15,64,134,细颗粒物(PM2.5)
平凉市,聚贤嘉苑,106.6692,35.5461,2025-01-02T2200,39,65,0.8,76,17,16,79,58,颗粒物(PM10)
平凉市,博物馆,106.7021,35.5307,2025-01-02T2200,70,104,1.6,43,22,24,82,94,细颗粒物(PM2.5)
萍乡市,武功山,114.0997,27.5002,2025-01-02T2200,38,53,0.2,18,7,71,120,54,细颗粒物(PM2.5)
萍乡市,中医院,113.8385,27.6434,2025-01-02T2200,103,158,1.4,43,14,73,119,135,细颗粒物(PM2.5)
萍乡市,市政府车库,113.8493,27.6253,2025-01-02T2200,125,137,1.3,38,14,78,116,165,细颗粒物(PM2.5)
萍乡市,市环保局,113.8676,27.6435,2025-01-02T2200,125,158,1.3,42,15,81,118,165,细颗粒物(PM2.5)
萍乡市,安源区政府,113.866,27.6198,2025-01-02T2200,114,154,1.0,34,9,98,124,149,细颗粒物(PM2.5)
莆田市,荔城区仓后路,119.0141,25.4325,2025-01-02T2200,22,40,0.4,12,2,108,108,40,
莆田市,莆田市监测站,119.0015,25.4553,2025-01-02T2200,20,37,0.4,7,3,116,114,37,
莆田市,涵江区六中,119.1119,25.4561,2025-01-02T2200,19,36,0.2,4,1,122,121,39,
莆田市,秀屿区政府,119.1013,25.3215,2025-01-02T2200,13,36,0.4,9,2,112,110,36,
莆田市,东圳水库,118.981,25.4792,2025-01-02T2200,,,,,,,,,
濮阳市,环保局,115.0312,35.7636,2025-01-02T2200,62,78,1.2,44,5,28,51,84,细颗粒物(PM2.5)
濮阳市,油田运输公司,115.0574,35.7609,2025-01-02T2200,43,76,0.6,35,6,34,51,63,颗粒物(PM10)
濮阳市,油田物探公司,115.0866,35.7754,2025-01-02T2200,70,97,1.0,50,6,17,48,94,细颗粒物(PM2.5)
濮阳市,濮水河管理处,115,35.7668,2025-01-02T2200,55,82,0.7,46,7,16,48,75,细颗粒物(PM2.5)
普洱市,市环保局,100.98,22.7633,2025-01-02T2200,36,49,0.5,12,4,36,72,52,细颗粒物(PM2.5)
普洱市,普洱第二中学,100.9817,22.8322,2025-01-02T2200,25,38,0.6,21,4,23,65,38,
七台河市,新一中,131.0518,45.8751,2025-01-02T2200,32,41,1.9,18,10,60,68,46,
七台河市,中波台,131.0577,45.7879,2025-01-02T2200,74,94,1.2,73,12,5,40,99,细颗粒物(PM2.5)
七台河市,人民广场,131.0176,45.7761,2025-01-02T2200,84,109,1.1,68,6,11,41,112,细颗粒物(PM2.5)
七台河市,新建矿广场,130.8781,45.8222,2025-01-02T2200,105,132,0.9,58,17,9,40,138,细颗粒物(PM2.5)
齐齐哈尔市,安居小区,123.9305,47.3636,2025-01-02T2200,35,42,0.5,19,13,45,51,50,
齐齐哈尔市,中心广场,123.9488,47.3386,2025-01-02T2200,33,61,0.7,17,5,47,46,56,颗粒物(PM10)
齐齐哈尔市,农牧车辆厂,123.9483,47.3227,2025-01-02T2200,22,29,0.3,13,6,49,45,32,
齐齐哈尔市,市环境监测站,123.945,47.2988,2025-01-02T2200,28,31,0.3,12,4,53,48,40,
齐齐哈尔市,富区青少年活动中心,123.6333,47.2075,2025-01-02T2200,31,,0.4,15,8,52,53,45,
黔东南苗族侗族自治州,市环境监测站,107.9783,26.5747,2025-01-02T2200,70,84,0.9,16,8,54,64,94,细颗粒物(PM2.5)
黔东南苗族侗族自治州,凯里学院,107.8908,26.5311,2025-01-02T2200,60,68,0.6,22,7,46,73,82,细颗粒物(PM2.5)
黔南布依族苗族自治州,小围寨,107.5228,26.2403,2025-01-02T2200,73,78,0.9,25,9,36,57,98,细颗粒物(PM2.5)
黔南布依族苗族自治州,沙坝,107.5175,26.2978,2025-01-02T2200,83,95,0.8,33,13,22,53,110,细颗粒物(PM2.5)
黔西南布依族苗族自治州,场坝街,104.9022,25.0925,2025-01-02T2200,55,63,0.7,20,5,40,77,75,细颗粒物(PM2.5)
黔西南布依族苗族自治州,坪东大道,104.8811,25.0992,2025-01-02T2200,50,,0.8,14,5,48,73,69,细颗粒物(PM2.5)
钦州市,市环保站,108.6236,21.9667,2025-01-02T2200,132,263,1.6,99,14,31,132,175,细颗粒物(PM2.5)
钦州市,沙埠小学,108.6549,21.9481,2025-01-02T2200,117,219,1.3,71,16,68,143,153,细颗粒物(PM2.5)
钦州市,港区一小,108.5989,21.7431,2025-01-02T2200,86,177,1.4,110,8,36,138,114,"颗粒物(PM10),细颗粒物(PM2.5)"
钦州市,北职校,108.5959,21.9633,2025-01-02T2200,9,136,1.3,76,9,49,136,93,颗粒物(PM10)
秦皇岛市,北戴河环保局,119.5134,39.8207,2025-01-02T2200,24,48,0.5,39,4,31,68,48,
秦皇岛市,第一关,119.7493,40.0116,2025-01-02T2200,26,29,0.6,79,8,2,55,40,
秦皇岛市,监测站,119.5897,39.9499,2025-01-02T2200,36,64,1.0,77,9,2,52,57,颗粒物(PM10)
秦皇岛市,建设大厦,119.5251,39.9041,2025-01-02T2200,32,52,0.7,62,6,11,57,51,颗粒物(PM10)
秦皇岛市,文明里,119.610547,39.943889,2025-01-02T2200,33,55,0.5,52,7,23,54,53,颗粒物(PM10)
青岛市,仰口,120.6659,36.2403,2025-01-02T2200,,,,,,,,,
青岛市,市南区东部子站,120.4134,36.0658,2025-01-02T2200,46,80,0.8,51,12,30,53,65,颗粒物(PM10)
青岛市,四方区子站,120.3664,36.1032,2025-01-02T2200,48,75,1.0,58,14,28,56,67,细颗粒物(PM2.5)
青岛市,市南区西部子站,120.2994,36.054,2025-01-02T2200,37,63,1.0,31,11,43,63,57,颗粒物(PM10)
青岛市,崂山区子站,120.4581,36.0858,2025-01-02T2200,,,,,,,,,
青岛市,黄岛区子站,120.1983,35.9608,2025-01-02T2200,34,66,0.8,60,11,22,46,58,颗粒物(PM10)
青岛市,城阳区子站,120.3999,36.3083,2025-01-02T2200,54,90,1.2,53,13,24,59,74,细颗粒物(PM2.5)
青岛市,黄岛区4号,120.0405,35.8735,2025-01-02T2200,39,63,0.9,38,11,45,62,57,颗粒物(PM10)
青岛市,即墨2号,120.5014,36.4034,2025-01-02T2200,52,73,0.9,31,11,38,59,72,细颗粒物(PM2.5)
青岛市,市北区南部,120.3503,36.0736,2025-01-02T2200,44,71,1.0,53,15,29,54,62,细颗粒物(PM2.5)
青岛市,李沧区北部,120.3948,36.1805,2025-01-02T2200,68,114,1.2,75,18,7,61,92,细颗粒物(PM2.5)
清远市,环保大楼,113.0426,23.691,2025-01-02T2200,34,45,1.1,22,9,94,128,49,
清远市,凤城街办,113.0208,23.7106,2025-01-02T2200,34,57,1.0,28,12,95,125,54,颗粒物(PM10)
清远市,技师学院,113.0477,23.6344,2025-01-02T2200,30,51,0.8,25,11,88,128,51,颗粒物(PM10)
清远市,清新太和,112.9903,23.7403,2025-01-02T2200,28,44,0.6,12,12,126,135,44,
清远市,清城东城,113.076,23.7198,2025-01-02T2200,37,50,1.1,15,19,107,132,53,细颗粒物(PM2.5)
庆阳市,庆阳五中,107.6325,35.7357,2025-01-02T2200,39,58,1.0,25,10,69,84,55,细颗粒物(PM2.5)
庆阳市,市环保局,107.6364,35.7067,2025-01-02T2200,19,49,0.6,18,5,80,87,49,
曲靖市,环境监测站,103.7897,25.5035,2025-01-02T2200,16,37,0.7,11,6,55,50,37,
曲靖市,烟厂办公区,103.8,25.5364,2025-01-02T2200,11,25,0.2,10,4,51,49,25,
曲靖市,南苑二区,103.7947,25.462,2025-01-02T2200,19,29,0.6,10,4,57,52,29,
曲靖市,曲靖师范学院,103.7444,25.5261,2025-01-02T2200,22,32,0.6,10,8,58,51,32,
衢州市,环保大楼,118.8692,28.9398,2025-01-02T2200,71,120,0.5,55,5,55,92,95,细颗粒物(PM2.5)
衢州市,实验学校,118.8709,28.9666,2025-01-02T2200,75,99,0.6,45,7,69,100,100,细颗粒物(PM2.5)
衢州市,衢州学院,118.8621,28.9808,2025-01-02T2200,66,98,0.8,43,10,57,71,89,细颗粒物(PM2.5)
泉州市,涂山街,118.5819,24.9117,2025-01-02T2200,21,40,0.3,14,2,113,119,40,
泉州市,津头埔,118.5972,24.8978,2025-01-02T2200,25,43,0.3,22,5,107,118,43,
泉州市,万安,118.6663,24.9424,2025-01-02T2200,23,41,0.3,16,4,122,129,41,
泉州市,清源山,118.6117,24.9604,2025-01-02T2200,,,,,,,,,
泉州市,城华南路,118.6333,24.9264,2025-01-02T2200,23,51,0.3,16,5,108,114,51,颗粒物(PM10)
日喀则市,日喀则监测站,88.8876,29.2718,2025-01-02T2200,,129,1.7,74,17,23,82,,
日喀则市,林业技术推广中心,88.8781,29.2426,2025-01-02T2200,25,58,1.0,33,15,40,85,54,颗粒物(PM10)
日照市,监测站,119.471,35.4209,2025-01-02T2200,29,51,0.5,26,7,59,58,51,颗粒物(PM10)
日照市,市政府广场,119.523,35.4216,2025-01-02T2200,28,46,0.8,22,6,61,70,46,
日照市,港务局,119.5587,35.4044,2025-01-02T2200,32,46,0.6,22,7,70,72,46,
日照市,职业技术学院,119.5328,35.4625,2025-01-02T2200,29,39,0.6,22,6,71,71,42,
日照市,岚山环保分局,119.3266,35.1044,2025-01-02T2200,22,41,0.6,32,12,56,66,41,
三门峡市,市政府,111.1922,34.7752,2025-01-02T2200,97,148,1.4,86,24,5,43,128,细颗粒物(PM2.5)
三门峡市,开发区,111.1587,34.7942,2025-01-02T2200,111,163,1.3,51,13,27,49,145,细颗粒物(PM2.5)
三门峡市,风景区,111.143,34.7955,2025-01-02T2200,38,89,0.8,39,13,26,53,70,颗粒物(PM10)
三门峡市,三门峡市第一小学,111.1911,34.7829,2025-01-02T2200,124,147,1.2,48,18,37,51,163,细颗粒物(PM2.5)
三门峡市,富达温泉假日酒店,111.1,34.7167,2025-01-02T2200,50,83,0.9,45,11,27,46,69,细颗粒物(PM2.5)
三明市,三钢,117.6211,26.2625,2025-01-02T2200,54,63,0.8,50,3,29,110,74,细颗粒物(PM2.5)
三明市,三明二中,117.635,26.2714,2025-01-02T2200,47,55,0.8,58,2,28,109,65,细颗粒物(PM2.5)
三明市,三元区政府,117.6028,26.2378,2025-01-02T2200,35,64,0.8,47,3,26,100,57,颗粒物(PM10)
三明市,洋溪,117.7275,26.3108,2025-01-02T2200,,,,,,,,,
三亚市,河东子站,109.5078,18.2489,2025-01-02T2200,18,33,0.6,18,3,63,110,33,
三亚市,河西子站,109.4964,18.2681,2025-01-02T2200,18,30,0.5,16,3,70,100,30,
三亚市,君悦子站,109.7348,18.3443,2025-01-02T2200,24,57,0.6,9,2,90,100,54,颗粒物(PM10)
山南市,山南监测站,91.7608,29.2313,2025-01-02T2200,36,59,1.1,67,7,23,85,55,颗粒物(PM10)
山南市,山南人民医院,91.7706,29.2436,2025-01-02T2200,28,44,0.8,40,4,48,85,44,
汕头市,金平子站,116.6794,23.3667,2025-01-02T2200,28,43,0.8,21,6,114,132,43,
汕头市,龙湖子站,116.7244,23.3633,2025-01-02T2200,27,47,0.6,17,4,116,132,47,
汕头市,濠江子站,116.7258,23.2775,2025-01-02T2200,38,44,0.9,15,4,120,133,54,细颗粒物(PM2.5)
汕头市,澄海子站,116.7519,23.4714,2025-01-02T2200,28,52,0.8,25,13,112,137,51,颗粒物(PM10)
汕头市,潮阳子站,116.6092,23.2539,2025-01-02T2200,30,61,0.6,18,7,114,128,56,颗粒物(PM10)
汕头市,潮南峡山,116.454,23.2684,2025-01-02T2200,29,59,0.8,22,8,106,132,55,颗粒物(PM10)
汕头市,潮南子站,116.4069,23.2533,2025-01-02T2200,37,73,0.7,20,8,106,130,62,颗粒物(PM10)
汕尾市,市环保局,115.3653,22.775,2025-01-02T2200,14,25,0.7,14,7,94,123,30,
汕尾市,市政府,115.3706,22.7898,2025-01-02T2200,17,28,0.6,10,9,96,120,30,
汕尾市,新城中学,115.3622,22.7925,2025-01-02T2200,18,33,0.7,12,8,91,118,33,
商洛市,监测站,109.9154,33.8715,2025-01-02T2200,52,79,0.9,54,6,33,62,72,细颗粒物(PM2.5)
商洛市,商州区中学,109.9643,33.8471,2025-01-02T2200,53,92,0.9,71,10,8,70,73,细颗粒物(PM2.5)
商丘市,环境监测站,115.6702,34.4285,2025-01-02T2200,64,84,1.0,48,8,24,42,87,细颗粒物(PM2.5)
商丘市,粮食局,115.6458,34.4045,2025-01-02T2200,59,80,1.0,39,4,24,45,80,细颗粒物(PM2.5)
商丘市,睢阳区环保局,115.6293,34.3948,2025-01-02T2200,,,0.9,51,7,17,46,,
商丘市,梁园区档案局,115.6071,34.4465,2025-01-02T2200,77,110,1.0,59,6,6,45,103,细颗粒物(PM2.5)
上海市,普陀,121.4,31.238,2025-01-02T2200,17,51,0.5,31,6,78,80,51,颗粒物(PM10)
上海市,十五厂,121.478,31.2036,2025-01-02T2200,23,45,0.6,37,10,68,72,45,
上海市,虹口,121.467,31.3008,2025-01-02T2200,23,54,0.7,43,6,61,75,52,颗粒物(PM10)
上海市,徐汇上师大,121.412,31.1654,2025-01-02T2200,28,50,0.5,40,9,67,80,50,
上海市,杨浦四漂,121.536,31.2659,2025-01-02T2200,50,58,0.7,32,8,73,81,69,细颗粒物(PM2.5)
上海市,静安监测站,121.425,31.2261,2025-01-02T2200,25,50,0.5,41,9,66,80,50,
上海市,浦东川沙,121.703,31.1907,2025-01-02T2200,18,44,0.3,36,6,64,97,44,
上海市,浦东新区监测站,121.533,31.2284,2025-01-02T2200,25,55,0.6,46,7,63,84,53,颗粒物(PM10)
上海市,浦东张江,121.577,31.2071,2025-01-02T2200,16,42,0.5,63,6,40,95,42,
上海市,宝山庙行,121.4316,31.3322,2025-01-02T2200,24,56,0.7,42,6,58,84,53,颗粒物(PM10)
上海市,崇明上实东滩,121.8791,31.4662,2025-01-02T2200,13,27,0.5,16,6,61,105,27,
上海市,嘉定南翔,121.3162,31.2838,2025-01-02T2200,21,51,0.5,46,6,53,72,51,颗粒物(PM10)
上海市,金山新城,121.3359,30.7456,2025-01-02T2200,32,35,0.3,29,6,75,80,46,
上海市,闵行浦江,121.4996,31.0739,2025-01-02T2200,21,49,0.5,43,5,65,88,49,
上海市,青浦徐泾,121.2886,31.1663,2025-01-02T2200,24,50,0.3,44,9,66,74,50,
上海市,松江图书馆,121.2186,31.0378,2025-01-02T2200,33,62,0.6,65,7,34,68,56,颗粒物(PM10)
上海市,长宁仙霞,121.3902,31.2059,2025-01-02T2200,23,50,0.5,33,8,82,82,50,
上海市,浦东惠南,121.7965,31.0507,2025-01-02T2200,19,36,0.5,50,8,48,98,36,
上海市,奉贤南桥新城,121.4891,30.925,2025-01-02T2200,25,48,0.5,41,6,58,76,48,
上饶市,百草园,118.005,28.4572,2025-01-02T2200,41,76,0.5,25,9,68,111,63,颗粒物(PM10)
上饶市,市监测站,117.9756,28.4436,2025-01-02T2200,53,90,0.8,30,30,67,109,73,细颗粒物(PM2.5)
上饶市,凤凰光学,117.9519,28.4628,2025-01-02T2200,55,107,1.0,59,12,35,107,79,颗粒物(PM10)
上饶市,广丰区教体局,118.1953,28.4401,2025-01-02T2200,77,126,0.9,36,8,32,106,103,细颗粒物(PM2.5)
上饶市,双创科技城,117.897,28.4315,2025-01-02T2200,73,120,1.3,102,14,12,104,98,细颗粒物(PM2.5)
韶关市,市八中,113.5824,24.7733,2025-01-02T2200,46,77,0.7,31,12,98,119,64,"颗粒物(PM10),细颗粒物(PM2.5)"
韶关市,园林处,113.5917,24.7972,2025-01-02T2200,46,56,0.6,19,11,133,140,64,细颗粒物(PM2.5)
韶关市,韶关学院,113.6735,24.7791,2025-01-02T2200,94,122,1.2,46,8,39,100,124,细颗粒物(PM2.5)
韶关市,曲江监测站,113.5971,24.6863,2025-01-02T2200,50,78,0.5,30,25,89,110,69,细颗粒物(PM2.5)
韶关市,碧湖山庄,113.5556,24.8082,2025-01-02T2200,49,65,0.6,14,14,117,127,68,细颗粒物(PM2.5)
邵阳市,市水土所,111.5239,27.3033,2025-01-02T2200,,,,,,,,,
邵阳市,市一中,111.4733,27.2317,2025-01-02T2200,,,0.8,29,15,110,133,,
邵阳市,市化工厂,111.5283,27.2442,2025-01-02T2200,106,137,0.7,18,12,128,122,139,细颗粒物(PM2.5)
邵阳市,市罐头厂,111.4503,27.2537,2025-01-02T2200,131,146,1.0,32,15,85,112,173,细颗粒物(PM2.5)
邵阳市,市环保局,111.4328,27.2272,2025-01-02T2200,107,,0.8,21,15,113,126,140,细颗粒物(PM2.5)
绍兴市,城东开发委,120.6053,29.9928,2025-01-02T2200,67,109,0.7,74,6,6,79,90,细颗粒物(PM2.5)
绍兴市,树下王站,120.5483,30.0003,2025-01-02T2200,56,90,0.8,81,5,6,79,77,细颗粒物(PM2.5)
绍兴市,绍兴中专,120.5683,29.9361,2025-01-02T2200,51,80,0.5,70,6,8,80,70,细颗粒物(PM2.5)
绍兴市,柯桥区政府,120.4906,30.0861,2025-01-02T2200,77,126,0.9,101,8,4,73,103,细颗粒物(PM2.5)
绍兴市,重华小学,120.8752,30.0249,2025-01-02T2200,89,136,1.0,83,8,1,60,118,细颗粒物(PM2.5)
绍兴市,上虞中学,120.8369,30.0137,2025-01-02T2200,91,140,1.3,80,7,1,58,120,细颗粒物(PM2.5)
绍兴市,柯桥妇保,120.4722,30.0415,2025-01-02T2200,52,92,0.7,52,5,13,80,72,细颗粒物(PM2.5)
绍兴市,袍江中学,120.6153,30.0764,2025-01-02T2200,68,101,0.7,90,11,9,76,92,细颗粒物(PM2.5)
深圳市,通心岭子站,114.1063,22.5545,2025-01-02T2200,56,101,1.4,102,7,5,120,77,细颗粒物(PM2.5)
深圳市,洪湖,114.117,22.5625,2025-01-02T2200,52,118,1.1,127,7,3,113,84,颗粒物(PM10)
深圳市,华侨城,113.987,22.5417,2025-01-02T2200,38,73,1.0,77,7,60,109,62,颗粒物(PM10)
深圳市,南海子站,113.9181,22.5171,2025-01-02T2200,53,103,1.0,102,7,46,144,77,颗粒物(PM10)
深圳市,盐田,114.2458,22.5689,2025-01-02T2200,55,94,0.8,113,10,24,92,75,细颗粒物(PM2.5)
深圳市,龙岗,114.2283,22.7244,2025-01-02T2200,32,53,0.7,41,10,93,129,52,颗粒物(PM10)
深圳市,南澳,114.494,22.5422,2025-01-02T2200,30,47,0.6,13,9,115,117,47,
深圳市,葵涌,114.41,22.6342,2025-01-02T2200,42,67,0.9,73,6,21,113,59,"颗粒物(PM10),细颗粒物(PM2.5)"
深圳市,梅沙,114.297,22.5978,2025-01-02T2200,50,84,0.9,27,8,92,121,69,细颗粒物(PM2.5)
深圳市,观澜,114.0678,22.738,2025-01-02T2200,45,104,0.9,62,8,65,112,77,颗粒物(PM10)
深圳市,莲花,114.0731,22.559,2025-01-02T2200,44,76,1.0,118,8,14,112,63,颗粒物(PM10)
深圳市,民治,114.0261,22.6198,2025-01-02T2200,44,88,0.9,92,7,44,126,69,颗粒物(PM10)
深圳市,横岗,114.1871,22.6451,2025-01-02T2200,47,88,1.0,108,9,22,120,69,颗粒物(PM10)
深圳市,坪山,114.3551,22.7151,2025-01-02T2200,50,102,0.8,109,7,10,123,76,颗粒物(PM10)
深圳市,西乡,113.8953,22.5861,2025-01-02T2200,12,76,0.7,64,9,67,140,63,颗粒物(PM10)
沈阳市,森林路,123.6836,41.9339,2025-01-02T2200,,,,,,,,,
沈阳市,浑南东路,123.505,41.7406,2025-01-02T2200,43,78,1.2,68,18,14,52,64,颗粒物(PM10)
沈阳市,新秀街,123.4231,41.6989,2025-01-02T2200,50,103,1.2,64,16,11,50,77,颗粒物(PM10)
沈阳市,东陵路,123.5903,41.8411,2025-01-02T2200,60,75,0.9,54,11,6,54,82,细颗粒物(PM2.5)
沈阳市,陵东街,123.4264,41.8467,2025-01-02T2200,33,50,0.8,66,15,7,55,50,
沈阳市,文化路,123.4114,41.7653,2025-01-02T2200,72,110,1.0,63,15,11,51,97,细颗粒物(PM2.5)
沈阳市,小河沿,123.4678,41.7867,2025-01-02T2200,39,64,1.2,67,26,8,51,57,颗粒物(PM10)
沈阳市,太原街,123.4017,41.7972,2025-01-02T2200,39,83,1.4,63,35,10,53,67,颗粒物(PM10)
沈阳市,京沈街,123.3783,41.9228,2025-01-02T2200,76,,1.0,70,24,6,56,102,细颗粒物(PM2.5)
沈阳市,沈辽西路,123.2444,41.7347,2025-01-02T2200,77,167,1.3,66,14,9,59,109,颗粒物(PM10)
沈阳市,裕农路,123.5953,41.9086,2025-01-02T2200,27,62,0.7,53,13,19,54,56,颗粒物(PM10)
十堰市,武当山,111.0419,32.395,2025-01-02T2200,73,115,0.9,20,12,108,116,98,细颗粒物(PM2.5)
十堰市,滨河新村,110.78,32.6494,2025-01-02T2200,125,163,1.2,44,11,57,68,165,细颗粒物(PM2.5)
十堰市,刘家沟,110.7258,32.6389,2025-01-02T2200,126,184,1.3,38,14,57,66,166,细颗粒物(PM2.5)
十堰市,铁二处,110.8839,32.5714,2025-01-02T2200,,146,1.3,37,12,44,69,,
十堰市,郧阳区金沙路,110.8054,32.8401,2025-01-02T2200,128,,1.1,18,4,59,65,169,细颗粒物(PM2.5)
石河子市,艾青诗歌馆,86.0497,44.2967,2025-01-02T2200,248,352,2.6,114,18,12,66,298,细颗粒物(PM2.5)
石河子市,南区管委会,86.047,44.2331,2025-01-02T2200,215,274,1.7,45,5,54,62,265,细颗粒物(PM2.5)
石河子市,世纪广场,86.0791,44.3017,2025-01-02T2200,304,400,2.6,114,15,8,53,354,细颗粒物(PM2.5)
石家庄市,职工医院,114.4422,38.0444,2025-01-02T2200,42,53,0.6,58,4,18,59,59,细颗粒物(PM2.5)
石家庄市,高新区,114.6063,38.0266,2025-01-02T2200,36,60,0.5,33,4,44,63,55,颗粒物(PM10)
石家庄市,西北水源,114.4898,38.1328,2025-01-02T2200,27,64,0.5,44,2,16,53,57,颗粒物(PM10)
石家庄市,西南高教,114.4586,38.0058,2025-01-02T2200,31,56,0.3,36,5,36,60,53,颗粒物(PM10)
石家庄市,世纪公园,114.5331,38.0178,2025-01-02T2200,33,63,0.4,31,5,40,58,57,颗粒物(PM10)
石家庄市,人民会堂,114.509,38.0457,2025-01-02T2200,15,53,0.4,27,6,44,56,52,颗粒物(PM10)
石家庄市,封龙山,114.3524,37.8911,2025-01-02T2200,26,37,0.6,15,10,70,70,38,
石家庄市,22中南校区,114.5481,38.0378,2025-01-02T2200,35,54,0.5,35,5,40,58,52,颗粒物(PM10)
石家庄市,鹿泉一中,114.289,38.0906,2025-01-02T2200,38,60,0.4,47,4,27,56,55,颗粒物(PM10)
石家庄市,藁城区实验学校,114.8506765,38.0322033,2025-01-02T2200,22,52,0.6,53,4,24,58,51,颗粒物(PM10)
石家庄市,井陉矿区区委大楼,114.0504658,38.0591645,2025-01-02T2200,38,78,0.7,61,27,8,47,64,颗粒物(PM10)
石家庄市,栾城区星河路,114.6549,37.9020,2025-01-02T2200,46,63,0.5,59,7,16,65,64,细颗粒物(PM2.5)
石嘴山市,沙湖旅游区,106.3394,38.817,2025-01-02T2200,,,,,,,,,
石嘴山市,大武口朝阳西街,106.3668,39.0145,2025-01-02T2200,26,63,0.9,30,22,34,70,57,颗粒物(PM10)
石嘴山市,惠农南大街,106.7704,39.2282,2025-01-02T2200,17,27,0.4,41,12,31,63,27,
石嘴山市,红果子镇惠新街,106.7099,39.1325,2025-01-02T2200,31,66,0.5,52,11,24,70,58,颗粒物(PM10)
石嘴山市,妇女儿童医院,106.3495,38.9836,2025-01-02T2200,37,80,1.0,58,30,22,67,65,颗粒物(PM10)
石嘴山市,石大公路,106.7492,39.2069,2025-01-02T2200,26,85,0.4,60,8,14,69,68,颗粒物(PM10)
双鸭山市,双合村,131.1511,46.6937,2025-01-02T2200,42,52,0.5,15,11,55,55,59,细颗粒物(PM2.5)
双鸭山市,南小市,131.1652,46.6191,2025-01-02T2200,47,58,0.3,22,11,42,48,65,细颗粒物(PM2.5)
双鸭山市,环保局,131.1524,46.6554,2025-01-02T2200,52,65,0.9,40,33,30,47,72,细颗粒物(PM2.5)
双鸭山市,苗圃,131.12,46.5656,2025-01-02T2200,,64,0.6,17,7,65,77,,
朔州市,平朔,112.4397,39.3522,2025-01-02T2200,32,77,0.5,44,21,20,64,64,颗粒物(PM10)
朔州市,朔唯,112.4575,39.3617,2025-01-02T2200,15,67,0.7,56,26,18,60,59,颗粒物(PM10)
朔州市,区政府,112.4258,39.3197,2025-01-02T2200,35,75,1.0,59,35,14,61,63,颗粒物(PM10)
朔州市,市环保局,112.4072,39.3278,2025-01-02T2200,36,69,0.8,53,29,13,60,60,颗粒物(PM10)
朔州市,市二中,112.4272,39.3681,2025-01-02T2200,30,105,0.6,51,31,12,62,78,颗粒物(PM10)
朔州市,一水厂,112.2931,39.53,2025-01-02T2200,11,18,0.3,35,6,36,74,18,
四平市,一商场,124.4002,43.1713,2025-01-02T2200,55,102,0.8,55,12,17,56,76,颗粒物(PM10)
四平市,境园,124.388,43.193,2025-01-02T2200,94,118,1.0,48,10,10,56,124,细颗粒物(PM2.5)
四平市,植物园,124.4036,43.1411,2025-01-02T2200,36,54,0.7,55,5,7,54,52,"颗粒物(PM10),细颗粒物(PM2.5)"
四平市,世纪城,124.3419,43.1666,2025-01-02T2200,63,74,0.7,48,9,20,55,85,细颗粒物(PM2.5)
松原市,江南,124.8006,45.1214,2025-01-02T2200,25,43,0.6,33,6,26,51,43,
松原市,江北,124.7965,45.1722,2025-01-02T2200,21,29,0.5,22,4,36,58,30,
苏州市,上方山,120.561,31.2472,2025-01-02T2200,32,64,0.7,46,6,46,63,57,颗粒物(PM10)
苏州市,彩香,120.591,31.3019,2025-01-02T2200,30,63,0.5,31,9,57,68,57,颗粒物(PM10)
苏州市,轧钢厂,120.596,31.3264,2025-01-02T2200,30,59,0.8,35,6,53,65,55,颗粒物(PM10)
苏州市,吴中区,120.613,31.2703,2025-01-02T2200,30,62,0.6,47,6,43,64,56,颗粒物(PM10)
苏州市,苏州新区,120.543,31.2994,2025-01-02T2200,33,59,0.5,43,9,49,60,55,颗粒物(PM10)
苏州市,苏州工业园区,120.669,31.3097,2025-01-02T2200,30,57,0.6,45,7,47,63,54,颗粒物(PM10)
苏州市,相城区,120.641,31.3708,2025-01-02T2200,26,53,0.8,38,7,60,69,52,颗粒物(PM10)
苏州市,方洲路,120.743,31.3188,2025-01-02T2200,28,52,0.5,42,6,52,64,51,颗粒物(PM10)
苏州市,木渎中学,120.5031,31.2774,2025-01-02T2200,30,55,0.8,36,8,58,79,53,颗粒物(PM10)
苏州市,越秀幼儿园,120.624,31.1733,2025-01-02T2200,30,66,0.7,47,7,39,58,58,颗粒物(PM10)
苏州市,高铁新城,120.6505,31.416,2025-01-02T2200,34,66,0.7,34,7,53,82,58,颗粒物(PM10)
宿迁市,宿迁学院,118.293,33.9528,2025-01-02T2200,110,175,1.0,38,4,40,70,144,细颗粒物(PM2.5)
宿迁市,宿迁中学,118.2442,33.9592,2025-01-02T2200,104,166,0.9,34,6,48,62,137,细颗粒物(PM2.5)
宿迁市,市供电局,118.283,33.965,2025-01-02T2200,112,162,1.2,33,5,52,67,147,细颗粒物(PM2.5)
宿迁市,宿豫区政府,118.3225,33.9447,2025-01-02T2200,118,174,1.1,37,5,46,73,155,细颗粒物(PM2.5)
宿州市,远航博物馆,116.9509,33.666,2025-01-02T2200,105,164,0.7,33,7,50,56,138,细颗粒物(PM2.5)
宿州市,社会福利中心,116.9708,33.591,2025-01-02T2200,99,173,0.8,40,10,47,60,130,细颗粒物(PM2.5)
宿州市,宿州学院,116.9884,33.6305,2025-01-02T2200,118,194,0.9,42,9,38,60,155,细颗粒物(PM2.5)
宿州市,皖北煤电集团,116.9648,33.6252,2025-01-02T2200,107,169,0.9,37,8,45,60,140,细颗粒物(PM2.5)
绥化市,人和东街,126.9785,46.6365,2025-01-02T2200,113,126,1.0,44,7,26,38,148,细颗粒物(PM2.5)
绥化市,党政办公中心,126.964,46.6528,2025-01-02T2200,92,102,1.0,44,8,30,39,122,细颗粒物(PM2.5)
随州市,市委党校,113.3583,31.7275,2025-01-02T2200,100,148,0.9,28,12,82,112,132,细颗粒物(PM2.5)
随州市,市林业局,113.3833,31.6908,2025-01-02T2200,101,134,1.2,26,16,85,114,133,细颗粒物(PM2.5)
随州市,市立交桥水厂,113.3983,31.7308,2025-01-02T2200,99,140,1.1,43,14,69,106,130,细颗粒物(PM2.5)
遂宁市,石溪浩,105.5453,30.5678,2025-01-02T2200,104,195,0.4,62,4,4,33,137,细颗粒物(PM2.5)
遂宁市,市监测站,105.5582,30.5232,2025-01-02T2200,126,150,0.7,49,6,50,62,166,细颗粒物(PM2.5)
遂宁市,行政中心,105.5861,30.5366,2025-01-02T2200,114,146,1.0,89,12,12,68,149,细颗粒物(PM2.5)
遂宁市,美宁食品公司,105.5918,30.4728,2025-01-02T2200,134,177,0.8,60,6,26,75,178,细颗粒物(PM2.5)
塔城地区,东门外小游园,82.9994,46.7432,2025-01-02T2200,33,,0.5,28,4,36,44,48,
台州市,黄岩环保大楼,121.273,28.6459,2025-01-02T2200,18,41,0.3,24,3,78,97,41,
台州市,台州环保大楼,121.419,28.6542,2025-01-02T2200,20,38,0.5,14,,83,92,,
台州市,路桥田洋王,121.377,28.5773,2025-01-02T2200,19,41,0.4,21,3,86,96,41,
台州市,台州科技职业学院,121.2568,28.6681,2025-01-02T2200,24,65,0.4,45,4,42,91,58,颗粒物(PM10)
太原市,尖草坪,112.522,37.8873,2025-01-02T2200,34,79,0.5,55,10,22,51,65,颗粒物(PM10)
太原市,上兰,112.434,38.0108,2025-01-02T2200,34,45,,16,,55,56,,
太原市,晋源,112.469,37.7124,2025-01-02T2200,20,77,0.4,30,9,49,48,64,颗粒物(PM10)
太原市,小店,112.5583,37.7394,2025-01-02T2200,33,56,0.5,49,13,35,52,53,颗粒物(PM10)
太原市,桃园,112.5369,37.8692,2025-01-02T2200,37,77,0.6,54,8,23,52,64,颗粒物(PM10)
太原市,坞城,112.57,37.8195,2025-01-02T2200,34,62,0.9,41,14,37,53,56,颗粒物(PM10)
太原市,南寨,112.549,37.9854,2025-01-02T2200,39,78,0.6,61,9,5,59,64,颗粒物(PM10)
太原市,金胜,112.4719,37.7831,2025-01-02T2200,12,29,0.4,17,10,62,51,29,
太原市,育英中学,112.5608,37.8807,2025-01-02T2200,35,66,0.6,59,13,22,56,58,颗粒物(PM10)
泰安市,监测站,117.1437,36.1937,2025-01-02T2200,60,95,1.2,72,20,8,56,82,细颗粒物(PM2.5)
泰安市,人口学校,117.0885,36.2017,2025-01-02T2200,55,102,1.3,70,13,9,57,76,颗粒物(PM10)
泰安市,电力学校,117.1089,36.1758,2025-01-02T2200,75,134,1.8,82,28,6,54,100,细颗粒物(PM2.5)
泰安市,国网新校,117.1812,36.2275,2025-01-02T2200,24,39,0.8,26,8,48,66,39,
泰安市,交通技校,117.0313,36.2018,2025-01-02T2200,36,49,0.8,34,4,35,62,52,细颗粒物(PM2.5)
泰安市,山东第一医科大学,117.0829,36.13,2025-01-02T2200,63,102,1.2,79,17,10,63,85,细颗粒物(PM2.5)
泰州市,公园路,119.905,32.4878,2025-01-02T2200,24,41,0.8,30,8,63,92,41,
泰州市,莲花,119.9189,32.4625,2025-01-02T2200,27,44,0.5,23,4,68,99,44,
泰州市,留学生创业园,119.888,32.4639,2025-01-02T2200,20,50,0.6,28,7,68,104,50,
泰州市,王营,119.8767,32.3289,2025-01-02T2200,31,57,0.5,41,3,54,97,54,颗粒物(PM10)
泰州市,姜堰区政府广场,120.1259,32.5099,2025-01-02T2200,21,38,0.8,36,6,54,100,38,
泰州市,周山河街区,119.9192,32.4322,2025-01-02T2200,31,51,0.7,23,6,69,99,51,颗粒物(PM10)
唐山市,雷达站,118.131,39.6363,2025-01-02T2200,24,58,0.6,67,5,8,73,54,颗粒物(PM10)
唐山市,物资局,118.1725,39.6334,2025-01-02T2200,14,51,0.5,49,9,26,72,51,颗粒物(PM10)
唐山市,十二中,118.1705,39.6506,2025-01-02T2200,30,40,0.6,47,3,23,67,43,
唐山市,小山,118.1869,39.622,2025-01-02T2200,23,46,0.6,48,7,28,76,46,
唐山市,冀东油田职工医院,118.4359,39.2762,2025-01-02T2200,6,16,0.4,23,12,48,62,16,
唐山市,正泰大街热力站,118.09279,39.58089,2025-01-02T2200,20,48,0.8,60,6,13,69,48,
唐山市,丰润区政府,118.1562,39.8322,2025-01-02T2200,35,60,0.7,62,7,13,74,55,颗粒物(PM10)
唐山市,金山小学,118.43673,39.73809,2025-01-02T2200,20,65,0.7,53,13,19,79,58,颗粒物(PM10)
唐山市,政府服务中心,118.24498,39.66941,2025-01-02T2200,20,35,0.5,28,6,37,75,35,
唐山市,消防缸窑路中队,118.2059,39.6585,2025-01-02T2200,22,48,0.5,40,5,34,73,48,
唐山市,路南电大,118.1436,39.6202,2025-01-02T2200,42,51,0.6,64,7,15,73,59,细颗粒物(PM2.5)
天津市,勤俭道,117.1444,39.1661,2025-01-02T2200,30,59,0.4,60,7,20,65,55,颗粒物(PM10)
天津市,大直沽八号路,117.237,39.1082,2025-01-02T2200,33,69,0.6,60,6,12,61,60,颗粒物(PM10)
天津市,前进道,117.202,39.0927,2025-01-02T2200,30,59,0.6,70,8,12,65,55,颗粒物(PM10)
天津市,淮河道,117.1837,39.2133,2025-01-02T2200,23,54,0.4,60,4,22,65,52,颗粒物(PM10)
天津市,跃进路,117.307,39.0877,2025-01-02T2200,31,57,0.6,59,7,20,68,54,颗粒物(PM10)
天津市,第四大街,117.707,39.0343,2025-01-02T2200,14,30,0.6,52,11,24,49,30,
天津市,永明路,117.457,38.8394,2025-01-02T2200,19,34,0.6,61,11,15,49,34,
天津市,汉北路,117.764,39.1587,2025-01-02T2200,17,37,2.1,63,12,12,58,37,
天津市,团泊洼,117.157,38.9194,2025-01-02T2200,,,,,,,,,
天津市,河西一经路,117.7918,39.2474,2025-01-02T2200,23,66,1.5,62,14,16,62,58,颗粒物(PM10)
天津市,津沽路,117.3747,38.9846,2025-01-02T2200,19,36,0.6,48,6,32,66,36,
天津市,宾水西道,117.1589,39.0845,2025-01-02T2200,32,55,0.7,73,7,5,64,53,颗粒物(PM10)
天津市,大理道,117.1941,39.1067,2025-01-02T2200,36,62,0.6,72,7,11,70,56,颗粒物(PM10)
天津市,中山北路,117.2101,39.1699,2025-01-02T2200,22,43,0.3,53,3,35,66,43,
天津市,西四道,117.3876,39.1488,2025-01-02T2200,28,59,0.6,77,9,6,63,55,颗粒物(PM10)
天津市,雍阳西道,117.0365,39.3828,2025-01-02T2200,30,59,0.4,50,5,32,72,55,颗粒物(PM10)
天津市,辛老路,117.0296,39.0605,2025-01-02T2200,43,84,0.6,77,7,8,68,67,颗粒物(PM10)
天津市,地纬路,116.9638,38.9375,2025-01-02T2200,48,74,0.7,76,8,4,62,67,细颗粒物(PM2.5)
天津市,北环路,117.4067,40.0583,2025-01-02T2200,11,22,0.3,14,3,62,68,22,
天津市,建设路,117.3045,39.7169,2025-01-02T2200,33,57,0.5,51,7,22,65,54,颗粒物(PM10)
天津市,滨水东路,117.8199,39.3521,2025-01-02T2200,21,50,0.9,74,8,10,66,50,
天水市,麦积山,106.0055,34.343,2025-01-02T2200,,,,,,,,,
天水市,公园小学,105.7205,34.5786,2025-01-02T2200,60,90,1.1,55,23,14,78,82,细颗粒物(PM2.5)
天水市,麦积国土局,105.8945,34.5538,2025-01-02T2200,103,158,1.9,66,25,15,68,135,细颗粒物(PM2.5)
铁岭市,汇工街西,123.8139,42.3022,2025-01-02T2200,36,51,1.0,57,15,4,54,52,细颗粒物(PM2.5)
铁岭市,水上乐园,123.8649,42.2923,2025-01-02T2200,46,75,1.0,35,11,23,56,64,细颗粒物(PM2.5)
铁岭市,银州路东段,123.8486,42.2867,2025-01-02T2200,32,47,0.5,55,7,7,53,47,
铁岭市,金沙江路北,123.7153,42.2217,2025-01-02T2200,32,71,0.7,55,10,10,54,61,颗粒物(PM10)
通化市,光明,125.9358,41.7173,2025-01-02T2200,28,51,0.8,36,8,22,53,51,颗粒物(PM10)
通化市,铁路,125.9446,41.7325,2025-01-02T2200,21,41,0.7,24,7,34,56,41,
通辽市,艺术职业学校,122.2532,43.6801,2025-01-02T2200,6,43,0.3,9,12,54,57,43,
通辽市,老干部活动中心,122.2584,43.6333,2025-01-02T2200,17,30,0.5,10,11,53,56,30,
通辽市,东方明珠社区,122.2922,43.6189,2025-01-02T2200,30,,0.6,14,11,57,58,43,
铜川市,党校,109.0656,35.0994,2025-01-02T2200,,,,,,,,,
铜川市,王益区政府,109.0697,35.0697,2025-01-02T2200,61,111,1.0,67,10,10,70,83,细颗粒物(PM2.5)
铜川市,新区管委会,108.9344,34.9058,2025-01-02T2200,72,136,0.8,51,18,31,74,97,细颗粒物(PM2.5)
铜川市,旺旺集团,108.9543,34.8732,2025-01-02T2200,73,100,0.8,56,21,30,70,98,细颗粒物(PM2.5)
铜陵市,市第四中学,117.8177,30.9412,2025-01-02T2200,187,231,1.2,62,3,42,76,237,细颗粒物(PM2.5)
铜陵市,市公路局,117.8059,30.9273,2025-01-02T2200,171,217,1.2,46,4,43,74,221,细颗粒物(PM2.5)
铜陵市,市新民污水厂,117.7807,30.9413,2025-01-02T2200,149,246,1.1,51,12,43,76,199,细颗粒物(PM2.5)
铜陵市,市第九中学,117.7439,30.8792,2025-01-02T2200,175,244,1.0,69,7,30,70,225,细颗粒物(PM2.5)
铜陵市,车站新区,117.846,30.9413,2025-01-02T2200,150,215,1.1,64,12,32,83,200,细颗粒物(PM2.5)
铜陵市,市职教基地,117.8483,30.97,2025-01-02T2200,153,217,1.1,55,10,30,74,203,细颗粒物(PM2.5)
铜仁市,铜仁卫校,109.1839,27.7344,2025-01-02T2200,88,113,1.0,84,3,30,66,117,细颗粒物(PM2.5)
铜仁市,铜仁七中,109.1753,27.6944,2025-01-02T2200,112,121,1.6,73,4,6,57,147,细颗粒物(PM2.5)
吐鲁番市,市环保局,89.1904,42.9418,2025-01-02T2200,158,224,3.6,81,11,16,57,208,细颗粒物(PM2.5)
吐鲁番市,地区环保局,89.1673,42.9559,2025-01-02T2200,210,283,3.9,84,9,5,49,260,细颗粒物(PM2.5)
威海市,华夏技校,122.1214,37.4236,2025-01-02T2200,7,7,0.3,9,5,70,72,22,
威海市,山大分校,122.0508,37.5236,2025-01-02T2200,3,10,0.5,6,2,77,73,25,
威海市,市监测站,122.1067,37.5072,2025-01-02T2200,3,10,0.5,6,3,70,70,22,
威海市,文登开发区,122.0693,37.2174,2025-01-02T2200,22,34,0.6,25,5,52,66,34,
威海市,临港区管委会,122.1379,37.3414,2025-01-02T2200,8,19,0.4,9,6,64,67,20,
潍坊市,环保局,119.1437,36.7023,2025-01-02T2200,25,46,0.6,32,9,44,68,46,
潍坊市,坊子邮政,119.1641,36.6523,2025-01-02T2200,46,75,1.2,62,8,18,69,64,细颗粒物(PM2.5)
潍坊市,潍坊七中,119.0587,36.721,2025-01-02T2200,41,61,0.7,52,8,15,64,58,细颗粒物(PM2.5)
潍坊市,高新实验学校,119.1977,36.6872,2025-01-02T2200,31,48,0.6,38,7,34,66,48,
潍坊市,潍坊学院,119.1755,36.7149,2025-01-02T2200,26,41,0.7,18,7,56,73,41,
潍坊市,寒亭区实验一小,119.2041,36.7699,2025-01-02T2200,63,80,1.0,56,13,16,64,85,细颗粒物(PM2.5)
渭南市,农科所,109.5293,34.5101,2025-01-02T2200,,,,,,,,,
渭南市,日报社,109.4974,34.4877,2025-01-02T2200,51,92,0.7,62,3,8,60,71,颗粒物(PM10)
渭南市,体育馆,109.4636,34.493,2025-01-02T2200,42,83,0.9,73,8,5,64,67,颗粒物(PM10)
渭南市,高新一小,109.4259,34.5023,2025-01-02T2200,56,126,1.2,74,12,7,71,88,颗粒物(PM10)
温州市,瓯海,120.634,28.0089,2025-01-02T2200,20,43,0.3,29,6,67,96,43,
温州市,南浦,120.6748,27.9939,2025-01-02T2200,17,37,0.3,18,6,82,96,37,
温州市,龙湾,120.76,27.9747,2025-01-02T2200,14,37,0.3,29,5,78,90,37,
温州市,市站,120.6709,28.0167,2025-01-02T2200,17,34,0.4,32,7,63,90,34,
温州市,茶山,120.6985,27.9251,2025-01-02T2200,13,29,0.2,17,5,86,98,29,
文山壮族苗族自治州,州水务局,104.2533,23.3594,2025-01-02T2200,72,92,0.7,13,2,65,57,97,细颗粒物(PM2.5)
文山壮族苗族自治州,市便民服务中心,104.2319,23.3892,2025-01-02T2200,73,75,0.8,14,4,64,59,98,细颗粒物(PM2.5)
乌海市,市林业局,106.8174,39.6973,2025-01-02T2200,28,42,0.6,15,18,56,44,42,
乌海市,中海勃湾学校,106.7907,39.6667,2025-01-02T2200,10,38,0.4,18,9,59,49,38,
乌海市,海北新区,106.813,39.7274,2025-01-02T2200,66,134,1.6,49,21,12,52,92,颗粒物(PM10)
乌海市,聚英学校,106.8288,39.6778,2025-01-02T2200,34,99,1.2,63,15,7,38,75,颗粒物(PM10)
乌兰察布市,集宁新区,113.1306,40.9923,2025-01-02T2200,10,19,0.3,6,5,69,79,22,
乌兰察布市,光明街小学,113.1076,41.0385,2025-01-02T2200,13,14,0.4,10,8,66,70,21,
乌兰察布市,北京八中,113.1376,40.9509,2025-01-02T2200,3,21,0.3,16,12,59,82,21,
乌兰察布市,市委党校,113.1775,40.9779,2025-01-02T2200,8,20,0.4,21,10,52,83,20,
乌鲁木齐市,监测站,87.5801,43.8303,2025-01-02T2200,157,213,3.3,129,8,5,20,207,细颗粒物(PM2.5)
乌鲁木齐市,收费所,87.6046,43.768,2025-01-02T2200,148,160,2.0,95,5,2,25,198,细颗粒物(PM2.5)
乌鲁木齐市,新疆农科院农场,87.4754,43.9469,2025-01-02T2200,247,314,1.9,44,6,55,53,297,细颗粒物(PM2.5)
