area,positionname,longitude,latitude,timepoint,pm2_5,pm10,co,no2,so2,o3,o3_8h,aqi,primarypollutant
阿坝藏族羌族自治州,州农科所,102.1879,31.914,2025-04-21T2000,8,20,0.5,6,12,81,93,26,
阿坝藏族羌族自治州,马师校,102.2502,31.8896,2025-04-21T2000,17,25,0.4,8,5,114,119,36,
阿坝藏族羌族自治州,马尔康中学西区,102.2165,31.9024,2025-04-21T2000,12,21,0.4,4,4,123,129,39,
阿克苏地区,电视台,80.292,41.1694,2025-04-21T2000,298,1254,0.6,5,5,80,93,500,颗粒物(PM10)
阿克苏地区,艺术中心,80.2613,41.1551,2025-04-21T2000,303,1377,0.3,8,5,79,92,500,颗粒物(PM10)
阿拉善盟,西城区西花园,105.6467,38.8363,2025-04-21T2000,46,126,0.7,8,5,117,112,88,颗粒物(PM10)
阿拉善盟,蒙二幼,105.6985,38.8411,2025-04-21T2000,57,137,0.5,10,7,100,97,94,颗粒物(PM10)
阿拉善盟,环保局新楼,105.724,38.8516,2025-04-21T2000,77,159,0.6,5,9,105,102,105,颗粒物(PM10)
阿勒泰地区,市站,88.1264,47.8517,2025-04-21T2000,3,16,0.2,8,3,95,96,30,
阿里地区,阿里监测站,80.1161,32.5,2025-04-21T2000,14,27,0.4,3,6,114,122,36,
阿里地区,阿里藏医院,80.0903,32.5028,2025-04-21T2000,13,39,0.3,2,6,125,134,40,
安康市,香溪洞,109.0318,32.6537,2025-04-21T2000,11,34,0.7,8,6,83,120,34,
安康市,汉滨区检察院,109.0072,32.6975,2025-04-21T2000,26,43,0.4,10,7,74,85,43,
安康市,市邮政管理局,109.0325,32.6913,2025-04-21T2000,21,42,0.3,9,5,77,89,42,
安庆市,环科院,117.0809,30.5177,2025-04-21T2000,6,15,1.3,50,11,21,101,25,
安庆市,马山宾馆,117.0331,30.5119,2025-04-21T2000,9,20,1.3,53,7,19,107,27,
安庆市,安庆大学,116.9896,30.6145,2025-04-21T2000,11,20,0.7,41,4,26,89,21,
安庆市,市人大,117.0598,30.5351,2025-04-21T2000,6,16,1.0,33,10,39,107,17,
安顺市,伍家关,105.9606,26.2611,2025-04-21T2000,21,37,0.4,,3,121,135,,
安顺市,凤凰山,105.9408,26.2431,2025-04-21T2000,18,40,0.6,7,6,112,125,40,
安顺市,金钟山,105.9439,26.2564,2025-04-21T2000,20,29,0.5,9,5,112,125,35,
安顺市,娄家坡,105.8983,26.2481,2025-04-21T2000,20,28,0.5,7,5,115,126,36,
安阳市,棉研所,114.4839,36.0621,2025-04-21T2000,,,,,,,,,
安阳市,红庙街,114.3551,36.1017,2025-04-21T2000,49,64,0.6,19,3,62,109,68,细颗粒物(PM2.5)
安阳市,银杏小区,114.361,36.0681,2025-04-21T2000,48,64,0.6,14,6,89,114,67,细颗粒物(PM2.5)
安阳市,信访局,114.3922,36.0878,2025-04-21T2000,36,54,0.1,16,2,106,120,52,"颗粒物(PM10),细颗粒物(PM2.5)"
安阳市,左辅环卫站,114.4705,36.0637,2025-04-21T2000,42,97,0.2,16,4,106,117,74,颗粒物(PM10)
安阳市,安钢职工学校,114.2917,36.0949,2025-04-21T2000,52,67,0.6,21,4,66,112,72,细颗粒物(PM2.5)
鞍山市,深沟寺,123.044,41.1196,2025-04-21T2000,26,37,0.7,18,8,117,129,38,
鞍山市,太阳城,123.011,41.0931,2025-04-21T2000,26,49,0.7,14,4,105,119,49,
鞍山市,太平,123.0485,41.1442,2025-04-21T2000,28,58,0.9,19,15,94,114,54,颗粒物(PM10)
鞍山市,铁西三道街,122.9642,41.0971,2025-04-21T2000,29,59,0.7,24,6,104,120,55,颗粒物(PM10)
鞍山市,明达新区,123.022,41.0821,2025-04-21T2000,28,50,0.4,16,6,104,121,50,
鞍山市,千山,123.1289,41.0228,2025-04-21T2000,,,,,,,95,,
鞍山市,兴盛南路290号,122.9446,41.0826,2025-04-21T2000,36,81,0.5,28,8,101,121,66,颗粒物(PM10)
巴彦淖尔市,附二中,107.4212,40.761,2025-04-21T2000,24,71,0.4,8,4,97,102,61,颗粒物(PM10)
巴彦淖尔市,市环保大楼,107.37,40.7372,2025-04-21T2000,22,92,0.3,8,4,90,99,71,颗粒物(PM10)
巴音郭楞蒙古自治州,孔雀公园,86.1472,41.7538,2025-04-21T2000,83,450,0.2,6,5,103,97,338,颗粒物(PM10)
巴音郭楞蒙古自治州,棉纺厂,86.1972,41.7166,2025-04-21T2000,79,492,0.2,8,2,104,99,390,颗粒物(PM10)
巴音郭楞蒙古自治州,经济开发区,86.2357,41.7173,2025-04-21T2000,64,437,0.2,10,5,105,104,322,颗粒物(PM10)
巴中市,苏山坪,106.7677,31.8794,2025-04-21T2000,8,24,0.3,5,3,103,102,33,
巴中市,市五中,106.7768,31.8526,2025-04-21T2000,7,28,0.6,4,5,96,97,30,
巴中市,圣泉水务公司,106.7418,31.8654,2025-04-21T2000,10,30,0.4,1,4,104,104,33,
巴中市,市中心医院,106.7616,31.8344,2025-04-21T2000,14,28,,10,3,94,97,,
白城市,洮北区环保局,122.7911,45.6077,2025-04-21T2000,53,79,0.6,15,3,66,88,73,细颗粒物(PM2.5)
白城市,市环保局,122.8738,45.5725,2025-04-21T2000,65,70,0.6,12,,60,85,,
白山市,喜丰,126.4219,41.9171,2025-04-21T2000,26,47,1.2,12,10,124,119,47,
白山市,环保局,126.4077,41.9419,2025-04-21T2000,12,38,0.8,8,14,128,113,40,
白银市,第三小学,104.1724,36.5446,2025-04-21T2000,27,104,0.6,6,23,101,95,77,颗粒物(PM10)
白银市,动力公司,104.1465,36.5482,2025-04-21T2000,32,95,0.4,6,6,100,98,73,颗粒物(PM10)
百色市,市监测站,106.6103,23.9011,2025-04-21T2000,22,36,0.5,12,3,80,89,36,
百色市,市中心血站,106.6538,23.8859,2025-04-21T2000,27,36,0.5,10,3,88,91,39,
百色市,祈福高中,106.6085,23.8798,2025-04-21T2000,18,46,0.6,10,5,84,86,46,
蚌埠市,工人疗养院,117.396,32.939,2025-04-21T2000,64,101,0.9,16,4,77,109,87,细颗粒物(PM2.5)
蚌埠市,百货大楼,117.3605,32.9427,2025-04-21T2000,60,105,0.9,20,5,76,104,82,细颗粒物(PM2.5)
蚌埠市,蚌埠学院,117.4185,32.8911,2025-04-21T2000,72,73,1.0,17,3,78,107,97,细颗粒物(PM2.5)
蚌埠市,淮上区政府,117.3533,32.9673,2025-04-21T2000,58,73,0.8,19,5,77,108,79,细颗粒物(PM2.5)
蚌埠市,高新区,117.3145,32.8977,2025-04-21T2000,54,83,0.9,17,4,75,104,74,细颗粒物(PM2.5)
蚌埠市,蚌埠田家炳中学,117.3092,32.9314,2025-04-21T2000,49,94,0.7,21,5,72,110,72,颗粒物(PM10)
包头市,市环境监测站,109.8756,40.6532,2025-04-21T2000,6,64,0.4,10,6,97,96,57,颗粒物(PM10)
包头市,包头八中,109.9991,40.5842,2025-04-21T2000,12,58,0.3,12,10,100,98,54,颗粒物(PM10)
包头市,青山宾馆,109.8538,40.6821,2025-04-21T2000,14,51,0.3,9,8,95,94,51,颗粒物(PM10)
包头市,惠龙物流,109.8642,40.6288,2025-04-21T2000,16,67,0.2,10,7,104,100,59,颗粒物(PM10)
包头市,东河鸿龙湾,110.0377,40.5546,2025-04-21T2000,12,57,0.3,8,6,99,96,54,颗粒物(PM10)
包头市,滨河大厦,109.9154,40.5685,2025-04-21T2000,16,60,0.4,6,10,101,96,55,颗粒物(PM10)
包头市,包头市委党校,109.9447,40.6261,2025-04-21T2000,3,59,0.4,5,6,106,102,55,颗粒物(PM10)
包头市,昆区政府,109.8331,40.6576,2025-04-21T2000,12,52,0.4,12,5,103,101,51,颗粒物(PM10)
宝鸡市,庙沟村,107.185,34.3063,2025-04-21T2000,30,73,0.5,20,7,65,98,62,颗粒物(PM10)
宝鸡市,竹园沟,107.0708,34.3017,2025-04-21T2000,31,82,0.4,12,8,48,81,66,颗粒物(PM10)
宝鸡市,三陆医院,107.1906,34.3672,2025-04-21T2000,31,68,0.6,35,5,57,89,59,颗粒物(PM10)
宝鸡市,监测站,107.1431,34.3547,2025-04-21T2000,38,86,0.4,26,8,53,86,68,颗粒物(PM10)
宝鸡市,技工学校,107.1186,34.3739,2025-04-21T2000,35,92,0.7,17,7,66,89,71,颗粒物(PM10)
宝鸡市,陈仓区环保局家属楼,107.3906,34.3528,2025-04-21T2000,31,74,0.5,24,7,64,85,62,颗粒物(PM10)
宝鸡市,文理学院,107.2058,34.3497,2025-04-21T2000,28,80,0.5,27,6,65,90,65,颗粒物(PM10)
宝鸡市,三迪小学,107.2386,34.3622,2025-04-21T2000,35,80,0.6,37,6,59,87,65,颗粒物(PM10)
保定市,游泳馆,115.493,38.8632,2025-04-21T2000,97,130,0.5,50,1,29,99,128,细颗粒物(PM2.5)
保定市,华电二区,115.5213,38.8959,2025-04-21T2000,82,,0.9,40,4,23,104,109,细颗粒物(PM2.5)
保定市,接待中心,115.4713,38.9108,2025-04-21T2000,89,102,1.1,50,2,19,100,118,细颗粒物(PM2.5)
保定市,地表水厂,115.4612,38.8416,2025-04-21T2000,64,110,0.8,48,4,27,96,87,细颗粒物(PM2.5)
保定市,满城区生态环境分局,115.31981,38.95208,2025-04-21T2000,78,88,0.7,45,13,31,82,104,细颗粒物(PM2.5)
保定市,清苑区第二中学,115.47694,38.76408,2025-04-21T2000,81,92,0.7,49,6,25,97,108,细颗粒物(PM2.5)
保定市,徐水物探局,115.62909,39.02311,2025-04-21T2000,75,95,0.9,48,1,20,86,100,细颗粒物(PM2.5)
保定市,双鹰农机,115.4202,38.8656,2025-04-21T2000,54,77,0.6,48,5,27,92,74,细颗粒物(PM2.5)
保定市,植保所站,115.5150,38.8590,2025-04-21T2000,85,94,0.9,46,2,24,92,113,细颗粒物(PM2.5)
保山市,市环境监测站,99.1678,25.1081,2025-04-21T2000,29,,0.5,7,6,66,69,42,
保山市,市环保局,99.1711,25.1328,2025-04-21T2000,19,36,0.4,5,7,100,103,36,
北海市,牛尾岭水库,109.2262,21.588,2025-04-21T2000,10,17,0.5,,6,49,70,,
北海市,海滩公园,109.1436,21.4086,2025-04-21T2000,3,40,0.7,8,6,58,81,40,
北海市,新市环保局,109.0981,21.4661,2025-04-21T2000,9,31,0.4,8,3,57,73,31,
北海市,北海工业园,109.1778,21.5233,2025-04-21T2000,17,26,0.7,7,7,55,70,26,
北海市,龙潭自来水厂,109.1911,21.4415,2025-04-21T2000,15,26,0.3,5,6,58,82,26,
北京市,万寿西宫,116.3621,39.8784,2025-04-21T2000,88,103,1.4,52,7,31,55,117,细颗粒物(PM2.5)
北京市,定陵,116.2202,40.2915,2025-04-21T2000,,,,,,,,,
北京市,东四,116.4174,39.9289,2025-04-21T2000,100,120,1.2,51,3,36,55,132,细颗粒物(PM2.5)
北京市,天坛,116.4072,39.8863,2025-04-21T2000,88,107,1.5,44,3,23,52,117,细颗粒物(PM2.5)
北京市,农展馆,116.462,39.9365,2025-04-21T2000,90,113,1.6,52,7,23,57,119,细颗粒物(PM2.5)
北京市,官园,116.3392,39.9295,2025-04-21T2000,92,113,1.2,45,4,33,44,122,细颗粒物(PM2.5)
北京市,海淀万柳,116.2878,39.9611,2025-04-21T2000,70,98,1.1,37,5,33,42,94,细颗粒物(PM2.5)
北京市,顺义新城,116.6636,40.135,2025-04-21T2000,60,84,0.9,31,6,40,70,82,细颗粒物(PM2.5)
北京市,怀柔镇,116.6275,40.3275,2025-04-21T2000,59,77,1.1,28,2,33,64,80,细颗粒物(PM2.5)
北京市,昌平镇,116.2296,40.217,2025-04-21T2000,88,102,0.8,36,3,33,62,117,细颗粒物(PM2.5)
北京市,奥体中心,116.3966,39.9821,2025-04-21T2000,84,114,1.4,56,3,24,50,112,细颗粒物(PM2.5)
北京市,延庆夏都,115.9718,40.4529,2025-04-21T2000,33,46,0.5,16,3,79,90,48,
北京市,密云新城,116.8336,40.4095,2025-04-21T2000,48,66,0.8,16,3,37,63,67,细颗粒物(PM2.5)
北京市,门头沟三家店,116.088,39.9726,2025-04-21T2000,68,88,0.9,37,2,27,48,92,细颗粒物(PM2.5)
北京市,丰台云岗,116.1541,39.8204,2025-04-21T2000,64,92,1.0,53,2,2,39,87,细颗粒物(PM2.5)
北京市,通州东关,116.6804,39.9081,2025-04-21T2000,97,121,1.4,56,6,29,56,128,细颗粒物(PM2.5)
北京市,房山燕山,115.9577,39.7603,2025-04-21T2000,41,57,0.8,32,5,44,40,58,细颗粒物(PM2.5)
北京市,大兴旧宫,116.4672,39.7733,2025-04-21T2000,87,116,1.2,61,3,8,44,115,细颗粒物(PM2.5)
北京市,延庆石河营,115.986,40.4563,2025-04-21T2000,14,30,0.4,8,2,78,82,30,
北京市,怀柔新城,116.6151,40.3053,2025-04-21T2000,59,78,1.3,15,3,31,63,80,细颗粒物(PM2.5)
北京市,丰台小屯,116.2545,39.8768,2025-04-21T2000,76,97,1.0,58,2,11,38,102,细颗粒物(PM2.5)
北京市,密云镇,116.84,40.3844,2025-04-21T2000,48,63,0.8,29,5,34,58,67,细颗粒物(PM2.5)
北京市,八角北路9号,116.1942,39.9158,2025-04-21T2000,72,96,0.9,50,6,22,45,97,细颗粒物(PM2.5)
北京市,洳河巡河路,117.0790,40.1518,2025-04-21T2000,69,87,1.0,20,2,34,92,93,细颗粒物(PM2.5)
本溪市,大峪,123.8275,41.3064,2025-04-21T2000,6,19,0.4,7,6,120,131,38,
本溪市,溪湖,123.7567,41.3325,2025-04-21T2000,10,33,0.6,9,7,112,125,35,
本溪市,彩屯,123.7169,41.3094,2025-04-21T2000,26,46,2.7,35,19,87,122,46,
本溪市,东明,123.7669,41.2864,2025-04-21T2000,12,28,0.6,9,6,114,127,36,
本溪市,新立屯,123.7992,41.2664,2025-04-21T2000,10,17,0.5,16,7,108,128,34,
本溪市,威宁,123.8142,41.3472,2025-04-21T2000,3,23,0.5,2,5,112,125,35,
毕节市,八中,105.2864,27.3125,2025-04-21T2000,56,,0.6,8,4,123,121,77,细颗粒物(PM2.5)
毕节市,师专,105.31,27.2944,2025-04-21T2000,39,52,0.6,8,8,116,115,55,细颗粒物(PM2.5)
毕节市,工业大道,105.3688,27.3598,2025-04-21T2000,32,61,0.9,11,8,107,116,56,颗粒物(PM10)
滨州市,第二水厂,118.0018,37.3617,2025-04-21T2000,34,53,1.0,14,6,109,165,52,颗粒物(PM10)
滨州市,北中新校,117.9776,37.393,2025-04-21T2000,39,46,0.5,13,3,116,166,55,细颗粒物(PM2.5)
滨州市,中海酒店,117.9378,37.3956,2025-04-21T2000,46,,0.8,12,7,101,159,64,细颗粒物(PM2.5)
滨州市,开发区一中,117.9378,37.3553,2025-04-21T2000,27,56,0.6,18,4,109,156,53,颗粒物(PM10)
滨州市,金海六路,118.0917,37.694,2025-04-21T2000,39,44,0.6,14,6,112,148,55,细颗粒物(PM2.5)
滨州市,滨州市西街道办事处,117.9956,37.3753,2025-04-21T2000,48,,0.6,12,5,124,182,67,细颗粒物(PM2.5)
亳州市,污水处理厂,115.8072,33.8399,2025-04-21T2000,43,46,0.6,16,4,72,87,60,细颗粒物(PM2.5)
亳州市,三国揽胜宫,115.7789,33.8518,2025-04-21T2000,41,46,0.5,16,4,81,89,58,细颗粒物(PM2.5)
亳州市,亳州学院,115.7633,33.8034,2025-04-21T2000,40,60,0.7,18,2,81,92,57,细颗粒物(PM2.5)
博尔塔拉蒙古自治州,市党校,82.0485,44.8556,2025-04-21T2000,19,40,0.3,19,3,103,96,40,
博尔塔拉蒙古自治州,市环保局,82.0806,44.8969,2025-04-21T2000,12,52,1.1,11,2,106,99,51,颗粒物(PM10)
沧州市,沧县城建局,116.8842,38.2991,2025-04-21T2000,50,51,0.5,23,2,84,108,69,细颗粒物(PM2.5)
沧州市,电视转播站,116.8584,38.3254,2025-04-21T2000,46,57,0.3,17,4,80,105,64,细颗粒物(PM2.5)
沧州市,市环保局,116.8709,38.3228,2025-04-21T2000,60,73,0.5,24,5,93,126,82,细颗粒物(PM2.5)
沧州市,河北水利电力学院,116.8136,38.3004,2025-04-21T2000,43,,0.4,22,6,89,118,60,细颗粒物(PM2.5)
昌都市,昌都监测站,97.1806,31.1273,2025-04-21T2000,11,15,0.4,9,2,113,119,36,
昌都市,昌都会议中心,97.1714,31.1406,2025-04-21T2000,16,22,0.3,3,2,115,119,36,
昌吉回族自治州,天山天池,88.1236,43.8886,2025-04-21T2000,3,29,0.6,9,5,77,107,29,
昌吉回族自治州,新区政务中心,87.2717,44.0297,2025-04-21T2000,10,17,0.3,3,5,124,120,39,
昌吉回族自治州,亚心广场,87.3095,44.0142,2025-04-21T2000,3,39,0.3,7,8,120,115,39,
长春市,食品厂,125.3325,43.9166,2025-04-21T2000,48,66,0.5,26,8,82,88,67,细颗粒物(PM2.5)
长春市,客车厂,125.2863,43.9027,2025-04-21T2000,46,49,0.5,25,5,87,90,64,细颗粒物(PM2.5)
长春市,邮电学院,125.2841,43.8463,2025-04-21T2000,53,79,0.6,28,7,86,97,73,细颗粒物(PM2.5)
长春市,劳动公园,125.3716,43.8772,2025-04-21T2000,53,60,0.8,23,7,87,95,73,细颗粒物(PM2.5)
长春市,园林处,125.3297,43.8805,2025-04-21T2000,48,53,0.6,22,8,81,93,67,细颗粒物(PM2.5)
长春市,净月潭,125.4605,43.79,2025-04-21T2000,72,99,0.6,27,8,71,96,97,细颗粒物(PM2.5)
长春市,甩湾子,125.7194,43.515,2025-04-21T2000,,,,,,,,,
长春市,经开区环卫处,125.3863,43.8447,2025-04-21T2000,66,91,0.7,33,6,70,84,89,细颗粒物(PM2.5)
长春市,高新区管委会,125.245,43.7783,2025-04-21T2000,58,,0.6,24,8,77,92,79,细颗粒物(PM2.5)
长春市,岱山公园,125.1761,43.8325,2025-04-21T2000,44,50,0.6,32,5,83,90,62,细颗粒物(PM2.5)
长沙市,经开区环保局,113.0833,28.2325,2025-04-21T2000,10,18,0.4,9,5,89,104,28,
长沙市,高开区环保局,112.8872,28.2189,2025-04-21T2000,13,23,0.9,9,4,81,95,26,
长沙市,马坡岭,113.0792,28.2053,2025-04-21T2000,6,19,0.4,7,2,80,98,25,
长沙市,湖南师范大学,112.9394,28.19,2025-04-21T2000,12,16,0.6,13,2,63,87,20,
长沙市,雨花区环保局,113.0178,28.1322,2025-04-21T2000,11,15,0.5,14,2,83,97,26,
长沙市,伍家岭,112.9792,28.2597,2025-04-21T2000,10,21,0.6,20,3,61,92,21,
长沙市,火车新站,113.0014,28.1944,2025-04-21T2000,14,24,0.7,20,6,73,93,24,
长沙市,天心区环保局,112.9844,28.1178,2025-04-21T2000,15,18,0.9,12,1,81,93,26,
长沙市,湖南中医药大学,112.8908,28.1308,2025-04-21T2000,20,,0.9,13,3,71,89,29,
长沙市,沙坪,112.9581,28.3611,2025-04-21T2000,19,39,0.5,5,5,70,90,39,
长治市,清华站,113.1147,36.1547,2025-04-21T2000,34,97,0.4,15,7,89,130,74,颗粒物(PM10)
长治市,审计局,113.0886,36.2125,2025-04-21T2000,39,78,0.3,16,10,92,140,64,颗粒物(PM10)
长治市,长治八中,113.0844,36.1856,2025-04-21T2000,35,107,0.5,16,10,93,140,79,颗粒物(PM10)
长治市,德盛苑,113.1569,36.1911,2025-04-21T2000,29,95,0.7,13,7,84,124,73,颗粒物(PM10)
长治市,向阳小学,113.06,36.0464,2025-04-21T2000,49,119,0.4,20,13,95,145,85,颗粒物(PM10)
长治市,屯留一中,112.8792,36.3144,2025-04-21T2000,33,101,0.1,34,8,75,136,76,颗粒物(PM10)
长治市,英华南巷50号,113.1131,36.19948,2025-04-21T2000,36,97,0.7,22,7,86,139,74,颗粒物(PM10)
长治市,学府街1号,113.2367,36.3344,2025-04-21T2000,28,108,,14,3,92,124,,
常德市,市二中,111.6975,28.9703,2025-04-21T2000,51,,0.9,9,5,86,117,70,细颗粒物(PM2.5)
常德市,白鹤山,111.7158,29.1456,2025-04-21T2000,,,,,,,,,
常德市,武陵区永安,111.7153,29.0289,2025-04-21T2000,32,46,0.7,9,3,95,121,46,
常德市,鼎城区玉霞,111.6892,28.9881,2025-04-21T2000,35,49,0.8,6,4,99,122,50,
常德市,武陵区长庚,111.6625,29.0531,2025-04-21T2000,30,45,0.8,8,7,105,128,45,
常州市,市监测站,119.9633,31.762,2025-04-21T2000,49,128,0.9,18,10,100,110,89,颗粒物(PM10)
常州市,武进监测站,119.9468,31.7069,2025-04-21T2000,36,130,0.7,24,10,98,113,90,颗粒物(PM10)
常州市,安家,119.9255,31.9087,2025-04-21T2000,51,102,0.6,23,9,74,108,76,颗粒物(PM10)
常州市,行政中心,119.9805,31.8174,2025-04-21T2000,38,128,0.7,20,16,102,112,89,颗粒物(PM10)
常州市,经开区,120.0522,31.7748,2025-04-21T2000,34,52,1.2,25,12,104,114,51,颗粒物(PM10)
常州市,钟楼,119.9025,31.7964,2025-04-21T2000,38,78,0.6,20,7,96,112,64,颗粒物(PM10)
常州市,武进经发区,119.8598,31.7066,2025-04-21T2000,34,80,1.2,24,8,101,113,65,颗粒物(PM10)
常州市,金坛城区,119.5826,31.7245,2025-04-21T2000,35,138,0.9,27,6,67,100,94,颗粒物(PM10)
朝阳市,西梁,120.4318,41.5881,2025-04-21T2000,60,,0.9,18,10,84,94,82,细颗粒物(PM2.5)
朝阳市,河畔小区,120.4521,41.5646,2025-04-21T2000,60,,1.0,19,9,88,104,82,细颗粒物(PM2.5)
朝阳市,八里堡,120.4176,41.5648,2025-04-21T2000,65,,1.1,20,8,78,89,88,细颗粒物(PM2.5)
朝阳市,农业园区,120.3806,41.5969,2025-04-21T2000,66,,1.1,13,8,91,95,89,细颗粒物(PM2.5)
潮州市,西园路,116.6367,23.6719,2025-04-21T2000,31,,0.6,20,6,32,100,,
潮州市,市政府,116.6183,23.6608,2025-04-21T2000,33,58,0.7,25,7,30,98,54,颗粒物(PM10)
潮州市,金山,116.6461,23.6761,2025-04-21T2000,21,48,0.6,22,9,36,105,48,
郴州市,马头岭,113.0073,25.9061,2025-04-21T2000,9,37,0.8,6,7,64,64,37,
郴州市,市职中,113.0116,25.8226,2025-04-21T2000,24,30,0.5,5,2,68,70,35,
郴州市,市审计局,113.0383,25.8071,2025-04-21T2000,23,32,0.3,6,2,70,74,33,
郴州市,市环保局,113.0348,25.7759,2025-04-21T2000,21,35,0.4,6,6,59,64,35,
郴州市,好美居路49号,113.0138,25.8011,2025-04-21T2000,19,23,0.6,8,4,64,68,28,
成都市,金泉两河,103.9728,30.7236,2025-04-21T2000,66,126,,21,3,38,78,,
成都市,十里店,104.176,30.6872,2025-04-21T2000,62,100,0.7,30,4,49,83,84,细颗粒物(PM2.5)
成都市,三瓦窑,104.079,30.5706,2025-04-21T2000,64,122,0.6,36,5,39,86,87,细颗粒物(PM2.5)
成都市,沙河铺,104.1114,30.63,2025-04-21T2000,57,112,0.8,32,5,34,78,81,颗粒物(PM10)
成都市,君平街,104.0786,30.6531,2025-04-21T2000,61,116,0.7,32,7,40,74,83,"颗粒物(PM10),细颗粒物(PM2.5)"
成都市,灵岩寺,103.613,31.0283,2025-04-21T2000,,,,,,,,,
成都市,大石西路,104.0239,30.65639,2025-04-21T2000,63,129,0.5,31,5,41,74,90,颗粒物(PM10)
成都市,龙泉驿区区政府,104.2725,30.5589,2025-04-21T2000,22,53,0.6,30,5,59,98,52,颗粒物(PM10)
成都市,金博路,104.0106,30.6931,2025-04-21T2000,44,109,0.6,24,7,24,50,80,颗粒物(PM10)
成都市,华阳,104.0578,30.5225,2025-04-21T2000,48,90,0.4,31,6,48,76,70,颗粒物(PM10)
成都市,青白江技师分院,104.3853,30.7453,2025-04-21T2000,28,75,0.3,40,6,34,104,63,颗粒物(PM10)
成都市,科学城,104.0789,30.4072,2025-04-21T2000,30,78,0.4,32,4,42,85,64,颗粒物(PM10)
成都市,光华大道三段,103.8506,30.6947,2025-04-21T2000,56,96,0.7,26,2,41,86,77,细颗粒物(PM2.5)
成都市,鲸龙路1057号,104.2433,30.5353,2025-04-21T2000,26,73,0.6,44,5,52,93,62,颗粒物(PM10)
承德市,铁路,117.9531,40.9081,2025-04-21T2000,64,66,1.3,37,6,33,73,87,细颗粒物(PM2.5)
承德市,中国银行,117.9392,40.9763,2025-04-21T2000,46,61,1.0,26,3,37,77,64,细颗粒物(PM2.5)
承德市,开发区,117.9503,40.928,2025-04-21T2000,51,,1.0,25,7,49,77,70,细颗粒物(PM2.5)
承德市,文化中心,117.8051,40.9655,2025-04-21T2000,71,96,1.2,28,4,40,94,95,细颗粒物(PM2.5)
承德市,离宫,117.9268,41.0026,2025-04-21T2000,57,,0.6,12,1,11,58,78,细颗粒物(PM2.5)
池州市,池州学院,117.47,30.6618,2025-04-21T2000,18,19,0.9,24,4,38,105,26,
池州市,展览馆,117.4918,30.6617,2025-04-21T2000,15,29,1.0,27,4,23,103,29,
池州市,第八中学,117.5627,30.695,2025-04-21T2000,14,22,1.0,35,7,25,101,22,
池州市,第十二中学,117.5038,30.6243,2025-04-21T2000,16,19,1.1,24,4,30,88,23,
赤峰市,松山一中,118.9233,42.2816,2025-04-21T2000,32,53,1.0,44,16,44,127,52,颗粒物(PM10)
赤峰市,哈达街,118.9576,42.2728,2025-04-21T2000,48,,0.8,32,12,60,134,67,细颗粒物(PM2.5)
赤峰市,天义路,118.8788,42.2554,2025-04-21T2000,30,36,0.6,29,9,62,140,43,
赤峰市,银河街,119.2658,42.0353,2025-04-21T2000,40,42,0.7,22,24,67,78,57,细颗粒物(PM2.5)
赤峰市,桥北物流园区,118.9359,42.3147,2025-04-21T2000,20,42,1.1,65,10,21,128,42,
崇左市,市环保局江州分局,107.3476,22.4136,2025-04-21T2000,24,48,0.4,4,5,88,97,48,
崇左市,石景林东路7号,107.3750,22.3736,2025-04-21T2000,31,,0.3,6,4,95,104,45,
滁州市,老年大学,118.3093,32.3153,2025-04-21T2000,49,64,0.8,21,5,63,102,68,细颗粒物(PM2.5)
滁州市,人大宾馆,118.3244,32.2786,2025-04-21T2000,73,,0.7,26,8,66,102,98,细颗粒物(PM2.5)
滁州市,市政府原办公楼,118.3118,32.3038,2025-04-21T2000,61,,0.8,18,4,63,105,83,细颗粒物(PM2.5)
滁州市,图书馆,118.3267,32.2634,2025-04-21T2000,49,59,0.6,13,8,70,103,68,细颗粒物(PM2.5)
楚雄彝族自治州,州环境监测站,101.5482,25.0441,2025-04-21T2000,17,29,0.7,21,8,90,109,29,
楚雄彝族自治州,市经济开发区,101.538,25.0492,2025-04-21T2000,18,36,0.6,9,6,96,106,36,
达州市,达州职业技术学院,107.5277,31.2827,2025-04-21T2000,12,45,0.4,13,5,71,77,45,
达州市,市环境监测站,107.5086,31.2186,2025-04-21T2000,17,40,0.2,15,5,80,82,40,
达州市,凤凰小区,107.4988,31.2132,2025-04-21T2000,12,44,0.4,17,8,86,91,44,
达州市,达县机关宾馆,107.5082,31.1986,2025-04-21T2000,10,41,0.4,12,6,82,88,41,
达州市,市政中心,107.4644,31.2124,2025-04-21T2000,14,45,0.4,14,2,84,84,45,
大理白族自治州,大理市环境监测站,100.1542,25.7054,2025-04-21T2000,9,,0.5,8,7,100,103,,
大理白族自治州,大理古城,100.2171,25.5811,2025-04-21T2000,18,22,0.5,6,7,98,103,31,
大连市,甘井子,121.612,38.9741,2025-04-21T2000,7,28,0.4,22,5,92,92,29,
大连市,周水子,121.565,38.9511,2025-04-21T2000,16,31,0.4,18,11,,98,,
大连市,星海三站,121.5637,38.8845,2025-04-21T2000,15,31,0.4,23,6,87,84,31,
大连市,青泥洼桥,121.6302,38.9117,2025-04-21T2000,15,23,0.7,19,5,85,101,27,
大连市,傅家庄,121.6251,38.8638,2025-04-21T2000,8,22,0.1,23,8,90,86,29,
大连市,七贤岭,121.5213,38.8661,2025-04-21T2000,13,25,0.8,24,5,90,82,29,
大连市,旅顺,121.2529,38.8061,2025-04-21T2000,13,19,0.4,26,6,72,66,23,
大连市,金州,121.7485,39.1311,2025-04-21T2000,18,30,0.3,23,8,82,111,30,
大连市,开发区,121.7811,39.0496,2025-04-21T2000,13,33,0.7,26,3,82,81,33,
大连市,双D港,121.9762,39.0631,2025-04-21T2000,6,,0.3,16,8,90,105,29,
大庆市,大同区,124.81117,46.03138,2025-04-21T2000,33,,0.7,11,5,74,89,48,
大庆市,龙凤区,125.129,46.533,2025-04-21T2000,28,35,0.5,13,5,79,95,40,
大庆市,红岗区,124.902,46.408,2025-04-21T2000,29,,0.6,9,6,78,90,42,
大庆市,萨尔图区,125.153,46.586,2025-04-21T2000,21,33,0.5,16,7,68,83,33,
大庆市,让胡路区,124.9042,46.6215,2025-04-21T2000,37,,0.3,10,6,66,82,53,细颗粒物(PM2.5)
大庆市,萨区政府监测点,125.141,46.634,2025-04-21T2000,17,34,0.4,11,6,77,93,34,
大同市,果树场,113.3819,40.1097,2025-04-21T2000,12,33,0.3,7,4,92,101,33,
大同市,云冈宾馆,113.2994,40.0758,2025-04-21T2000,9,15,0.2,10,7,100,114,32,
大同市,大同大学,113.3444,40.0917,2025-04-21T2000,3,35,0.3,12,13,91,117,35,
大同市,安家小村,113.2661,40.1269,2025-04-21T2000,6,29,0.3,7,11,94,109,30,
大同市,教育学院,113.2711,40.0844,2025-04-21T2000,7,36,0.2,13,8,94,110,36,
大同市,大同市卫生学校,113.3397,40.0597,2025-04-21T2000,7,36,0.4,12,6,96,109,36,
大同市,云冈站,113.1367,40.1122,2025-04-21T2000,6,40,0.5,23,15,75,102,40,
大同市,图书馆,113.1186,40.2556,2025-04-21T2000,6,34,0.5,9,8,88,97,34,
大同市,区一中,113.5931,40.0461,2025-04-21T2000,3,21,0.4,9,10,97,108,31,
大同市,魏都大道141号,113.2798,40.0997,2025-04-21T2000,10,32,0.4,12,11,97,117,32,
大兴安岭地区,科技局,124.1069,50.4097,2025-04-21T2000,11,16,0.3,3,3,85,91,27,
大兴安岭地区,红旗社区,124.1164,50.4278,2025-04-21T2000,3,6,0.3,2,4,86,96,27,
丹东市,江湾东路,124.3303,40.0625,2025-04-21T2000,15,34,0.6,10,18,87,120,34,
丹东市,临江后街,124.4256,40.1503,2025-04-21T2000,24,44,0.7,10,8,77,116,44,
丹东市,元宝山,124.3933,40.1461,2025-04-21T2000,9,28,0.3,10,8,81,117,28,
丹东市,民主桥,124.3633,40.1092,2025-04-21T2000,13,37,0.5,9,9,86,122,37,
儋州市,第一中学子站,109.5726,19.5167,2025-04-21T2000,34,37,0.4,10,6,104,90,49,
儋州市,东坡学校子站,109.5567,19.5187,2025-04-21T2000,27,32,0.6,12,6,111,97,39,
德宏傣族景颇族自治州,德宏州监测站,98.5842,24.428,2025-04-21T2000,28,40,0.6,16,9,82,96,40,
德宏傣族景颇族自治州,芒市人民政府综合楼,98.5881,24.4368,2025-04-21T2000,22,52,0.6,13,8,94,110,51,颗粒物(PM10)
德阳市,东山公园,104.4239,31.1208,2025-04-21T2000,24,51,0.5,7,3,93,90,51,颗粒物(PM10)
德阳市,西小区,104.3826,31.1317,2025-04-21T2000,27,58,0.4,13,4,86,87,54,颗粒物(PM10)
德阳市,耐火材料厂,104.3553,31.1091,2025-04-21T2000,28,56,0.4,11,4,87,87,53,颗粒物(PM10)
德阳市,市教育局,104.4019,31.1244,2025-04-21T2000,26,55,0.3,12,4,87,89,53,颗粒物(PM10)
德州市,儿童乐园,116.3032,37.4674,2025-04-21T2000,66,,0.8,19,9,84,117,89,细颗粒物(PM2.5)
德州市,监理站,116.2991,37.4451,2025-04-21T2000,70,,0.6,12,18,95,116,94,细颗粒物(PM2.5)
德州市,九衢泉纯净水厂,116.2721,37.4379,2025-04-21T2000,34,41,0.9,39,7,56,105,49,
德州市,开发区人民医院,116.3728,37.4403,2025-04-21T2000,39,39,0.8,18,6,75,108,55,细颗粒物(PM2.5)
德州市,太阳城中学,116.3572,37.4094,2025-04-21T2000,44,63,1.1,28,4,50,113,62,细颗粒物(PM2.5)
德州市,陵城艺术中心,116.5652,37.3319,2025-04-21T2000,34,,0.6,16,2,85,116,49,
迪庆藏族自治州,迪庆州站,99.7056,27.8317,2025-04-21T2000,13,18,0.4,8,9,99,104,31,
迪庆藏族自治州,质量技术监督局,99.7136,27.8094,2025-04-21T2000,7,24,0.5,10,11,99,106,31,
定西市,将台街,104.6092,35.5962,2025-04-21T2000,49,113,0.0,8,4,110,110,82,颗粒物(PM10)
定西市,正龙路62号,104.6159,35.5701,2025-04-21T2000,38,110,0.2,5,7,112,111,80,颗粒物(PM10)
东莞市,莞城梨川,113.7547,23.0494,2025-04-21T2000,22,36,,16,6,42,78,,
东莞市,东城石井,113.7944,23.0128,2025-04-21T2000,19,30,0.2,20,4,41,79,30,
东莞市,南城西平,113.7383,22.9658,2025-04-21T2000,17,27,0.5,14,1,44,77,27,
东莞市,万江金泰,113.7338,23.0381,2025-04-21T2000,23,37,0.6,14,2,34,75,37,
东莞市,南城元岭,113.7533,23.0202,2025-04-21T2000,19,35,0.7,12,6,44,79,35,
东莞市,东城主山,113.7875,23.0457,2025-04-21T2000,18,37,0.5,17,4,44,78,37,
东营市,市环保局,118.6614,37.4309,2025-04-21T2000,41,53,0.5,19,6,151,144,58,细颗粒物(PM2.5)
东营市,开发区管委会,118.6904,37.4338,2025-04-21T2000,41,51,0.7,26,5,159,149,58,细颗粒物(PM2.5)
东营市,垦利区民丰路,118.5719,37.565,2025-04-21T2000,41,53,0.9,17,4,145,144,58,细颗粒物(PM2.5)
东营市,河口城区,118.5055,37.8612,2025-04-21T2000,37,48,0.8,15,4,144,157,53,细颗粒物(PM2.5)
东营市,胜利站,118.4978,37.4623,2025-04-21T2000,46,73,1.0,19,9,135,138,64,细颗粒物(PM2.5)
东营市,理想之城,118.35,37.26,2025-04-21T2000,44,80,0.7,20,6,146,142,65,颗粒物(PM10)
鄂尔多斯市,综合楼,110.0023,39.8129,2025-04-21T2000,19,70,0.2,14,2,92,105,60,颗粒物(PM10)
鄂尔多斯市,巴音孟克林场办事处,109.9486,39.8261,2025-04-21T2000,24,75,0.3,18,6,86,95,63,颗粒物(PM10)
鄂尔多斯市,康泽苑,109.7736,39.5986,2025-04-21T2000,,102,0.2,6,3,100,98,,
鄂尔多斯市,华泰汽车城,109.8119,39.5989,2025-04-21T2000,22,88,0.3,12,5,92,94,69,颗粒物(PM10)
鄂尔多斯市,奥林花园,109.9734,39.7884,2025-04-21T2000,12,73,0.1,11,1,96,104,62,颗粒物(PM10)
鄂州市,市政府,114.8938,30.3994,2025-04-21T2000,24,51,0.4,20,6,62,79,51,颗粒物(PM10)
鄂州市,赵家坝,114.8989,30.3714,2025-04-21T2000,22,44,0.8,9,4,64,75,44,
鄂州市,精准医疗中心,114.8094,30.4089,2025-04-21T2000,18,40,0.6,12,5,60,72,40,
恩施土家族苗族自治州,湖北民院,109.4978,30.2981,2025-04-21T2000,12,29,0.5,25,5,39,77,29,
恩施土家族苗族自治州,州电力总公司,109.4707,30.2798,2025-04-21T2000,18,29,0.6,30,4,30,57,29,
恩施土家族苗族自治州,龙凤新区,109.5061,30.3772,2025-04-21T2000,10,15,0.5,15,6,16,54,15,
防城港市,沙万,108.3411,21.6158,2025-04-21T2000,19,38,0.4,10,3,32,43,38,
防城港市,防城档案局,108.3514,21.7731,2025-04-21T2000,24,,0.3,2,4,45,49,35,
防城港市,大海花园,108.3506,21.6414,2025-04-21T2000,11,30,0.3,2,2,44,55,30,
佛山市,湾梁,113.1294,23.0067,2025-04-21T2000,16,31,0.6,17,7,39,70,31,
佛山市,华材职中,113.1083,23.0478,2025-04-21T2000,16,29,0.4,16,6,42,76,29,
佛山市,南海气象局,113.144,23.0453,2025-04-21T2000,21,41,0.4,23,7,31,70,41,
佛山市,顺德苏岗,113.2881,22.8094,2025-04-21T2000,12,29,0.6,12,6,31,62,29,
佛山市,高明孔堂,112.8383,22.8678,2025-04-21T2000,12,28,0.5,6,6,41,54,28,
佛山市,三水监测站,112.8836,23.1588,2025-04-21T2000,12,39,0.4,25,2,29,61,39,
佛山市,三水云东海,112.867,23.185,2025-04-21T2000,14,25,0.3,36,1,31,71,25,
佛山市,容桂街道办,113.2544,22.7642,2025-04-21T2000,14,19,0.5,16,5,31,48,20,
福州市,鼓山,119.3903,26.0543,2025-04-21T2000,,,,,,,77,,
福州市,师大,119.2681,26.0504,2025-04-21T2000,38,59,0.5,20,4,111,128,55,颗粒物(PM10)
福州市,五四北路,119.2984,26.1028,2025-04-21T2000,45,48,0.6,18,4,107,122,63,细颗粒物(PM2.5)
福州市,杨桥西路,119.2648,26.0768,2025-04-21T2000,44,53,0.5,19,4,108,128,62,细颗粒物(PM2.5)
福州市,紫阳,119.317,26.0746,2025-04-21T2000,46,52,0.5,18,5,102,111,64,细颗粒物(PM2.5)
福州市,九龙,119.5799,26.0936,2025-04-21T2000,37,52,0.4,9,4,127,153,53,细颗粒物(PM2.5)
福州市,吴航,119.5189,25.9664,2025-04-21T2000,45,79,0.7,14,4,139,154,65,颗粒物(PM10)
抚顺市,望花区,123.7977,41.8491,2025-04-21T2000,47,86,0.6,33,13,99,122,68,颗粒物(PM10)
抚顺市,顺城区,123.9161,41.8822,2025-04-21T2000,41,78,0.7,40,11,92,129,64,颗粒物(PM10)
抚顺市,东洲区,124.0436,41.8611,2025-04-21T2000,56,94,0.8,35,10,84,128,77,细颗粒物(PM2.5)
抚顺市,新抚区,123.9247,41.8642,2025-04-21T2000,36,67,0.8,28,10,97,123,59,颗粒物(PM10)
抚顺市,大伙房水库,124.0972,41.8961,2025-04-21T2000,59,74,0.7,27,12,92,129,80,细颗粒物(PM2.5)
抚顺市,沈抚新城,123.7086,41.8391,2025-04-21T2000,36,63,0.6,30,9,98,124,57,颗粒物(PM10)
抚州市,桐源党溪,116.2127,28.0814,2025-04-21T2000,24,34,0.7,,6,,81,,
抚州市,市站,116.3544,27.9831,2025-04-21T2000,13,35,1.2,8,6,68,69,35,
抚州市,血防站,116.3565,27.963,2025-04-21T2000,15,37,1.8,5,3,71,69,37,
抚州市,采茶剧团,116.3564,28.0007,2025-04-21T2000,11,29,1.0,4,2,76,72,29,
抚州市,医学分院,116.385,27.9647,2025-04-21T2000,10,34,1.2,7,3,64,68,34,
阜新市,工业园区,121.6094,41.998,2025-04-21T2000,15,31,0.7,21,11,88,108,31,
阜新市,长青街,121.6697,42.0279,2025-04-21T2000,17,34,0.6,20,8,93,104,34,
阜新市,农业园区,121.6673,42.0705,2025-04-21T2000,24,26,0.5,16,8,95,104,35,
阜新市,东苑,121.6717,42.0224,2025-04-21T2000,25,35,0.6,19,12,99,102,36,
阜新市,玉龙新城,121.6506,42.0498,2025-04-21T2000,20,28,0.7,16,10,90,106,29,
阜阳市,市监测站,115.8277,32.8929,2025-04-21T2000,40,51,0.8,19,6,48,85,57,细颗粒物(PM2.5)
阜阳市,开发区,115.8554,32.8605,2025-04-21T2000,31,85,0.7,23,5,47,88,68,颗粒物(PM10)
阜阳市,阜阳职业技术学院,115.784,32.8892,2025-04-21T2000,35,52,0.6,16,3,51,91,51,颗粒物(PM10)
阜阳市,市规划展馆,115.7901,32.8613,2025-04-21T2000,59,74,0.8,15,6,54,98,80,细颗粒物(PM2.5)
阜阳市,枣园社区,115.836,32.9183,2025-04-21T2000,60,100,0.7,16,7,51,88,82,细颗粒物(PM2.5)
甘南藏族自治州,州政府,102.9099,34.9841,2025-04-21T2000,32,110,0.3,4,7,68,78,80,颗粒物(PM10)
甘南藏族自治州,甘肃民族师范学院,102.8914,34.9617,2025-04-21T2000,36,109,0.4,20,22,61,86,80,颗粒物(PM10)
甘孜藏族自治州,水桥子,101.9603,30.0475,2025-04-21T2000,3,17,0.4,7,4,98,108,31,
甘孜藏族自治州,州环保局,101.9533,29.9972,2025-04-21T2000,9,25,0.5,11,1,96,103,30,
赣江新区,桑海产业园,115.8347,28.932,2025-04-21T2000,10,19,0.3,31,2,67,79,21,
赣州市,通天岩,114.9017,25.9149,2025-04-21T2000,3,25,0.7,6,1,58,72,25,
赣州市,地委,114.9367,25.8664,2025-04-21T2000,16,30,1.0,18,4,52,66,30,
赣州市,气象台,114.9461,25.8481,2025-04-21T2000,16,29,0.6,13,8,58,66,29,
赣州市,市图书馆,114.9322,25.8333,2025-04-21T2000,18,31,0.8,12,4,49,57,31,
赣州市,华坚鞋城,114.8905,25.8471,2025-04-21T2000,21,32,0.4,12,4,59,65,32,
赣州市,赣县区卫计委,115.0093,25.8613,2025-04-21T2000,16,25,0.4,10,4,,64,,
固原市,马园,106.2319,36.1417,2025-04-21T2000,58,225,0.5,15,6,83,103,138,颗粒物(PM10)
固原市,监测站,106.2792,36.0022,2025-04-21T2000,58,236,0.4,9,5,85,100,143,颗粒物(PM10)
固原市,新区,106.2375,36.0211,2025-04-21T2000,46,222,0.3,11,5,81,96,136,颗粒物(PM10)
固原市,原州区十五小,106.2177,35.9959,2025-04-21T2000,63,203,0.2,9,9,87,102,127,颗粒物(PM10)
广安市,小平旧居,106.6308,30.5278,2025-04-21T2000,,,,,,,,,
广安市,市委,106.6303,30.4576,2025-04-21T2000,21,46,0.4,8,8,77,88,46,
广安市,友谊中学,106.6271,30.4663,2025-04-21T2000,22,43,1.0,12,2,73,87,43,
广安市,广电花园,106.6388,30.4551,2025-04-21T2000,18,44,0.3,9,3,75,86,44,
广安市,北辰小学,106.6351,30.4865,2025-04-21T2000,28,50,0.3,10,4,64,80,50,
广元市,黑石坡,105.8945,32.4535,2025-04-21T2000,11,77,0.2,5,2,88,92,64,颗粒物(PM10)
广元市,老城,105.821,32.4444,2025-04-21T2000,22,84,0.5,4,1,94,100,67,颗粒物(PM10)
广元市,监测站,105.8628,32.4287,2025-04-21T2000,39,77,0.3,3,5,96,100,64,颗粒物(PM10)
广元市,经开区,105.8047,32.4166,2025-04-21T2000,28,89,0.4,8,3,92,100,70,颗粒物(PM10)
广州市,广雅中学,113.2347,23.1423,2025-04-21T2000,16,35,0.6,18,3,43,79,35,
广州市,市五中,113.2612,23.105,2025-04-21T2000,16,30,0.6,17,2,43,85,30,
广州市,广东商学院,113.3478,23.0916,2025-04-21T2000,25,41,0.4,34,3,29,90,41,
广州市,市八十六中,113.4332,23.1047,2025-04-21T2000,18,40,0.5,50,4,14,72,40,
广州市,番禺中学,113.3505,22.9483,2025-04-21T2000,15,32,0.5,14,5,40,90,32,
广州市,花都师范,113.2146,23.3916,2025-04-21T2000,25,46,0.8,30,4,52,104,46,
广州市,市监测站,113.2597,23.1331,2025-04-21T2000,18,32,0.5,22,6,37,73,32,
广州市,九龙镇镇龙,113.5618,23.312,2025-04-21T2000,22,36,0.5,32,7,38,98,36,
广州市,麓湖,113.2765,23.1544,2025-04-21T2000,20,36,0.5,24,4,43,92,36,
广州市,帽峰山森林公园,113.443,23.3035,2025-04-21T2000,21,43,0.6,22,7,47,112,43,
广州市,体育西,113.3221,23.1322,2025-04-21T2000,22,45,0.5,32,4,36,94,45,
广州市,从化街口,113.5717,23.5491,2025-04-21T2000,21,44,0.5,17,10,72,124,44,
广州市,白云竹料,113.3472,23.3692,2025-04-21T2000,25,52,0.6,36,4,48,114,51,颗粒物(PM10)
广州市,白云嘉禾,113.2981,23.237,2025-04-21T2000,21,46,0.7,34,5,38,90,46,
广州市,黄埔科学城,113.4256,23.1716,2025-04-21T2000,22,53,0.3,36,7,23,92,52,颗粒物(PM10)
广州市,番禺大学城,113.3942,23.0483,2025-04-21T2000,19,39,0.5,35,6,29,89,39,
广州市,南沙黄阁,113.4922,22.8168,2025-04-21T2000,21,28,0.5,20,4,38,64,30,
广州市,南沙街,113.5342,22.7896,2025-04-21T2000,18,38,0.6,16,4,36,53,38,
广州市,花都梯面,113.2902,23.5544,2025-04-21T2000,22,42,0.5,26,5,67,108,42,
广州市,从化良口,113.7858,23.7478,2025-04-21T2000,26,36,0.2,14,6,109,125,38,
广州市,增城荔城,113.8051,23.2614,2025-04-21T2000,20,39,0.1,14,7,55,96,39,
贵港市,德智高中,109.568,23.1478,2025-04-21T2000,,,,,,,,,
贵港市,江南子站,109.6047,23.0666,2025-04-21T2000,13,34,0.4,7,4,61,87,34,
贵港市,荷城子站,109.5669,23.1065,2025-04-21T2000,3,24,0.2,14,4,48,82,24,
贵港市,新世纪学校,109.5886,23.1172,2025-04-21T2000,13,39,0.7,10,5,59,87,39,
贵港市,中山路155-3号,109.5933,23.0951,2025-04-21T2000,11,26,0.4,10,6,56,87,26,
贵阳市,马鞍山,106.6899,26.5998,2025-04-21T2000,7,29,0.4,14,6,107,121,34,
贵阳市,鉴湖路,106.6243,26.6266,2025-04-21T2000,19,51,0.2,11,12,106,124,51,颗粒物(PM10)
贵阳市,燕子冲,106.7487,26.6343,2025-04-21T2000,22,39,0.4,15,2,107,118,39,
贵阳市,碧云窝,106.6555,26.4365,2025-04-21T2000,19,41,0.3,10,6,123,125,41,
贵阳市,红边门,106.7109,26.6027,2025-04-21T2000,24,48,0.3,29,12,99,112,48,
贵阳市,新华路,106.7164,26.5699,2025-04-21T2000,29,48,0,21,27,96,110,48,
贵阳市,太慈桥,106.674,26.5424,2025-04-21T2000,22,48,0.2,17,8,109,121,48,
贵阳市,桐木岭,106.805,26.3003,2025-04-21T2000,31,48,0.6,3,21,128,127,48,
贵阳市,花果园大街66号,106.6882,26.5695,2025-04-21T2000,26,36,0.3,19,7,113,125,38,
贵阳市,漓江路57号,106.6873,26.5169,2025-04-21T2000,19,36,0.4,16,10,109,119,36,
桂林市,电子科大尧山校区,110.4144,25.3167,2025-04-21T2000,,,,,,,,,
桂林市,龙隐路小学,110.3089,25.2708,2025-04-21T2000,31,48,0.5,15,8,61,87,48,
桂林市,八中,110.2869,25.2178,2025-04-21T2000,26,36,0.9,14,2,66,77,38,
桂林市,旅游学院,110.296,25.1253,2025-04-21T2000,24,27,0.6,9,3,82,83,35,
桂林市,环湖路276号,110.1835,25.2444,2025-04-21T2000,29,63,0.5,23,6,48,82,57,颗粒物(PM10)
桂林市,信义路13号,110.2803,25.2773,2025-04-21T2000,14,41,1.2,21,1,70,91,41,
果洛藏族自治州,玛沁县大武镇,100.2561,34.4714,2025-04-21T2000,33,47,0.5,6,13,114,110,48,
哈尔滨市,岭北,126.5422,45.755,2025-04-21T2000,34,55,0.8,25,12,100,109,53,颗粒物(PM10)
哈尔滨市,松北商大,126.561,45.8167,2025-04-21T2000,25,34,0.6,11,10,97,99,36,
哈尔滨市,阿城会宁,126.979,45.5419,2025-04-21T2000,23,28,0.4,13,5,81,112,33,
哈尔滨市,南岗学府路,126.599,45.7222,2025-04-21T2000,19,50,0.5,18,8,91,99,50,
哈尔滨市,太平宏伟公园,126.689,45.7733,2025-04-21T2000,31,41,0.8,21,4,96,107,45,
哈尔滨市,道外承德广场,126.635,45.7667,2025-04-21T2000,29,67,0.5,27,6,77,95,59,颗粒物(PM10)
哈尔滨市,香坊红旗大街,126.685,45.7319,2025-04-21T2000,33,,0.7,26,7,90,98,48,
哈尔滨市,动力和平路,126.6411,45.7258,2025-04-21T2000,27,33,0.5,19,9,86,94,39,
哈尔滨市,道里建国路,126.593,45.7478,2025-04-21T2000,32,39,0.7,18,9,95,101,46,
哈尔滨市,平房东轻厂,126.615,45.61,2025-04-21T2000,30,,0.7,10,9,100,105,43,
哈尔滨市,呼兰师专,126.595,45.9855,2025-04-21T2000,,,,,,,,,
哈尔滨市,省农科院,126.6206,45.6842,2025-04-21T2000,30,39,0.7,20,4,87,92,43,
哈密市,地区监测站,93.5128,42.8172,2025-04-21T2000,,,,,,,74,,
哈密市,哈密师范学校,93.4961,42.8328,2025-04-21T2000,3,34,0.3,11,5,98,93,34,
海北藏族自治州,海晏县西海镇,100.9048,36.9639,2025-04-21T2000,24,35,0.5,6,7,81,93,35,
海东市,平安区公安北苑,102.0738,36.5056,2025-04-21T2000,36,111,0.5,6,8,79,98,81,颗粒物(PM10)
海口市,东寨港,110.576,19.9507,2025-04-21T2000,16,58,0.7,5,8,32,52,54,颗粒物(PM10)
海口市,海南大学,110.3232,20.0574,2025-04-21T2000,17,30,0.4,39,2,48,73,30,
海口市,秀英海南医院,110.283,20.0053,2025-04-21T2000,33,36,0.4,41,6,53,69,48,
海口市,海南师范大学,110.338,19.9969,2025-04-21T2000,17,29,0.4,9,4,45,74,29,
海口市,龙华路环保局宿舍,110.33,20.0356,2025-04-21T2000,19,30,0.3,6,5,45,73,30,
海口市,桂林洋子站,110.5111,19.9736,2025-04-21T2000,18,27,0.3,8,5,35,59,27,
海南藏族自治州,共和县恰卜恰镇,100.6188,36.2866,2025-04-21T2000,56,78,0.6,6,16,93,111,77,细颗粒物(PM2.5)
海西蒙古族藏族自治州,德令哈市,97.3731,37.3753,2025-04-21T2000,78,229,0.5,12,16,102,106,140,颗粒物(PM10)
邯郸市,东污水处理厂,114.5302,36.6116,2025-04-21T2000,46,88,0.6,30,2,75,109,69,颗粒物(PM10)
邯郸市,矿院,114.4918,36.5713,2025-04-21T2000,53,75,0.6,19,2,71,102,73,细颗粒物(PM2.5)
邯郸市,丛台公园,114.484,36.6133,2025-04-21T2000,50,95,0.6,26,6,74,115,73,颗粒物(PM10)
邯郸市,香泉濮院小区,114.7895,36.5593,2025-04-21T2000,33,73,0.6,19,4,85,110,62,颗粒物(PM10)
邯郸市,永年区实验高中,114.50634,36.77178,2025-04-21T2000,66,98,0.8,30,5,66,102,89,细颗粒物(PM2.5)
邯郸市,峰峰矿区临水派出所,114.20016,36.44293,2025-04-21T2000,55,87,0.7,6,4,80,129,75,细颗粒物(PM2.5)
汉中市,汉川机床厂子校,106.9893,33.1842,2025-04-21T2000,25,54,0.4,14,6,60,104,52,颗粒物(PM10)
汉中市,市监测站,107.0154,33.0706,2025-04-21T2000,33,56,0.7,8,5,77,97,53,颗粒物(PM10)
汉中市,鑫源开发区,107.0089,33.1138,2025-04-21T2000,29,50,0.5,14,5,66,101,50,
汉中市,南郑大河坎水厂,107.007,33.0323,2025-04-21T2000,29,42,0.7,17,2,49,80,42,
杭州市,滨江,120.2072,30.2111,2025-04-21T2000,14,23,0.6,29,5,67,70,23,
杭州市,西溪,120.0633,30.2747,2025-04-21T2000,17,27,0.9,46,5,21,74,27,
杭州市,下沙,120.3417,30.3150,2025-04-21T2000,16,20,0.7,39,5,74,90,24,
杭州市,卧龙桥,120.1269,30.2456,2025-04-21T2000,15,18,0.7,34,6,41,66,22,
杭州市,浙江农大,120.1903,30.2692,2025-04-21T2000,13,14,0.6,34,1,52,71,19,
杭州市,和睦小学,120.1197,30.3119,2025-04-21T2000,21,23,0.8,49,6,28,79,30,
杭州市,临平镇,120.3019,30.4183,2025-04-21T2000,30,48,0.9,52,5,48,92,48,
杭州市,城厢镇,120.2753,30.1839,2025-04-21T2000,18,19,0.7,26,6,71,98,26,
杭州市,云栖,120.0883,30.1808,2025-04-21T2000,,,,,,,88,,
杭州市,镇二中,119.9464,30.0494,2025-04-21T2000,12,,0.8,38,3,35,80,19,
杭州市,市府大楼,119.7183,30.2367,2025-04-21T2000,17,23,0.8,23,7,53,81,25,
杭州市,消防大队,120.1556,30.2864,2025-04-21T2000,13,26,1.0,41,4,48,76,26,
合肥市,明珠广场,117.1959,31.7848,2025-04-21T2000,27,31,0.8,27,1,59,121,39,
合肥市,三里街,117.3072,31.8764,2025-04-21T2000,29,36,0.9,29,4,45,93,42,
合肥市,琥珀山庄,117.2588,31.8707,2025-04-21T2000,34,,1.0,30,2,49,101,49,
合肥市,董铺水库,117.1604,31.9052,2025-04-21T2000,22,22,0.5,16,3,62,116,32,
合肥市,长江中路,117.25,31.8571,2025-04-21T2000,35,,0.9,30,6,50,109,50,
合肥市,庐阳区,117.266,31.9436,2025-04-21T2000,19,31,,,6,69,93,,
合肥市,瑶海区,117.3453,31.8616,2025-04-21T2000,29,34,1.0,27,6,57,89,42,
合肥市,包河区,117.3027,31.7964,2025-04-21T2000,36,39,0.9,76,6,0,99,52,细颗粒物(PM2.5)
合肥市,滨湖新区,117.2776,31.7385,2025-04-21T2000,36,,0.8,38,6,32,114,52,细颗粒物(PM2.5)
合肥市,高新区,117.1318,31.8403,2025-04-21T2000,26,29,0.8,27,2,60,122,38,
合肥市,高教基地,117.3803,31.9147,2025-04-21T2000,26,31,0.7,21,5,42,89,38,
和田地区,地区环保局,79.924,37.0877,2025-04-21T2000,221,556,0.3,8,3,58,71,456,颗粒物(PM10)
和田地区,市环保局,79.9131,37.113,2025-04-21T2000,143,368,0.6,9,2,59,68,226,颗粒物(PM10)
河池市,东仁乐园,108.2011,24.715,2025-04-21T2000,,,,,,,,,
河池市,市环保站,108.0497,24.6947,2025-04-21T2000,24,34,0.5,6,6,107,99,35,
河池市,市疾控中心,108.0983,24.6989,2025-04-21T2000,23,39,0.5,15,8,110,104,39,
河源市,源西,114.6778,23.7569,2025-04-21T2000,22,40,0.8,22,3,82,102,40,
河源市,东埔,114.6944,23.7586,2025-04-21T2000,21,24,0.5,20,4,88,107,30,
河源市,老城,114.6892,23.7233,2025-04-21T2000,23,34,0.4,17,4,90,109,34,
菏泽市,气象局,115.4208,35.2464,2025-04-21T2000,51,60,0.6,19,3,67,91,70,细颗粒物(PM2.5)
菏泽市,定陶老年大学,115.5564,35.0891,2025-04-21T2000,46,53,0.7,26,3,41,84,64,细颗粒物(PM2.5)
菏泽市,永昌路1号,115.4797,35.24401,2025-04-21T2000,52,63,0.5,21,4,53,74,72,细颗粒物(PM2.5)
菏泽市,长城路999号,115.4715,35.2800,2025-04-21T2000,45,51,0.4,23,5,54,85,63,细颗粒物(PM2.5)
贺州市,环保小区,111.5264,24.4172,2025-04-21T2000,31,45,0.7,9,6,83,76,45,
贺州市,政协大楼,111.5608,24.4078,2025-04-21T2000,24,32,0.5,19,8,74,86,35,
贺州市,西湾,111.4744,24.4553,2025-04-21T2000,29,54,0.7,40,7,50,73,52,颗粒物(PM10)
鹤壁市,市监测站,114.17,35.9019,2025-04-21T2000,57,74,0.7,21,6,92,111,78,细颗粒物(PM2.5)
鹤壁市,市交警支队,114.2956,35.7511,2025-04-21T2000,50,70,0.9,18,4,90,106,69,细颗粒物(PM2.5)
鹤壁市,迎宾馆,114.2878,35.7306,2025-04-21T2000,45,78,0.7,20,3,94,115,64,颗粒物(PM10)
鹤壁市,大新区,114.2617,35.6822,2025-04-21T2000,62,64,0.9,12,7,96,110,84,细颗粒物(PM2.5)
鹤壁市,南山宾馆,114.1572,35.9603,2025-04-21T2000,52,75,0.7,17,4,97,113,72,细颗粒物(PM2.5)
鹤岗市,哈啤分公司,130.2537,47.3416,2025-04-21T2000,48,76,0.5,,15,53,64,,
鹤岗市,斯达机电,130.2684,47.3086,2025-04-21T2000,75,82,0.5,20,12,54,68,100,细颗粒物(PM2.5)
鹤岗市,东山纸板厂,130.3114,47.3388,2025-04-21T2000,55,74,0.6,17,12,52,66,75,细颗粒物(PM2.5)
鹤岗市,五号水库,130.1097,47.3382,2025-04-21T2000,,,,,,,,,
黑河市,交通局,127.4833,50.2524,2025-04-21T2000,18,26,0.3,9,7,59,50,26,
黑河市,环保局,127.5144,50.2341,2025-04-21T2000,25,25,0.5,7,4,73,57,36,
黑河市,大黑河岛,127.5291,50.2472,2025-04-21T2000,,,,,,,,,
衡水市,电机北厂,115.6838,37.7541,2025-04-21T2000,51,78,0.5,21,6,67,116,70,细颗粒物(PM2.5)
衡水市,市监测站,115.6303,37.7316,2025-04-21T2000,47,60,0.5,21,7,61,110,65,细颗粒物(PM2.5)
衡水市,市城管局,115.6683,37.7217,2025-04-21T2000,42,60,0.6,22,8,59,111,59,细颗粒物(PM2.5)
衡水市,地表水厂,115.5989,37.5491,2025-04-21T2000,38,62,0.6,46,6,41,110,56,颗粒物(PM10)
衡阳市,原169医院,112.5003,26.9167,2025-04-21T2000,19,24,0.4,4,2,79,84,28,
衡阳市,衡阳化工总厂,112.6194,26.9258,2025-04-21T2000,20,35,0.4,6,7,72,84,35,
衡阳市,珠晖区环保局,112.6211,26.8956,2025-04-21T2000,,33,0.6,6,10,73,85,,
衡阳市,市委党校,112.6197,26.8733,2025-04-21T2000,,35,0.6,8,9,67,82,,
衡阳市,市监测站,112.6006,26.8919,2025-04-21T2000,24,29,0.6,7,9,73,82,35,
衡阳市,真空机电公司,112.5664,26.9056,2025-04-21T2000,21,25,0.6,3,5,73,80,30,
衡阳市,师范学院,112.6703,26.882,2025-04-21T2000,26,28,0.6,9,6,69,82,38,
红河哈尼族彝族自治州,污水处理厂,103.3772,23.3993,2025-04-21T2000,20,38,0.3,8,4,76,96,38,
红河哈尼族彝族自治州,监测站,103.3861,23.35,2025-04-21T2000,26,43,0.2,13,10,63,95,43,
红河哈尼族彝族自治州,州图书馆,103.3758,23.368,2025-04-21T2000,23,37,0.3,10,5,75,100,37,
呼和浩特市,呼市一监,111.6507,40.7517,2025-04-21T2000,3,31,0.3,1,5,101,102,32,
呼和浩特市,小召,111.6572,40.8033,2025-04-21T2000,3,34,0.4,13,6,94,100,34,
呼和浩特市,如意水处理厂,111.7516,40.8369,2025-04-21T2000,3,17,0.4,6,6,91,92,29,
呼和浩特市,二十九中,111.7276,40.8062,2025-04-21T2000,3,30,0.5,7,3,98,100,31,
呼和浩特市,工大金川校区,111.5512,40.7866,2025-04-21T2000,3,29,0.4,8,5,97,98,31,
呼和浩特市,化肥厂生活区,111.717,40.7612,2025-04-21T2000,3,18,0.4,8,7,98,99,31,
呼和浩特市,红旗小学,111.5968,40.8178,2025-04-21T2000,3,29,0.4,11,3,95,100,30,
呼和浩特市,海东办,111.6518,40.8389,2025-04-21T2000,3,31,0.4,7,6,95,100,31,
呼伦贝尔市,区环保局,119.7594,49.2261,2025-04-21T2000,27,35,0.4,16,5,73,89,39,
呼伦贝尔市,国华电力东,119.7512,49.1577,2025-04-21T2000,23,37,0.3,7,4,79,93,37,
湖州市,城西水厂,120.0751,30.8669,2025-04-21T2000,50,73,0.6,42,6,56,90,69,细颗粒物(PM2.5)
湖州市,仁皇山新区,120.0830,30.8929,2025-04-21T2000,52,60,1.0,39,3,64,100,72,细颗粒物(PM2.5)
湖州市,吴兴区站,120.1844,30.8596,2025-04-21T2000,59,59,0.6,41,6,59,83,80,细颗粒物(PM2.5)
湖州市,南浔区站,120.4148,30.8538,2025-04-21T2000,50,59,0.7,35,2,59,101,69,细颗粒物(PM2.5)
葫芦岛市,龙港区,120.9049,40.7211,2025-04-21T2000,26,,0.6,13,9,121,123,38,
葫芦岛市,化工街,120.8392,40.7514,2025-04-21T2000,31,36,0.6,34,9,94,120,45,
葫芦岛市,新区,120.8341,40.7073,2025-04-21T2000,32,,0.7,22,8,115,125,46,
葫芦岛市,东城区,120.8695,40.7677,2025-04-21T2000,41,53,0.6,26,5,,118,,
怀化市,林科所,109.5981,27.5721,2025-04-21T2000,15,33,0.3,7,10,66,83,33,
怀化市,河西地税局,109.9453,27.5444,2025-04-21T2000,21,27,0.4,8,8,79,89,30,
怀化市,市四医院,109.9781,27.5342,2025-04-21T2000,24,,0.5,14,6,79,95,35,
怀化市,监测楼,109.9972,27.5578,2025-04-21T2000,27,32,0.6,,4,78,85,,
怀化市,市委党校,110.0394,27.583,2025-04-21T2000,17,40,0.7,14,4,63,90,40,
淮安市,钵池山,119.036,33.5981,2025-04-21T2000,64,,0.6,23,6,54,102,87,细颗粒物(PM2.5)
淮安市,北京南路,119.007,33.575,2025-04-21T2000,74,,1.0,20,7,60,101,99,细颗粒物(PM2.5)
淮安市,市监测站,118.989,33.6067,2025-04-21T2000,39,,0.7,19,7,67,100,55,细颗粒物(PM2.5)
淮安市,楚州区监测站,119.135,33.5039,2025-04-21T2000,52,,0.7,11,7,68,100,72,细颗粒物(PM2.5)
淮安市,新华书店,118.8755,33.2894,2025-04-21T2000,38,66,0.7,30,8,67,124,58,颗粒物(PM10)
淮安市,承德北路606号,119.0288,33.6319,2025-04-21T2000,53,,,17,6,60,100,,
淮北市,监测站,116.8004,33.975,2025-04-21T2000,26,28,0.7,20,5,52,95,38,
淮北市,烈山区政府,116.8091,33.9007,2025-04-21T2000,30,34,1.0,16,2,54,88,43,
淮北市,杜集区检察院,116.8873,33.9836,2025-04-21T2000,29,31,1.0,20,5,46,97,42,
淮北市,市博物馆,116.7923,33.9535,2025-04-21T2000,24,29,1.0,22,4,48,90,35,
淮南市,潘集区政府,116.8305,32.7727,2025-04-21T2000,45,69,0.6,14,4,48,71,63,细颗粒物(PM2.5)
淮南市,谢家集区政府,116.8569,32.5951,2025-04-21T2000,50,55,0.9,24,5,46,80,69,细颗粒物(PM2.5)
淮南市,八公山区政府,116.8281,32.633,2025-04-21T2000,45,62,0.7,17,5,46,84,63,细颗粒物(PM2.5)
淮南市,焦岗湖风景区管理处,116.6325,32.6201,2025-04-21T2000,,,,,,,,,
淮南市,经济技术开发区消防队,117.0566,32.6531,2025-04-21T2000,57,,0.7,24,5,48,73,78,细颗粒物(PM2.5)
淮南市,山南新区,117.0108,32.5893,2025-04-21T2000,49,52,0.9,17,7,57,78,68,细颗粒物(PM2.5)
淮南市,国庆中路369号,117.0031,32.6445,2025-04-21T2000,54,63,0.6,19,8,48,78,74,细颗粒物(PM2.5)
黄冈市,职工中心,114.9028,30.4742,2025-04-21T2000,36,49,0.8,12,7,60,90,52,细颗粒物(PM2.5)
黄冈市,红卫路,114.8858,30.4519,2025-04-21T2000,32,33,0.8,9,6,63,83,46,
黄冈市,市林业局,114.9136,30.4445,2025-04-21T2000,27,32,0.6,7,6,57,76,39,
黄南藏族自治州,同仁县隆务镇,102.0199,35.5102,2025-04-21T2000,43,143,0.3,8,5,87,108,97,颗粒物(PM10)
黄山市,延安路89号,118.2903,29.6963,2025-04-21T2000,11,,0.5,9,4,58,77,19,
黄山市,黄山区政府5号楼,118.1371,30.2756,2025-04-21T2000,,,0.5,,4,35,47,,
黄山市,滨江东路7-2号,118.3354,29.7203,2025-04-21T2000,3,11,0.6,13,4,50,75,16,
黄石市,沈家营,115.0601,30.2313,2025-04-21T2000,14,41,0.7,12,7,46,65,41,
黄石市,铁山,114.8988,30.2019,2025-04-21T2000,21,38,0.4,10,6,69,70,38,
黄石市,团城山,115.0307,30.2092,2025-04-21T2000,12,40,0.6,13,8,50,69,40,
黄石市,笔架山北路,115.0235,30.1578,2025-04-21T2000,8,30,0.7,2,6,62,72,30,
黄石市,磁湖东路29号,115.0780,30.21118,2025-04-21T2000,24,47,0.6,20,7,56,67,47,
惠州市,河南岸金山湖子站,114.4183,23.0528,2025-04-21T2000,16,24,0.3,17,7,37,74,24,
惠州市,下埔横江三路子站,114.4053,23.0822,2025-04-21T2000,13,29,0.5,16,8,42,86,29,
惠州市,江北云山西路子站,114.4103,23.1142,2025-04-21T2000,11,23,0.3,13,9,46,95,23,
惠州市,惠阳区承修路船湖子站,114.4645,22.7833,2025-04-21T2000,14,26,0.4,11,,34,57,,
惠州市,大亚湾管委会子站,114.5317,22.7422,2025-04-21T2000,17,26,0.6,10,7,37,58,26,
惠州市,惠阳秋长,114.4338,22.8134,2025-04-21T2000,17,22,0.5,12,8,39,67,25,
惠州市,大亚湾霞涌,114.6517,22.775,2025-04-21T2000,15,26,0.3,21,7,34,62,26,
鸡西市,环保局,130.9762,45.3001,2025-04-21T2000,42,65,0.5,18,7,84,93,59,细颗粒物(PM2.5)
鸡西市,第一中学,130.9429,45.3039,2025-04-21T2000,45,65,0.5,19,8,84,93,63,细颗粒物(PM2.5)
鸡西市,欧美日汽修厂,131.0207,45.3073,2025-04-21T2000,51,63,0.5,13,6,86,90,70,细颗粒物(PM2.5)
鸡西市,市政设施管理处,130.9967,45.3106,2025-04-21T2000,45,74,0.6,20,7,74,87,63,细颗粒物(PM2.5)
吉安市,红声器材厂,114.9754,27.0803,2025-04-21T2000,23,44,0.5,6,11,60,78,44,
吉安市,市森林工业局,114.9658,27.0999,2025-04-21T2000,24,34,0.6,7,9,62,78,35,
吉安市,市环境监测站,114.99,27.1312,2025-04-21T2000,19,30,0.6,5,12,66,80,30,
吉安市,青原区法院,115.0093,27.0968,2025-04-21T2000,24,36,0.4,8,16,69,86,36,
吉林市,哈达湾,126.54,43.8622,2025-04-21T2000,218,303,1.2,48,17,69,111,268,细颗粒物(PM2.5)
吉林市,东局子,126.5844,43.8358,2025-04-21T2000,365,,2.0,88,28,29,100,410,细颗粒物(PM2.5)
吉林市,电力学院,126.5052,43.8245,2025-04-21T2000,172,195,1.1,34,15,84,108,222,细颗粒物(PM2.5)
吉林市,江北,126.6133,43.8972,2025-04-21T2000,435,535,2.3,93,24,36,105,457,细颗粒物(PM2.5)
吉林市,江南公园,126.555,43.8306,2025-04-21T2000,249,296,1.3,50,17,66,107,299,细颗粒物(PM2.5)
吉林市,丰满,126.7061,43.7133,2025-04-21T2000,,,,,,,,,
吉林市,九站,126.4739,43.953,2025-04-21T2000,168,202,1.2,34,13,69,106,218,细颗粒物(PM2.5)
济南市,科干所,116.9862,36.6114,2025-04-21T2000,29,44,0.6,16,10,89,148,44,
济南市,农科所,116.9376,36.665,2025-04-21T2000,27,34,0.3,19,6,79,139,39,
济南市,开发区,117.1265,36.6734,2025-04-21T2000,39,46,0.7,,125,93,142,,
济南市,省种子仓库,117.0624,36.6868,2025-04-21T2000,41,46,1.0,18,4,83,140,58,细颗粒物(PM2.5)
济南市,机床二厂,116.9489,36.6447,2025-04-21T2000,34,,0.5,20,7,80,133,49,
济南市,市监测站,117.0495,36.663,2025-04-21T2000,34,37,0.6,22,8,82,140,49,
济南市,长清党校,116.7675,36.5484,2025-04-21T2000,27,32,0.7,15,6,94,135,39,
济南市,技术学院,117.6795,36.229,2025-04-21T2000,41,51,3.3,36,13,82,127,58,细颗粒物(PM2.5)
济南市,东山小学,117.532,36.6868,2025-04-21T2000,42,68,0.5,13,7,110,141,59,"颗粒物(PM10),细颗粒物(PM2.5)"
济南市,泰兴公司,117.7161,36.2049,2025-04-21T2000,39,53,1.4,38,9,54,126,55,细颗粒物(PM2.5)
济南市,莱芜战役纪念馆,117.6867,36.2171,2025-04-21T2000,41,53,2.5,32,7,63,126,58,细颗粒物(PM2.5)
济南市,济阳区政府,117.1673,36.9782,2025-04-21T2000,32,42,0.6,19,5,75,106,46,
济南市,锦屏中学,117.1171,36.63,2025-04-21T2000,27,39,0.5,19,4,92,142,39,
济南市,济南四建,116.9814,36.6819,2025-04-21T2000,32,34,0.6,18,5,76,142,46,
济宁市,火炬城,116.6251,35.4302,2025-04-21T2000,46,61,0.6,17,4,64,77,64,细颗粒物(PM2.5)
济宁市,电化厂,116.5491,35.4042,2025-04-21T2000,34,52,0.7,28,3,54,79,51,颗粒物(PM10)
济宁市,北湖一中,116.5814,35.3707,2025-04-21T2000,27,64,0.6,22,2,62,79,57,颗粒物(PM10)
济宁市,服务中心,116.8249,35.5593,2025-04-21T2000,25,38,0.6,28,1,58,79,38,
济宁市,市第七中学,116.5907,35.4054,2025-04-21T2000,39,55,0.7,12,5,69,84,55,细颗粒物(PM2.5)
佳木斯市,佳纺,130.2751,46.8028,2025-04-21T2000,50,65,0.7,21,9,34,62,69,细颗粒物(PM2.5)
佳木斯市,发电厂,130.3995,46.8307,2025-04-21T2000,56,67,0.6,31,6,30,80,77,细颗粒物(PM2.5)
佳木斯市,环保局,130.3258,46.7975,2025-04-21T2000,65,74,0.6,37,5,30,70,88,细颗粒物(PM2.5)
佳木斯市,十一中,130.3648,46.8032,2025-04-21T2000,68,78,0.9,42,12,25,74,92,细颗粒物(PM2.5)
佳木斯市,四丰,130.3794,46.7588,2025-04-21T2000,41,65,1.2,17,1,44,88,58,"颗粒物(PM10),细颗粒物(PM2.5)"
嘉兴市,清河小学,120.7436,30.778,2025-04-21T2000,22,44,1.0,22,4,74,100,44,
嘉兴市,嘉兴学院,120.726,30.7478,2025-04-21T2000,35,53,0.9,27,5,71,115,52,颗粒物(PM10)
嘉兴市,南湖区残联,120.7846,30.7525,2025-04-21T2000,26,32,0.8,18,5,85,114,38,
嘉兴市,秀洲住建,120.6916,30.7739,2025-04-21T2000,21,79,0.8,23,5,77,118,65,颗粒物(PM10)
嘉峪关市,气象局,98.2908,39.7711,2025-04-21T2000,19,80,0.2,10,7,130,114,65,颗粒物(PM10)
嘉峪关市,酒钢宾馆,98.2672,39.7978,2025-04-21T2000,19,92,0.3,9,12,127,108,71,颗粒物(PM10)
嘉峪关市,雄关区,98.2643,39.7724,2025-04-21T2000,23,74,0.4,12,6,131,112,62,颗粒物(PM10)
江门市,北街,113.1064,22.6058,2025-04-21T2000,19,,0.3,11,2,35,55,,
江门市,西区,113.0731,22.5835,2025-04-21T2000,20,33,0.4,15,7,33,54,33,
江门市,圭峰西,113.0219,22.5311,2025-04-21T2000,22,30,0.3,15,4,34,49,32,
江门市,东湖,113.0828,22.5947,2025-04-21T2000,15,25,0.4,12,7,37,55,25,
江门市,江海富民,113.1075,22.5647,2025-04-21T2000,14,26,0.3,8,7,36,56,26,
江门市,新会银湖,113.05,22.4667,2025-04-21T2000,16,16,0.2,8,3,42,56,23,
焦作市,影视城,113.1992,35.2590,2025-04-21T2000,,,,,,,,,
焦作市,太极体育中心,113.2725,35.2067,2025-04-21T2000,36,124,0,2,2,110,125,87,颗粒物(PM10)
焦作市,马村街道办,113.3137,35.2641,2025-04-21T2000,32,100,0.3,12,8,105,120,75,颗粒物(PM10)
焦作市,焦作技师学院,113.2465,35.2373,2025-04-21T2000,22,72,0.2,8,6,99,118,61,颗粒物(PM10)
焦作市,中站许衡医院,113.1656,35.2539,2025-04-21T2000,37,88,0.4,14,6,94,112,69,颗粒物(PM10)
焦作市,原李万街道办,113.2449,35.1803,2025-04-21T2000,22,87,0.1,7,10,105,120,69,颗粒物(PM10)
焦作市,新安路1731号,113.2340,35.2190,2025-04-21T2000,37,93,0.1,8,4,102,120,72,颗粒物(PM10)
揭阳市,新兴,116.3701,23.5345,2025-04-21T2000,27,33,0.6,12,6,40,70,39,
揭阳市,西马,116.3264,23.5443,2025-04-21T2000,34,50,0.7,16,7,36,63,50,
揭阳市,东兴,116.3611,23.5626,2025-04-21T2000,21,44,0.6,15,8,43,70,44,
揭阳市,渔湖,116.4151,23.5294,2025-04-21T2000,19,37,0.6,9,3,43,75,37,
揭阳市,曲溪,116.403,23.5699,2025-04-21T2000,21,49,0.5,11,4,46,86,49,
金昌市,天庆家园,102.1692,38.5167,2025-04-21T2000,15,50,0.7,6,7,113,101,50,
金昌市,金川区人防中心,102.1647,38.5371,2025-04-21T2000,20,71,0.5,6,14,117,103,61,颗粒物(PM10)
金昌市,长春路96号,102.1930,38.5319,2025-04-21T2000,13,54,0.4,1,14,113,100,52,颗粒物(PM10)
金华市,十五中,119.647,29.077,2025-04-21T2000,24,56,0.6,19,2,70,105,53,颗粒物(PM10)
金华市,监测站,119.686,29.1029,2025-04-21T2000,31,55,0.6,18,4,71,109,53,颗粒物(PM10)
金华市,气象局,119.656,29.1131,2025-04-21T2000,20,44,0.6,16,1,70,111,44,
锦州市,南山,121.1115,41.0879,2025-04-21T2000,40,,0.7,25,8,91,116,57,细颗粒物(PM2.5)
锦州市,开发区,121.0604,40.8428,2025-04-21T2000,32,38,0.7,32,28,105,109,46,
锦州市,百股街道,121.1836,41.1119,2025-04-21T2000,19,,0.6,26,2,93,115,30,
锦州市,天安街道,121.1178,41.1222,2025-04-21T2000,35,,0.8,30,8,80,104,50,
锦州市,北湖公园,121.1303,41.1386,2025-04-21T2000,38,,0.7,32,7,80,114,54,细颗粒物(PM2.5)
晋城市,自来水公司,112.85,35.5051,2025-04-21T2000,17,99,0.6,14,7,89,142,75,颗粒物(PM10)
晋城市,白云商贸,112.8318,35.4936,2025-04-21T2000,36,118,0.6,24,10,78,138,84,颗粒物(PM10)
晋城市,市环保局,112.8508,35.4887,2025-04-21T2000,24,95,0.2,16,6,78,129,73,颗粒物(PM10)
晋城市,技术学院,112.8676,35.4897,2025-04-21T2000,14,83,0.8,19,6,84,137,67,颗粒物(PM10)
晋城市,白马寺,112.8453,35.546,2025-04-21T2000,21,64,0.3,5,4,99,141,57,颗粒物(PM10)
晋城市,泽州一中,112.8271,35.4828,2025-04-21T2000,24,84,0.4,12,11,90,140,67,颗粒物(PM10)
晋中市,南都小区,112.7249,37.7067,2025-04-21T2000,30,141,0.6,29,9,73,100,96,颗粒物(PM10)
晋中市,榆次区政府,112.6991,37.6982,2025-04-21T2000,29,105,0.4,34,8,65,98,78,颗粒物(PM10)
晋中市,榆次三中,112.7195,37.6828,2025-04-21T2000,34,119,0.8,30,7,76,90,85,颗粒物(PM10)
晋中市,迎宾街26号,112.7478,37.6954,2025-04-21T2000,31,114,0.4,26,6,70,90,82,颗粒物(PM10)
荆门市,竹园小学,112.2014,31.0481,2025-04-21T2000,17,62,0.2,9,4,101,118,56,颗粒物(PM10)
荆门市,掇刀,112.1969,30.9891,2025-04-21T2000,26,54,0.4,12,10,,151,,
荆门市,石化一小,112.2213,31.0386,2025-04-21T2000,19,64,0.5,11,6,96,116,57,颗粒物(PM10)
荆门市,西山林语,112.1849,31.0362,2025-04-21T2000,17,48,0.1,10,7,94,112,48,
荆门市,龙泉中学南校,112.1632,31.0138,2025-04-21T2000,29,54,0.5,11,6,100,115,52,颗粒物(PM10)
荆州市,市图书馆,112.2494,30.3197,2025-04-21T2000,24,40,0.6,10,4,107,120,40,
荆州市,市委党校,112.2008,30.3544,2025-04-21T2000,25,52,0.6,,5,106,118,,
荆州市,管委会,112.2747,30.3122,2025-04-21T2000,28,40,0.7,7,5,101,116,40,
荆州市,学苑路85号,112.1722,30.3366,2025-04-21T2000,41,,0.5,11,1,98,112,58,细颗粒物(PM2.5)
景德镇市,王港中学,117.3102,29.3867,2025-04-21T2000,,,,,,,,,
景德镇市,老干部活动中心,117.2117,29.2933,2025-04-21T2000,3,15,0.6,16,6,35,78,15,
景德镇市,兽医站,117.1894,29.2789,2025-04-21T2000,9,22,0.5,10,4,31,74,22,
景德镇市,台达陶瓷,117.1547,29.2617,2025-04-21T2000,11,19,0.8,18,9,36,57,19,
景德镇市,陶研所,117.2461,29.2956,2025-04-21T2000,7,16,0.3,14,7,33,80,16,
九江市,十里,115.9872,29.6815,2025-04-21T2000,19,21,0.8,13,2,52,57,28,
九江市,茅山头,115.9584,29.7046,2025-04-21T2000,12,14,0.9,14,5,60,63,19,
九江市,西园,115.9877,29.7295,2025-04-21T2000,10,20,0.8,33,6,62,65,20,
九江市,综合工业园,115.9114,29.6038,2025-04-21T2000,11,16,0.8,44,7,31,41,22,
九江市,石化总厂,116.0721,29.7535,2025-04-21T2000,20,,1.0,16,10,58,63,29,
九江市,庐山气象台,115.9773,29.5698,2025-04-21T2000,16,17,1.1,5,6,98,88,31,
九江市,外国语学校,116.0254,29.6994,2025-04-21T2000,12,,0.8,19,2,52,53,18,
九江市,莲花大道8号,116.0102,29.6594,2025-04-21T2000,10,,0.6,4,3,60,54,19,
酒泉市,玉门东路5号,98.4958,39.7339,2025-04-21T2000,35,105,0.4,6,10,117,113,78,颗粒物(PM10)
酒泉市,北大街108号,98.5099,39.7506,2025-04-21T2000,21,58,0.5,8,8,116,118,54,颗粒物(PM10)
喀什地区,巡警大队,76.0072,39.4467,2025-04-21T2000,75,478,0.4,10,3,87,88,373,颗粒物(PM10)
喀什地区,吾办,75.9755,39.4694,2025-04-21T2000,104,412,0.5,23,12,74,77,289,颗粒物(PM10)
喀什地区,老干局,75.9483,39.4689,2025-04-21T2000,70,409,0.3,8,1,89,89,285,颗粒物(PM10)
开封市,肿瘤医院,114.3389,34.7781,2025-04-21T2000,44,70,0.7,16,7,80,97,62,细颗粒物(PM2.5)
开封市,世纪星幼儿园,114.2885,34.7965,2025-04-21T2000,67,,0.9,21,4,89,121,90,细颗粒物(PM2.5)
开封市,龙亭公园,114.3438,34.8106,2025-04-21T2000,37,55,0.9,18,3,74,101,53,"颗粒物(PM10),细颗粒物(PM2.5)"
开封市,汴京公园,114.3644,34.7964,2025-04-21T2000,55,122,1.1,19,2,69,90,86,颗粒物(PM10)
开封市,技师学院,114.2485,34.8306,2025-04-21T2000,94,,1.4,23,6,82,112,124,细颗粒物(PM2.5)
开封市,祥符区生态环境局,114.4644,34.7556,2025-04-21T2000,39,69,0.6,31,8,58,84,60,颗粒物(PM10)
克拉玛依市,长征新村,84.895,45.6094,2025-04-21T2000,9,10,0.2,8,6,95,92,30,
克拉玛依市,南林小区,84.8988,45.5893,2025-04-21T2000,3,10,0.2,5,3,102,98,32,
克拉玛依市,独山子区,84.905,44.3396,2025-04-21T2000,18,25,0.3,8,9,119,109,38,
克拉玛依市,乌尔禾区商贸楼,85.6979,46.098,2025-04-21T2000,7,8,0.4,3,5,108,103,34,
克拉玛依市,白碱滩区新站,85.1045,45.6899,2025-04-21T2000,6,13,0.4,4,9,101,96,32,
克孜勒苏柯尔克孜自治州,市人民政府,76.1454,39.7142,2025-04-21T2000,110,410,0.2,2,4,107,106,286,颗粒物(PM10)
克孜勒苏柯尔克孜自治州,克州文化中心,76.1658,39.7157,2025-04-21T2000,115,428,0.2,2,5,97,97,310,颗粒物(PM10)
昆明市,呈贡新区,102.8204,24.8886,2025-04-21T2000,26,31,0.5,10,5,93,104,38,
昆明市,西山森林公园,102.6251,24.9608,2025-04-21T2000,,,,,,,,,
昆明市,龙泉镇,102.7252,25.0902,2025-04-21T2000,14,34,0.4,11,8,93,103,34,
昆明市,东风东路,102.7266,25.0375,2025-04-21T2000,27,30,0.5,16,8,92,105,39,
昆明市,金鼎山,102.6742,25.0669,2025-04-21T2000,17,37,0.3,14,4,98,111,37,
昆明市,碧鸡广场,102.6644,25.0401,2025-04-21T2000,22,33,0.4,12,6,89,99,33,
昆明市,官渡区博物馆,102.7494,25.0119,2025-04-21T2000,22,30,0.4,12,7,95,108,32,
昆明市,青年创业园,102.8017,24.8336,2025-04-21T2000,11,19,0.4,6,7,102,110,32,
昆明市,昆明学院,102.7997,24.9786,2025-04-21T2000,17,26,0.4,10,6,98,109,31,
昆明市,晋宁区生态环境分局,102.5967,24.6736,2025-04-21T2000,12,17,0.3,5,7,100,104,32,
昆明市,云天化总部,102.6678,24.9856,2025-04-21T2000,11,20,0.4,9,7,93,104,30,
拉萨市,八廓街,91.1319,29.6514,2025-04-21T2000,3,12,0.5,14,6,114,125,36,
拉萨市,市环保局,91.1221,29.6747,2025-04-21T2000,7,13,0.4,10,3,117,119,37,
拉萨市,区监测站,91.0874,29.6475,2025-04-21T2000,6,10,0.7,21,5,105,117,33,
拉萨市,西藏大学,91.1774,29.6541,2025-04-21T2000,7,12,0.2,12,5,113,117,36,
拉萨市,区辐射站,90.9798,29.6588,2025-04-21T2000,9,15,0.4,20,7,108,114,34,
拉萨市,拉萨火车站,91.0834,29.6292,2025-04-21T2000,7,12,0.2,10,3,112,114,35,
来宾市,来宾技工学校,109.2203,23.7256,2025-04-21T2000,25,92,0.5,,7,92,106,,
来宾市,兴宾区政府,109.1781,23.7297,2025-04-21T2000,18,40,0.6,4,6,91,101,40,
来宾市,中南小学,109.2416,23.7461,2025-04-21T2000,14,52,0.6,6,8,81,94,51,颗粒物(PM10)
兰州市,榆中兰大校区,104.1373,35.9454,2025-04-21T2000,,,,,,,,,
兰州市,铁路设计院,103.831,36.0464,2025-04-21T2000,32,100,0.4,24,9,81,93,75,颗粒物(PM10)
兰州市,百合公园,103.7439,36.0842,2025-04-21T2000,34,140,0.2,12,4,79,90,95,颗粒物(PM10)
兰州市,和平,103.9611,35.998,2025-04-21T2000,67,153,0.5,8,12,87,92,102,颗粒物(PM10)
兰州市,庄浪东路808号,103.6293,36.0938,2025-04-21T2000,37,121,0.3,26,9,76,97,86,颗粒物(PM10)
兰州市,安宁西路88号,103.7251,36.1043,2025-04-21T2000,50,157,0.3,14,5,87,100,104,颗粒物(PM10)
兰州市,北滨河东路1号,103.8470,36.0676,2025-04-21T2000,39,133,0.5,13,12,93,101,92,颗粒物(PM10)
兰州新区,新区管委会,103.6633,36.533,2025-04-21T2000,33,80,0.2,8,9,94,94,65,颗粒物(PM10)
兰州新区,舟曲中学,103.6975,36.4789,2025-04-21T2000,32,123,0.2,8,6,103,100,87,颗粒物(PM10)
廊坊市,药材公司,116.6708,39.5111,2025-04-21T2000,95,105,1.0,42,3,21,57,125,细颗粒物(PM2.5)
廊坊市,开发区,116.7214,39.5589,2025-04-21T2000,75,115,1.0,38,1,18,47,100,细颗粒物(PM2.5)
廊坊市,北华航天学院,116.7244,39.5269,2025-04-21T2000,98,118,1.1,41,3,24,43,129,细颗粒物(PM2.5)
廊坊市,河北工业大学,116.7022,39.5453,2025-04-21T2000,86,101,1.0,39,5,22,48,114,细颗粒物(PM2.5)
乐山市,花湖湾,103.7723,29.5462,2025-04-21T2000,36,71,0.4,13,5,80,105,61,颗粒物(PM10)
乐山市,牛耳桥,103.7627,29.5844,2025-04-21T2000,28,73,0.4,15,6,77,98,62,颗粒物(PM10)
乐山市,市第三水厂,103.7508,29.6006,2025-04-21T2000,25,77,0.4,12,4,77,99,64,颗粒物(PM10)
乐山市,市监测站,103.7571,29.5664,2025-04-21T2000,33,77,0.5,,6,75,99,,
乐山市,理工大学,103.7311,29.5628,2025-04-21T2000,33,80,0.3,19,4,68,101,65,颗粒物(PM10)
丽江市,西南郊,100.2143,26.8576,2025-04-21T2000,3,17,0.3,3,4,107,130,34,
丽江市,丽江古城,100.2497,26.8802,2025-04-21T2000,10,23,0.4,10,5,97,104,31,
丽江市,市中心,100.2203,26.8906,2025-04-21T2000,8,,0.3,8,5,94,102,30,
丽水市,监测站大楼,119.914,28.4514,2025-04-21T2000,28,48,0.7,15,2,64,90,48,
丽水市,莲都小学,119.93,28.4586,2025-04-21T2000,19,41,0.5,11,3,68,91,41,
丽水市,余庄前,119.879,28.4231,2025-04-21T2000,27,34,0.8,12,3,58,92,39,
连云港市,市环境监测站,119.176,34.5885,2025-04-21T2000,19,24,0.5,24,4,63,112,28,
连云港市,德源药业,119.3581,34.6972,2025-04-21T2000,14,17,0.6,26,9,56,110,20,
连云港市,新城一中,119.178,34.844,2025-04-21T2000,3,26,0.5,11,6,92,108,29,
连云港市,胡沟管理处,119.3608,34.7519,2025-04-21T2000,3,7,0.5,9,10,98,92,31,
连云港市,矿山设计院,119.1478,34.5911,2025-04-21T2000,19,,0.5,23,8,65,110,28,
连云港市,工贸学校,119.2413,34.6539,2025-04-21T2000,14,,0.7,26,7,60,119,20,
连云港市,连云街道,119.4172,34.7341,2025-04-21T2000,7,11,0.4,40,6,66,100,21,
凉山彝族自治州,青龙寺,102.3431,27.8099,2025-04-21T2000,6,20,0.4,2,8,120,118,38,
凉山彝族自治州,邛海宾馆,102.2721,27.8415,2025-04-21T2000,16,31,0.5,9,10,118,115,37,
凉山彝族自治州,西昌市政府,102.2625,27.898,2025-04-21T2000,11,18,0.6,9,13,113,113,36,
凉山彝族自治州,凉山州政府,102.2685,27.8851,2025-04-21T2000,6,18,0.6,10,7,114,114,36,
凉山彝族自治州,凯乐南路30号,102.2342,27.8859,2025-04-21T2000,15,39,1.3,16,19,101,104,39,
辽阳市,宏伟区,123.2,41.1953,2025-04-21T2000,18,36,1.0,23,18,107,132,36,
辽阳市,新华园,123.1683,41.2495,2025-04-21T2000,37,49,0.7,21,12,105,135,53,细颗粒物(PM2.5)
辽阳市,滨河路,123.2354,41.2639,2025-04-21T2000,26,49,1.0,22,16,106,112,49,
辽阳市,铁西工业园,123.149,41.2991,2025-04-21T2000,28,49,0.9,24,22,101,125,49,
辽源市,环保局,125.1358,42.8845,2025-04-21T2000,53,70,0.6,22,8,107,95,73,细颗粒物(PM2.5)
辽源市,银鹰制药,125.0764,42.9078,2025-04-21T2000,63,83,0.6,19,8,111,87,85,细颗粒物(PM2.5)
聊城市,区政府,115.9848,36.4372,2025-04-21T2000,46,58,0.9,22,4,85,105,64,细颗粒物(PM2.5)
聊城市,聊大东校,116.0072,36.4343,2025-04-21T2000,50,61,0.6,28,8,69,100,69,细颗粒物(PM2.5)
聊城市,监控中心,115.9819,36.4978,2025-04-21T2000,46,62,0.6,23,5,71,109,64,细颗粒物(PM2.5)
聊城市,九州社区,116.0445,36.4361,2025-04-21T2000,42,66,0.5,21,3,64,110,59,细颗粒物(PM2.5)
聊城市,星美广场,116.0567,36.4608,2025-04-21T2000,35,77,0.8,30,8,58,109,64,颗粒物(PM10)
林芝市,林芝监测站,94.3681,29.6376,2025-04-21T2000,6,14,0.6,6,5,91,102,29,
林芝市,林芝人民医院,94.3616,29.6616,2025-04-21T2000,3,10,0.5,4,5,86,95,27,
临沧市,市环保局,100.0781,23.8982,2025-04-21T2000,37,,0.4,9,9,74,74,53,细颗粒物(PM2.5)
临沧市,市气象局,100.0894,23.8822,2025-04-21T2000,17,21,0.6,8,8,81,83,26,
临汾市,临钢医院,111.5531,36.0783,2025-04-21T2000,,,,,,,,,
临汾市,技工学校,111.5028,36.0714,2025-04-21T2000,56,171,0.8,29,13,49,101,111,颗粒物(PM10)
临汾市,市委,111.5018,36.0855,2025-04-21T2000,40,196,0.7,39,12,44,109,123,颗粒物(PM10)
临汾市,唐尧大酒店,111.505,36.1014,2025-04-21T2000,51,211,0.5,39,12,39,100,131,颗粒物(PM10)
临汾市,启星学校,111.4879,36.0530,2025-04-21T2000,42,168,0.8,32,13,45,100,109,颗粒物(PM10)
临夏回族自治州,滨河东路1号,103.2464,35.6123,2025-04-21T2000,46,156,0.2,7,7,73,88,103,颗粒物(PM10)
临夏回族自治州,新华街21号,103.2093,35.5995,2025-04-21T2000,47,146,0.2,8,5,88,96,98,颗粒物(PM10)
临沂市,沂河小区,118.3429,35.0532,2025-04-21T2000,36,53,1.4,20,7,62,91,52,"颗粒物(PM10),细颗粒物(PM2.5)"
临沂市,鲁南制药厂,118.295,35.0583,2025-04-21T2000,36,56,1.3,24,8,72,104,53,颗粒物(PM10)
临沂市,新光毛纺厂,118.2794,34.9976,2025-04-21T2000,39,39,0.8,27,6,68,104,55,细颗粒物(PM2.5)
临沂市,河东保险公司,118.3956,35.0888,2025-04-21T2000,43,46,2.7,28,2,58,95,60,细颗粒物(PM2.5)
临沂市,十里堡居委,118.3564,35.0215,2025-04-21T2000,36,,1.3,22,2,72,100,52,细颗粒物(PM2.5)
临沂市,南坊新区,118.3604,35.1084,2025-04-21T2000,53,68,2.9,28,6,61,98,73,细颗粒物(PM2.5)
临沂市,皇山花园小区,118.3920,35.0300,2025-04-21T2000,38,,1.8,20,7,69,98,54,细颗粒物(PM2.5)
柳州市,柳东小学,109.4856,24.3895,2025-04-21T2000,21,51,0.5,13,10,111,118,51,颗粒物(PM10)
柳州市,环保监测站,109.4157,24.3277,2025-04-21T2000,22,48,0.7,9,10,96,107,48,
柳州市,河西水厂,109.389,24.341,2025-04-21T2000,17,51,0.6,9,6,95,108,51,颗粒物(PM10)
柳州市,市四中,109.4311,24.2921,2025-04-21T2000,23,43,0.4,,8,85,95,,
柳州市,市九中,109.4006,24.3631,2025-04-21T2000,17,52,0.7,8,8,94,106,51,颗粒物(PM10)
柳州市,古亭山,109.4958,24.3134,2025-04-21T2000,20,53,0.6,7,7,112,110,52,颗粒物(PM10)
柳州市,市二中,109.5422,24.3996,2025-04-21T2000,17,39,0.4,8,14,111,108,39,
六安市,监测大楼,116.5079,31.737,2025-04-21T2000,21,,0.6,17,6,49,126,30,
六安市,皖西学院,116.4738,31.7643,2025-04-21T2000,14,18,0.7,18,5,48,126,20,
六安市,朝阳厂,116.4996,31.7905,2025-04-21T2000,19,19,0.6,21,4,37,120,28,
六安市,开发区,116.5567,31.7886,2025-04-21T2000,30,,0.7,24,6,40,107,43,
六盘水市,窑上,104.8,26.5892,2025-04-21T2000,20,36,0.2,6,4,79,110,36,
六盘水市,黄土坡,104.83,26.5917,2025-04-21T2000,16,45,0.4,16,9,107,118,45,
六盘水市,水钢,104.89,26.5939,2025-04-21T2000,12,58,0.4,8,9,119,124,54,颗粒物(PM10)
六盘水市,民中,104.8475,26.5894,2025-04-21T2000,14,36,0.3,18,8,102,118,36,
六盘水市,双水,104.9544,26.5506,2025-04-21T2000,18,48,0.2,18,7,108,123,48,
龙岩市,龙岩师专,117.0189,25.1181,2025-04-21T2000,,,,,,,,,
龙岩市,龙岩市监测站,117.0217,25.1033,2025-04-21T2000,17,25,0.6,15,6,66,80,25,
龙岩市,闽西职业技术学院,117.0258,25.0661,2025-04-21T2000,16,37,0.5,21,19,48,74,37,
龙岩市,龙岩学院,117.0196,25.0306,2025-04-21T2000,26,31,0.5,5,6,73,79,38,
陇南市,汉王镇固水子,105.0822,33.3261,2025-04-21T2000,,,,,,,,,
陇南市,滨江中学,104.9339,33.3826,2025-04-21T2000,38,136,0.5,6,8,79,96,93,颗粒物(PM10)
陇南市,市总工会,104.955,33.371,2025-04-21T2000,37,115,0.5,8,6,97,118,83,颗粒物(PM10)
娄底市,电视发射台,111.9589,27.8901,2025-04-21T2000,13,49,0.2,4,1,37,77,49,
娄底市,市监测站,111.9975,27.725,2025-04-21T2000,14,30,0.6,14,10,72,88,30,
娄底市,市委党校,112.0194,27.7314,2025-04-21T2000,17,29,0.4,6,4,77,83,29,
娄底市,涟钢,111.9561,27.7569,2025-04-21T2000,3,17,0.3,15,14,66,82,21,
娄底市,市政府,111.9892,27.7044,2025-04-21T2000,27,,0.4,12,3,70,83,39,
泸州市,九狮山,105.4324,28.9634,2025-04-21T2000,,,,,,,,,
泸州市,小市上码头,105.4427,28.9063,2025-04-21T2000,38,95,0.4,,5,30,58,,
泸州市,兰田宪桥,105.4241,28.8573,2025-04-21T2000,42,80,0.4,9,8,76,109,65,颗粒物(PM10)
泸州市,市环监站,105.4379,28.8833,2025-04-21T2000,,,,,,,,,
泸州市,纳溪中医医院,105.3689,28.7783,2025-04-21T2000,26,98,0.5,7,6,81,109,74,颗粒物(PM10)
吕梁市,环保局,111.1406,37.5211,2025-04-21T2000,95,361,0.2,4,2,94,104,216,颗粒物(PM10)
吕梁市,自来水公司,111.1297,37.5136,2025-04-21T2000,76,333,0.3,6,6,93,103,192,颗粒物(PM10)
吕梁市,马茂庄小学,111.1283,37.51,2025-04-21T2000,82,358,0.2,8,4,90,104,212,颗粒物(PM10)
洛阳市,市委党校,112.3931,34.6516,2025-04-21T2000,38,91,0.6,11,3,74,97,71,颗粒物(PM10)
洛阳市,河南林校,112.494,34.6886,2025-04-21T2000,44,112,0.4,15,5,76,106,81,颗粒物(PM10)
洛阳市,开发区管委会,112.3844,34.623,2025-04-21T2000,40,93,0.3,11,4,,107,,
洛阳市,市委新办公区,112.4267,34.6258,2025-04-21T2000,33,104,0.5,13,4,84,105,77,颗粒物(PM10)
洛阳市,伊滨,112.6005,34.6326,2025-04-21T2000,40,74,0.5,14,5,82,108,62,颗粒物(PM10)
洛阳市,中移产业园,112.4951,34.6332,2025-04-21T2000,37,142,0.5,16,5,80,104,96,颗粒物(PM10)
洛阳市,吉利监测站,112.5736,34.8993,2025-04-21T2000,30,114,0.6,13,4,85,101,82,颗粒物(PM10)
洛阳市,河科大西苑校区,112.3677,34.662,2025-04-21T2000,31,101,0.3,14,6,74,100,76,颗粒物(PM10)
洛阳市,英才小学,112.4388,34.6781,2025-04-21T2000,35,102,0.6,22,4,72,103,76,颗粒物(PM10)
洛阳市,春都路1号院,112.4600,34.6949,2025-04-21T2000,31,108,0.6,12,4,81,113,79,颗粒物(PM10)
漯河市,三五一五工厂,114.051,33.5699,2025-04-21T2000,55,158,1.1,23,3,39,90,104,颗粒物(PM10)
漯河市,漯河大学,114.0055,33.5698,2025-04-21T2000,44,58,0.8,25,4,33,96,62,细颗粒物(PM2.5)
漯河市,市水利局,114.0138,33.5828,2025-04-21T2000,48,70,0.6,26,3,28,96,67,细颗粒物(PM2.5)
漯河市,市广电局,114.0261,33.5698,2025-04-21T2000,55,68,0.9,23,3,38,94,75,细颗粒物(PM2.5)
漯河市,市图书馆,113.9749,33.5664,2025-04-21T2000,47,63,0.7,21,2,34,97,65,细颗粒物(PM2.5)
漯河市,韶山路11号,114.0892,33.5882,2025-04-21T2000,71,86,0.7,30,2,35,86,95,细颗粒物(PM2.5)
马鞍山市,湖东路四小,118.5092,31.6837,2025-04-21T2000,33,42,0.9,18,8,57,87,48,
马鞍山市,开发区,118.5024,31.6449,2025-04-21T2000,80,,0.9,20,6,60,88,107,细颗粒物(PM2.5)
马鞍山市,濮塘,118.6245,31.7241,2025-04-21T2000,33,40,0.7,7,6,45,82,48,
马鞍山市,雨山,118.4918,31.6809,2025-04-21T2000,22,31,0.8,17,7,46,85,32,
马鞍山市,慈湖高新区,118.5274,31.72227,2025-04-21T2000,34,57,0.9,26,7,48,83,54,颗粒物(PM10)
茂名市,电白南海,111.0286,21.4688,2025-04-21T2000,29,31,0.6,10,1,38,46,42,
茂名市,茂石化七小,110.9294,21.6533,2025-04-21T2000,14,107,0.8,8,2,35,45,79,颗粒物(PM10)
茂名市,健康路,110.9107,21.6687,2025-04-21T2000,22,24,0.7,3,2,39,50,32,
茂名市,高岭,110.8592,21.6828,2025-04-21T2000,9,44,0.6,10,3,33,48,44,
茂名市,电白水东,111.01,21.5165,2025-04-21T2000,12,22,0.5,10,1,40,43,22,
眉山市,黑龙滩水库,104.0308,30.0478,2025-04-21T2000,26,71,0.3,20,2,60,93,61,颗粒物(PM10)
眉山市,气象局,103.8416,30.0874,2025-04-21T2000,24,63,0.5,16,3,73,84,57,颗粒物(PM10)
眉山市,市委党校,103.8578,30.0744,2025-04-21T2000,27,61,0.7,19,8,71,80,56,颗粒物(PM10)
眉山市,区人社局,103.8291,30.0564,2025-04-21T2000,19,59,0.8,21,10,73,83,55,颗粒物(PM10)
梅州市,梅江月梅,116.1231,24.3284,2025-04-21T2000,17,33,0.5,6,6,65,72,33,
梅州市,梅县新城,116.0797,24.2719,2025-04-21T2000,12,34,0.6,14,7,54,66,34,
梅州市,环境监控中心,116.1248,24.2654,2025-04-21T2000,20,46,0.7,15,8,56,64,46,
梅州市,梅龙,116.1233,24.2991,2025-04-21T2000,32,,0.6,16,6,50,30,46,
绵阳市,富乐山,104.7778,31.4741,2025-04-21T2000,25,62,0.4,14,7,72,79,56,颗粒物(PM10)
绵阳市,高新区自来水公司,104.6697,31.4668,2025-04-21T2000,17,42,0.1,21,3,64,78,42,
绵阳市,三水厂,104.7287,31.5075,2025-04-21T2000,28,57,0.5,26,6,56,78,54,颗粒物(PM10)
绵阳市,西科大附属小学,104.69,31.5322,2025-04-21T2000,17,41,0.6,16,6,70,72,41,
绵阳市,安州区旅游局,104.5648,31.5343,2025-04-21T2000,17,46,0.3,8,10,85,86,46,
绵阳市,绵阳市气象局,104.7651,31.4531,2025-04-21T2000,24,54,0.4,21,3,70,83,52,颗粒物(PM10)
牡丹江市,环保大楼,129.61,44.561,2025-04-21T2000,29,42,0.5,38,8,66,116,42,
牡丹江市,文化广场,129.6115,44.5782,2025-04-21T2000,32,49,1.0,61,14,40,107,49,
牡丹江市,第一医院,129.5904,44.5963,2025-04-21T2000,29,41,0.6,46,8,55,112,42,
牡丹江市,机车工厂,129.6364,44.6075,2025-04-21T2000,40,156,0.7,37,56,45,115,103,颗粒物(PM10)
牡丹江市,第一中学,129.6386,44.5462,2025-04-21T2000,45,62,0.8,42,10,49,115,63,细颗粒物(PM2.5)
内江市,市监测站,105.0703,29.61,2025-04-21T2000,12,40,0.6,5,5,93,98,40,
内江市,东兴区政府,105.0717,29.5947,2025-04-21T2000,9,45,0.4,6,8,82,82,45,
内江市,内江二中,105.0653,29.5817,2025-04-21T2000,14,55,0.3,9,,79,82,,
内江市,内江日报社,105.0406,29.5822,2025-04-21T2000,14,49,0.4,4,8,81,84,49,
那曲市,那曲监测站,92.0657,31.4846,2025-04-21T2000,13,42,0.8,10,5,102,101,42,
那曲市,那曲市委宣传部,92.0515,31.4787,2025-04-21T2000,10,49,0.2,3,6,112,110,49,
南昌市,省外办,115.8931,28.6843,2025-04-21T2000,19,34,0.5,22,5,61,83,34,
南昌市,省林业公司,115.8886,28.7003,2025-04-21T2000,14,17,0.6,15,6,66,90,21,
南昌市,林科所,115.8126,28.7442,2025-04-21T2000,12,22,0.3,10,1,51,88,22,
南昌市,建工学校,115.8518,28.687,2025-04-21T2000,18,21,0.7,30,2,61,94,26,
南昌市,象湖,115.8921,28.6424,2025-04-21T2000,12,31,0.7,29,5,61,108,31,
南昌市,武术学校,115.7423,28.7996,2025-04-21T2000,16,20,0.5,2,4,21,74,23,
南昌市,机电学校,115.9084,28.6062,2025-04-21T2000,9,27,0.4,20,1,58,97,27,
南昌市,外国语学校,115.9721,28.7031,2025-04-21T2000,7,22,0.4,16,8,74,99,24,
南昌市,南京东路235号,115.9316,28.68677,2025-04-21T2000,,32,0.8,20,8,70,97,,
南充市,西山风景区,106.056,30.8064,2025-04-21T2000,18,37,0.4,5,4,71,93,37,
南充市,南充市委,106.0789,30.8023,2025-04-21T2000,18,58,0.5,15,4,61,89,54,颗粒物(PM10)
南充市,南充炼油厂,106.1031,30.8217,2025-04-21T2000,21,34,0.4,9,3,64,87,34,
南充市,梨树横街98号,106.1083,30.7884,2025-04-21T2000,14,60,0.2,9,2,68,87,55,颗粒物(PM10)
南充市,清泉寺北路188号,106.1172,30.843,2025-04-21T2000,18,43,0.2,7,4,66,85,43,
南充市,同庆路1号,106.067,30.7616,2025-04-21T2000,19,45,0.4,16,3,57,83,45,
南京市,迈皋桥,118.8086,32.1065,2025-04-21T2000,44,56,0.5,33,4,65,93,62,细颗粒物(PM2.5)
南京市,草场门,118.7538,32.0551,2025-04-21T2000,41,56,0.8,29,4,65,91,58,细颗粒物(PM2.5)
南京市,山西路,118.7794,32.0745,2025-04-21T2000,53,78,0.4,26,3,68,96,73,细颗粒物(PM2.5)
南京市,中华门,118.7752,32.0023,2025-04-21T2000,56,68,0.5,20,4,54,86,77,细颗粒物(PM2.5)
南京市,瑞金路,118.8109,32.0309,2025-04-21T2000,56,80,0.2,24,6,61,89,77,细颗粒物(PM2.5)
南京市,玄武湖,118.7997,32.0754,2025-04-21T2000,55,91,0.6,18,8,65,96,75,细颗粒物(PM2.5)
南京市,浦口,118.6414,32.0931,2025-04-21T2000,33,51,0.8,29,6,59,90,51,颗粒物(PM10)
南京市,奥体中心,118.7356,31.9996,2025-04-21T2000,53,77,0.7,24,7,71,95,73,细颗粒物(PM2.5)
南京市,仙林大学城,118.9125,32.1028,2025-04-21T2000,66,78,0.6,22,10,72,100,89,细颗粒物(PM2.5)
南京市,江宁彩虹桥,118.8436,31.9198,2025-04-21T2000,48,52,0.8,25,4,63,89,67,细颗粒物(PM2.5)
南京市,六合雄州,118.8554,32.3578,2025-04-21T2000,42,80,0.7,28,4,76,103,65,颗粒物(PM10)
南京市,汶溪路181号,118.8708,31.3402,2025-04-21T2000,21,,0.8,31,,30,96,,
南京市,中山西路1号,119.019,31.6512,2025-04-21T2000,41,41,0.7,20,4,51,94,58,细颗粒物(PM2.5)
南宁市,二十一中,108.3103,22.7881,2025-04-21T2000,20,38,0.5,14,2,67,84,38,
南宁市,北湖,108.3141,22.8528,2025-04-21T2000,23,49,0.5,12,5,72,95,49,
南宁市,市监测站,108.3206,22.8225,2025-04-21T2000,19,36,0.4,11,3,62,80,36,
南宁市,大自然花园,108.3829,22.8037,2025-04-21T2000,17,37,0.5,5,5,78,87,37,
南宁市,仙葫,108.4394,22.7904,2025-04-21T2000,18,,0.5,5,6,62,72,,
南宁市,区农职院,108.2397,22.8467,2025-04-21T2000,29,55,0.4,11,2,74,94,53,颗粒物(PM10)
南宁市,英华嘉园,108.3275,22.735,2025-04-21T2000,20,31,0.5,17,6,61,84,31,
南宁市,红星社区,108.4834,22.7618,2025-04-21T2000,6,36,0.7,4,8,77,88,36,
南宁市,乐贤路16号,108.2177,22.7774,2025-04-21T2000,24,39,0.5,8,7,66,82,39,
南平市,茫荡山,118.0966,26.6761,2025-04-21T2000,,,,,,,,,
南平市,南平市监测站,118.1681,26.6369,2025-04-21T2000,34,42,1.7,26,4,17,67,49,
南平市,南平铝业有限公司,118.1825,26.6489,2025-04-21T2000,26,40,1.1,24,4,19,67,40,
南平市,南平七中,118.1756,26.6272,2025-04-21T2000,24,39,1.2,18,4,25,64,39,
南通市,狼山街道,120.9098,31.9663,2025-04-21T2000,21,50,0.9,51,4,52,101,50,
南通市,虹桥,120.86,32.0005,2025-04-21T2000,27,57,0.3,58,2,64,101,54,颗粒物(PM10)
南通市,城中,120.87,32.02,2025-04-21T2000,23,53,0.7,51,5,71,101,52,颗粒物(PM10)
南通市,星湖花园,120.94,31.93,2025-04-21T2000,25,41,0.6,66,4,47,102,41,
南通市,紫琅学院,120.81,32.0417,2025-04-21T2000,28,46,0.6,96,6,28,94,48,
南通市,通州监测站,121.067,32.062,2025-04-21T2000,22,46,0.7,30,5,67,102,46,
南通市,环境教育馆,120.9348,31.9883,2025-04-21T2000,22,48,0.2,51,3,60,100,48,
南阳市,瓦房庄,112.5224,33.0122,2025-04-21T2000,22,45,0.8,25,4,47,91,45,
南阳市,汉画馆,112.5003,32.9735,2025-04-21T2000,19,32,0.7,38,4,28,82,32,
南阳市,气象站,112.5573,33.027,2025-04-21T2000,39,,0.9,33,3,31,92,55,细颗粒物(PM2.5)
南阳市,理工学院,112.5481,32.9689,2025-04-21T2000,30,37,0.8,29,3,40,88,43,
南阳市,卧龙区政府,112.5234,32.9922,2025-04-21T2000,25,32,0.8,20,3,51,93,36,
宁波市,区环保大楼,121.8358,29.911,2025-04-21T2000,21,50,0.7,36,7,74,95,50,
宁波市,万里学院,121.56,29.82,2025-04-21T2000,43,51,0.7,20,6,91,107,60,细颗粒物(PM2.5)
宁波市,龙赛医院,121.713,29.9572,2025-04-21T2000,23,55,0.6,18,9,95,111,53,颗粒物(PM10)
宁波市,钱湖水厂,121.633,29.7733,2025-04-21T2000,26,36,0.7,10,8,102,111,38,
宁波市,太古小学,121.5856,29.8635,2025-04-21T2000,27,60,0.8,18,8,96,114,55,颗粒物(PM10)
宁波市,市环境监测中心,121.524,29.8674,2025-04-21T2000,41,66,1.0,25,9,83,102,58,"颗粒物(PM10),细颗粒物(PM2.5)"
宁波市,万里国际学校,121.6147,29.9017,2025-04-21T2000,31,52,,15,7,105,115,,
宁波市,白沙活动中心,121.5594,29.8975,2025-04-21T2000,24,40,0.6,17,7,97,111,40,
宁德市,金涵水库,119.5001,26.6946,2025-04-21T2000,,,,,,,,,
宁德市,宁德市监测站,119.5388,26.6612,2025-04-21T2000,53,77,0.8,30,4,99,118,73,细颗粒物(PM2.5)
宁德市,宁德一中,119.5231,26.6562,2025-04-21T2000,52,81,1.0,15,6,73,120,72,细颗粒物(PM2.5)
怒江傈僳族自治州,州监测站,98.8601,25.8567,2025-04-21T2000,15,29,0.3,5,8,84,90,29,
怒江傈僳族自治州,泸水一中,98.8546,25.8417,2025-04-21T2000,22,57,0.6,28,6,42,71,54,颗粒物(PM10)
攀枝花市,弄弄坪,101.6891,26.571,2025-04-21T2000,19,35,0.6,10,6,103,116,35,
攀枝花市,河门口,101.5769,26.5928,2025-04-21T2000,14,29,0.5,10,10,109,120,35,
攀枝花市,炳草岗,101.7169,26.585,2025-04-21T2000,13,36,0.4,10,12,104,117,36,
攀枝花市,仁和,101.7369,26.5008,2025-04-21T2000,,,0.4,,,106,115,,
攀枝花市,四十中小,101.7227,26.567,2025-04-21T2000,14,21,0.5,7,5,111,123,35,
盘锦市,开发区,122.0303,41.1489,2025-04-21T2000,15,29,0.4,19,8,108,126,34,
盘锦市,兴隆台,122.0485,41.0883,2025-04-21T2000,18,,0.5,23,9,98,120,31,
盘锦市,新生街道,121.8297,41.1028,2025-04-21T2000,18,,0.4,28,10,99,130,31,
平顶山市,新华旅馆,113.3257,33.742,2025-04-21T2000,38,131,0.3,9,4,90,97,91,颗粒物(PM10)
平顶山市,规划设计院,113.2919,33.737,2025-04-21T2000,40,123,0.4,9,5,89,96,87,颗粒物(PM10)
平顶山市,平顶山工学院,113.182,33.774,2025-04-21T2000,41,116,0.1,7,4,93,100,83,颗粒物(PM10)
平顶山市,规划局,113.3025,33.73,2025-04-21T2000,30,122,0.2,6,6,88,95,86,颗粒物(PM10)
平顶山市,石龙区,112.8867,33.9116,2025-04-21T2000,37,133,0.2,8,5,98,109,92,颗粒物(PM10)
平凉市,聚贤嘉苑,106.6692,35.5461,2025-04-21T2000,62,236,0.4,7,1,94,112,143,颗粒物(PM10)
平凉市,博物馆,106.7021,35.5307,2025-04-21T2000,52,238,0.3,6,9,96,111,144,颗粒物(PM10)
萍乡市,武功山,114.0997,27.5002,2025-04-21T2000,13,,0.6,4,18,67,68,21,
萍乡市,中医院,113.8385,27.6434,2025-04-21T2000,6,31,0.5,6,8,86,81,31,
萍乡市,市政府车库,113.8493,27.6253,2025-04-21T2000,31,,0.3,8,5,82,79,45,
萍乡市,市环保局,113.8676,27.6435,2025-04-21T2000,14,35,0.4,13,5,88,78,35,
萍乡市,安源区政府,113.866,27.6198,2025-04-21T2000,13,37,0.4,7,12,80,72,37,
莆田市,荔城区仓后路,119.0141,25.4325,2025-04-21T2000,45,68,0.6,34,3,48,119,63,细颗粒物(PM2.5)
莆田市,莆田市监测站,119.0015,25.4553,2025-04-21T2000,54,63,0.5,24,6,65,124,74,细颗粒物(PM2.5)
莆田市,涵江区六中,119.1119,25.4561,2025-04-21T2000,62,,0.4,27,5,58,128,84,细颗粒物(PM2.5)
莆田市,秀屿区政府,119.1013,25.3215,2025-04-21T2000,46,,0.5,19,4,55,111,64,细颗粒物(PM2.5)
莆田市,东圳水库,118.981,25.4792,2025-04-21T2000,,,,,,,,,
濮阳市,环保局,115.0312,35.7636,2025-04-21T2000,65,,0.9,22,7,83,106,88,细颗粒物(PM2.5)
濮阳市,油田运输公司,115.0574,35.7609,2025-04-21T2000,68,98,1.1,23,6,97,113,92,细颗粒物(PM2.5)
濮阳市,濮水河管理处,115,35.7668,2025-04-21T2000,65,79,1.0,10,4,63,115,88,细颗粒物(PM2.5)
濮阳市,任丘路479号,115.0924,35.7686,2025-04-21T2000,67,83,1.0,13,5,105,115,90,细颗粒物(PM2.5)
普洱市,市环保局,100.98,22.7633,2025-04-21T2000,29,48,0.6,13,7,61,92,48,
普洱市,普洱第二中学,100.9817,22.8322,2025-04-21T2000,28,,0.9,10,7,62,102,40,
七台河市,新一中,131.0518,45.8751,2025-04-21T2000,53,76,0.9,22,9,89,121,73,细颗粒物(PM2.5)
七台河市,中波台,131.0577,45.7879,2025-04-21T2000,65,88,0.6,26,9,67,103,88,细颗粒物(PM2.5)
七台河市,人民广场,131.0176,45.7761,2025-04-21T2000,68,116,0.9,30,12,84,119,92,细颗粒物(PM2.5)
七台河市,新建矿广场,130.8781,45.8222,2025-04-21T2000,64,110,0.8,27,11,86,109,87,细颗粒物(PM2.5)
齐齐哈尔市,安居小区,123.9305,47.3636,2025-04-21T2000,3,6,0.3,9,4,83,76,26,
齐齐哈尔市,中心广场,123.9488,47.3386,2025-04-21T2000,3,15,0.1,13,7,86,78,27,
齐齐哈尔市,农牧车辆厂,123.9483,47.3227,2025-04-21T2000,8,19,0.1,8,5,88,80,28,
齐齐哈尔市,市环境监测站,123.945,47.2988,2025-04-21T2000,7,15,0.3,6,2,87,80,28,
齐齐哈尔市,富区青少年活动中心,123.6333,47.2075,2025-04-21T2000,9,14,0.3,6,2,84,77,27,
黔东南苗族侗族自治州,市环境监测站,107.9783,26.5747,2025-04-21T2000,25,30,0.5,4,3,104,108,36,
黔东南苗族侗族自治州,凯里学院,107.8908,26.5311,2025-04-21T2000,26,29,0.2,2,3,108,112,38,
黔南布依族苗族自治州,小围寨,107.5228,26.2403,2025-04-21T2000,27,36,0.5,6,5,125,124,40,
黔南布依族苗族自治州,沙坝,107.5175,26.2978,2025-04-21T2000,29,39,0.6,7,4,106,113,42,
黔西南布依族苗族自治州,场坝街,104.9022,25.0925,2025-04-21T2000,13,28,0.5,24,4,105,118,33,
黔西南布依族苗族自治州,坪东大道,104.8811,25.0992,2025-04-21T2000,10,20,0.2,10,2,103,112,33,
钦州市,市环保站,108.6236,21.9667,2025-04-21T2000,7,22,0.6,13,2,45,65,22,
钦州市,沙埠小学,108.6549,21.9481,2025-04-21T2000,21,32,0.7,9,6,48,70,32,
钦州市,港区一小,108.5989,21.7431,2025-04-21T2000,17,54,0.5,16,8,36,55,52,颗粒物(PM10)
钦州市,北职校,108.5959,21.9633,2025-04-21T2000,13,22,0.5,8,6,45,56,22,
秦皇岛市,第一关,119.7493,40.0116,2025-04-21T2000,44,46,0.4,26,4,91,125,62,细颗粒物(PM2.5)
秦皇岛市,监测站,119.5897,39.9499,2025-04-21T2000,48,61,0.6,44,3,60,118,67,细颗粒物(PM2.5)
秦皇岛市,建设大厦,119.5251,39.9041,2025-04-21T2000,36,60,0.6,44,2,59,112,55,颗粒物(PM10)
秦皇岛市,文明里,119.610547,39.943889,2025-04-21T2000,42,51,0.5,48,2,56,110,59,细颗粒物(PM2.5)
秦皇岛市,北戴河轮滑馆,119.5090,39.8253,2025-04-21T2000,25,39,0.3,17,2,91,112,39,
青岛市,仰口,120.6659,36.2403,2025-04-21T2000,14,,0.4,10,7,93,94,30,
青岛市,市南区东部子站,120.4134,36.0658,2025-04-21T2000,12,,0.4,8,7,87,82,28,
青岛市,四方区子站,120.3664,36.1032,2025-04-21T2000,7,9,0.6,12,5,93,100,30,
青岛市,市南区西部子站,120.2994,36.054,2025-04-21T2000,3,7,0.7,11,7,95,79,30,
青岛市,崂山区子站,120.4581,36.0858,2025-04-21T2000,3,,0.4,8,7,95,88,30,
青岛市,城阳区子站,120.3999,36.3083,2025-04-21T2000,15,24,0.6,20,8,78,111,25,
青岛市,黄岛区4号,120.0405,35.8735,2025-04-21T2000,12,17,0.7,24,7,83,94,26,
青岛市,即墨2号,120.5014,36.4034,2025-04-21T2000,22,27,0.6,12,7,91,108,32,
青岛市,市北区南部,120.3503,36.0736,2025-04-21T2000,12,18,0.7,9,5,81,84,26,
青岛市,李沧区北部,120.3948,36.1805,2025-04-21T2000,7,9,0.6,25,7,80,101,25,
青岛市,珠江路669号,120.1969,35.9546,2025-04-21T2000,20,,0.6,24,6,84,90,29,
清远市,环保大楼,113.0426,23.691,2025-04-21T2000,15,28,0.7,17,6,75,115,28,
清远市,凤城街办,113.0208,23.7106,2025-04-21T2000,15,29,0.5,19,5,66,100,29,
清远市,技师学院,113.0477,23.6344,2025-04-21T2000,13,33,0.3,17,6,62,100,33,
清远市,清新太和,112.9903,23.7403,2025-04-21T2000,13,33,0.5,21,8,72,103,33,
清远市,清城东城,113.076,23.7198,2025-04-21T2000,17,31,0.6,15,8,78,110,31,
庆阳市,庆阳五中,107.6325,35.7357,2025-04-21T2000,86,231,0.3,12,2,81,106,141,颗粒物(PM10)
庆阳市,市环保局,107.6364,35.7067,2025-04-21T2000,71,234,0.4,10,5,91,111,142,颗粒物(PM10)
曲靖市,环境监测站,103.7897,25.5035,2025-04-21T2000,9,37,0.1,12,5,99,118,37,
曲靖市,烟厂办公区,103.8,25.5364,2025-04-21T2000,16,37,0.3,9,4,107,128,37,
曲靖市,南苑二区,103.7947,25.462,2025-04-21T2000,12,36,0.1,9,4,97,106,36,
曲靖市,曲靖师范学院,103.7444,25.5261,2025-04-21T2000,16,37,0.3,10,6,101,118,37,
衢州市,环保大楼,118.8692,28.9398,2025-04-21T2000,11,20,0.6,18,3,56,130,20,
衢州市,实验学校,118.8709,28.9666,2025-04-21T2000,7,14,0.4,23,4,55,124,18,
衢州市,衢州学院,118.8621,28.9808,2025-04-21T2000,8,14,0.6,18,3,55,111,18,
泉州市,涂山街,118.5819,24.9117,2025-04-21T2000,22,34,0.6,20,4,53,119,34,
泉州市,津头埔,118.5972,24.8978,2025-04-21T2000,23,32,0.6,25,2,50,112,33,
泉州市,万安,118.6663,24.9424,2025-04-21T2000,19,25,0.5,20,4,43,108,28,
泉州市,清源山,118.6117,24.9604,2025-04-21T2000,,,,,,,,,
泉州市,城华南路,118.6333,24.9264,2025-04-21T2000,21,27,0.5,30,3,39,98,30,
日喀则市,日喀则监测站,88.8876,29.2718,2025-04-21T2000,3,12,0.3,3,5,122,124,39,
日喀则市,林业技术推广中心,88.8781,29.2426,2025-04-21T2000,3,19,0.2,2,5,113,113,36,
日照市,监测站,119.471,35.4209,2025-04-21T2000,20,,0.6,25,4,77,106,29,
日照市,市政府广场,119.523,35.4216,2025-04-21T2000,,,1.0,,4,77,100,,
日照市,港务局,119.5587,35.4044,2025-04-21T2000,16,,0.8,13,5,86,105,27,
日照市,职业技术学院,119.5328,35.4625,2025-04-21T2000,19,,0.7,17,5,73,108,28,
日照市,岚山环保分局,119.3266,35.1044,2025-04-21T2000,14,,0.6,16,4,92,104,29,
三门峡市,市政府,111.1922,34.7752,2025-04-21T2000,32,80,0.6,22,14,74,121,65,颗粒物(PM10)
三门峡市,开发区,111.1587,34.7942,2025-04-21T2000,28,81,0.6,,,71,118,,
三门峡市,风景区,111.143,34.7955,2025-04-21T2000,25,79,0.4,16,17,75,118,65,颗粒物(PM10)
三门峡市,三门峡市第一小学,111.1911,34.7829,2025-04-21T2000,24,93,0.6,17,11,81,126,72,颗粒物(PM10)
三门峡市,富达温泉假日酒店,111.1,34.7167,2025-04-21T2000,26,99,0.3,18,7,82,112,75,颗粒物(PM10)
三明市,三钢,117.6211,26.2625,2025-04-21T2000,22,41,1.0,34,6,27,82,41,
三明市,三明二中,117.635,26.2714,2025-04-21T2000,28,44,1.1,35,3,21,78,44,
三明市,三元区政府,117.6028,26.2378,2025-04-21T2000,18,48,0.7,34,4,25,85,48,
三明市,洋溪,117.7275,26.3108,2025-04-21T2000,,,,,,,,,
三亚市,河东子站,109.5078,18.2489,2025-04-21T2000,18,20,0,3,4,38,42,26,
三亚市,河西子站,109.4964,18.2681,2025-04-21T2000,18,,0.1,4,2,40,40,26,
三亚市,君悦子站,109.7348,18.3443,2025-04-21T2000,8,18,0.2,3,3,48,46,18,
山南市,山南监测站,91.7608,29.2313,2025-04-21T2000,10,40,0.3,5,,,114,,
山南市,山南人民医院,91.7706,29.2436,2025-04-21T2000,18,49,0.2,9,5,112,113,49,
汕头市,金平子站,116.6794,23.3667,2025-04-21T2000,18,30,0.6,12,4,36,69,30,
汕头市,龙湖子站,116.7244,23.3633,2025-04-21T2000,18,30,0.5,9,4,38,63,30,
汕头市,濠江子站,116.7258,23.2775,2025-04-21T2000,16,16,0.7,10,4,42,57,23,
汕头市,澄海子站,116.7519,23.4714,2025-04-21T2000,20,26,0.8,18,3,32,65,29,
汕头市,潮阳子站,116.6092,23.2539,2025-04-21T2000,48,,0.5,5,7,31,50,67,细颗粒物(PM2.5)
汕头市,潮南峡山,116.454,23.2684,2025-04-21T2000,24,28,0.5,6,4,38,53,35,
汕头市,潮南子站,116.4069,23.2533,2025-04-21T2000,19,30,0.6,7,3,38,51,30,
汕尾市,市环保局,115.3653,22.775,2025-04-21T2000,14,,0.6,2,6,52,52,20,
汕尾市,市政府,115.3706,22.7898,2025-04-21T2000,16,17,0.5,7,4,52,48,23,
汕尾市,新城中学,115.3622,22.7925,2025-04-21T2000,13,17,0.5,5,7,55,52,19,
商洛市,监测站,109.9154,33.8715,2025-04-21T2000,29,56,0.5,16,4,68,110,53,颗粒物(PM10)
商洛市,商州区中学,109.9643,33.8471,2025-04-21T2000,24,67,0.6,20,2,55,103,59,颗粒物(PM10)
商丘市,环境监测站,115.6702,34.4285,2025-04-21T2000,66,89,0.5,17,2,53,107,89,细颗粒物(PM2.5)
商丘市,粮食局,115.6458,34.4045,2025-04-21T2000,41,57,0.7,15,3,61,111,58,细颗粒物(PM2.5)
商丘市,睢阳区环保局,115.6293,34.3948,2025-04-21T2000,58,71,0.5,11,3,67,114,79,细颗粒物(PM2.5)
商丘市,梁园区档案局,115.6071,34.4465,2025-04-21T2000,57,,0.6,15,5,50,113,78,细颗粒物(PM2.5)
上海市,普陀,121.4,31.238,2025-04-21T2000,41,59,0.6,20,5,98,113,58,细颗粒物(PM2.5)
上海市,十五厂,121.478,31.2036,2025-04-21T2000,46,58,0.7,29,7,95,110,64,细颗粒物(PM2.5)
上海市,虹口,121.467,31.3008,2025-04-21T2000,46,61,0.7,18,6,97,113,64,细颗粒物(PM2.5)
上海市,静安监测站,121.425,31.2261,2025-04-21T2000,40,61,0.8,23,7,100,115,57,细颗粒物(PM2.5)
上海市,浦东川沙,121.703,31.1907,2025-04-21T2000,32,64,0.6,19,5,105,104,57,颗粒物(PM10)
上海市,浦东新区监测站,121.533,31.2284,2025-04-21T2000,29,56,0.8,17,6,102,111,53,颗粒物(PM10)
上海市,浦东张江,121.577,31.2071,2025-04-21T2000,36,61,0.9,16,5,106,111,56,颗粒物(PM10)
上海市,宝山庙行,121.4316,31.3322,2025-04-21T2000,40,68,0.6,23,9,100,120,59,颗粒物(PM10)
上海市,崇明上实东滩,121.8791,31.4662,2025-04-21T2000,21,29,0.2,20,2,118,103,37,
上海市,嘉定南翔,121.3162,31.2838,2025-04-21T2000,47,64,0.7,30,6,83,105,65,细颗粒物(PM2.5)
上海市,金山新城,121.3359,30.7456,2025-04-21T2000,43,56,0.7,18,1,101,124,60,细颗粒物(PM2.5)
上海市,闵行浦江,121.4996,31.0739,2025-04-21T2000,38,54,0.8,17,3,95,106,54,细颗粒物(PM2.5)
上海市,青浦徐泾,121.2886,31.1663,2025-04-21T2000,40,58,0.7,23,4,91,115,57,细颗粒物(PM2.5)
上海市,松江图书馆,121.2186,31.0378,2025-04-21T2000,40,59,0.7,36,7,84,117,57,细颗粒物(PM2.5)
上海市,长宁仙霞,121.3902,31.2059,2025-04-21T2000,40,62,0.7,24,8,94,109,57,细颗粒物(PM2.5)
上海市,浦东惠南,121.7965,31.0507,2025-04-21T2000,33,40,0.8,15,7,109,98,48,
上海市,奉贤南桥新城,121.4891,30.925,2025-04-21T2000,28,36,0.7,26,3,98,98,40,
上海市,冠生园路458号,121.4174,31.16637,2025-04-21T2000,43,55,0.8,21,7,100,116,60,细颗粒物(PM2.5)
上海市,宁武路151号,121.5419,31.2683,2025-04-21T2000,29,72,0.6,34,9,84,96,61,颗粒物(PM10)
上饶市,百草园,118.005,28.4572,2025-04-21T2000,,,,,,,,,
上饶市,市监测站,117.9756,28.4436,2025-04-21T2000,9,28,0.6,5,4,101,92,32,
上饶市,凤凰光学,117.9519,28.4628,2025-04-21T2000,12,40,0.8,9,5,98,84,40,
上饶市,双创科技城,117.897,28.4315,2025-04-21T2000,18,25,0.4,14,1,101,86,32,
上饶市,裕丰大道,118.1904,28.4448,2025-04-21T2000,21,,0.4,6,4,96,64,30,
韶关市,市八中,113.5824,24.7733,2025-04-21T2000,23,44,0.5,16,8,106,104,44,
韶关市,园林处,113.5917,24.7972,2025-04-21T2000,28,44,0.6,22,6,97,98,44,
韶关市,曲江监测站,113.5971,24.6863,2025-04-21T2000,30,54,0.9,22,6,94,104,52,颗粒物(PM10)
韶关市,大学路288号,113.6668,24.7756,2025-04-21T2000,22,36,0.4,9,8,113,112,36,
韶关市,碧湖山庄,113.5556,24.8082,2025-04-21T2000,26,45,0.4,17,5,113,105,45,
邵阳市,市水土所,111.5239,27.3033,2025-04-21T2000,,,,,,,,,
邵阳市,市化工厂,111.5283,27.2442,2025-04-21T2000,16,35,0.6,10,7,90,101,35,
邵阳市,市环保局,111.4328,27.2272,2025-04-21T2000,21,36,0.4,8,4,85,96,36,
邵阳市,北塔二期4-26地块,111.4460,27.2472,2025-04-21T2000,26,,0.6,10,7,85,100,38,
邵阳市,邵水西路287号,111.4739,27.2282,2025-04-21T2000,3,24,0.4,10,6,81,94,26,
绍兴市,城东开发委,120.6053,29.9928,2025-04-21T2000,3,6,0.4,13,5,86,123,27,
绍兴市,树下王站,120.5483,30.0003,2025-04-21T2000,3,6,0.7,19,6,89,129,28,
绍兴市,绍兴中专,120.5683,29.9361,2025-04-21T2000,3,7,0.3,11,5,88,129,28,
绍兴市,柯桥区政府,120.4906,30.0861,2025-04-21T2000,15,23,0.4,23,5,81,124,26,
绍兴市,重华小学,120.8752,30.0249,2025-04-21T2000,22,34,0.9,11,6,67,117,34,
绍兴市,上虞中学,120.8369,30.0137,2025-04-21T2000,24,52,0.6,14,6,69,127,51,颗粒物(PM10)
绍兴市,柯桥妇保,120.4722,30.0415,2025-04-21T2000,14,23,0.6,20,5,82,132,26,
绍兴市,袍江中学,120.6153,30.0764,2025-04-21T2000,3,8,0.9,13,2,79,119,25,
深圳市,通心岭子站,114.1063,22.5545,2025-04-21T2000,14,19,0.5,10,5,38,45,20,
深圳市,洪湖,114.117,22.5625,2025-04-21T2000,15,25,0.4,12,5,37,47,25,
深圳市,华侨城,113.987,22.5417,2025-04-21T2000,12,31,0.4,18,6,23,37,31,
深圳市,南海子站,113.9181,22.5171,2025-04-21T2000,23,28,0.6,11,6,38,45,33,
深圳市,盐田,114.2458,22.5689,2025-04-21T2000,16,42,0.6,7,7,35,46,42,
深圳市,龙岗,114.2283,22.7244,2025-04-21T2000,18,32,0.8,12,6,35,56,32,
深圳市,南澳,114.494,22.5422,2025-04-21T2000,11,23,0.4,5,8,37,52,23,
深圳市,葵涌,114.41,22.6342,2025-04-21T2000,15,20,0.3,18,8,26,52,22,
深圳市,梅沙,114.297,22.5978,2025-04-21T2000,16,31,0.5,21,8,18,48,31,
深圳市,观澜,114.0678,22.738,2025-04-21T2000,17,33,0.6,14,6,26,47,33,
深圳市,莲花,114.0731,22.559,2025-04-21T2000,16,26,0.6,16,5,30,41,26,
深圳市,民治,114.0261,22.6198,2025-04-21T2000,11,23,0.5,16,6,23,38,23,
深圳市,横岗,114.1871,22.6451,2025-04-21T2000,18,27,0.5,12,4,31,49,27,
深圳市,坪山,114.3551,22.7151,2025-04-21T2000,14,23,0.3,12,7,33,54,23,
深圳市,西乡,113.8953,22.5861,2025-04-21T2000,20,46,0.7,19,6,26,39,46,
沈阳市,森林路,123.6836,41.9339,2025-04-21T2000,,,,,,,,,
沈阳市,浑南东路,123.505,41.7406,2025-04-21T2000,31,56,0.6,24,11,104,125,53,颗粒物(PM10)
沈阳市,新秀街,123.4231,41.6989,2025-04-21T2000,29,57,0.5,31,12,95,114,54,颗粒物(PM10)
沈阳市,东陵路,123.5903,41.8411,2025-04-21T2000,26,45,0.6,30,10,102,115,45,
沈阳市,陵东街,123.4264,41.8467,2025-04-21T2000,24,45,0.5,28,10,105,110,45,
沈阳市,文化路,123.4114,41.7653,2025-04-21T2000,34,53,0.6,23,10,98,112,52,颗粒物(PM10)
沈阳市,小河沿,123.4678,41.7867,2025-04-21T2000,27,50,0.6,23,10,101,114,50,
沈阳市,太原街,123.4017,41.7972,2025-04-21T2000,36,53,0.6,29,9,107,115,52,"颗粒物(PM10),细颗粒物(PM2.5)"
沈阳市,京沈街,123.3783,41.9228,2025-04-21T2000,33,44,0.5,30,19,92,104,48,
沈阳市,沈辽西路,123.2444,41.7347,2025-04-21T2000,28,55,0.6,27,12,94,113,53,颗粒物(PM10)
沈阳市,裕农路,123.5953,41.9086,2025-04-21T2000,21,43,0.5,29,11,111,118,43,
十堰市,武当山,111.0419,32.395,2025-04-21T2000,22,,0.3,11,7,120,124,38,
十堰市,滨河新村,110.78,32.6494,2025-04-21T2000,11,61,0.4,7,4,96,104,56,颗粒物(PM10)
十堰市,刘家沟,110.7258,32.6389,2025-04-21T2000,,,0.4,6,5,98,106,,
十堰市,铁二处,110.8839,32.5714,2025-04-21T2000,24,58,0,6,6,102,106,54,颗粒物(PM10)
十堰市,郧阳区金沙路,110.8054,32.8401,2025-04-21T2000,15,43,0.1,1,4,98,100,43,
石河子市,艾青诗歌馆,86.0497,44.2967,2025-04-21T2000,9,21,0.5,5,6,115,112,36,
石河子市,南区管委会,86.047,44.2331,2025-04-21T2000,10,37,0.5,23,9,101,105,37,
石河子市,世纪广场,86.0791,44.3017,2025-04-21T2000,3,20,0.6,4,8,115,111,36,
石家庄市,职工医院,114.4422,38.0444,2025-04-21T2000,51,78,0.5,23,3,65,70,70,细颗粒物(PM2.5)
石家庄市,高新区,114.6063,38.0266,2025-04-21T2000,50,70,0.6,23,4,82,86,69,细颗粒物(PM2.5)
石家庄市,西北水源,114.4898,38.1328,2025-04-21T2000,63,82,0.6,28,2,61,91,85,细颗粒物(PM2.5)
石家庄市,西南高教,114.4586,38.0058,2025-04-21T2000,56,78,0.3,26,3,75,79,77,细颗粒物(PM2.5)
石家庄市,世纪公园,114.5331,38.0178,2025-04-21T2000,57,96,0.5,23,1,65,79,78,细颗粒物(PM2.5)
石家庄市,人民会堂,114.509,38.0457,2025-04-21T2000,75,98,0.6,30,1,,88,,
石家庄市,封龙山,114.3524,37.8911,2025-04-21T2000,36,70,0.5,12,5,108,112,60,颗粒物(PM10)
石家庄市,22中南校区,114.5481,38.0378,2025-04-21T2000,50,99,0.5,30,3,59,83,75,颗粒物(PM10)
石家庄市,鹿泉一中,114.289,38.0906,2025-04-21T2000,44,94,0.4,20,1,68,77,72,颗粒物(PM10)
石家庄市,藁城区实验学校,114.8506765,38.0322033,2025-04-21T2000,64,105,0.5,30,2,59,90,87,细颗粒物(PM2.5)
石家庄市,栾城区星河路,114.6549,37.9020,2025-04-21T2000,72,103,0.7,40,2,,86,,
石家庄市,矿区区委大楼,114.0494,38.059,2025-04-21T2000,39,87,1.4,47,4,62,97,69,颗粒物(PM10)
石嘴山市,沙湖旅游区,106.3394,38.817,2025-04-21T2000,,,,,,,,,
石嘴山市,大武口朝阳西街,106.3668,39.0145,2025-04-21T2000,104,155,0.6,4,6,110,110,137,细颗粒物(PM2.5)
石嘴山市,惠农南大街,106.7704,39.2282,2025-04-21T2000,60,169,0.4,15,9,86,97,110,颗粒物(PM10)
石嘴山市,红果子镇惠新街,106.7099,39.1325,2025-04-21T2000,114,171,0.6,6,5,98,104,149,细颗粒物(PM2.5)
石嘴山市,妇女儿童医院,106.3495,38.9836,2025-04-21T2000,55,143,0.2,4,3,106,106,97,颗粒物(PM10)
石嘴山市,石大公路,106.7492,39.2069,2025-04-21T2000,,,0.2,4,1,102,108,,
双鸭山市,双合村,131.1511,46.6937,2025-04-21T2000,68,,1.1,23,39,105,124,92,细颗粒物(PM2.5)
双鸭山市,南小市,131.1652,46.6191,2025-04-21T2000,67,,1.5,16,6,116,130,90,细颗粒物(PM2.5)
双鸭山市,环保局,131.1524,46.6554,2025-04-21T2000,51,66,0.9,29,26,87,115,70,细颗粒物(PM2.5)
双鸭山市,苗圃,131.12,46.5656,2025-04-21T2000,,,,,,,,,
朔州市,平朔,112.4397,39.3522,2025-04-21T2000,9,48,0.5,24,12,71,118,48,
朔州市,朔唯,112.4575,39.3617,2025-04-21T2000,6,63,0.4,24,9,69,118,57,颗粒物(PM10)
朔州市,区政府,112.4258,39.3197,2025-04-21T2000,3,59,0.5,13,3,78,113,55,颗粒物(PM10)
朔州市,市环保局,112.4072,39.3278,2025-04-21T2000,9,56,0.9,14,7,78,113,53,颗粒物(PM10)
朔州市,市二中,112.4272,39.3681,2025-04-21T2000,6,62,0.3,22,8,71,111,56,颗粒物(PM10)
朔州市,一水厂,112.2931,39.53,2025-04-21T2000,6,55,0.2,10,4,92,115,53,颗粒物(PM10)
四平市,一商场,124.4002,43.1713,2025-04-21T2000,36,77,0.7,29,5,70,74,64,颗粒物(PM10)
四平市,境园,124.388,43.193,2025-04-21T2000,51,69,0.4,24,4,85,72,70,细颗粒物(PM2.5)
四平市,植物园,124.4036,43.1411,2025-04-21T2000,62,95,0.5,55,10,50,70,84,细颗粒物(PM2.5)
四平市,世纪城,124.3419,43.1666,2025-04-21T2000,38,62,0.5,20,5,82,72,56,颗粒物(PM10)
松原市,江南,124.8006,45.1214,2025-04-21T2000,26,32,0.5,16,2,75,95,38,
松原市,江北,124.7965,45.1722,2025-04-21T2000,32,39,0.5,15,3,65,82,46,
苏州市,上方山,120.561,31.2472,2025-04-21T2000,,,,,,,,,
苏州市,彩香,120.591,31.3019,2025-04-21T2000,49,72,0.7,21,4,74,106,68,细颗粒物(PM2.5)
苏州市,轧钢厂,120.596,31.3264,2025-04-21T2000,50,71,0.7,22,5,73,98,69,细颗粒物(PM2.5)
苏州市,吴中区,120.613,31.2703,2025-04-21T2000,81,,0.5,29,5,65,95,108,细颗粒物(PM2.5)
苏州市,苏州新区,120.543,31.2994,2025-04-21T2000,59,65,0.6,41,2,60,108,80,细颗粒物(PM2.5)
苏州市,苏州工业园区,120.669,31.3097,2025-04-21T2000,48,72,0.5,18,7,72,99,67,细颗粒物(PM2.5)
苏州市,相城区,120.641,31.3708,2025-04-21T2000,37,49,0.4,26,4,80,111,53,细颗粒物(PM2.5)
苏州市,方洲路,120.743,31.3188,2025-04-21T2000,41,41,0.5,19,5,76,108,58,细颗粒物(PM2.5)
苏州市,木渎中学,120.5031,31.2774,2025-04-21T2000,27,40,0.8,24,2,75,110,40,
苏州市,越秀幼儿园,120.624,31.1733,2025-04-21T2000,47,52,0.7,23,6,81,114,65,细颗粒物(PM2.5)
苏州市,高铁新城,120.6505,31.416,2025-04-21T2000,20,46,0.6,32,4,73,106,46,
宿迁市,宿迁学院,118.293,33.9528,2025-04-21T2000,35,,0.5,17,2,54,72,50,
宿迁市,宿迁中学,118.2442,33.9592,2025-04-21T2000,38,,0.3,19,3,59,83,54,细颗粒物(PM2.5)
宿迁市,市供电局,118.283,33.965,2025-04-21T2000,38,,0.6,19,3,55,72,54,细颗粒物(PM2.5)
宿迁市,宿豫区政府,118.3225,33.9447,2025-04-21T2000,32,34,0.7,17,3,58,77,46,
宿州市,远航博物馆,116.9509,33.666,2025-04-21T2000,26,38,0.5,11,2,54,78,38,
宿州市,社会福利中心,116.9708,33.591,2025-04-21T2000,35,41,0.5,14,3,70,80,50,
宿州市,宿州学院,116.9884,33.6305,2025-04-21T2000,25,37,0.5,13,2,63,78,37,
宿州市,皖北煤电集团,116.9648,33.6252,2025-04-21T2000,29,44,0.7,11,2,59,78,44,
绥化市,人和东街,126.9785,46.6365,2025-04-21T2000,22,46,0.6,14,14,84,105,46,
绥化市,党政办公中心,126.964,46.6528,2025-04-21T2000,18,36,0.5,16,15,85,106,36,
随州市,市委党校,113.3583,31.7275,2025-04-21T2000,31,38,0.8,10,6,93,78,45,
随州市,市林业局,113.3833,31.6908,2025-04-21T2000,31,68,1.0,11,6,97,79,59,颗粒物(PM10)
随州市,市立交桥水厂,113.3983,31.7308,2025-04-21T2000,25,132,1.0,8,7,85,74,91,颗粒物(PM10)
遂宁市,石溪浩,105.5453,30.5678,2025-04-21T2000,11,82,0.2,12,3,50,84,66,颗粒物(PM10)
遂宁市,市监测站,105.5582,30.5232,2025-04-21T2000,12,58,0.5,16,6,63,92,54,颗粒物(PM10)
遂宁市,行政中心,105.5861,30.5366,2025-04-21T2000,12,50,0.2,16,9,69,100,50,
遂宁市,美宁食品公司,105.5918,30.4728,2025-04-21T2000,11,33,0.3,13,7,64,96,33,
塔城地区,东门外小游园,82.9994,46.7432,2025-04-21T2000,14,20,0.1,4,6,104,104,33,
台州市,黄岩环保大楼,121.273,28.6459,2025-04-21T2000,20,43,0.6,9,4,134,149,43,
台州市,台州环保大楼,121.419,28.6542,2025-04-21T2000,23,42,0.6,13,3,112,122,42,
台州市,路桥田洋王,121.377,28.5773,2025-04-21T2000,23,51,0.4,13,6,118,137,51,颗粒物(PM10)
台州市,台州科技职业学院,121.2568,28.6681,2025-04-21T2000,15,41,0.9,12,5,123,134,41,
太原市,尖草坪,112.522,37.8873,2025-04-21T2000,36,87,0.4,9,7,94,97,69,颗粒物(PM10)
太原市,上兰,112.434,38.0108,2025-04-21T2000,15,65,0.3,21,5,98,104,58,颗粒物(PM10)
太原市,晋源,112.469,37.7124,2025-04-21T2000,24,123,0.3,20,7,93,97,87,颗粒物(PM10)
太原市,小店,112.5583,37.7394,2025-04-21T2000,42,72,0.3,14,4,99,102,61,颗粒物(PM10)
太原市,桃园,112.5369,37.8692,2025-04-21T2000,24,73,0.3,8,7,98,100,62,颗粒物(PM10)
太原市,坞城,112.57,37.8195,2025-04-21T2000,17,79,0.5,12,3,100,101,65,颗粒物(PM10)
太原市,南寨,112.549,37.9854,2025-04-21T2000,18,123,0.4,11,7,96,104,87,颗粒物(PM10)
太原市,金胜,112.4719,37.7831,2025-04-21T2000,12,48,0.2,12,5,96,101,48,
太原市,育英中学,112.5608,37.8807,2025-04-21T2000,17,67,0.4,11,2,99,102,59,颗粒物(PM10)
泰安市,监测站,117.1437,36.1937,2025-04-21T2000,52,92,0.7,36,10,80,117,72,细颗粒物(PM2.5)
泰安市,人口学校,117.0885,36.2017,2025-04-21T2000,34,73,0.4,28,8,68,113,62,颗粒物(PM10)
泰安市,电力学校,117.1089,36.1758,2025-04-21T2000,48,63,0.5,22,6,81,111,67,细颗粒物(PM2.5)
泰安市,国网新校,117.1812,36.2275,2025-04-21T2000,31,61,0.8,11,4,101,118,56,颗粒物(PM10)
泰安市,交通技校,117.0313,36.2018,2025-04-21T2000,41,76,0.6,12,8,92,120,63,颗粒物(PM10)
泰安市,山东第一医科大学,117.0829,36.13,2025-04-21T2000,44,63,0.2,30,8,84,120,62,细颗粒物(PM2.5)
泰州市,公园路,119.905,32.4878,2025-04-21T2000,39,41,1.0,21,7,94,120,55,细颗粒物(PM2.5)
泰州市,莲花,119.9189,32.4625,2025-04-21T2000,44,56,0.8,23,9,96,125,62,细颗粒物(PM2.5)
泰州市,留学生创业园,119.888,32.4639,2025-04-21T2000,54,,1.1,23,6,98,122,74,细颗粒物(PM2.5)
泰州市,王营,119.8767,32.3289,2025-04-21T2000,41,44,0.8,43,9,74,117,58,细颗粒物(PM2.5)
泰州市,姜堰区政府广场,120.1259,32.5099,2025-04-21T2000,34,69,1.0,43,12,71,102,60,颗粒物(PM10)
泰州市,周山河街区,119.9192,32.4322,2025-04-21T2000,45,,0.8,21,7,94,122,63,细颗粒物(PM2.5)
唐山市,物资局,118.1725,39.6334,2025-04-21T2000,69,92,0.9,36,4,59,101,93,细颗粒物(PM2.5)
唐山市,十二中,118.1705,39.6506,2025-04-21T2000,80,99,1.0,49,2,57,93,107,细颗粒物(PM2.5)
唐山市,小山,118.1869,39.622,2025-04-21T2000,78,113,1.0,37,3,58,101,104,细颗粒物(PM2.5)
唐山市,冀东油田职工医院,118.4359,39.2762,2025-04-21T2000,43,56,0.3,28,4,91,121,60,细颗粒物(PM2.5)
唐山市,正泰大街热力站,118.09279,39.58089,2025-04-21T2000,64,110,0.6,42,3,52,83,87,细颗粒物(PM2.5)
唐山市,丰润区政府,118.1562,39.8322,2025-04-21T2000,90,111,1.3,48,5,32,86,119,细颗粒物(PM2.5)
唐山市,金山小学,118.43673,39.73809,2025-04-21T2000,67,75,0.9,39,7,64,108,90,细颗粒物(PM2.5)
唐山市,政府服务中心,118.24498,39.66941,2025-04-21T2000,70,90,1.1,43,6,46,91,94,细颗粒物(PM2.5)
唐山市,消防缸窑路中队,118.2059,39.6585,2025-04-21T2000,75,76,1.0,38,7,53,98,100,细颗粒物(PM2.5)
唐山市,路南电大,118.1436,39.6202,2025-04-21T2000,65,97,1.0,40,3,60,96,88,细颗粒物(PM2.5)
唐山市,友谊北路34号,118.1309,39.6360,2025-04-21T2000,93,108,1.1,46,4,56,91,123,细颗粒物(PM2.5)
天津市,勤俭道,117.1444,39.1661,2025-04-21T2000,93,118,1.3,51,5,28,84,123,细颗粒物(PM2.5)
天津市,前进道,117.202,39.0927,2025-04-21T2000,104,142,1.3,58,6,30,76,137,细颗粒物(PM2.5)
天津市,淮河道,117.1837,39.2133,2025-04-21T2000,94,131,1.4,64,8,12,69,124,细颗粒物(PM2.5)
天津市,跃进路,117.3083,39.0884,2025-04-21T2000,100,136,1.1,62,8,24,92,132,细颗粒物(PM2.5)
天津市,第四大街,117.707,39.0343,2025-04-21T2000,98,143,1.3,132,7,0,66,129,细颗粒物(PM2.5)
天津市,永明路,117.457,38.8394,2025-04-21T2000,103,132,0.9,123,10,4,106,135,细颗粒物(PM2.5)
天津市,汉北路,117.764,39.1587,2025-04-21T2000,71,92,1.1,58,6,47,86,95,细颗粒物(PM2.5)
天津市,团泊洼,117.157,38.9194,2025-04-21T2000,,,,,,,,,
天津市,河西一经路,117.7918,39.2474,2025-04-21T2000,93,122,1.2,47,7,44,110,123,细颗粒物(PM2.5)
天津市,津沽路,117.3747,38.9846,2025-04-21T2000,93,139,1.1,52,5,22,101,123,细颗粒物(PM2.5)
天津市,宾水西道,117.1589,39.0845,2025-04-21T2000,95,124,1.1,46,6,36,99,125,细颗粒物(PM2.5)
天津市,大理道,117.1941,39.1067,2025-04-21T2000,106,141,1.0,62,5,31,87,139,细颗粒物(PM2.5)
天津市,中山北路,117.2101,39.1699,2025-04-21T2000,90,122,1.1,65,8,21,30,119,细颗粒物(PM2.5)
天津市,西四道,117.3876,39.1488,2025-04-21T2000,90,128,1.2,52,8,34,81,119,细颗粒物(PM2.5)
天津市,雍阳西道,117.0365,39.3828,2025-04-21T2000,93,123,1.3,45,6,16,33,123,细颗粒物(PM2.5)
天津市,辛老路,117.0296,39.0605,2025-04-21T2000,97,140,1.1,63,6,19,82,128,细颗粒物(PM2.5)
天津市,地纬路,116.9638,38.9375,2025-04-21T2000,98,142,0.9,61,11,13,92,129,细颗粒物(PM2.5)
天津市,北环路,117.4067,40.0583,2025-04-21T2000,68,91,1.6,30,6,21,67,92,细颗粒物(PM2.5)
天津市,建设路,117.3045,39.7169,2025-04-21T2000,88,106,1.5,37,8,43,42,117,细颗粒物(PM2.5)
天津市,滨水东路,117.8199,39.3521,2025-04-21T2000,86,113,0.9,68,8,28,91,114,细颗粒物(PM2.5)
天津市,光华路,117.2437,39.1029,2025-04-21T2000,104,147,1.3,55,8,34,88,137,细颗粒物(PM2.5)
天水市,麦积山,106.0055,34.343,2025-04-21T2000,,,,,,,,,
天水市,公园小学,105.7205,34.5786,2025-04-21T2000,40,172,0.2,9,3,90,96,111,颗粒物(PM10)
天水市,麦积国土局,105.8945,34.5538,2025-04-21T2000,62,162,0.4,6,6,96,102,106,颗粒物(PM10)
铁岭市,汇工街西,123.8139,42.3022,2025-04-21T2000,55,55,0.6,26,9,90,96,75,细颗粒物(PM2.5)
铁岭市,水上乐园,123.8649,42.2923,2025-04-21T2000,34,44,0.5,24,7,83,90,49,
铁岭市,银州路东段,123.8486,42.2867,2025-04-21T2000,43,68,0.5,30,9,84,92,60,细颗粒物(PM2.5)
铁岭市,金沙江路北,123.7153,42.2217,2025-04-21T2000,36,50,0.6,24,9,88,94,52,细颗粒物(PM2.5)
通化市,光明,125.9358,41.7173,2025-04-21T2000,15,44,0.8,7,9,134,127,44,
通化市,铁路,125.9446,41.7325,2025-04-21T2000,19,35,0.4,8,9,133,126,42,
通辽市,艺术职业学校,122.2532,43.6801,2025-04-21T2000,30,73,0.5,15,10,78,74,62,颗粒物(PM10)
通辽市,老干部活动中心,122.2584,43.6333,2025-04-21T2000,42,52,0.4,16,5,81,97,59,细颗粒物(PM2.5)
通辽市,东方明珠社区,122.2922,43.6189,2025-04-21T2000,57,60,0.6,18,9,80,99,78,细颗粒物(PM2.5)
铜川市,党校,109.0656,35.0994,2025-04-21T2000,,,,,,,,,
铜川市,王益区政府,109.0697,35.0697,2025-04-21T2000,19,76,0.5,16,6,56,93,63,颗粒物(PM10)
铜川市,新区管委会,108.9344,34.9058,2025-04-21T2000,31,77,0.5,13,4,59,99,64,颗粒物(PM10)
铜川市,大唐三路,108.9497,34.8705,2025-04-21T2000,25,79,0.5,10,6,64,100,65,颗粒物(PM10)
铜陵市,市第四中学,117.8177,30.9412,2025-04-21T2000,20,42,1.1,30,8,28,99,42,
铜陵市,市公路局,117.8059,30.9273,2025-04-21T2000,26,35,1.1,22,6,35,77,38,
铜陵市,市新民污水厂,117.7807,30.9413,2025-04-21T2000,24,76,1.3,45,10,19,81,63,颗粒物(PM10)
铜陵市,市第九中学,117.7439,30.8792,2025-04-21T2000,27,66,1.0,59,5,9,36,58,颗粒物(PM10)
铜陵市,车站新区,117.846,30.9413,2025-04-21T2000,37,89,1.0,34,6,25,97,70,颗粒物(PM10)
铜陵市,市职教基地,117.8483,30.97,2025-04-21T2000,31,39,1.3,49,8,14,111,45,
铜仁市,铜仁卫校,109.1839,27.7344,2025-04-21T2000,28,66,0.3,22,4,54,86,58,颗粒物(PM10)
铜仁市,铜仁七中,109.1753,27.6944,2025-04-21T2000,31,36,0.3,7,3,92,100,45,
吐鲁番市,市环保局,89.1904,42.9418,2025-04-21T2000,20,66,0.5,4,4,99,93,58,颗粒物(PM10)
吐鲁番市,地区环保局,89.1673,42.9559,2025-04-21T2000,23,70,0.5,9,3,98,93,60,颗粒物(PM10)
威海市,华夏技校,122.1214,37.4236,2025-04-21T2000,3,,0.2,13,3,85,112,27,
威海市,山大分校,122.0508,37.5236,2025-04-21T2000,3,7,0.3,7,8,98,124,31,
威海市,市监测站,122.1067,37.5072,2025-04-21T2000,3,,0.1,12,2,89,114,28,
威海市,文登开发区,122.0693,37.2174,2025-04-21T2000,7,,0.6,16,5,,110,,
威海市,临港区管委会,122.1379,37.3414,2025-04-21T2000,3,9,0.4,9,6,77,108,25,
潍坊市,环保局,119.1437,36.7023,2025-04-21T2000,22,53,0.4,26,3,84,125,52,颗粒物(PM10)
潍坊市,坊子邮政,119.1641,36.6523,2025-04-21T2000,19,53,,24,6,71,109,,
潍坊市,潍坊七中,119.0587,36.721,2025-04-21T2000,22,56,0.5,22,8,81,120,53,颗粒物(PM10)
潍坊市,高新实验学校,119.1977,36.6872,2025-04-21T2000,23,58,0.4,21,6,84,118,54,颗粒物(PM10)
潍坊市,潍坊学院,119.1755,36.7149,2025-04-21T2000,21,61,0.5,25,5,82,118,56,颗粒物(PM10)
潍坊市,寒亭区实验一小,119.2041,36.7699,2025-04-21T2000,19,48,0.8,19,9,91,126,48,
渭南市,农科所,109.5293,34.5101,2025-04-21T2000,,,,,,,,,
渭南市,体育馆,109.4636,34.493,2025-04-21T2000,20,58,0.5,23,4,66,96,54,颗粒物(PM10)
渭南市,高新一小,109.4259,34.5023,2025-04-21T2000,27,65,0.5,29,4,57,92,58,颗粒物(PM10)
渭南市,渭花路4号,109.5051,34.4921,2025-04-21T2000,32,56,0.4,26,5,57,92,53,颗粒物(PM10)
温州市,瓯海,120.634,28.0089,2025-04-21T2000,25,43,0.5,22,7,100,127,43,
温州市,南浦,120.6748,27.9939,2025-04-21T2000,25,44,0.5,16,5,112,147,44,
温州市,龙湾,120.76,27.9747,2025-04-21T2000,24,53,0.6,20,5,105,126,52,颗粒物(PM10)
温州市,市站,120.6709,28.0167,2025-04-21T2000,34,51,0.6,21,3,99,124,51,颗粒物(PM10)
温州市,茶山,120.6985,27.9251,2025-04-21T2000,25,42,0.5,23,5,96,142,42,
文山壮族苗族自治州,州水务局,104.2533,23.3594,2025-04-21T2000,25,33,0.1,9,4,93,96,36,
文山壮族苗族自治州,市便民服务中心,104.2319,23.3892,2025-04-21T2000,24,36,0.2,18,9,82,90,36,
乌海市,市林业局,106.8174,39.6973,2025-04-21T2000,38,98,0.4,6,6,97,103,74,颗粒物(PM10)
乌海市,中海勃湾学校,106.7907,39.6667,2025-04-21T2000,32,100,0.4,4,9,102,104,75,颗粒物(PM10)
乌海市,海北新区,106.813,39.7274,2025-04-21T2000,,,0.7,,11,98,104,,
乌海市,聚英学校,106.8288,39.6778,2025-04-21T2000,56,126,0.3,5,7,96,101,88,颗粒物(PM10)
乌兰察布市,集宁新区,113.1306,40.9923,2025-04-21T2000,16,29,0.1,4,8,100,116,32,
乌兰察布市,光明街小学,113.1076,41.0385,2025-04-21T2000,21,37,0.3,10,8,97,114,37,
乌兰察布市,北京八中,113.1376,40.9509,2025-04-21T2000,9,37,0.5,6,13,97,111,37,
乌兰察布市,市委党校,113.1775,40.9779,2025-04-21T2000,6,32,0.3,4,6,105,113,33,
乌鲁木齐市,监测站,87.5801,43.8303,2025-04-21T2000,,40,0.3,16,4,120,108,,
乌鲁木齐市,收费所,87.6046,43.768,2025-04-21T2000,14,32,0.3,25,3,104,93,33,
乌鲁木齐市,新疆农科院农场,87.4754,43.9469,2025-04-21T2000,8,26,0.6,9,10,105,103,33,
乌鲁木齐市,铁路局,87.5525,43.8711,2025-04-21T2000,9,30,0.2,10,2,127,118,40,
乌鲁木齐市,三十一中学,87.6432,43.831,2025-04-21T2000,9,32,0.5,15,9,113,105,36,
乌鲁木齐市,米东区环保局,87.7216,44.1747,2025-04-21T2000,3,29,0.3,3,8,115,114,36,
乌鲁木齐市,培训基地,87.4651,43.4569,2025-04-21T2000,9,27,0.5,14,4,117,113,37,
乌鲁木齐市,达坂城区环保局,88.3118,43.3658,2025-04-21T2000,12,20,0.2,7,9,103,93,33,
乌鲁木齐市,红光山片区,87.6162,43.8801,2025-04-21T2000,6,19,0.3,12,3,119,108,38,
乌鲁木齐市,新师大温泉校区,87.7024,43.8004,2025-04-21T2000,10,36,0.2,12,3,116,114,37,
乌鲁木齐市,大绿谷,87.4921,43.8411,2025-04-21T2000,7,23,0.2,12,4,120,108,38,
无锡市,雪浪,120.269,31.4867,2025-04-21T2000,31,51,0.8,17,3,98,112,51,颗粒物(PM10)
无锡市,黄巷,120.275,31.6219,2025-04-21T2000,46,63,0.7,39,5,81,95,64,细颗粒物(PM2.5)
无锡市,曹张,120.294,31.56,2025-04-21T2000,51,,0.9,35,2,83,97,70,细颗粒物(PM2.5)
无锡市,漆塘,120.242,31.5031,2025-04-21T2000,29,41,0.7,19,4,87,101,42,
无锡市,东亭,120.3489,31.5863,2025-04-21T2000,46,51,0.9,44,4,71,100,64,细颗粒物(PM2.5)
无锡市,旺庄,120.354,31.5475,2025-04-21T2000,44,51,0.7,43,3,72,102,62,细颗粒物(PM2.5)
无锡市,荣巷,120.245,31.5631,2025-04-21T2000,44,,0.7,22,4,98,106,62,细颗粒物(PM2.5)
无锡市,堰桥,120.299,31.6817,2025-04-21T2000,41,70,0.9,57,,59,106,,
无锡市,华庄,120.3142,31.4753,2025-04-21T2000,,,0.7,31,6,78,108,,
吴忠市,教育园区,106.1532,37.9648,2025-04-21T2000,56,187,0.2,7,3,101,108,119,颗粒物(PM10)
吴忠市,新区二泵站,106.1856,37.9956,2025-04-21T2000,75,170,0.2,9,4,98,105,110,颗粒物(PM10)
吴忠市,文卫南街,106.2112,37.9768,2025-04-21T2000,89,200,0.2,11,4,98,102,125,颗粒物(PM10)
芜湖市,监测站,118.3606,31.3519,2025-04-21T2000,14,24,0.8,48,,21,113,,
芜湖市,科创中心,118.3714,31.4134,2025-04-21T2000,12,18,0.6,37,5,38,82,19,
芜湖市,四水厂,118.3673,31.3131,2025-04-21T2000,16,24,0.6,30,2,44,118,24,
芜湖市,市气象局,118.4209,31.3707,2025-04-21T2000,13,22,0.6,18,7,44,94,22,
芜湖市,清苑社区,118.4781,31.3225,2025-04-21T2000,15,24,0.6,36,6,28,105,24,
芜湖市,扬子职业技术学院,118.2746,31.2326,2025-04-21T2000,12,21,0.7,10,4,55,122,21,
梧州市,市逸夫小学,111.3014,23.4832,2025-04-21T2000,,47,0.2,17,11,83,97,,
梧州市,市十一中,111.3239,23.4794,2025-04-21T2000,30,35,0.1,2,8,92,96,43,
梧州市,龙新,111.2711,23.4835,2025-04-21T2000,30,47,0.3,14,12,61,73,47,
梧州市,政贤路18号,111.2419,23.4154,2025-04-21T2000,22,,0.3,12,8,75,84,,
五家渠市,农水大厦,87.5475,44.1756,2025-04-21T2000,3,27,0.4,10,9,111,107,35,
五家渠市,经开区管委会,87.546,44.1912,2025-04-21T2000,3,30,0.4,5,11,102,98,32,
武汉市,东湖梨园,114.3677,30.5584,2025-04-21T2000,10,32,0.9,21,6,61,64,32,
武汉市,汉阳月湖,114.2529,30.558,2025-04-21T2000,22,38,0.6,19,4,54,83,38,
武汉市,汉口花桥,114.282,30.6189,2025-04-21T2000,24,46,0.8,24,8,59,82,46,
武汉市,武昌紫阳,114.3025,30.5332,2025-04-21T2000,23,49,0.7,25,8,59,80,49,
武汉市,青山钢花,114.3646,30.6217,2025-04-21T2000,41,,0.9,18,8,75,82,58,细颗粒物(PM2.5)
武汉市,沌口新区,114.1566,30.4825,2025-04-21T2000,20,28,0.6,28,7,80,94,29,
武汉市,汉口江滩,114.3014,30.5944,2025-04-21T2000,30,35,0.7,24,6,55,68,43,
武汉市,吴家山,114.135,30.6319,2025-04-21T2000,12,32,0.5,19,8,91,91,32,
武汉市,沉湖七壕,113.8454,30.2917,2025-04-21T2000,14,16,0.4,8,5,86,88,27,
武汉市,民族大道182号,114.3877,30.4908,2025-04-21T2000,10,39,1.0,26,5,73,84,39,
武威市,监测站,102.6201,37.9251,2025-04-21T2000,27,83,0.3,9,6,108,97,67,颗粒物(PM10)
武威市,钟楼街149号,102.6447,37.9293,2025-04-21T2000,24,83,0.2,11,5,108,101,67,颗粒物(PM10)
西安市,兴庆小区,108.993,34.2629,2025-04-21T2000,27,64,0.7,18,6,66,92,57,颗粒物(PM10)
西安市,纺织城,109.06,34.2572,2025-04-21T2000,15,71,0.6,27,5,51,97,61,颗粒物(PM10)
西安市,小寨,108.9356,34.2173,2025-04-21T2000,21,98,0.5,11,6,72,92,74,颗粒物(PM10)
西安市,市人民体育场,108.954,34.2713,2025-04-21T2000,29,66,0.6,18,6,57,96,58,颗粒物(PM10)
西安市,高新西区,108.8922,34.2322,2025-04-21T2000,25,56,0.5,19,4,66,100,53,颗粒物(PM10)
西安市,经开区,108.935,34.3474,2025-04-21T2000,25,66,0.5,15,4,78,104,58,颗粒物(PM10)
西安市,长安区,108.906,34.1546,2025-04-21T2000,23,84,0.4,21,7,58,92,67,颗粒物(PM10)
西安市,临潼区,109.2186,34.3731,2025-04-21T2000,33,61,0.6,9,7,86,94,56,颗粒物(PM10)
西安市,草滩,108.869,34.378,2025-04-21T2000,12,67,0.3,18,2,66,81,59,颗粒物(PM10)
西安市,曲江文化产业集团,108.985,34.1978,2025-04-21T2000,19,65,0.6,15,6,71,102,58,颗粒物(PM10)
西安市,广运潭,109.051,34.3213,2025-04-21T2000,27,69,0.5,21,5,66,93,60,颗粒物(PM10)
西安市,无线电监控中心,109.09,34.5236,2025-04-21T2000,28,88,0.5,15,3,74,83,69,颗粒物(PM10)
西安市,行知小学,108.8869,34.2662,2025-04-21T2000,26,70,0.8,28,4,64,89,60,颗粒物(PM10)
西安市,西苑北路977号,108.5962,34.1188,2025-04-21T2000,28,70,0.4,18,7,48,83,60,颗粒物(PM10)
西宁市,第五水厂,101.524,36.6867,2025-04-21T2000,,,,,,,,,
西宁市,城北区政府,101.7775,36.6428,2025-04-21T2000,47,119,0.3,25,6,69,105,85,颗粒物(PM10)
西宁市,世纪职校,101.8305,36.5786,2025-04-21T2000,45,112,0.4,12,10,75,101,81,颗粒物(PM10)
西宁市,师大城西校区,101.7413,36.6397,2025-04-21T2000,43,169,0.4,19,5,75,102,110,颗粒物(PM10)
西双版纳傣族自治州,景洪市江南,100.8018,21.9995,2025-04-21T2000,32,60,0.6,12,2,77,84,55,颗粒物(PM10)
西双版纳傣族自治州,景洪市江北,100.8017,22.0225,2025-04-21T2000,33,61,0.5,11,6,78,87,56,颗粒物(PM10)
西咸新区,北杜,108.7108,34.46,2025-04-21T2000,20,57,0.4,15,6,50,82,54,颗粒物(PM10)
西咸新区,同德佳苑,108.7096,34.2956,2025-04-21T2000,24,55,0.2,19,4,72,103,53,颗粒物(PM10)
西咸新区,崇文塔,108.8558,34.4978,2025-04-21T2000,,69,0.4,16,5,55,96,,
锡林郭勒盟,市环保监测站,116.1042,43.9317,2025-04-21T2000,6,56,0.2,5,1,83,112,53,颗粒物(PM10)
锡林郭勒盟,市政府,116.0781,43.9311,2025-04-21T2000,7,49,0.2,7,1,81,117,49,
厦门市,溪东,118.1608,24.8169,2025-04-21T2000,,,,,,,,,
厦门市,洪文,118.1514,24.4767,2025-04-21T2000,14,24,0.4,16,2,50,69,24,
厦门市,鼓浪屿,118.0661,24.4444,2025-04-21T2000,,,,,,,54,,
厦门市,湖里中学,118.0936,24.5058,2025-04-21T2000,21,37,0.4,19,1,64,73,37,
厦门市,集美中学,118.0958,24.5688,2025-04-21T2000,19,25,,36,,52,70,,
厦门市,同安二实小,118.1493,24.7245,2025-04-21T2000,16,22,0.0,25,3,50,89,23,
咸宁市,森林公园,114.3175,29.8142,2025-04-21T2000,3,21,0.6,3,5,62,81,21,
咸宁市,长江产业园,114.3375,29.8683,2025-04-21T2000,25,30,0.7,7,1,60,85,36,
