area,positionname,longitude,latitude,timepoint,pm2_5,pm10,co,no2,so2,o3,o3_8h,aqi,primarypollutant
阿坝藏族羌族自治州,州农科所,102.1879,31.914,2025-01-23T0000,14,38,0.9,15,5,49,68,38,
阿坝藏族羌族自治州,马师校,102.2502,31.8896,2025-01-23T0000,21,24,0.5,30,6,32,69,30,
阿坝藏族羌族自治州,马尔康中学西区,102.2165,31.9024,2025-01-23T0000,14,26,0.4,18,5,36,66,26,
阿克苏地区,电视台,80.292,41.1694,2025-01-23T0000,119,146,2.3,86,5,4,50,156,细颗粒物(PM2.5)
阿克苏地区,艺术中心,80.2613,41.1551,2025-01-23T0000,96,140,1.8,67,4,7,46,127,细颗粒物(PM2.5)
阿拉善盟,西城区西花园,105.6467,38.8363,2025-01-23T0000,40,54,1.0,38,13,48,86,57,细颗粒物(PM2.5)
阿拉善盟,蒙二幼,105.6985,38.8411,2025-01-23T0000,16,46,0.7,16,8,66,84,46,
阿拉善盟,环保局新楼,105.724,38.8516,2025-01-23T0000,6,12,0.5,7,8,89,84,28,
阿勒泰地区,市站,88.1264,47.8517,2025-01-23T0000,10,17,0.4,20,10,,63,,
阿里地区,阿里监测站,80.1161,32.5,2025-01-23T0000,3,8,0.6,1,9,90,94,29,
阿里地区,阿里藏医院,80.0903,32.5028,2025-01-23T0000,3,10,0.5,1,6,82,83,26,
安康市,香溪洞,109.0318,32.6537,2025-01-23T0000,106,130,1.3,38,12,38,49,139,细颗粒物(PM2.5)
安康市,汉滨区检察院,109.0072,32.6975,2025-01-23T0000,153,194,1.7,62,8,10,28,203,细颗粒物(PM2.5)
安康市,市邮政管理局,109.0325,32.6913,2025-01-23T0000,145,190,1.8,65,8,4,25,193,细颗粒物(PM2.5)
安庆市,环科院,117.0809,30.5177,2025-01-23T0000,150,171,1.0,27,10,120,93,200,细颗粒物(PM2.5)
安庆市,马山宾馆,117.0331,30.5119,2025-01-23T0000,158,175,1.2,23,12,131,95,208,细颗粒物(PM2.5)
安庆市,安庆大学,116.9896,30.6145,2025-01-23T0000,173,199,1.1,24,11,135,113,223,细颗粒物(PM2.5)
安庆市,市人大,117.0598,30.5351,2025-01-23T0000,154,188,1.1,30,10,124,87,204,细颗粒物(PM2.5)
安顺市,伍家关,105.9606,26.2611,2025-01-23T0000,54,73,0.9,14,14,149,146,74,细颗粒物(PM2.5)
安顺市,凤凰山,105.9408,26.2431,2025-01-23T0000,56,76,0.7,14,20,141,138,77,细颗粒物(PM2.5)
安顺市,金钟山,105.9439,26.2564,2025-01-23T0000,50,74,0.9,13,18,137,135,69,细颗粒物(PM2.5)
安顺市,娄家坡,105.8983,26.2481,2025-01-23T0000,57,71,0.9,16,18,132,131,78,细颗粒物(PM2.5)
安阳市,棉研所,114.4839,36.0621,2025-01-23T0000,39,60,0.6,37,11,32,64,55,"颗粒物(PM10),细颗粒物(PM2.5)"
安阳市,红庙街,114.3551,36.1017,2025-01-23T0000,71,78,0.8,23,14,43,71,95,细颗粒物(PM2.5)
安阳市,银杏小区,114.361,36.0681,2025-01-23T0000,63,72,0.8,30,11,42,71,85,细颗粒物(PM2.5)
安阳市,信访局,114.3922,36.0878,2025-01-23T0000,50,84,0.5,29,8,40,70,69,细颗粒物(PM2.5)
安阳市,左辅环卫站,114.4705,36.0637,2025-01-23T0000,42,75,0.5,26,5,43,75,63,颗粒物(PM10)
安阳市,安钢职工学校,114.2917,36.0949,2025-01-23T0000,56,81,1.0,47,20,31,70,77,细颗粒物(PM2.5)
鞍山市,深沟寺,123.044,41.1196,2025-01-23T0000,63,91,0.7,30,9,26,62,85,细颗粒物(PM2.5)
鞍山市,太阳城,123.011,41.0931,2025-01-23T0000,64,92,0.8,38,8,32,58,87,细颗粒物(PM2.5)
鞍山市,太平,123.0485,41.1442,2025-01-23T0000,72,109,1.2,51,12,16,62,97,细颗粒物(PM2.5)
鞍山市,铁西三道街,122.9642,41.0971,2025-01-23T0000,135,175,1.6,60,11,10,65,179,细颗粒物(PM2.5)
鞍山市,明达新区,123.022,41.0821,2025-01-23T0000,61,89,0.6,38,13,32,57,83,细颗粒物(PM2.5)
鞍山市,千山,123.1289,41.0228,2025-01-23T0000,,,,,,,46,,
鞍山市,兴盛南路290号,122.9446,41.0826,2025-01-23T0000,168,240,2.2,63,18,10,58,218,细颗粒物(PM2.5)
巴彦淖尔市,附二中,107.4212,40.761,2025-01-23T0000,46,84,0.8,59,23,17,58,67,颗粒物(PM10)
巴彦淖尔市,市环保大楼,107.37,40.7372,2025-01-23T0000,43,71,0.6,70,8,11,60,61,颗粒物(PM10)
巴音郭楞蒙古自治州,孔雀公园,86.1472,41.7538,2025-01-23T0000,73,101,1.0,62,5,27,67,98,细颗粒物(PM2.5)
巴音郭楞蒙古自治州,棉纺厂,86.1972,41.7166,2025-01-23T0000,44,97,0.9,92,3,8,63,74,颗粒物(PM10)
巴音郭楞蒙古自治州,经济开发区,86.2357,41.7173,2025-01-23T0000,39,68,0.8,28,3,67,73,59,颗粒物(PM10)
巴中市,苏山坪,106.7677,31.8794,2025-01-23T0000,96,108,0.8,17,5,40,44,127,细颗粒物(PM2.5)
巴中市,丽阳花园,106.7656,31.8545,2025-01-23T0000,176,233,1.8,33,5,4,5,226,细颗粒物(PM2.5)
巴中市,圣泉水务公司,106.7418,31.8654,2025-01-23T0000,142,176,1.3,36,5,4,6,189,细颗粒物(PM2.5)
巴中市,市中心医院,106.7616,31.8344,2025-01-23T0000,184,226,1.8,40,5,4,5,234,细颗粒物(PM2.5)
白城市,洮北区环保局,122.7911,45.6077,2025-01-23T0000,60,62,0.6,23,3,47,62,82,细颗粒物(PM2.5)
白城市,市环保局,122.8738,45.5725,2025-01-23T0000,65,68,0.6,37,3,31,52,88,细颗粒物(PM2.5)
白山市,喜丰,126.4219,41.9171,2025-01-23T0000,43,75,0.8,29,11,37,71,63,颗粒物(PM10)
白山市,环保局,126.4077,41.9419,2025-01-23T0000,29,64,0.7,8,9,50,67,57,颗粒物(PM10)
白银市,第三小学,104.1724,36.5446,2025-01-23T0000,90,144,1.4,53,48,35,74,119,细颗粒物(PM2.5)
白银市,动力公司,104.1465,36.5482,2025-01-23T0000,73,84,1.2,29,12,58,91,98,细颗粒物(PM2.5)
百色市,市监测站,106.6103,23.9011,2025-01-23T0000,48,56,1.1,24,11,75,142,67,细颗粒物(PM2.5)
百色市,市中心血站,106.6538,23.8859,2025-01-23T0000,55,61,0.8,17,12,124,143,75,细颗粒物(PM2.5)
百色市,祈福高中,106.6085,23.8798,2025-01-23T0000,52,95,1.3,46,9,54,145,73,颗粒物(PM10)
蚌埠市,工人疗养院,117.396,32.939,2025-01-23T0000,79,107,0.8,34,5,48,101,105,细颗粒物(PM2.5)
蚌埠市,百货大楼,117.3605,32.9427,2025-01-23T0000,69,96,0.4,22,5,56,98,93,细颗粒物(PM2.5)
蚌埠市,蚌埠学院,117.4185,32.8911,2025-01-23T0000,70,83,0.5,41,10,39,76,94,细颗粒物(PM2.5)
蚌埠市,淮上区政府,117.3533,32.9673,2025-01-23T0000,76,95,0.7,22,8,59,100,102,细颗粒物(PM2.5)
蚌埠市,高新区,117.3145,32.8977,2025-01-23T0000,64,83,0.7,34,9,56,102,87,细颗粒物(PM2.5)
蚌埠市,蚌埠田家炳中学,117.3092,32.9314,2025-01-23T0000,68,97,0.5,26,7,55,104,92,细颗粒物(PM2.5)
包头市,市环境监测站,109.8756,40.6532,2025-01-23T0000,183,259,2.7,79,28,6,50,233,细颗粒物(PM2.5)
包头市,包头八中,109.9991,40.5842,2025-01-23T0000,73,140,1.5,69,18,7,46,98,细颗粒物(PM2.5)
包头市,青山宾馆,109.8538,40.6821,2025-01-23T0000,82,170,2.0,63,17,7,46,110,颗粒物(PM10)
包头市,惠龙物流,109.8642,40.6288,2025-01-23T0000,178,274,3.3,86,36,8,54,228,细颗粒物(PM2.5)
包头市,东河鸿龙湾,110.0377,40.5546,2025-01-23T0000,108,197,2.4,68,16,7,50,142,细颗粒物(PM2.5)
包头市,滨河大厦,109.9154,40.5685,2025-01-23T0000,90,136,1.7,82,18,5,48,119,细颗粒物(PM2.5)
包头市,包头市委党校,109.9447,40.6261,2025-01-23T0000,76,115,1.3,79,10,6,54,102,细颗粒物(PM2.5)
包头市,昆区政府,109.8331,40.6576,2025-01-23T0000,81,204,2.3,76,29,5,46,127,颗粒物(PM10)
宝鸡市,庙沟村,107.185,34.3063,2025-01-23T0000,204,210,1.5,57,14,67,127,254,细颗粒物(PM2.5)
宝鸡市,竹园沟,107.0708,34.3017,2025-01-23T0000,166,188,1.4,34,8,58,121,216,细颗粒物(PM2.5)
宝鸡市,三陆医院,107.1906,34.3672,2025-01-23T0000,211,229,1.6,60,15,63,123,261,细颗粒物(PM2.5)
宝鸡市,监测站,107.1431,34.3547,2025-01-23T0000,199,228,1.8,59,12,30,122,249,细颗粒物(PM2.5)
宝鸡市,技工学校,107.1186,34.3739,2025-01-23T0000,189,212,1.5,48,13,66,117,239,细颗粒物(PM2.5)
宝鸡市,陈仓区环保局家属楼,107.3906,34.3528,2025-01-23T0000,237,258,1.9,80,17,29,116,287,细颗粒物(PM2.5)
宝鸡市,文理学院,107.2058,34.3497,2025-01-23T0000,225,251,1.7,54,15,64,125,275,细颗粒物(PM2.5)
宝鸡市,三迪小学,107.2386,34.3622,2025-01-23T0000,220,233,1.7,48,17,60,116,270,细颗粒物(PM2.5)
保定市,游泳馆,115.493,38.8632,2025-01-23T0000,42,61,0.6,44,8,29,62,59,细颗粒物(PM2.5)
保定市,华电二区,115.5213,38.8959,2025-01-23T0000,58,,0.6,30,5,30,96,79,细颗粒物(PM2.5)
保定市,接待中心,115.4713,38.9108,2025-01-23T0000,38,57,0.4,36,4,32,58,54,"颗粒物(PM10),细颗粒物(PM2.5)"
保定市,地表水厂,115.4612,38.8416,2025-01-23T0000,43,64,0.4,38,4,45,74,60,细颗粒物(PM2.5)
保定市,满城区生态环境分局,115.31981,38.95208,2025-01-23T0000,73,102,0.9,62,6,16,68,98,细颗粒物(PM2.5)
保定市,清苑区第二中学,115.47694,38.76408,2025-01-23T0000,129,171,0.8,42,6,30,61,170,细颗粒物(PM2.5)
保定市,徐水物探局,115.62909,39.02311,2025-01-23T0000,34,37,0.3,32,10,41,64,49,
保定市,双鹰农机,115.4202,38.8656,2025-01-23T0000,41,60,0.6,28,3,45,70,58,细颗粒物(PM2.5)
保定市,植保所站,115.5150,38.8590,2025-01-23T0000,49,69,0.4,41,4,29,57,68,细颗粒物(PM2.5)
保山市,市环境监测站,99.1678,25.1081,2025-01-23T0000,22,28,0.3,6,6,72,86,32,
保山市,市环保局,99.1711,25.1328,2025-01-23T0000,25,33,0.3,4,6,76,87,36,
北海市,牛尾岭水库,109.2262,21.588,2025-01-23T0000,87,,0.7,,5,21,52,115,细颗粒物(PM2.5)
北海市,海滩公园,109.1436,21.4086,2025-01-23T0000,93,109,1.2,19,9,113,153,123,细颗粒物(PM2.5)
北海市,新市环保局,109.0981,21.4661,2025-01-23T0000,97,108,0.9,24,10,102,136,128,细颗粒物(PM2.5)
北海市,北海工业园,109.1778,21.5233,2025-01-23T0000,112,122,0.9,19,11,98,144,147,细颗粒物(PM2.5)
北海市,龙潭自来水厂,109.1911,21.4415,2025-01-23T0000,119,,1.0,14,8,97,140,156,细颗粒物(PM2.5)
北京市,万寿西宫,116.3621,39.8784,2025-01-23T0000,50,72,0.7,58,7,19,54,69,细颗粒物(PM2.5)
北京市,定陵,116.2202,40.2915,2025-01-23T0000,,,,,,,,,
北京市,东四,116.4174,39.9289,2025-01-23T0000,55,86,0.7,40,7,21,48,75,细颗粒物(PM2.5)
北京市,天坛,116.4072,39.8863,2025-01-23T0000,77,95,0.8,52,2,18,55,103,细颗粒物(PM2.5)
北京市,农展馆,116.462,39.9365,2025-01-23T0000,51,79,0.8,40,5,36,57,70,细颗粒物(PM2.5)
北京市,官园,116.3392,39.9295,2025-01-23T0000,53,81,0.8,54,8,18,52,73,细颗粒物(PM2.5)
北京市,海淀万柳,116.2878,39.9611,2025-01-23T0000,50,78,1.3,67,5,5,46,69,细颗粒物(PM2.5)
北京市,顺义新城,116.6636,40.135,2025-01-23T0000,87,138,1.5,65,3,4,60,115,细颗粒物(PM2.5)
北京市,怀柔镇,116.6275,40.3275,2025-01-23T0000,38,56,0.6,23,3,35,58,54,细颗粒物(PM2.5)
北京市,昌平镇,116.2296,40.217,2025-01-23T0000,38,60,1.0,32,2,33,50,55,颗粒物(PM10)
北京市,奥体中心,116.3966,39.9821,2025-01-23T0000,52,83,0.8,48,6,24,51,72,细颗粒物(PM2.5)
北京市,延庆夏都,115.9718,40.4529,2025-01-23T0000,40,66,0.7,27,5,31,56,58,颗粒物(PM10)
北京市,平谷新城,117.0709,40.1465,2025-01-23T0000,62,86,1.5,26,2,18,60,84,细颗粒物(PM2.5)
北京市,密云新城,116.8336,40.4095,2025-01-23T0000,55,87,1.1,27,4,31,68,75,细颗粒物(PM2.5)
北京市,门头沟三家店,116.088,39.9726,2025-01-23T0000,42,67,0.7,30,3,16,48,59,"颗粒物(PM10),细颗粒物(PM2.5)"
北京市,丰台云岗,116.1541,39.8204,2025-01-23T0000,52,86,0.6,51,6,15,56,72,细颗粒物(PM2.5)
北京市,通州东关,116.6804,39.9081,2025-01-23T0000,51,80,0.7,27,4,15,52,70,细颗粒物(PM2.5)
北京市,房山燕山,115.9577,39.7603,2025-01-23T0000,47,62,0.6,27,4,38,60,65,细颗粒物(PM2.5)
北京市,大兴旧宫,116.4672,39.7733,2025-01-23T0000,48,81,0.7,38,3,20,52,67,细颗粒物(PM2.5)
北京市,延庆石河营,115.986,40.4563,2025-01-23T0000,46,66,0.8,32,3,21,56,64,细颗粒物(PM2.5)
北京市,怀柔新城,116.6151,40.3053,2025-01-23T0000,39,54,0.6,20,2,33,54,55,细颗粒物(PM2.5)
北京市,丰台小屯,116.2545,39.8768,2025-01-23T0000,53,89,0.8,81,6,2,45,73,细颗粒物(PM2.5)
北京市,密云镇,116.84,40.3844,2025-01-23T0000,55,84,1.0,40,2,14,64,75,细颗粒物(PM2.5)
北京市,八角,116.1942,39.91583,2025-01-23T0000,46,80,0.9,55,2,8,50,65,颗粒物(PM10)
本溪市,大峪,123.8275,41.3064,2025-01-23T0000,52,84,1.3,44,6,17,59,72,细颗粒物(PM2.5)
本溪市,溪湖,123.7567,41.3325,2025-01-23T0000,60,113,1.0,48,8,7,53,82,"颗粒物(PM10),细颗粒物(PM2.5)"
本溪市,彩屯,123.7169,41.3094,2025-01-23T0000,52,71,1.0,36,6,21,54,72,细颗粒物(PM2.5)
本溪市,东明,123.7669,41.2864,2025-01-23T0000,95,118,1.6,58,9,3,48,125,细颗粒物(PM2.5)
本溪市,新立屯,123.7992,41.2664,2025-01-23T0000,31,55,0.6,45,6,21,50,53,颗粒物(PM10)
本溪市,威宁,123.8142,41.3472,2025-01-23T0000,63,97,1.1,44,3,9,54,85,细颗粒物(PM2.5)
毕节市,八中,105.2864,27.3125,2025-01-23T0000,23,30,1.1,13,7,34,52,33,
毕节市,师专,105.31,27.2944,2025-01-23T0000,23,34,1.1,14,6,34,53,34,
毕节市,长征村,105.3631,27.3533,2025-01-23T0000,30,36,1.1,9,7,41,58,43,
滨州市,第二水厂,118.0018,37.3617,2025-01-23T0000,22,34,0.5,24,7,37,59,34,
滨州市,北中新校,117.9776,37.393,2025-01-23T0000,22,31,0.0,34,4,33,66,32,
滨州市,中海酒店,117.9378,37.3956,2025-01-23T0000,27,36,0.4,25,4,39,65,39,
滨州市,开发区一中,117.9378,37.3553,2025-01-23T0000,17,34,0.3,28,8,45,68,34,
滨州市,金海六路,118.0917,37.694,2025-01-23T0000,14,19,0.5,16,5,56,70,20,
滨州市,滨州市西街道办事处,117.9956,37.3753,2025-01-23T0000,27,36,0,28,4,32,64,39,
亳州市,污水处理厂,115.8072,33.8399,2025-01-23T0000,96,142,1.0,34,9,24,92,127,细颗粒物(PM2.5)
亳州市,三国揽胜宫,115.7789,33.8518,2025-01-23T0000,97,163,1.1,39,8,30,98,128,细颗粒物(PM2.5)
亳州市,亳州学院,115.7633,33.8034,2025-01-23T0000,92,145,1.2,38,10,30,94,122,细颗粒物(PM2.5)
博尔塔拉蒙古自治州,市党校,82.0485,44.8556,2025-01-23T0000,58,81,0.9,34,15,42,89,79,细颗粒物(PM2.5)
博尔塔拉蒙古自治州,市环保局,82.0806,44.8969,2025-01-23T0000,43,74,1.8,53,10,43,80,62,颗粒物(PM10)
沧州市,沧县城建局,116.8842,38.2991,2025-01-23T0000,40,61,0.6,54,3,14,64,57,细颗粒物(PM2.5)
沧州市,电视转播站,116.8584,38.3254,2025-01-23T0000,36,60,0.5,58,3,2,64,55,颗粒物(PM10)
沧州市,市环保局,116.8709,38.3228,2025-01-23T0000,37,56,0.4,44,5,15,62,53,"颗粒物(PM10),细颗粒物(PM2.5)"
沧州市,河北水利电力学院,116.8136,38.3004,2025-01-23T0000,23,44,0.4,32,10,30,62,44,
昌都市,昌都监测站,97.1806,31.1273,2025-01-23T0000,64,120,2.2,56,9,5,74,87,细颗粒物(PM2.5)
昌都市,昌都会议中心,97.1714,31.1406,2025-01-23T0000,10,22,0.5,6,4,54,83,22,
昌吉回族自治州,天山天池,88.1236,43.8886,2025-01-23T0000,12,16,0.6,6,6,100,101,32,
昌吉回族自治州,新区政务中心,87.2717,44.0297,2025-01-23T0000,146,164,1.5,74,1,10,44,195,细颗粒物(PM2.5)
昌吉回族自治州,亚心广场,87.3095,44.0142,2025-01-23T0000,117,134,1.2,49,6,34,51,153,细颗粒物(PM2.5)
长春市,食品厂,125.3325,43.9166,2025-01-23T0000,74,114,1.1,73,8,7,57,99,细颗粒物(PM2.5)
长春市,客车厂,125.2863,43.9027,2025-01-23T0000,111,142,1.1,75,8,13,62,145,细颗粒物(PM2.5)
长春市,邮电学院,125.2841,43.8463,2025-01-23T0000,88,128,1.2,72,10,8,63,117,细颗粒物(PM2.5)
长春市,劳动公园,125.3716,43.8772,2025-01-23T0000,83,122,1.0,67,8,15,67,110,细颗粒物(PM2.5)
长春市,园林处,125.3297,43.8805,2025-01-23T0000,69,98,0.7,61,11,15,60,93,细颗粒物(PM2.5)
长春市,净月潭,125.4605,43.79,2025-01-23T0000,50,66,0.6,18,6,44,52,69,细颗粒物(PM2.5)
长春市,甩湾子,125.7194,43.515,2025-01-23T0000,,,,,,,,,
长春市,经开区环卫处,125.3863,43.8447,2025-01-23T0000,106,210,1.6,66,12,4,51,139,细颗粒物(PM2.5)
长春市,高新区管委会,125.245,43.7783,2025-01-23T0000,234,,2.0,60,8,20,60,284,细颗粒物(PM2.5)
长春市,岱山公园,125.1761,43.8325,2025-01-23T0000,182,,2.1,86,13,12,65,232,细颗粒物(PM2.5)
长沙市,经开区环保局,113.0833,28.2325,2025-01-23T0000,106,159,0.9,45,7,43,109,139,细颗粒物(PM2.5)
长沙市,高开区环保局,112.8872,28.2189,2025-01-23T0000,125,149,1.0,31,7,59,116,165,细颗粒物(PM2.5)
长沙市,马坡岭,113.0792,28.2053,2025-01-23T0000,113,161,0.8,46,7,48,73,148,细颗粒物(PM2.5)
长沙市,湖南师范大学,112.9394,28.19,2025-01-23T0000,107,140,1.1,36,9,56,110,140,细颗粒物(PM2.5)
长沙市,雨花区环保局,113.0178,28.1322,2025-01-23T0000,100,142,1.1,47,10,56,97,132,细颗粒物(PM2.5)
长沙市,伍家岭,112.9792,28.2597,2025-01-23T0000,,155,1.3,36,7,,90,103,颗粒物(PM10)
长沙市,火车新站,113.0014,28.1944,2025-01-23T0000,100,156,1.0,50,7,54,96,132,细颗粒物(PM2.5)
长沙市,天心区环保局,112.9844,28.1178,2025-01-23T0000,96,142,1.1,53,5,51,100,127,细颗粒物(PM2.5)
长沙市,湖南中医药大学,112.8908,28.1308,2025-01-23T0000,108,135,1.1,27,8,67,93,142,细颗粒物(PM2.5)
长沙市,沙坪,112.9581,28.3611,2025-01-23T0000,112,159,1.4,33,8,41,116,147,细颗粒物(PM2.5)
长治市,清华站,113.1147,36.1547,2025-01-23T0000,36,51,1.1,28,18,54,92,52,细颗粒物(PM2.5)
长治市,审计局,113.0886,36.2125,2025-01-23T0000,53,74,1.8,37,26,40,101,73,细颗粒物(PM2.5)
长治市,长治八中,113.0844,36.1856,2025-01-23T0000,61,72,1.1,27,16,51,100,83,细颗粒物(PM2.5)
长治市,德盛苑,113.1569,36.1911,2025-01-23T0000,48,71,1.1,28,12,54,102,67,细颗粒物(PM2.5)
长治市,向阳小学,113.06,36.0464,2025-01-23T0000,81,122,2.3,44,32,46,100,108,细颗粒物(PM2.5)
长治市,屯留一中,112.8792,36.3144,2025-01-23T0000,41,52,1.2,50,20,42,91,58,细颗粒物(PM2.5)
长治市,英华南巷50号,113.1131,36.19948,2025-01-23T0000,46,69,1.1,45,18,40,106,64,细颗粒物(PM2.5)
长治市,学府街1号,113.2367,36.3344,2025-01-23T0000,28,55,1.3,49,22,21,89,53,颗粒物(PM10)
常德市,市二中,111.6975,28.9703,2025-01-23T0000,194,214,1.1,20,13,71,109,244,细颗粒物(PM2.5)
常德市,白鹤山,111.7158,29.1456,2025-01-23T0000,,,,,,,,,
常德市,武陵区永安,111.7153,29.0289,2025-01-23T0000,191,236,0.9,26,15,75,110,241,细颗粒物(PM2.5)
常德市,鼎城区玉霞,111.6892,28.9881,2025-01-23T0000,184,,1.3,25,17,69,111,234,细颗粒物(PM2.5)
常德市,武陵区长庚,111.6625,29.0531,2025-01-23T0000,226,288,1.1,28,7,56,113,276,细颗粒物(PM2.5)
常州市,市监测站,119.9633,31.762,2025-01-23T0000,47,60,0.7,89,8,17,132,65,细颗粒物(PM2.5)
常州市,武进监测站,119.9468,31.7069,2025-01-23T0000,40,60,1.1,83,17,16,136,57,细颗粒物(PM2.5)
常州市,安家,119.9255,31.9087,2025-01-23T0000,47,63,1.1,97,10,3,114,65,细颗粒物(PM2.5)
常州市,行政中心,119.9805,31.8174,2025-01-23T0000,36,42,0.5,42,14,41,86,52,细颗粒物(PM2.5)
常州市,经开区,120.0522,31.7748,2025-01-23T0000,31,66,0.4,54,10,38,126,58,颗粒物(PM10)
常州市,钟楼,119.9025,31.7964,2025-01-23T0000,49,60,0.8,69,8,27,133,68,细颗粒物(PM2.5)
常州市,武进经发区,119.8598,31.7066,2025-01-23T0000,57,82,1.0,94,7,15,137,78,细颗粒物(PM2.5)
常州市,金坛城区,119.5826,31.7245,2025-01-23T0000,66,89,0.8,48,8,56,141,89,细颗粒物(PM2.5)
朝阳市,西梁,120.4318,41.5881,2025-01-23T0000,56,81,1.3,54,19,11,54,77,细颗粒物(PM2.5)
朝阳市,河畔小区,120.4521,41.5646,2025-01-23T0000,97,118,1.5,48,16,10,57,128,细颗粒物(PM2.5)
朝阳市,八里堡,120.4176,41.5648,2025-01-23T0000,75,108,1.7,54,21,15,58,100,细颗粒物(PM2.5)
朝阳市,农业园区,120.3806,41.5969,2025-01-23T0000,47,68,0.9,38,12,20,55,65,细颗粒物(PM2.5)
潮州市,西园路,116.6367,23.6719,2025-01-23T0000,71,,0.7,29,2,20,86,95,细颗粒物(PM2.5)
潮州市,市政府,116.6183,23.6608,2025-01-23T0000,60,,0.8,35,4,30,96,82,细颗粒物(PM2.5)
潮州市,金山,116.6461,23.6761,2025-01-23T0000,65,,0.7,23,7,11,81,88,细颗粒物(PM2.5)
郴州市,马头岭,113.0073,25.9061,2025-01-23T0000,37,70,0.9,28,19,95,126,60,颗粒物(PM10)
郴州市,市职中,113.0116,25.8226,2025-01-23T0000,62,107,1.0,51,10,14,104,84,细颗粒物(PM2.5)
郴州市,兴隆步行街,113.0161,25.8001,2025-01-23T0000,,,,,,,,,
郴州市,市审计局,113.0383,25.8071,2025-01-23T0000,66,95,1.5,59,10,12,100,89,细颗粒物(PM2.5)
郴州市,市环保局,113.0348,25.7759,2025-01-23T0000,68,106,1.0,90,10,4,99,92,细颗粒物(PM2.5)
成都市,金泉两河,103.9728,30.7236,2025-01-23T0000,160,180,1.3,72,2,1,38,210,细颗粒物(PM2.5)
成都市,十里店,104.176,30.6872,2025-01-23T0000,144,187,1.0,68,2,5,36,192,细颗粒物(PM2.5)
成都市,三瓦窑,104.079,30.5706,2025-01-23T0000,146,190,1.0,71,3,2,32,195,细颗粒物(PM2.5)
成都市,沙河铺,104.1114,30.63,2025-01-23T0000,152,168,1.1,45,4,17,35,202,细颗粒物(PM2.5)
成都市,君平街,104.0786,30.6531,2025-01-23T0000,161,,1.0,65,6,15,39,211,细颗粒物(PM2.5)
成都市,灵岩寺,103.613,31.0283,2025-01-23T0000,,,,,,,,,
成都市,大石西路,104.0239,30.65639,2025-01-23T0000,137,170,1.1,59,3,11,39,182,细颗粒物(PM2.5)
成都市,龙泉驿区区政府,104.2725,30.5589,2025-01-23T0000,132,153,1.1,44,3,19,62,175,细颗粒物(PM2.5)
成都市,金博路,104.0106,30.6931,2025-01-23T0000,140,191,1.2,75,2,1,36,186,细颗粒物(PM2.5)
成都市,华阳,104.0578,30.5225,2025-01-23T0000,141,171,1.2,51,1,14,39,188,细颗粒物(PM2.5)
成都市,青白江技师分院,104.3853,30.7453,2025-01-23T0000,154,181,1.0,44,5,7,45,204,细颗粒物(PM2.5)
成都市,科学城,104.0789,30.4072,2025-01-23T0000,143,165,1.2,26,5,16,37,190,细颗粒物(PM2.5)
成都市,光华大道三段,103.8506,30.6947,2025-01-23T0000,129,153,1.1,66,2,2,38,170,细颗粒物(PM2.5)
成都市,鲸龙路1057号,104.2433,30.5353,2025-01-23T0000,139,187,1.2,41,1,20,55,185,细颗粒物(PM2.5)
承德市,铁路,117.9531,40.9081,2025-01-23T0000,26,43,1.0,40,11,10,45,43,
承德市,中国银行,117.9392,40.9763,2025-01-23T0000,52,87,1.0,43,4,3,49,72,细颗粒物(PM2.5)
承德市,开发区,117.9503,40.928,2025-01-23T0000,43,58,1.0,45,6,9,54,60,细颗粒物(PM2.5)
承德市,文化中心,117.8051,40.9655,2025-01-23T0000,45,91,1.0,54,11,4,51,71,颗粒物(PM10)
承德市,离宫,117.9268,41.0026,2025-01-23T0000,54,79,0.6,46,6,8,53,74,细颗粒物(PM2.5)
池州市,池州学院,117.47,30.6618,2025-01-23T0000,158,190,1.1,50,9,68,91,208,细颗粒物(PM2.5)
池州市,展览馆,117.4918,30.6617,2025-01-23T0000,91,125,1.1,80,5,5,63,120,细颗粒物(PM2.5)
池州市,第八中学,117.5627,30.695,2025-01-23T0000,160,200,1.1,51,14,70,92,210,细颗粒物(PM2.5)
池州市,第十二中学,117.5038,30.6243,2025-01-23T0000,115,144,1.1,81,6,9,76,150,细颗粒物(PM2.5)
赤峰市,松山一中,118.9233,42.2816,2025-01-23T0000,109,173,1.5,53,28,13,54,143,细颗粒物(PM2.5)
赤峰市,哈达街,118.9576,42.2728,2025-01-23T0000,168,258,1.4,52,27,14,59,218,细颗粒物(PM2.5)
赤峰市,天义路,118.8788,42.2554,2025-01-23T0000,138,210,1.0,42,18,12,52,183,细颗粒物(PM2.5)
赤峰市,银河街,119.2658,42.0353,2025-01-23T0000,195,240,2.2,53,29,7,51,245,细颗粒物(PM2.5)
赤峰市,桥北物流园区,118.9359,42.3147,2025-01-23T0000,98,105,1.1,46,23,13,49,129,细颗粒物(PM2.5)
崇左市,市环保局江州分局,107.3476,22.4136,2025-01-23T0000,55,85,1.0,19,5,95,151,75,细颗粒物(PM2.5)
崇左市,城南新区,107.3702,22.3707,2025-01-23T0000,74,79,1.0,20,7,97,156,99,细颗粒物(PM2.5)
滁州市,老年大学,118.3093,32.3153,2025-01-23T0000,61,89,0.4,35,4,50,115,83,细颗粒物(PM2.5)
滁州市,人大宾馆,118.3244,32.2786,2025-01-23T0000,47,64,0.6,32,7,52,107,65,细颗粒物(PM2.5)
滁州市,市政府原办公楼,118.3118,32.3038,2025-01-23T0000,53,60,0.1,27,4,55,104,73,细颗粒物(PM2.5)
滁州市,图书馆,118.3267,32.2634,2025-01-23T0000,42,80,0.5,26,5,47,105,65,颗粒物(PM10)
楚雄彝族自治州,州环境监测站,101.5482,25.0441,2025-01-23T0000,49,53,1.0,33,8,27,86,68,细颗粒物(PM2.5)
楚雄彝族自治州,市经济开发区,101.538,25.0492,2025-01-23T0000,61,90,1.3,36,6,37,82,83,细颗粒物(PM2.5)
达州市,达州职业技术学院,107.5277,31.2827,2025-01-23T0000,238,293,2.0,38,7,4,9,288,细颗粒物(PM2.5)
达州市,市环境监测站,107.5086,31.2186,2025-01-23T0000,215,256,2.2,51,8,5,7,265,细颗粒物(PM2.5)
达州市,凤凰小区,107.4988,31.2132,2025-01-23T0000,207,254,2.0,52,10,5,8,257,细颗粒物(PM2.5)
达州市,达县机关宾馆,107.5082,31.1986,2025-01-23T0000,200,251,2.2,54,9,4,7,250,细颗粒物(PM2.5)
达州市,市政中心,107.4644,31.2124,2025-01-23T0000,215,260,2.3,65,8,4,3,265,细颗粒物(PM2.5)
大理白族自治州,大理市环境监测站,100.1542,25.7054,2025-01-23T0000,28,36,0.6,7,8,78,84,40,
大理白族自治州,大理古城,100.2171,25.5811,2025-01-23T0000,36,53,0.9,14,6,66,91,52,"颗粒物(PM10),细颗粒物(PM2.5)"
大连市,甘井子,121.612,38.9741,2025-01-23T0000,24,40,0.5,30,10,36,48,40,
大连市,周水子,121.565,38.9511,2025-01-23T0000,29,38,0.9,39,12,35,63,42,
大连市,星海三站,121.5637,38.8845,2025-01-23T0000,23,38,0.6,12,12,60,62,38,
大连市,青泥洼桥,121.6302,38.9117,2025-01-23T0000,22,35,0.6,20,15,42,54,35,
大连市,傅家庄,121.6251,38.8638,2025-01-23T0000,22,36,0.6,26,14,42,58,36,
大连市,七贤岭,121.5213,38.8661,2025-01-23T0000,13,25,0.6,11,8,69,71,25,
大连市,旅顺,121.2529,38.8061,2025-01-23T0000,50,55,0.9,25,11,46,73,69,细颗粒物(PM2.5)
大连市,金州,121.7485,39.1311,2025-01-23T0000,30,36,0.9,23,17,52,69,43,
大连市,开发区,121.7811,39.0496,2025-01-23T0000,25,38,0.5,24,18,50,63,38,
大连市,双D港,121.9762,39.0631,2025-01-23T0000,28,34,0.9,16,12,65,78,40,
大庆市,大同区,124.81117,46.03138,2025-01-23T0000,72,,0.7,24,7,49,64,97,细颗粒物(PM2.5)
大庆市,龙凤区,125.129,46.533,2025-01-23T0000,82,99,1.0,62,7,17,52,109,细颗粒物(PM2.5)
大庆市,红岗区,124.902,46.408,2025-01-23T0000,48,70,0.7,32,6,43,60,67,细颗粒物(PM2.5)
大庆市,萨尔图区,125.153,46.586,2025-01-23T0000,77,89,0.9,59,6,26,54,103,细颗粒物(PM2.5)
大庆市,让胡路区,124.9042,46.6215,2025-01-23T0000,111,146,0.9,52,7,24,60,145,细颗粒物(PM2.5)
大庆市,萨区政府监测点,125.141,46.634,2025-01-23T0000,56,76,1.2,41,5,38,58,77,细颗粒物(PM2.5)
大同市,果树场,113.3819,40.1097,2025-01-23T0000,,,,,,,,,
大同市,云冈宾馆,113.2994,40.0758,2025-01-23T0000,74,133,1.4,61,13,5,53,99,细颗粒物(PM2.5)
大同市,大同大学,113.3444,40.0917,2025-01-23T0000,48,86,1.0,35,32,30,59,68,颗粒物(PM10)
大同市,安家小村,113.2661,40.1269,2025-01-23T0000,60,115,2.4,60,21,9,54,83,颗粒物(PM10)
大同市,教育学院,113.2711,40.0844,2025-01-23T0000,83,174,2.4,71,18,4,41,112,颗粒物(PM10)
大同市,大同市卫生学校,113.3397,40.0597,2025-01-23T0000,60,120,1.5,57,13,14,54,85,颗粒物(PM10)
大同市,云冈站,113.1367,40.1122,2025-01-23T0000,61,162,1.2,56,27,8,42,106,颗粒物(PM10)
大同市,图书馆,113.1186,40.2556,2025-01-23T0000,59,106,1.2,35,10,12,44,80,细颗粒物(PM2.5)
大同市,区一中,113.5931,40.0461,2025-01-23T0000,53,,0.8,26,17,53,60,73,细颗粒物(PM2.5)
大同市,魏都大道141号,113.2798,40.0997,2025-01-23T0000,70,164,2.2,66,21,8,48,107,颗粒物(PM10)
大兴安岭地区,科技局,124.1069,50.4097,2025-01-23T0000,39,43,0.5,11,8,44,61,55,细颗粒物(PM2.5)
大兴安岭地区,红旗社区,124.1164,50.4278,2025-01-23T0000,60,,0.9,30,12,18,50,82,细颗粒物(PM2.5)
丹东市,江湾东路,124.3303,40.0625,2025-01-23T0000,44,55,1.0,20,10,54,71,62,细颗粒物(PM2.5)
丹东市,临江后街,124.4256,40.1503,2025-01-23T0000,38,53,0.8,21,9,49,72,54,细颗粒物(PM2.5)
丹东市,元宝山,124.3933,40.1461,2025-01-23T0000,26,40,1.0,14,9,50,65,40,
丹东市,民主桥,124.3633,40.1092,2025-01-23T0000,30,51,0.9,17,12,56,66,51,颗粒物(PM10)
儋州市,第一中学子站,109.5726,19.5167,2025-01-23T0000,34,58,0.7,7,5,112,108,54,颗粒物(PM10)
儋州市,东坡学校子站,109.5567,19.5187,2025-01-23T0000,36,45,0.7,5,6,120,112,52,细颗粒物(PM2.5)
德宏傣族景颇族自治州,德宏州监测站,98.5842,24.428,2025-01-23T0000,57,81,1.2,34,6,31,94,78,细颗粒物(PM2.5)
德宏傣族景颇族自治州,芒市人民政府综合楼,98.5881,24.4368,2025-01-23T0000,44,88,0.6,14,6,47,84,69,颗粒物(PM10)
德阳市,东山公园,104.4239,31.1208,2025-01-23T0000,167,182,1.3,43,2,21,46,217,细颗粒物(PM2.5)
德阳市,西小区,104.3826,31.1317,2025-01-23T0000,196,209,1.3,47,4,2,29,246,细颗粒物(PM2.5)
德阳市,耐火材料厂,104.3553,31.1091,2025-01-23T0000,196,203,1.1,42,4,4,28,246,细颗粒物(PM2.5)
德阳市,市教育局,104.4019,31.1244,2025-01-23T0000,169,175,1.3,56,5,3,36,219,细颗粒物(PM2.5)
德州市,儿童乐园,116.3032,37.4674,2025-01-23T0000,39,63,0.7,24,9,31,63,57,颗粒物(PM10)
德州市,监理站,116.2991,37.4451,2025-01-23T0000,39,58,0.8,38,20,31,70,55,细颗粒物(PM2.5)
德州市,九衢泉纯净水厂,116.2721,37.4379,2025-01-23T0000,39,61,0.6,30,18,37,70,56,颗粒物(PM10)
德州市,开发区人民医院,116.3728,37.4403,2025-01-23T0000,41,70,0.1,39,13,28,46,60,颗粒物(PM10)
德州市,太阳城中学,116.3572,37.4094,2025-01-23T0000,41,58,0.6,28,14,40,70,58,细颗粒物(PM2.5)
德州市,陵城艺术中心,116.5652,37.3319,2025-01-23T0000,44,70,0.8,33,15,24,64,62,细颗粒物(PM2.5)
迪庆藏族自治州,迪庆州站,99.7056,27.8317,2025-01-23T0000,29,41,0.7,15,9,49,71,42,
迪庆藏族自治州,质量技术监督局,99.7136,27.8094,2025-01-23T0000,27,,0.7,15,8,51,73,39,
定西市,东关小学,104.6241,35.5734,2025-01-23T0000,77,104,1.5,53,17,12,65,103,细颗粒物(PM2.5)
定西市,供电公司,104.6194,35.5934,2025-01-23T0000,,,,,,,,,
东莞市,莞城梨川,113.7547,23.0494,2025-01-23T0000,32,61,0.6,24,5,79,126,56,颗粒物(PM10)
东莞市,东城石井,113.7944,23.0128,2025-01-23T0000,29,44,0.5,21,5,79,121,44,
东莞市,南城西平,113.7383,22.9658,2025-01-23T0000,24,50,0.6,19,3,83,123,50,
东莞市,万江金泰,113.7338,23.0381,2025-01-23T0000,29,60,0.4,17,1,86,133,55,颗粒物(PM10)
东莞市,南城元岭,113.7533,23.0202,2025-01-23T0000,28,46,0.6,16,5,80,121,46,
东莞市,东城主山,113.7875,23.0457,2025-01-23T0000,25,45,0.7,20,6,76,118,45,
东营市,市环保局,118.6614,37.4309,2025-01-23T0000,,,0.5,20,3,57,72,,
东营市,开发区管委会,118.6904,37.4338,2025-01-23T0000,17,27,0.5,16,2,60,67,27,
东营市,垦利区民丰路,118.5719,37.565,2025-01-23T0000,14,27,0.3,26,9,37,65,27,
东营市,河口城区,118.5055,37.8612,2025-01-23T0000,7,24,0.8,18,3,57,69,24,
东营市,胜利站,118.4978,37.4623,2025-01-23T0000,12,26,0.7,22,6,42,65,26,
东营市,理想之城,118.35,37.26,2025-01-23T0000,12,31,0.4,39,3,,76,,
鄂尔多斯市,综合楼,110.0023,39.8129,2025-01-23T0000,153,224,1.6,73,32,10,72,203,细颗粒物(PM2.5)
鄂尔多斯市,巴音孟克林场办事处,109.9486,39.8261,2025-01-23T0000,117,168,1.3,79,29,12,70,153,细颗粒物(PM2.5)
鄂尔多斯市,康泽苑,109.7736,39.5986,2025-01-23T0000,34,58,0.8,40,9,29,63,54,颗粒物(PM10)
鄂尔多斯市,华泰汽车城,109.8119,39.5989,2025-01-23T0000,46,75,0.6,49,5,9,66,64,细颗粒物(PM2.5)
鄂尔多斯市,奥林花园,109.9734,39.7884,2025-01-23T0000,158,251,1.8,77,23,6,70,208,细颗粒物(PM2.5)
鄂州市,市政府,114.8938,30.3994,2025-01-23T0000,206,226,,48,11,54,102,256,细颗粒物(PM2.5)
鄂州市,赵家坝,114.8989,30.3714,2025-01-23T0000,172,172,1.8,20,10,86,117,222,细颗粒物(PM2.5)
鄂州市,精准医疗中心,114.8094,30.4089,2025-01-23T0000,193,197,1.2,39,11,84,126,243,细颗粒物(PM2.5)
恩施土家族苗族自治州,湖北民院,109.4978,30.2981,2025-01-23T0000,159,,1.7,20,8,3,22,209,细颗粒物(PM2.5)
恩施土家族苗族自治州,州电力总公司,109.4707,30.2798,2025-01-23T0000,128,138,1.6,59,8,7,25,169,细颗粒物(PM2.5)
恩施土家族苗族自治州,龙凤新区,109.5061,30.3772,2025-01-23T0000,122,139,1.7,26,6,6,28,160,细颗粒物(PM2.5)
防城港市,沙万,108.3411,21.6158,2025-01-23T0000,43,51,1.7,20,6,62,103,60,细颗粒物(PM2.5)
防城港市,防城档案局,108.3514,21.7731,2025-01-23T0000,54,70,1.0,36,6,17,96,74,细颗粒物(PM2.5)
防城港市,大海花园,108.3506,21.6414,2025-01-23T0000,44,54,0.9,24,4,,76,,
佛山市,湾梁,113.1294,23.0067,2025-01-23T0000,48,117,0.7,64,6,46,99,84,颗粒物(PM10)
佛山市,华材职中,113.1083,23.0478,2025-01-23T0000,61,105,0.8,57,7,58,117,83,细颗粒物(PM2.5)
佛山市,南海气象局,113.144,23.0453,2025-01-23T0000,56,85,1.0,60,7,39,107,77,细颗粒物(PM2.5)
佛山市,顺德苏岗,113.2881,22.8094,2025-01-23T0000,63,76,0.8,50,7,20,98,85,细颗粒物(PM2.5)
佛山市,高明孔堂,112.8383,22.8678,2025-01-23T0000,47,59,0.6,32,4,66,99,65,细颗粒物(PM2.5)
佛山市,三水监测站,112.8836,23.1588,2025-01-23T0000,71,119,1.0,105,8,6,71,95,细颗粒物(PM2.5)
佛山市,三水云东海,112.867,23.185,2025-01-23T0000,50,86,1.1,121,8,0,106,69,细颗粒物(PM2.5)
佛山市,容桂街道办,113.2544,22.7642,2025-01-23T0000,48,66,0.7,49,6,34,105,67,细颗粒物(PM2.5)
福州市,鼓山,119.3903,26.0543,2025-01-23T0000,,,,,,,133,,
福州市,师大,119.2681,26.0504,2025-01-23T0000,59,93,0.8,58,4,15,113,80,细颗粒物(PM2.5)
福州市,五四北路,119.2984,26.1028,2025-01-23T0000,54,77,0.9,61,3,17,119,74,细颗粒物(PM2.5)
福州市,杨桥西路,119.2648,26.0768,2025-01-23T0000,51,85,0.8,70,1,6,112,70,细颗粒物(PM2.5)
福州市,紫阳,119.317,26.0746,2025-01-23T0000,63,102,0.9,84,4,2,117,85,细颗粒物(PM2.5)
福州市,九龙,119.5799,26.0936,2025-01-23T0000,30,48,0.8,28,2,38,116,48,
福州市,吴航,119.5189,25.9664,2025-01-23T0000,24,37,1.0,39,1,21,123,37,
抚顺市,望花区,123.7977,41.8491,2025-01-23T0000,130,201,1.9,60,7,10,52,172,细颗粒物(PM2.5)
抚顺市,顺城区,123.9161,41.8822,2025-01-23T0000,95,204,1.8,56,7,13,51,127,颗粒物(PM10)
抚顺市,东洲区,124.0436,41.8611,2025-01-23T0000,106,165,1.2,33,10,22,53,139,细颗粒物(PM2.5)
抚顺市,新抚区,123.9247,41.8642,2025-01-23T0000,153,194,1.6,50,4,14,54,203,细颗粒物(PM2.5)
抚顺市,大伙房水库,124.0972,41.8961,2025-01-23T0000,72,98,1.1,32,8,27,56,97,细颗粒物(PM2.5)
抚顺市,沈抚新城,123.7086,41.8391,2025-01-23T0000,130,133,1.8,53,5,12,51,172,细颗粒物(PM2.5)
抚州市,桐源党溪,116.2127,28.0814,2025-01-23T0000,44,63,0.5,7,1,35,92,62,细颗粒物(PM2.5)
抚州市,市站,116.3544,27.9831,2025-01-23T0000,60,92,1.0,52,20,37,90,82,细颗粒物(PM2.5)
抚州市,血防站,116.3565,27.963,2025-01-23T0000,56,94,1.5,58,10,29,100,77,细颗粒物(PM2.5)
抚州市,采茶剧团,116.3564,28.0007,2025-01-23T0000,51,82,2.0,31,9,48,91,70,细颗粒物(PM2.5)
抚州市,医学分院,116.385,27.9647,2025-01-23T0000,51,91,1.1,34,8,39,90,71,颗粒物(PM10)
阜新市,工业园区,121.6094,41.998,2025-01-23T0000,106,194,1.4,42,56,14,68,139,细颗粒物(PM2.5)
阜新市,长青街,121.6697,42.0279,2025-01-23T0000,77,99,1.9,46,24,11,61,103,细颗粒物(PM2.5)
阜新市,农业园区,121.6673,42.0705,2025-01-23T0000,51,81,0.7,17,27,49,60,70,细颗粒物(PM2.5)
阜新市,东苑,121.6717,42.0224,2025-01-23T0000,83,104,3.3,51,21,16,54,110,细颗粒物(PM2.5)
阜新市,玉龙新城,121.6506,42.0498,2025-01-23T0000,66,172,2.1,47,13,11,65,111,颗粒物(PM10)
阜阳市,市监测站,115.8277,32.8929,2025-01-23T0000,265,289,1.6,48,8,44,104,315,细颗粒物(PM2.5)
阜阳市,开发区,115.8554,32.8605,2025-01-23T0000,241,358,1.6,51,11,47,102,291,细颗粒物(PM2.5)
阜阳市,阜阳职业技术学院,115.784,32.8892,2025-01-23T0000,234,286,1.5,42,9,44,112,284,细颗粒物(PM2.5)
阜阳市,市规划展馆,115.7901,32.8613,2025-01-23T0000,247,326,1.7,46,11,52,118,297,细颗粒物(PM2.5)
阜阳市,枣园社区,115.836,32.9183,2025-01-23T0000,250,333,1.6,41,8,47,119,300,细颗粒物(PM2.5)
甘南藏族自治州,州政府,102.9099,34.9841,2025-01-23T0000,48,84,0.8,36,17,28,71,67,"颗粒物(PM10),细颗粒物(PM2.5)"
甘南藏族自治州,甘肃民族师范学院,102.8914,34.9617,2025-01-23T0000,40,74,0.9,40,7,29,78,62,颗粒物(PM10)
甘孜藏族自治州,水桥子,101.9603,30.0475,2025-01-23T0000,32,42,0.8,24,2,30,80,46,
甘孜藏族自治州,州环保局,101.9533,29.9972,2025-01-23T0000,8,31,0.6,10,4,49,83,31,
赣江新区,桑海产业园,115.8347,28.932,2025-01-23T0000,52,80,0.6,92,12,8,100,72,细颗粒物(PM2.5)
赣州市,通天岩,114.9017,25.9149,2025-01-23T0000,3,34,0.5,12,8,65,128,34,
赣州市,地委,114.9367,25.8664,2025-01-23T0000,41,71,1.3,45,1,46,143,61,颗粒物(PM10)
赣州市,气象台,114.9461,25.8481,2025-01-23T0000,40,,1.2,80,10,22,144,,
赣州市,市图书馆,114.9322,25.8333,2025-01-23T0000,42,74,1.2,61,4,40,141,62,颗粒物(PM10)
赣州市,华坚鞋城,114.8905,25.8471,2025-01-23T0000,49,94,0.9,74,8,13,137,72,颗粒物(PM10)
赣州市,赣县区卫计委,115.0093,25.8613,2025-01-23T0000,47,69,1.0,38,4,42,124,65,细颗粒物(PM2.5)
固原市,马园,106.2319,36.1417,2025-01-23T0000,65,96,1.1,50,12,58,91,88,细颗粒物(PM2.5)
固原市,监测站,106.2792,36.0022,2025-01-23T0000,68,82,1.0,46,14,80,112,92,细颗粒物(PM2.5)
固原市,新区,106.2375,36.0211,2025-01-23T0000,69,108,1.2,67,10,45,106,93,细颗粒物(PM2.5)
固原市,原州区十五小,106.2177,35.9959,2025-01-23T0000,58,90,0.9,25,11,94,102,79,细颗粒物(PM2.5)
广安市,小平旧居,106.6308,30.5278,2025-01-23T0000,,,,,,,,,
广安市,市委,106.6303,30.4576,2025-01-23T0000,209,242,1.5,48,6,11,35,259,细颗粒物(PM2.5)
广安市,友谊中学,106.6271,30.4663,2025-01-23T0000,184,218,1.6,53,6,4,29,234,细颗粒物(PM2.5)
广安市,广电花园,106.6388,30.4551,2025-01-23T0000,210,229,1.5,52,4,6,29,260,细颗粒物(PM2.5)
广安市,北辰小学,106.6351,30.4865,2025-01-23T0000,182,211,1.5,44,7,8,28,232,细颗粒物(PM2.5)
广元市,黑石坡,105.8945,32.4535,2025-01-23T0000,86,133,1.6,68,4,0,22,114,细颗粒物(PM2.5)
广元市,老城,105.821,32.4444,2025-01-23T0000,98,156,1.5,50,2,1,7,129,细颗粒物(PM2.5)
广元市,监测站,105.8628,32.4287,2025-01-23T0000,69,96,1.2,48,8,5,13,93,细颗粒物(PM2.5)
广元市,经开区,105.8047,32.4166,2025-01-23T0000,116,148,1.8,52,10,4,7,152,细颗粒物(PM2.5)
广州市,广雅中学,113.2347,23.1423,2025-01-23T0000,87,121,1.1,82,4,31,102,115,细颗粒物(PM2.5)
广州市,市五中,113.2612,23.105,2025-01-23T0000,75,123,1.2,65,4,43,112,100,细颗粒物(PM2.5)
广州市,广东商学院,113.3478,23.0916,2025-01-23T0000,69,102,1.1,74,4,37,108,93,细颗粒物(PM2.5)
广州市,市八十六中,113.4332,23.1047,2025-01-23T0000,65,110,1.0,106,3,8,102,88,细颗粒物(PM2.5)
广州市,番禺中学,113.3505,22.9483,2025-01-23T0000,70,84,0.9,64,3,35,116,94,细颗粒物(PM2.5)
广州市,花都师范,113.2146,23.3916,2025-01-23T0000,64,96,0.9,54,6,41,110,87,细颗粒物(PM2.5)
广州市,市监测站,113.2597,23.1331,2025-01-23T0000,57,97,1.0,71,6,52,120,78,细颗粒物(PM2.5)
广州市,九龙镇镇龙,113.5618,23.312,2025-01-23T0000,46,82,0.8,61,4,9,114,66,颗粒物(PM10)
广州市,麓湖,113.2765,23.1544,2025-01-23T0000,42,68,1.2,99,3,5,108,59,"颗粒物(PM10),细颗粒物(PM2.5)"
广州市,帽峰山森林公园,113.443,23.3035,2025-01-23T0000,24,37,0.5,23,6,91,121,37,
广州市,体育西,113.3221,23.1322,2025-01-23T0000,61,99,0.9,47,5,44,104,83,细颗粒物(PM2.5)
广州市,从化街口,113.5717,23.5491,2025-01-23T0000,65,84,0.9,52,7,20,114,88,细颗粒物(PM2.5)
广州市,白云竹料,113.3472,23.3692,2025-01-23T0000,56,92,1.0,75,6,8,115,77,细颗粒物(PM2.5)
广州市,白云嘉禾,113.2981,23.237,2025-01-23T0000,41,90,1.7,80,8,24,107,70,颗粒物(PM10)
广州市,黄埔科学城,113.4256,23.1716,2025-01-23T0000,46,87,1.0,81,6,13,108,69,颗粒物(PM10)
广州市,番禺大学城,113.3942,23.0483,2025-01-23T0000,66,164,1.5,88,8,15,106,107,颗粒物(PM10)
广州市,南沙黄阁,113.4922,22.8168,2025-01-23T0000,31,41,0.8,26,3,59,99,45,
广州市,南沙街,113.5342,22.7896,2025-01-23T0000,15,20,0.7,17,4,84,103,27,
广州市,花都梯面,113.2902,23.5544,2025-01-23T0000,33,47,0.7,43,4,35,125,48,
广州市,从化良口,113.7858,23.7478,2025-01-23T0000,22,29,0.6,19,5,,112,,
广州市,增城荔城,113.8051,23.2614,2025-01-23T0000,45,72,0.7,37,4,27,125,63,细颗粒物(PM2.5)
贵港市,德智高中,109.568,23.1478,2025-01-23T0000,,,,,,,,,
贵港市,江南子站,109.6047,23.0666,2025-01-23T0000,110,146,1.3,43,8,63,150,144,细颗粒物(PM2.5)
贵港市,贵城子站,109.6014,23.0948,2025-01-23T0000,82,123,1.0,37,13,86,144,109,细颗粒物(PM2.5)
贵港市,荷城子站,109.5669,23.1065,2025-01-23T0000,90,129,1.1,56,14,56,133,119,细颗粒物(PM2.5)
贵港市,新世纪学校,109.5886,23.1172,2025-01-23T0000,85,132,1.1,45,9,81,151,113,细颗粒物(PM2.5)
贵阳市,马鞍山,106.6899,26.5998,2025-01-23T0000,46,78,0.7,23,4,73,128,64,"颗粒物(PM10),细颗粒物(PM2.5)"
贵阳市,鉴湖路,106.6243,26.6266,2025-01-23T0000,58,80,0.7,27,10,106,128,79,细颗粒物(PM2.5)
贵阳市,燕子冲,106.7487,26.6343,2025-01-23T0000,73,95,0.9,26,16,84,140,98,细颗粒物(PM2.5)
贵阳市,碧云窝,106.6555,26.4365,2025-01-23T0000,63,92,0.8,24,27,88,147,85,细颗粒物(PM2.5)
贵阳市,红边门,106.7109,26.6027,2025-01-23T0000,85,102,1.0,37,38,97,130,113,细颗粒物(PM2.5)
贵阳市,新华路,106.7164,26.5699,2025-01-23T0000,75,107,0.9,44,2,88,154,100,细颗粒物(PM2.5)
贵阳市,太慈桥,106.674,26.5424,2025-01-23T0000,61,85,0.8,37,10,67,142,83,细颗粒物(PM2.5)
贵阳市,桐木岭,106.805,26.3003,2025-01-23T0000,54,85,0.9,4,20,130,139,74,细颗粒物(PM2.5)
贵阳市,花果园大街66号,106.6882,26.5695,2025-01-23T0000,73,92,0.4,46,25,98,124,98,细颗粒物(PM2.5)
贵阳市,漓江路57号,106.6873,26.5169,2025-01-23T0000,78,97,0.8,47,34,69,120,104,细颗粒物(PM2.5)
桂林市,电子科大尧山校区,110.4144,25.3167,2025-01-23T0000,51,105,0.8,16,6,91,139,78,颗粒物(PM10)
桂林市,监测站,110.2819,25.2697,2025-01-23T0000,68,82,1.4,30,11,88,120,92,细颗粒物(PM2.5)
桂林市,龙隐路小学,110.3089,25.2708,2025-01-23T0000,74,86,0.8,24,15,100,146,99,细颗粒物(PM2.5)
桂林市,八中,110.2869,25.2178,2025-01-23T0000,70,84,0.9,27,11,88,122,94,细颗粒物(PM2.5)
桂林市,创业大厦,110.1764,25.2381,2025-01-23T0000,80,100,1.0,43,16,76,131,107,细颗粒物(PM2.5)
桂林市,旅游学院,110.296,25.1253,2025-01-23T0000,80,95,1.2,47,12,65,132,107,细颗粒物(PM2.5)
果洛藏族自治州,玛沁县大武镇,100.2561,34.4714,2025-01-23T0000,31,83,0.5,8,14,40,85,67,颗粒物(PM10)
哈尔滨市,岭北,126.5422,45.755,2025-01-23T0000,162,178,1.1,81,16,18,62,212,细颗粒物(PM2.5)
哈尔滨市,松北商大,126.561,45.8167,2025-01-23T0000,132,,1.1,66,2,18,59,175,细颗粒物(PM2.5)
哈尔滨市,阿城会宁,126.979,45.5419,2025-01-23T0000,193,,1.2,40,8,29,75,243,细颗粒物(PM2.5)
哈尔滨市,南岗学府路,126.599,45.7222,2025-01-23T0000,106,137,0.8,54,4,35,59,139,细颗粒物(PM2.5)
哈尔滨市,太平宏伟公园,126.689,45.7733,2025-01-23T0000,148,168,1.2,76,9,3,47,198,细颗粒物(PM2.5)
哈尔滨市,道外承德广场,126.635,45.7667,2025-01-23T0000,117,155,1.0,46,6,35,46,153,细颗粒物(PM2.5)
哈尔滨市,香坊红旗大街,126.685,45.7319,2025-01-23T0000,135,144,1.2,64,9,17,49,179,细颗粒物(PM2.5)
哈尔滨市,动力和平路,126.6411,45.7258,2025-01-23T0000,119,120,1.0,41,2,31,59,156,细颗粒物(PM2.5)
哈尔滨市,道里建国路,126.593,45.7478,2025-01-23T0000,105,121,0.9,38,7,41,53,138,细颗粒物(PM2.5)
哈尔滨市,平房东轻厂,126.615,45.61,2025-01-23T0000,115,131,1.0,90,13,6,55,150,细颗粒物(PM2.5)
哈尔滨市,呼兰师专,126.595,45.9855,2025-01-23T0000,203,230,1.6,76,25,11,56,253,细颗粒物(PM2.5)
哈尔滨市,省农科院,126.6206,45.6842,2025-01-23T0000,150,185,1.6,84,11,7,59,200,细颗粒物(PM2.5)
哈密市,地区监测站,93.5128,42.8172,2025-01-23T0000,42,95,0.6,33,3,50,61,73,颗粒物(PM10)
哈密市,哈密师范学校,93.4961,42.8328,2025-01-23T0000,65,125,0.8,48,8,31,62,88,"颗粒物(PM10),细颗粒物(PM2.5)"
海北藏族自治州,海晏县西海镇,100.9048,36.9639,2025-01-23T0000,22,34,0.5,11,16,54,87,34,
海东市,平安区公安北苑,102.0738,36.5056,2025-01-23T0000,75,81,1.1,,20,56,91,,
海口市,东寨港,110.576,19.9507,2025-01-23T0000,26,32,0.4,5,14,111,125,38,
海口市,海南大学,110.3232,20.0574,2025-01-23T0000,30,64,0.5,12,4,129,146,57,颗粒物(PM10)
海口市,秀英海南医院,110.283,20.0053,2025-01-23T0000,30,65,0.5,12,3,126,144,58,颗粒物(PM10)
海口市,海南师范大学,110.338,19.9969,2025-01-23T0000,29,63,0.5,10,5,129,148,57,颗粒物(PM10)
海口市,龙华路环保局宿舍,110.33,20.0356,2025-01-23T0000,31,56,0.5,11,6,129,148,53,颗粒物(PM10)
海口市,桂林洋子站,110.5111,19.9736,2025-01-23T0000,23,46,0.4,6,4,125,140,46,
海南藏族自治州,共和县恰卜恰镇,100.6188,36.2866,2025-01-23T0000,34,45,0.6,28,19,28,89,49,
海西蒙古族藏族自治州,德令哈市,97.3731,37.3753,2025-01-23T0000,9,30,0.6,7,18,49,76,30,
邯郸市,东污水处理厂,114.5302,36.6116,2025-01-23T0000,46,73,0.5,38,7,26,65,64,细颗粒物(PM2.5)
邯郸市,矿院,114.4918,36.5713,2025-01-23T0000,36,66,0.6,36,4,24,62,58,颗粒物(PM10)
邯郸市,丛台公园,114.484,36.6133,2025-01-23T0000,40,70,0.6,43,5,25,67,60,颗粒物(PM10)
邯郸市,香泉濮院小区,114.7895,36.5593,2025-01-23T0000,53,86,0.6,40,8,29,74,73,细颗粒物(PM2.5)
邯郸市,永年区实验高中,114.50634,36.77178,2025-01-23T0000,61,90,0.9,54,8,16,65,83,细颗粒物(PM2.5)
邯郸市,峰峰矿区临水派出所,114.20016,36.44293,2025-01-23T0000,33,49,0.7,18,9,56,77,49,
汉中市,汉川机床厂子校,106.9893,33.1842,2025-01-23T0000,172,,2.3,38,7,7,30,222,细颗粒物(PM2.5)
汉中市,市监测站,107.0154,33.0706,2025-01-23T0000,181,202,3.1,70,9,13,16,231,细颗粒物(PM2.5)
汉中市,鑫源开发区,107.0089,33.1138,2025-01-23T0000,203,205,2.1,50,7,12,23,253,细颗粒物(PM2.5)
汉中市,南郑大河坎水厂,107.007,33.0323,2025-01-23T0000,224,247,2.3,52,7,13,20,274,细颗粒物(PM2.5)
杭州市,滨江,120.2072,30.2111,2025-01-23T0000,61,99,1.0,76,7,23,101,83,细颗粒物(PM2.5)
杭州市,西溪,120.0633,30.2747,2025-01-23T0000,61,84,0.8,50,6,3,105,83,细颗粒物(PM2.5)
杭州市,下沙,120.3461,30.3153,2025-01-23T0000,39,43,0.7,70,7,4,106,55,细颗粒物(PM2.5)
杭州市,卧龙桥,120.1269,30.2456,2025-01-23T0000,59,65,0.7,44,6,22,101,80,细颗粒物(PM2.5)
杭州市,浙江农大,120.1903,30.2692,2025-01-23T0000,70,105,1.1,86,7,2,97,94,细颗粒物(PM2.5)
杭州市,和睦小学,120.1197,30.3119,2025-01-23T0000,83,112,1.3,101,7,3,105,110,细颗粒物(PM2.5)
杭州市,临平镇,120.3019,30.4183,2025-01-23T0000,41,61,0.8,62,6,15,124,58,细颗粒物(PM2.5)
杭州市,城厢镇,120.2697,30.1819,2025-01-23T0000,81,120,1.4,89,6,6,102,108,细颗粒物(PM2.5)
杭州市,云栖,120.0883,30.1808,2025-01-23T0000,47,67,0.7,39,5,39,104,65,细颗粒物(PM2.5)
杭州市,镇二中,119.9464,30.0494,2025-01-23T0000,89,89,1.2,65,5,7,87,118,细颗粒物(PM2.5)
杭州市,市府大楼,119.7183,30.2367,2025-01-23T0000,113,127,1.1,47,8,34,109,148,细颗粒物(PM2.5)
杭州市,消防大队,120.1556,30.2864,2025-01-23T0000,88,123,1.0,82,10,20,109,117,细颗粒物(PM2.5)
合肥市,明珠广场,117.1959,31.7848,2025-01-23T0000,215,271,1.4,114,13,3,128,265,细颗粒物(PM2.5)
合肥市,三里街,117.3072,31.8764,2025-01-23T0000,222,268,1.3,81,10,25,114,272,细颗粒物(PM2.5)
合肥市,琥珀山庄,117.2588,31.8707,2025-01-23T0000,188,261,1.3,105,9,15,104,238,细颗粒物(PM2.5)
合肥市,董铺水库,117.1604,31.9052,2025-01-23T0000,208,288,1.2,72,14,44,133,258,细颗粒物(PM2.5)
合肥市,长江中路,117.25,31.8571,2025-01-23T0000,223,271,1.5,113,11,8,128,273,细颗粒物(PM2.5)
合肥市,庐阳区,117.266,31.9436,2025-01-23T0000,241,298,1.3,67,8,41,127,291,细颗粒物(PM2.5)
合肥市,瑶海区,117.336,31.8586,2025-01-23T0000,215,259,1.1,89,11,22,108,265,细颗粒物(PM2.5)
合肥市,包河区,117.3027,31.7964,2025-01-23T0000,215,244,1.4,118,11,4,110,265,细颗粒物(PM2.5)
合肥市,滨湖新区,117.2776,31.7385,2025-01-23T0000,195,276,1.5,123,12,12,124,245,细颗粒物(PM2.5)
合肥市,高新区,117.1318,31.8403,2025-01-23T0000,269,310,1.6,88,19,40,134,319,细颗粒物(PM2.5)
合肥市,高教基地,117.3803,31.9147,2025-01-23T0000,185,230,1.0,52,9,44,123,235,细颗粒物(PM2.5)
和田地区,地区环保局,79.924,37.0877,2025-01-23T0000,67,160,0.8,49,15,34,84,105,颗粒物(PM10)
和田地区,市环保局,79.9131,37.113,2025-01-23T0000,57,136,3.4,61,7,31,87,93,颗粒物(PM10)
河池市,东仁乐园,108.2011,24.715,2025-01-23T0000,110,187,1.2,77,8,27,120,144,细颗粒物(PM2.5)
河池市,市环保站,108.0497,24.6947,2025-01-23T0000,94,105,1.2,48,9,32,109,124,细颗粒物(PM2.5)
河池市,市疾控中心,108.0983,24.6989,2025-01-23T0000,93,115,1.1,55,6,37,113,123,细颗粒物(PM2.5)
河源市,源西,114.6778,23.7569,2025-01-23T0000,24,,0.6,28,5,61,107,35,
河源市,东埔,114.6944,23.7586,2025-01-23T0000,26,53,0.6,29,3,70,114,52,颗粒物(PM10)
河源市,老城,114.6892,23.7233,2025-01-23T0000,32,48,0.7,33,4,36,111,48,
菏泽市,气象局,115.4208,35.2464,2025-01-23T0000,67,115,0.6,32,11,41,54,90,细颗粒物(PM2.5)
菏泽市,定陶老年大学,115.5564,35.0891,2025-01-23T0000,56,107,0.6,34,18,39,54,79,颗粒物(PM10)
菏泽市,永昌路1号,115.4797,35.24401,2025-01-23T0000,64,114,0.6,31,12,44,56,87,细颗粒物(PM2.5)
菏泽市,长城路999号,115.4715,35.2800,2025-01-23T0000,57,99,1.0,30,9,36,49,78,细颗粒物(PM2.5)
贺州市,环保小区,111.5264,24.4172,2025-01-23T0000,72,95,1.1,30,8,102,166,97,细颗粒物(PM2.5)
贺州市,政协大楼,111.5608,24.4078,2025-01-23T0000,50,77,0.8,26,8,101,159,69,细颗粒物(PM2.5)
贺州市,西湾,111.4744,24.4553,2025-01-23T0000,73,109,0.8,65,8,45,166,98,细颗粒物(PM2.5)
鹤壁市,市监测站,114.17,35.9019,2025-01-23T0000,42,75,1.1,16,13,48,73,63,颗粒物(PM10)
鹤壁市,市交警支队,114.2956,35.7511,2025-01-23T0000,36,64,0.7,25,8,48,67,57,颗粒物(PM10)
鹤壁市,迎宾馆,114.2878,35.7306,2025-01-23T0000,36,75,0.9,32,5,44,71,63,颗粒物(PM10)
鹤壁市,大新区,114.2617,35.6822,2025-01-23T0000,33,69,0.8,31,11,45,73,60,颗粒物(PM10)
鹤壁市,南山宾馆,114.1572,35.9603,2025-01-23T0000,62,101,1.5,23,10,50,80,84,细颗粒物(PM2.5)
鹤岗市,哈啤分公司,130.2537,47.3416,2025-01-23T0000,29,30,0.7,9,14,40,48,42,
鹤岗市,斯达机电,130.2684,47.3086,2025-01-23T0000,35,43,0.5,9,14,50,54,50,
鹤岗市,东山纸板厂,130.3114,47.3388,2025-01-23T0000,33,283,3.8,54,15,12,37,167,颗粒物(PM10)
鹤岗市,五号水库,130.1097,47.3382,2025-01-23T0000,11,14,0.3,10,7,67,94,21,
黑河市,交通局,127.4833,50.2524,2025-01-23T0000,32,43,0.7,23,6,31,48,46,
黑河市,环保局,127.5144,50.2341,2025-01-23T0000,71,93,1.2,52,10,8,49,95,细颗粒物(PM2.5)
黑河市,大黑河岛,127.5291,50.2472,2025-01-23T0000,53,64,,9,2,5,17,,
衡水市,电机北厂,115.6838,37.7541,2025-01-23T0000,42,63,0.5,40,20,18,59,59,细颗粒物(PM2.5)
衡水市,市监测站,115.6303,37.7316,2025-01-23T0000,25,40,0.4,29,10,44,63,40,
衡水市,市城管局,115.6683,37.7217,2025-01-23T0000,30,45,0.5,30,8,36,59,45,
衡水市,地表水厂,115.5989,37.5491,2025-01-23T0000,23,37,0.4,26,6,36,69,37,
衡阳市,原169医院,112.5003,26.9167,2025-01-23T0000,75,97,0.9,28,12,73,137,100,细颗粒物(PM2.5)
衡阳市,衡阳化工总厂,112.6194,26.9258,2025-01-23T0000,88,115,0.9,23,12,94,126,117,细颗粒物(PM2.5)
衡阳市,珠晖区环保局,112.6211,26.8956,2025-01-23T0000,62,75,1.1,34,9,90,118,84,细颗粒物(PM2.5)
衡阳市,市委党校,112.6197,26.8733,2025-01-23T0000,63,79,1.0,20,11,110,132,85,细颗粒物(PM2.5)
衡阳市,市监测站,112.6006,26.8919,2025-01-23T0000,40,100,1.1,26,13,88,116,75,颗粒物(PM10)
衡阳市,真空机电公司,112.5664,26.9056,2025-01-23T0000,71,100,1.3,34,12,83,109,95,细颗粒物(PM2.5)
衡阳市,师范学院,112.6703,26.882,2025-01-23T0000,72,85,0.8,21,13,112,131,97,细颗粒物(PM2.5)
红河哈尼族彝族自治州,污水处理厂,103.3772,23.3993,2025-01-23T0000,45,54,0.6,11,10,87,128,63,细颗粒物(PM2.5)
红河哈尼族彝族自治州,监测站,103.3861,23.35,2025-01-23T0000,48,49,0.5,7,9,96,144,67,细颗粒物(PM2.5)
红河哈尼族彝族自治州,州图书馆,103.3758,23.368,2025-01-23T0000,40,43,0.5,10,8,86,134,57,细颗粒物(PM2.5)
呼和浩特市,呼市一监,111.6507,40.7517,2025-01-23T0000,168,180,1.3,69,17,9,65,218,细颗粒物(PM2.5)
呼和浩特市,小召,111.6572,40.8033,2025-01-23T0000,145,222,2.5,75,29,7,60,193,细颗粒物(PM2.5)
呼和浩特市,如意水处理厂,111.7516,40.8369,2025-01-23T0000,49,82,0.9,74,13,4,58,68,细颗粒物(PM2.5)
呼和浩特市,二十九中,111.7276,40.8062,2025-01-23T0000,70,109,0.9,76,6,6,51,94,细颗粒物(PM2.5)
呼和浩特市,工大金川校区,111.5512,40.7866,2025-01-23T0000,52,98,0.8,70,14,6,51,74,颗粒物(PM10)
呼和浩特市,化肥厂生活区,111.717,40.7612,2025-01-23T0000,90,126,1.1,71,12,10,58,119,细颗粒物(PM2.5)
呼和浩特市,红旗小学,111.5968,40.8178,2025-01-23T0000,80,97,1.1,64,14,19,53,107,细颗粒物(PM2.5)
呼和浩特市,海东办,111.6518,40.8389,2025-01-23T0000,141,190,1.3,77,15,4,51,188,细颗粒物(PM2.5)
呼伦贝尔市,区环保局,119.7594,49.2261,2025-01-23T0000,49,58,0.5,42,45,21,49,68,细颗粒物(PM2.5)
呼伦贝尔市,国华电力东,119.7512,49.1577,2025-01-23T0000,51,53,0.5,25,4,32,62,70,细颗粒物(PM2.5)
湖州市,城西水厂,120.0751,30.8669,2025-01-23T0000,55,85,0.6,96,11,9,120,75,细颗粒物(PM2.5)
湖州市,仁皇山新区,120.0875,30.8955,2025-01-23T0000,41,59,0.9,60,6,29,116,58,细颗粒物(PM2.5)
湖州市,吴兴区站,120.1844,30.8596,2025-01-23T0000,40,50,0.5,76,6,15,124,57,细颗粒物(PM2.5)
湖州市,南浔区站,120.4148,30.8538,2025-01-23T0000,21,33,0.4,37,7,41,130,33,
葫芦岛市,龙港区,120.9092,40.7136,2025-01-23T0000,41,,0.8,35,13,23,26,58,细颗粒物(PM2.5)
葫芦岛市,化工街,120.8392,40.7514,2025-01-23T0000,95,149,2.0,61,28,8,54,125,细颗粒物(PM2.5)
葫芦岛市,新区,120.8341,40.7073,2025-01-23T0000,80,,2.1,70,14,6,42,107,细颗粒物(PM2.5)
葫芦岛市,东城区,120.8695,40.7677,2025-01-23T0000,77,107,0.9,49,76,10,60,103,细颗粒物(PM2.5)
怀化市,林科所,109.5981,27.5721,2025-01-23T0000,75,95,1.0,16,5,53,46,100,细颗粒物(PM2.5)
怀化市,河西地税局,109.9453,27.5444,2025-01-23T0000,106,146,1.2,52,5,3,17,139,细颗粒物(PM2.5)
怀化市,市四医院,109.9781,27.5342,2025-01-23T0000,142,176,2.2,43,15,32,27,189,细颗粒物(PM2.5)
怀化市,监测楼,109.9972,27.5578,2025-01-23T0000,124,186,1.6,52,10,9,29,163,细颗粒物(PM2.5)
怀化市,市委党校,110.0394,27.583,2025-01-23T0000,131,163,1.7,47,9,14,39,173,细颗粒物(PM2.5)
淮安市,钵池山,119.036,33.5981,2025-01-23T0000,40,,0.5,18,6,65,92,57,细颗粒物(PM2.5)
淮安市,北京南路,119.007,33.575,2025-01-23T0000,35,,0.5,14,7,67,86,50,
淮安市,市监测站,118.989,33.6067,2025-01-23T0000,41,,0.6,25,6,57,96,58,细颗粒物(PM2.5)
淮安市,楚州区监测站,119.135,33.5039,2025-01-23T0000,33,39,0.5,16,6,61,87,48,
淮安市,淮阴区监测站,119.0186,33.6297,2025-01-23T0000,44,48,0.5,31,6,47,87,62,细颗粒物(PM2.5)
淮安市,新华书店,118.8755,33.2894,2025-01-23T0000,38,40,0.5,28,11,52,94,54,细颗粒物(PM2.5)
淮北市,监测站,116.8004,33.975,2025-01-23T0000,51,106,0.5,17,6,58,109,78,颗粒物(PM10)
淮北市,烈山区政府,116.8091,33.9007,2025-01-23T0000,48,54,0.6,22,5,67,130,67,细颗粒物(PM2.5)
淮北市,杜集区检察院,116.8873,33.9836,2025-01-23T0000,44,81,0.8,17,3,61,126,66,颗粒物(PM10)
淮北市,市博物馆,116.7923,33.9535,2025-01-23T0000,48,82,0.9,24,7,63,122,67,细颗粒物(PM2.5)
淮南市,潘集区政府,116.8305,32.7727,2025-01-23T0000,144,171,0.9,36,10,49,99,192,细颗粒物(PM2.5)
淮南市,谢家集区政府,116.8569,32.5951,2025-01-23T0000,139,174,0.9,43,10,50,114,185,细颗粒物(PM2.5)
淮南市,八公山区政府,116.8281,32.633,2025-01-23T0000,146,179,0.8,30,11,58,119,195,细颗粒物(PM2.5)
淮南市,焦岗湖风景区管理处,116.6325,32.6201,2025-01-23T0000,152,213,0.8,39,10,12,62,202,细颗粒物(PM2.5)
淮南市,经济技术开发区消防队,117.0566,32.6531,2025-01-23T0000,126,163,0.8,39,7,39,101,166,细颗粒物(PM2.5)
淮南市,山南新区,117.0108,32.5893,2025-01-23T0000,97,123,0.8,34,10,60,115,128,细颗粒物(PM2.5)
淮南市,国庆中路369号,117.0031,32.6445,2025-01-23T0000,139,184,0.8,44,13,36,98,185,细颗粒物(PM2.5)
黄冈市,职工中心,114.9028,30.4742,2025-01-23T0000,182,216,1.0,38,11,75,127,232,细颗粒物(PM2.5)
黄冈市,红卫路,114.8858,30.4519,2025-01-23T0000,186,226,1.4,38,9,65,123,236,细颗粒物(PM2.5)
黄冈市,市林业局,114.9136,30.4445,2025-01-23T0000,169,194,1.2,27,11,74,127,219,细颗粒物(PM2.5)
黄南藏族自治州,同仁县隆务镇,102.0199,35.5102,2025-01-23T0000,40,63,0.7,5,10,67,82,57,"颗粒物(PM10),细颗粒物(PM2.5)"
黄山市,延安路89号,118.2903,29.6963,2025-01-23T0000,45,75,0.7,28,4,19,95,63,"颗粒物(PM10),细颗粒物(PM2.5)"
黄山市,黄山东路89号,118.327,29.7178,2025-01-23T0000,53,72,0.7,25,4,24,92,73,细颗粒物(PM2.5)
黄山市,黄山区政府5号楼,118.1371,30.2756,2025-01-23T0000,56,73,0.9,20,7,23,90,77,细颗粒物(PM2.5)
黄石市,沈家营,115.0601,30.2313,2025-01-23T0000,101,122,1.2,39,11,69,115,133,细颗粒物(PM2.5)
黄石市,铁山,114.8988,30.2019,2025-01-23T0000,142,195,1.3,91,11,13,115,189,细颗粒物(PM2.5)
黄石市,团城山,115.0307,30.2092,2025-01-23T0000,94,117,1.2,43,17,71,114,124,细颗粒物(PM2.5)
黄石市,笔架山北路,115.0235,30.1578,2025-01-23T0000,123,175,1.5,54,15,61,116,162,细颗粒物(PM2.5)
黄石市,磁湖东路29号,115.0780,30.21118,2025-01-23T0000,103,151,1.6,73,8,31,99,135,细颗粒物(PM2.5)
惠州市,河南岸金山湖子站,114.4183,23.0528,2025-01-23T0000,32,43,0.6,18,6,43,93,46,
惠州市,下埔横江三路子站,114.4053,23.0822,2025-01-23T0000,38,54,0.7,27,5,48,102,54,细颗粒物(PM2.5)
惠州市,江北云山西路子站,114.4103,23.1142,2025-01-23T0000,39,60,1.1,33,6,39,106,55,"颗粒物(PM10),细颗粒物(PM2.5)"
惠州市,惠阳区承修路船湖子站,114.4645,22.7833,2025-01-23T0000,47,76,0.8,30,7,28,96,65,细颗粒物(PM2.5)
惠州市,大亚湾管委会子站,114.5317,22.7422,2025-01-23T0000,33,50,0.7,36,6,46,116,50,
惠州市,惠阳秋长,114.4338,22.8134,2025-01-23T0000,32,48,0.9,35,10,24,108,48,
惠州市,大亚湾霞涌,114.6517,22.775,2025-01-23T0000,23,27,0.2,19,5,42,103,33,
鸡西市,环保局,130.9762,45.3001,2025-01-23T0000,106,177,1.0,22,7,54,48,139,细颗粒物(PM2.5)
鸡西市,第一中学,130.9429,45.3039,2025-01-23T0000,89,108,0.8,16,5,63,52,118,细颗粒物(PM2.5)
鸡西市,欧美日汽修厂,131.0207,45.3073,2025-01-23T0000,179,202,1.4,46,23,35,40,229,细颗粒物(PM2.5)
鸡西市,市政设施管理处,130.9967,45.3106,2025-01-23T0000,141,179,1.1,54,8,32,40,188,细颗粒物(PM2.5)
吉安市,红声器材厂,114.9754,27.0803,2025-01-23T0000,40,65,0.6,20,13,103,142,58,颗粒物(PM10)
吉安市,市森林工业局,114.9658,27.0999,2025-01-23T0000,42,68,0.6,17,14,95,126,59,"颗粒物(PM10),细颗粒物(PM2.5)"
吉安市,市环境监测站,114.99,27.1312,2025-01-23T0000,42,66,0.3,17,13,109,136,59,细颗粒物(PM2.5)
吉安市,青原区法院,115.0093,27.0968,2025-01-23T0000,40,76,0.5,29,13,106,142,63,颗粒物(PM10)
吉林市,哈达湾,126.54,43.8622,2025-01-23T0000,107,128,1.4,57,13,40,78,140,细颗粒物(PM2.5)
吉林市,东局子,126.5844,43.8358,2025-01-23T0000,109,126,1.0,54,6,15,73,143,细颗粒物(PM2.5)
吉林市,电力学院,126.5052,43.8245,2025-01-23T0000,86,94,1.6,47,11,18,74,114,细颗粒物(PM2.5)
吉林市,江北,126.6133,43.8972,2025-01-23T0000,88,104,1.3,36,10,33,70,117,细颗粒物(PM2.5)
吉林市,江南公园,126.555,43.8306,2025-01-23T0000,107,123,0.9,46,6,26,70,140,细颗粒物(PM2.5)
吉林市,丰满,126.7061,43.7133,2025-01-23T0000,,,,,,,,,
吉林市,九站,126.4739,43.953,2025-01-23T0000,100,122,1.7,63,7,10,65,132,细颗粒物(PM2.5)
济南市,科干所,116.9862,36.6114,2025-01-23T0000,59,92,0.9,65,14,12,46,80,细颗粒物(PM2.5)
济南市,农科所,116.9376,36.665,2025-01-23T0000,42,76,0.8,53,18,22,58,63,颗粒物(PM10)
济南市,开发区,117.1265,36.6734,2025-01-23T0000,66,103,0.9,51,14,15,53,89,细颗粒物(PM2.5)
济南市,省种子仓库,117.0624,36.6868,2025-01-23T0000,51,100,1.0,54,15,9,55,75,颗粒物(PM10)
济南市,机床二厂,116.9489,36.6447,2025-01-23T0000,54,90,1.0,58,19,14,58,74,细颗粒物(PM2.5)
济南市,市监测站,117.0495,36.663,2025-01-23T0000,56,95,0.9,53,17,20,55,77,细颗粒物(PM2.5)
济南市,长清党校,116.7675,36.5484,2025-01-23T0000,54,93,1.0,61,18,20,62,74,细颗粒物(PM2.5)
济南市,技术学院,117.6795,36.229,2025-01-23T0000,112,141,1.2,60,11,22,96,147,细颗粒物(PM2.5)
济南市,东山小学,117.532,36.6868,2025-01-23T0000,37,73,0.9,36,11,37,59,62,颗粒物(PM10)
济南市,泰兴公司,117.7161,36.2049,2025-01-23T0000,117,158,1.3,61,12,18,98,153,细颗粒物(PM2.5)
济南市,莱芜战役纪念馆,117.6867,36.2171,2025-01-23T0000,117,158,1.2,53,10,30,98,153,细颗粒物(PM2.5)
济南市,济阳区政府,117.1673,36.9782,2025-01-23T0000,22,,0.5,16,14,37,61,32,
济南市,锦屏中学,117.1171,36.63,2025-01-23T0000,66,100,0.8,54,10,14,56,89,细颗粒物(PM2.5)
济南市,济南四建,116.9814,36.6819,2025-01-23T0000,,,,,,,,,
济宁市,火炬城,116.6251,35.4302,2025-01-23T0000,105,137,1.5,56,18,19,66,138,细颗粒物(PM2.5)
济宁市,电化厂,116.5491,35.4042,2025-01-23T0000,100,182,1.4,80,24,4,70,132,细颗粒物(PM2.5)
济宁市,北湖一中,116.5814,35.3707,2025-01-23T0000,110,145,2.1,85,14,5,71,144,细颗粒物(PM2.5)
济宁市,服务中心,116.8249,35.5593,2025-01-23T0000,121,196,1.7,76,18,6,84,159,细颗粒物(PM2.5)
济宁市,市第七中学,116.5907,35.4054,2025-01-23T0000,102,120,1.6,57,16,23,71,134,细颗粒物(PM2.5)
佳木斯市,佳纺,130.2751,46.8028,2025-01-23T0000,178,180,1.9,66,5,14,35,228,细颗粒物(PM2.5)
佳木斯市,发电厂,130.3995,46.8307,2025-01-23T0000,187,203,1.8,71,12,10,30,237,细颗粒物(PM2.5)
佳木斯市,环保局,130.3258,46.7975,2025-01-23T0000,200,203,2.2,74,11,6,34,250,细颗粒物(PM2.5)
佳木斯市,十一中,130.3648,46.8032,2025-01-23T0000,210,,2.3,90,8,15,23,260,细颗粒物(PM2.5)
佳木斯市,四丰,130.3794,46.7588,2025-01-23T0000,106,156,1.5,18,1,63,66,139,细颗粒物(PM2.5)
嘉兴市,清河小学,120.7436,30.778,2025-01-23T0000,15,31,0.3,42,3,28,120,31,
嘉兴市,嘉兴学院,120.726,30.7478,2025-01-23T0000,15,41,0.7,49,6,11,121,41,
嘉兴市,南湖区残联,120.7846,30.7525,2025-01-23T0000,13,42,0.6,59,7,17,122,42,
嘉兴市,秀洲住建,120.6916,30.7739,2025-01-23T0000,15,28,0.3,33,5,16,123,28,
嘉峪关市,气象局,98.2908,39.7711,2025-01-23T0000,34,73,0.5,22,10,59,80,62,颗粒物(PM10)
嘉峪关市,酒钢宾馆,98.2672,39.7978,2025-01-23T0000,34,95,0.5,21,16,49,59,73,颗粒物(PM10)
嘉峪关市,雄关区,98.2643,39.7724,2025-01-23T0000,28,76,0.4,74,9,11,80,63,颗粒物(PM10)
江门市,北街,113.1064,22.6058,2025-01-23T0000,78,,0.9,35,2,39,102,104,细颗粒物(PM2.5)
江门市,西区,113.0731,22.5835,2025-01-23T0000,59,,0.8,35,5,48,104,80,细颗粒物(PM2.5)
江门市,圭峰西,113.0219,22.5311,2025-01-23T0000,67,,0.7,48,3,31,96,90,细颗粒物(PM2.5)
江门市,东湖,113.0828,22.5947,2025-01-23T0000,38,92,0.6,28,4,34,106,71,颗粒物(PM10)
江门市,江海富民,113.1075,22.5647,2025-01-23T0000,72,89,1.0,38,4,44,104,97,细颗粒物(PM2.5)
江门市,新会银湖,113.05,22.4667,2025-01-23T0000,89,,0.9,34,5,42,90,118,细颗粒物(PM2.5)
焦作市,市环保局,113.227,35.2125,2025-01-23T0000,67,113,0.6,48,11,28,64,90,细颗粒物(PM2.5)
焦作市,影视城,113.1992,35.2590,2025-01-23T0000,63,89,0.9,36,28,43,68,85,细颗粒物(PM2.5)
焦作市,太极体育中心,113.2725,35.2067,2025-01-23T0000,63,96,0.7,62,15,21,62,85,细颗粒物(PM2.5)
焦作市,马村街道办,113.3137,35.2641,2025-01-23T0000,76,108,1.0,56,15,21,53,102,细颗粒物(PM2.5)
焦作市,焦作技师学院,113.2465,35.2373,2025-01-23T0000,66,120,1.1,45,13,27,64,89,细颗粒物(PM2.5)
焦作市,中站许衡医院,113.1656,35.2539,2025-01-23T0000,82,123,1.3,57,38,23,61,109,细颗粒物(PM2.5)
焦作市,原李万街道办,113.2449,35.1803,2025-01-23T0000,53,94,0.7,52,12,22,65,73,细颗粒物(PM2.5)
揭阳市,新兴,116.3701,23.5345,2025-01-23T0000,52,,0.8,22,6,65,103,72,细颗粒物(PM2.5)
揭阳市,西马,116.3264,23.5443,2025-01-23T0000,76,,1.1,39,6,41,98,102,细颗粒物(PM2.5)
揭阳市,东兴,116.3611,23.5626,2025-01-23T0000,55,70,0.9,30,5,51,97,75,细颗粒物(PM2.5)
揭阳市,渔湖,116.4151,23.5294,2025-01-23T0000,33,61,0.7,28,6,58,106,56,颗粒物(PM10)
揭阳市,曲溪,116.403,23.5699,2025-01-23T0000,45,74,1.0,46,4,44,108,63,细颗粒物(PM2.5)
金昌市,天庆家园,102.1692,38.5167,2025-01-23T0000,49,66,1.0,22,19,64,85,68,细颗粒物(PM2.5)
金昌市,金川区人防中心,102.1647,38.5371,2025-01-23T0000,51,67,1.6,22,31,68,86,70,细颗粒物(PM2.5)
金昌市,长春路96号,102.1930,38.5319,2025-01-23T0000,40,52,0.8,32,109,72,91,57,细颗粒物(PM2.5)
金华市,十五中,119.647,29.077,2025-01-23T0000,45,84,0.9,46,3,30,114,67,颗粒物(PM10)
金华市,监测站,119.686,29.1029,2025-01-23T0000,68,108,1.0,78,5,2,97,92,细颗粒物(PM2.5)
金华市,气象局,119.656,29.1131,2025-01-23T0000,64,113,1.4,88,6,1,100,87,细颗粒物(PM2.5)
锦州市,南山,121.1115,41.0879,2025-01-23T0000,121,,1.8,61,18,17,70,159,细颗粒物(PM2.5)
锦州市,开发区,121.0533,40.8434,2025-01-23T0000,52,89,1.9,76,23,6,57,72,细颗粒物(PM2.5)
锦州市,百股街道,121.1836,41.1119,2025-01-23T0000,97,108,1.6,54,19,11,67,128,细颗粒物(PM2.5)
锦州市,天安街道,121.1178,41.1222,2025-01-23T0000,78,124,1.3,60,22,8,60,104,细颗粒物(PM2.5)
锦州市,北湖公园,121.1303,41.1386,2025-01-23T0000,77,83,1.0,54,26,13,60,103,细颗粒物(PM2.5)
晋城市,自来水公司,112.85,35.5051,2025-01-23T0000,127,171,1.6,53,16,31,100,168,细颗粒物(PM2.5)
晋城市,白云商贸,112.8318,35.4936,2025-01-23T0000,151,241,1.7,61,14,26,102,201,细颗粒物(PM2.5)
晋城市,市环保局,112.8508,35.4887,2025-01-23T0000,107,178,1.4,54,16,38,100,140,细颗粒物(PM2.5)
晋城市,技术学院,112.8676,35.4897,2025-01-23T0000,132,185,1.6,72,16,26,113,175,细颗粒物(PM2.5)
晋城市,白马寺,112.8453,35.546,2025-01-23T0000,,,,,,,35,,
晋城市,泽州一中,112.8271,35.4828,2025-01-23T0000,132,176,1.3,50,18,46,103,175,细颗粒物(PM2.5)
晋中市,南都小区,112.7249,37.7067,2025-01-23T0000,59,89,0.7,64,14,28,91,80,细颗粒物(PM2.5)
晋中市,榆次区政府,112.6991,37.6982,2025-01-23T0000,42,73,0.7,56,12,32,85,62,颗粒物(PM10)
晋中市,榆次三中,112.7195,37.6828,2025-01-23T0000,41,97,0.7,49,13,36,86,74,颗粒物(PM10)
晋中市,榆次一中,112.7478,37.6954,2025-01-23T0000,46,95,0.6,53,11,36,93,73,颗粒物(PM10)
荆门市,竹园小学,112.2014,31.0481,2025-01-23T0000,180,243,1.3,34,10,80,104,230,细颗粒物(PM2.5)
荆门市,掇刀,112.1969,30.9891,2025-01-23T0000,177,235,1.1,32,18,90,96,227,细颗粒物(PM2.5)
荆门市,石化一小,112.2213,31.0386,2025-01-23T0000,167,237,1.2,30,13,84,103,217,细颗粒物(PM2.5)
荆门市,西山林语,112.1849,31.0362,2025-01-23T0000,172,224,1.2,28,10,93,113,222,细颗粒物(PM2.5)
荆门市,龙泉中学南校,112.1632,31.0138,2025-01-23T0000,181,237,1.2,26,18,92,112,231,细颗粒物(PM2.5)
荆州市,市图书馆,112.2494,30.3197,2025-01-23T0000,236,,1.5,41,10,66,82,286,细颗粒物(PM2.5)
荆州市,市委党校,112.2008,30.3544,2025-01-23T0000,223,223,1.1,38,14,70,86,273,细颗粒物(PM2.5)
荆州市,管委会,112.2747,30.3122,2025-01-23T0000,258,,1.3,36,12,84,97,308,细颗粒物(PM2.5)
荆州市,学苑路,112.1655,30.3364,2025-01-23T0000,211,235,1.7,50,13,57,86,261,细颗粒物(PM2.5)
景德镇市,王港中学,117.3102,29.3867,2025-01-23T0000,,,,,,,,,
景德镇市,老干部活动中心,117.2117,29.2933,2025-01-23T0000,53,75,0.8,56,4,6,88,73,细颗粒物(PM2.5)
景德镇市,兽医站,117.1894,29.2789,2025-01-23T0000,47,89,0.6,66,3,13,92,70,颗粒物(PM10)
景德镇市,台达陶瓷,117.1547,29.2617,2025-01-23T0000,45,76,0.6,52,3,21,88,63,"颗粒物(PM10),细颗粒物(PM2.5)"
景德镇市,陶研所,117.2461,29.2956,2025-01-23T0000,,74,0.7,51,4,11,94,,
九江市,十里,115.9872,29.6815,2025-01-23T0000,90,123,1.6,83,10,10,92,119,细颗粒物(PM2.5)
九江市,茅山头,115.9584,29.7046,2025-01-23T0000,85,130,1.1,89,1,8,32,113,细颗粒物(PM2.5)
九江市,西园,115.9877,29.7295,2025-01-23T0000,98,122,0.8,88,14,28,78,129,细颗粒物(PM2.5)
九江市,综合工业园,115.9114,29.6038,2025-01-23T0000,105,133,1.1,56,7,33,84,138,细颗粒物(PM2.5)
九江市,石化总厂,116.0721,29.7535,2025-01-23T0000,95,124,1.0,63,14,48,95,125,细颗粒物(PM2.5)
九江市,庐山气象台,115.9773,29.5698,2025-01-23T0000,30,34,0.8,9,24,132,134,43,
九江市,外国语学校,116.0254,29.6994,2025-01-23T0000,94,114,0.7,30,24,74,102,124,细颗粒物(PM2.5)
九江市,莲花大道8号,116.0102,29.6594,2025-01-23T0000,90,,0.8,29,16,87,104,119,细颗粒物(PM2.5)
酒泉市,仓门街子站,98.5061,39.7443,2025-01-23T0000,45,119,0.9,33,14,28,80,85,颗粒物(PM10)
酒泉市,玉门东路5号,98.4958,39.7339,2025-01-23T0000,50,122,1.0,34,12,23,76,86,颗粒物(PM10)
喀什地区,巡警大队,76.0072,39.4467,2025-01-23T0000,128,210,4.3,125,19,12,81,169,细颗粒物(PM2.5)
喀什地区,吾办,75.9755,39.4694,2025-01-23T0000,124,201,3.4,118,7,10,76,163,细颗粒物(PM2.5)
喀什地区,老干局,75.9483,39.4689,2025-01-23T0000,94,246,3.0,116,10,6,75,148,颗粒物(PM10)
开封市,肿瘤医院,114.3389,34.7781,2025-01-23T0000,51,82,0.8,16,3,48,68,70,细颗粒物(PM2.5)
开封市,世纪星幼儿园,114.2885,34.7965,2025-01-23T0000,56,71,0.5,24,7,44,64,77,细颗粒物(PM2.5)
开封市,龙亭公园,114.3438,34.8106,2025-01-23T0000,51,68,0.3,25,5,44,66,70,细颗粒物(PM2.5)
开封市,汴京公园,114.3644,34.7964,2025-01-23T0000,57,73,0.8,23,7,45,66,78,细颗粒物(PM2.5)
开封市,技师学院,114.2485,34.8306,2025-01-23T0000,47,81,1.0,26,5,44,63,66,颗粒物(PM10)
开封市,祥符区生态环境局,114.4644,34.7556,2025-01-23T0000,67,99,0.6,29,5,28,62,90,细颗粒物(PM2.5)
克拉玛依市,长征新村,84.895,45.6094,2025-01-23T0000,76,96,1.0,37,8,64,66,102,细颗粒物(PM2.5)
克拉玛依市,南林小区,84.8988,45.5893,2025-01-23T0000,69,94,1.1,16,4,72,75,93,细颗粒物(PM2.5)
克拉玛依市,独山子区,84.905,44.3396,2025-01-23T0000,53,,0.6,38,5,81,106,73,细颗粒物(PM2.5)
克拉玛依市,乌尔禾区商贸楼,85.6979,46.098,2025-01-23T0000,133,134,1.4,27,5,82,96,176,细颗粒物(PM2.5)
克拉玛依市,白碱滩区新站,85.1045,45.6899,2025-01-23T0000,80,104,1.2,22,7,59,80,107,细颗粒物(PM2.5)
克孜勒苏柯尔克孜自治州,市人民政府,76.1454,39.7142,2025-01-23T0000,54,116,1.2,26,5,58,94,83,颗粒物(PM10)
克孜勒苏柯尔克孜自治州,克州文化中心,76.1658,39.7157,2025-01-23T0000,63,69,0.9,45,10,53,93,85,细颗粒物(PM2.5)
昆明市,呈贡新区,102.8204,24.8886,2025-01-23T0000,24,29,0.6,28,7,54,91,35,
昆明市,西山森林公园,102.6251,24.9608,2025-01-23T0000,,,,,,,,,
昆明市,龙泉镇,102.7252,25.0902,2025-01-23T0000,46,74,1.2,60,6,10,90,64,细颗粒物(PM2.5)
昆明市,东风东路,102.7266,25.0375,2025-01-23T0000,29,40,0.5,19,6,61,88,42,
昆明市,金鼎山,102.6742,25.0669,2025-01-23T0000,41,48,0.6,33,9,45,84,58,细颗粒物(PM2.5)
昆明市,碧鸡广场,102.6644,25.0401,2025-01-23T0000,37,55,0.5,59,7,18,87,53,"颗粒物(PM10),细颗粒物(PM2.5)"
昆明市,官渡区博物馆,102.7494,25.0119,2025-01-23T0000,23,36,0.5,18,6,57,93,36,
昆明市,青年创业园,102.8017,24.8336,2025-01-23T0000,22,30,0.6,41,6,32,96,32,
昆明市,昆明学院,102.7997,24.9786,2025-01-23T0000,27,41,0.4,18,9,64,93,41,
昆明市,晋宁区生态环境分局,102.5967,24.6736,2025-01-23T0000,29,50,0.7,15,3,67,92,50,
昆明市,云天化总部,102.6678,24.9856,2025-01-23T0000,31,43,0.5,10,6,68,99,45,
拉萨市,八廓街,91.1319,29.6514,2025-01-23T0000,24,39,1.2,59,8,35,111,39,
拉萨市,市环保局,91.1221,29.6747,2025-01-23T0000,42,56,2.1,47,9,27,95,59,细颗粒物(PM2.5)
拉萨市,区监测站,91.0874,29.6475,2025-01-23T0000,12,14,0.6,23,7,73,98,23,
拉萨市,西藏大学,91.1774,29.6541,2025-01-23T0000,24,48,1.2,44,8,53,98,48,
拉萨市,区辐射站,90.9798,29.6588,2025-01-23T0000,29,44,1.4,45,10,45,94,44,
拉萨市,拉萨火车站,91.0834,29.6292,2025-01-23T0000,6,8,0.5,4,4,102,106,32,
来宾市,来宾技工学校,109.2203,23.7256,2025-01-23T0000,100,136,1.4,61,12,34,137,132,细颗粒物(PM2.5)
来宾市,兴宾区政府,109.1781,23.7297,2025-01-23T0000,72,94,1.1,31,8,71,149,97,细颗粒物(PM2.5)
来宾市,中南小学,109.2416,23.7461,2025-01-23T0000,80,128,1.3,95,14,4,142,107,细颗粒物(PM2.5)
兰州市,榆中兰大校区,104.1373,35.9454,2025-01-23T0000,,,,,,,,,
兰州市,生物制品所,103.8412,36.0726,2025-01-23T0000,,,,,,,,,
兰州市,铁路设计院,103.831,36.0464,2025-01-23T0000,86,127,2.1,107,24,3,39,114,细颗粒物(PM2.5)
兰州市,百合公园,103.7439,36.0842,2025-01-23T0000,72,108,1.9,89,20,7,77,97,细颗粒物(PM2.5)
兰州市,和平,103.9611,35.998,2025-01-23T0000,60,77,1.0,29,14,74,89,82,细颗粒物(PM2.5)
兰州市,庄浪东路808号,103.6293,36.0938,2025-01-23T0000,77,110,1.4,81,13,24,75,103,细颗粒物(PM2.5)
兰州市,安宁西路88号,103.7251,36.1043,2025-01-23T0000,75,106,1.2,74,23,19,92,100,细颗粒物(PM2.5)
兰州新区,新区管委会,103.6633,36.533,2025-01-23T0000,74,90,1.1,26,25,58,96,99,细颗粒物(PM2.5)
兰州新区,舟曲中学,103.6975,36.4789,2025-01-23T0000,74,128,2.5,68,65,42,90,99,细颗粒物(PM2.5)
廊坊市,药材公司,116.6708,39.5111,2025-01-23T0000,49,68,0.4,37,5,31,61,68,细颗粒物(PM2.5)
廊坊市,开发区,116.7214,39.5589,2025-01-23T0000,35,51,0.5,,5,40,60,,
廊坊市,北华航天学院,116.7244,39.5269,2025-01-23T0000,28,48,0.6,20,4,42,62,48,
廊坊市,河北工业大学,116.7022,39.5453,2025-01-23T0000,32,51,0.4,30,8,39,60,51,颗粒物(PM10)
乐山市,花湖湾,103.7723,29.5462,2025-01-23T0000,191,213,1.2,24,6,36,39,241,细颗粒物(PM2.5)
乐山市,牛耳桥,103.7627,29.5844,2025-01-23T0000,204,218,1.2,41,6,4,27,254,细颗粒物(PM2.5)
乐山市,市第三水厂,103.7508,29.6006,2025-01-23T0000,163,219,1.5,50,4,5,34,213,细颗粒物(PM2.5)
乐山市,市监测站,103.7571,29.5664,2025-01-23T0000,140,169,1.2,38,5,10,30,186,细颗粒物(PM2.5)
乐山市,理工大学,103.7311,29.5628,2025-01-23T0000,167,190,1.5,45,10,7,40,217,细颗粒物(PM2.5)
丽江市,西南郊,100.2143,26.8576,2025-01-23T0000,19,36,0.6,4,5,77,84,36,
丽江市,丽江古城,100.2497,26.8802,2025-01-23T0000,29,40,1.0,10,8,68,75,42,
丽江市,市中心,100.2203,26.8906,2025-01-23T0000,18,25,0.6,7,8,70,72,26,
丽水市,监测站大楼,119.914,28.4514,2025-01-23T0000,50,85,1.2,46,5,12,92,69,细颗粒物(PM2.5)
丽水市,莲都小学,119.93,28.4586,2025-01-23T0000,65,108,2.0,64,7,8,102,88,细颗粒物(PM2.5)
丽水市,余庄前,119.879,28.4231,2025-01-23T0000,28,46,0.6,27,3,17,106,46,
连云港市,市环境监测站,119.176,34.5885,2025-01-23T0000,24,31,0.5,11,6,77,108,35,
连云港市,德源药业,119.3581,34.6972,2025-01-23T0000,29,44,0.4,20,5,68,83,44,
连云港市,新城一中,119.178,34.844,2025-01-23T0000,33,57,0.5,25,7,64,87,54,颗粒物(PM10)
连云港市,胡沟管理处,119.3608,34.7519,2025-01-23T0000,24,39,0.7,19,4,55,64,39,
连云港市,矿山设计院,119.1478,34.5911,2025-01-23T0000,36,53,0.6,27,6,46,101,52,"颗粒物(PM10),细颗粒物(PM2.5)"
连云港市,工贸学校,119.2413,34.6539,2025-01-23T0000,33,43,0.7,11,7,80,107,48,
连云港市,连云街道,119.4172,34.7341,2025-01-23T0000,34,54,0.6,29,5,46,89,52,颗粒物(PM10)
凉山彝族自治州,青龙寺,102.3431,27.8099,2025-01-23T0000,16,41,0.7,5,6,58,88,41,
凉山彝族自治州,邛海宾馆,102.2721,27.8415,2025-01-23T0000,34,46,0.6,13,9,55,84,49,
凉山彝族自治州,西昌市政府,102.2625,27.898,2025-01-23T0000,30,40,0.7,8,9,58,80,43,
凉山彝族自治州,凉山州政府,102.2685,27.8851,2025-01-23T0000,33,43,0.7,10,8,51,82,48,
凉山彝族自治州,长安,102.237,27.8914,2025-01-23T0000,33,46,0.7,12,10,61,80,48,
辽阳市,宏伟区,123.2,41.1953,2025-01-23T0000,110,147,1.8,52,37,22,64,144,细颗粒物(PM2.5)
辽阳市,新华园,123.1683,41.2495,2025-01-23T0000,140,193,2.4,67,428,8,57,186,细颗粒物(PM2.5)
辽阳市,滨河路,123.2354,41.2639,2025-01-23T0000,100,122,1.1,49,6,13,64,132,细颗粒物(PM2.5)
辽阳市,铁西工业园,123.149,41.2991,2025-01-23T0000,137,168,1.3,58,4,10,70,182,细颗粒物(PM2.5)
辽源市,环保局,125.1358,42.8845,2025-01-23T0000,95,131,1.8,46,14,8,68,125,细颗粒物(PM2.5)
辽源市,银鹰制药,125.0764,42.9078,2025-01-23T0000,108,148,1.4,44,4,3,46,142,细颗粒物(PM2.5)
聊城市,区政府,115.9848,36.4372,2025-01-23T0000,28,53,0.7,23,18,47,57,52,颗粒物(PM10)
聊城市,聊大东校,116.0072,36.4343,2025-01-23T0000,35,63,0.8,35,15,36,53,57,颗粒物(PM10)
聊城市,监控中心,115.9819,36.4978,2025-01-23T0000,29,69,0.8,28,15,42,57,60,颗粒物(PM10)
聊城市,九州社区,116.0445,36.4361,2025-01-23T0000,35,60,0.6,30,16,40,56,55,颗粒物(PM10)
聊城市,星美广场,116.0567,36.4608,2025-01-23T0000,30,62,0.6,31,17,32,50,56,颗粒物(PM10)
林芝市,林芝监测站,94.3681,29.6376,2025-01-23T0000,7,,0.2,2,6,71,80,,
林芝市,林芝人民医院,94.3616,29.6616,2025-01-23T0000,7,,,,6,68,71,,
临沧市,市环保局,100.0781,23.8982,2025-01-23T0000,44,50,0.7,20,9,45,96,62,细颗粒物(PM2.5)
临沧市,市气象局,100.0894,23.8822,2025-01-23T0000,33,45,0.5,11,8,54,95,48,
临汾市,临钢医院,111.5531,36.0783,2025-01-23T0000,122,192,1.5,44,19,35,73,160,细颗粒物(PM2.5)
临汾市,技工学校,111.5028,36.0714,2025-01-23T0000,136,196,1.7,68,23,18,66,180,细颗粒物(PM2.5)
临汾市,市委,111.5018,36.0855,2025-01-23T0000,153,233,1.1,75,24,16,68,203,细颗粒物(PM2.5)
临汾市,唐尧大酒店,111.505,36.1014,2025-01-23T0000,150,209,1.5,80,26,15,68,200,细颗粒物(PM2.5)
临汾市,启星学校,111.4879,36.0530,2025-01-23T0000,126,179,1.6,58,12,16,66,166,细颗粒物(PM2.5)
临夏回族自治州,环保局,103.2069,35.5993,2025-01-23T0000,54,207,2.8,61,24,16,93,129,颗粒物(PM10)
临夏回族自治州,建设大厦,103.2417,35.6057,2025-01-23T0000,76,227,2.6,50,23,22,98,139,颗粒物(PM10)
临沂市,沂河小区,118.3429,35.0532,2025-01-23T0000,59,66,0.6,19,11,64,88,80,细颗粒物(PM2.5)
临沂市,鲁南制药厂,118.295,35.0583,2025-01-23T0000,52,63,0.5,16,9,67,92,72,细颗粒物(PM2.5)
临沂市,新光毛纺厂,118.2794,34.9976,2025-01-23T0000,53,63,0.7,22,9,62,90,73,细颗粒物(PM2.5)
临沂市,河东保险公司,118.3956,35.0888,2025-01-23T0000,43,68,0.4,23,6,58,91,60,细颗粒物(PM2.5)
临沂市,十里堡居委,118.3564,35.0215,2025-01-23T0000,56,73,0.8,25,10,51,90,77,细颗粒物(PM2.5)
临沂市,南坊新区,118.3604,35.1084,2025-01-23T0000,53,66,0.6,31,6,56,92,73,细颗粒物(PM2.5)
临沂市,皇山花园小区,118.3920,35.0300,2025-01-23T0000,49,70,0.7,36,6,46,91,68,细颗粒物(PM2.5)
柳州市,柳东小学,109.4856,24.3895,2025-01-23T0000,94,167,1.4,51,22,59,129,124,细颗粒物(PM2.5)
柳州市,环保监测站,109.4157,24.3277,2025-01-23T0000,80,132,1.4,69,20,30,130,107,细颗粒物(PM2.5)
柳州市,河西水厂,109.389,24.341,2025-01-23T0000,90,188,1.6,88,15,16,131,119,"颗粒物(PM10),细颗粒物(PM2.5)"
柳州市,市四中,109.4311,24.2921,2025-01-23T0000,86,137,1.6,71,24,36,128,114,细颗粒物(PM2.5)
柳州市,市九中,109.4006,24.3631,2025-01-23T0000,66,118,1.3,56,11,38,133,89,细颗粒物(PM2.5)
柳州市,古亭山,109.4958,24.3134,2025-01-23T0000,57,81,1.1,38,20,74,129,78,细颗粒物(PM2.5)
柳州市,市二中,109.5422,24.3996,2025-01-23T0000,79,113,1.2,60,11,15,107,105,细颗粒物(PM2.5)
六安市,监测大楼,116.5079,31.737,2025-01-23T0000,279,,1.4,36,13,74,137,329,细颗粒物(PM2.5)
六安市,皖西学院,116.4738,31.7643,2025-01-23T0000,272,288,1.4,45,12,69,137,322,细颗粒物(PM2.5)
六安市,朝阳厂,116.4996,31.7905,2025-01-23T0000,265,,1.3,48,10,69,133,315,细颗粒物(PM2.5)
六安市,开发区,116.5567,31.7886,2025-01-23T0000,260,349,1.6,63,12,56,128,310,细颗粒物(PM2.5)
六盘水市,窑上,104.8,26.5892,2025-01-23T0000,51,73,1.0,19,4,60,98,70,细颗粒物(PM2.5)
六盘水市,黄土坡,104.83,26.5917,2025-01-23T0000,61,,1.2,24,11,81,99,83,细颗粒物(PM2.5)
六盘水市,水钢,104.89,26.5939,2025-01-23T0000,72,,0.8,18,6,95,114,97,细颗粒物(PM2.5)
六盘水市,民中,104.8475,26.5894,2025-01-23T0000,63,,1.1,20,9,89,103,85,细颗粒物(PM2.5)
六盘水市,双水,104.9544,26.5506,2025-01-23T0000,51,58,0.8,15,8,95,117,70,细颗粒物(PM2.5)
龙岩市,龙岩师专,117.0189,25.1181,2025-01-23T0000,,,,,,,,,
龙岩市,龙岩市监测站,117.0217,25.1033,2025-01-23T0000,24,34,0.6,15,7,97,113,35,
龙岩市,闽西职业技术学院,117.0258,25.0661,2025-01-23T0000,29,61,0.5,44,1,20,100,56,颗粒物(PM10)
龙岩市,龙岩学院,117.0196,25.0306,2025-01-23T0000,26,36,0.4,21,3,41,106,38,
陇南市,汉王镇固水子,105.0822,33.3261,2025-01-23T0000,,,,,,,,,
陇南市,滨江中学,104.9339,33.3826,2025-01-23T0000,57,78,1.5,44,12,24,52,78,细颗粒物(PM2.5)
陇南市,市总工会,104.955,33.371,2025-01-23T0000,58,79,1.2,44,9,26,66,79,细颗粒物(PM2.5)
娄底市,电视发射台,111.9589,27.8901,2025-01-23T0000,68,71,0.9,18,10,104,134,92,细颗粒物(PM2.5)
娄底市,市监测站,111.9975,27.725,2025-01-23T0000,111,142,1.0,30,16,113,114,145,细颗粒物(PM2.5)
娄底市,市委党校,112.0194,27.7314,2025-01-23T0000,103,140,0.9,28,8,111,108,135,细颗粒物(PM2.5)
娄底市,涟钢,111.9561,27.7569,2025-01-23T0000,113,140,1.1,26,18,112,119,148,细颗粒物(PM2.5)
娄底市,市政府,111.9892,27.7044,2025-01-23T0000,114,151,1.2,52,11,68,106,149,细颗粒物(PM2.5)
泸州市,九狮山,105.4324,28.9634,2025-01-23T0000,,,,,,,,,
泸州市,小市上码头,105.4427,28.9063,2025-01-23T0000,188,223,1.2,55,3,8,55,238,细颗粒物(PM2.5)
泸州市,兰田宪桥,105.4241,28.8573,2025-01-23T0000,153,158,1.3,45,3,8,56,203,细颗粒物(PM2.5)
泸州市,市环监站,105.4379,28.8833,2025-01-23T0000,167,192,1.3,55,6,7,49,217,细颗粒物(PM2.5)
泸州市,纳溪区环保局,105.3617,28.7703,2025-01-23T0000,116,135,1.2,48,5,5,52,152,细颗粒物(PM2.5)
吕梁市,环保局,111.1406,37.5211,2025-01-23T0000,,,,,,,61,,
吕梁市,自来水公司,111.1297,37.5136,2025-01-23T0000,86,186,1.0,64,17,4,55,118,颗粒物(PM10)
吕梁市,马茂庄小学,111.1283,37.51,2025-01-23T0000,110,207,1.2,69,20,3,61,144,细颗粒物(PM2.5)
洛阳市,市委党校,112.3931,34.6516,2025-01-23T0000,71,115,0.9,34,8,50,59,95,细颗粒物(PM2.5)
洛阳市,河南林校,112.494,34.6886,2025-01-23T0000,88,98,0.8,34,8,43,56,117,细颗粒物(PM2.5)
洛阳市,开发区管委会,112.3844,34.623,2025-01-23T0000,92,123,0.8,28,10,62,70,122,细颗粒物(PM2.5)
洛阳市,市委新办公区,112.4267,34.6258,2025-01-23T0000,82,134,0.8,37,9,49,62,109,细颗粒物(PM2.5)
洛阳市,伊滨,112.6005,34.6326,2025-01-23T0000,79,168,0.7,42,8,33,70,109,颗粒物(PM10)
洛阳市,中移产业园,112.4951,34.6332,2025-01-23T0000,88,113,1.1,51,11,44,67,117,细颗粒物(PM2.5)
洛阳市,吉利监测站,112.5736,34.8993,2025-01-23T0000,46,107,0.7,39,10,42,64,79,颗粒物(PM10)
洛阳市,河科大西苑校区,112.3677,34.662,2025-01-23T0000,68,116,1.0,34,11,53,66,92,细颗粒物(PM2.5)
洛阳市,英才小学,112.4388,34.6781,2025-01-23T0000,63,104,0.8,34,13,46,58,85,细颗粒物(PM2.5)
洛阳市,春都路1号院,112.4600,34.6949,2025-01-23T0000,54,101,1.1,46,10,47,50,76,颗粒物(PM10)
漯河市,三五一五工厂,114.051,33.5699,2025-01-23T0000,93,129,0.6,28,8,42,80,123,细颗粒物(PM2.5)
漯河市,漯河大学,114.0055,33.5698,2025-01-23T0000,88,126,0.8,27,10,42,82,117,细颗粒物(PM2.5)
漯河市,市水利局,114.0138,33.5828,2025-01-23T0000,88,127,0.7,24,7,40,78,117,细颗粒物(PM2.5)
漯河市,市广电局,114.0261,33.5698,2025-01-23T0000,86,129,0.7,24,11,41,79,114,细颗粒物(PM2.5)
漯河市,市图书馆,113.9749,33.5664,2025-01-23T0000,91,142,0.8,34,8,41,81,120,细颗粒物(PM2.5)
漯河市,召陵区卫健委,114.0967,33.5906,2025-01-23T0000,92,147,0.7,25,6,35,76,122,细颗粒物(PM2.5)
马鞍山市,湖东路四小,118.5092,31.6837,2025-01-23T0000,119,165,1.4,116,4,11,99,156,细颗粒物(PM2.5)
马鞍山市,开发区,118.5024,31.6449,2025-01-23T0000,132,178,1.1,95,6,12,106,175,细颗粒物(PM2.5)
马鞍山市,濮塘,118.6245,31.7241,2025-01-23T0000,89,105,0.6,31,5,113,140,118,细颗粒物(PM2.5)
马鞍山市,雨山,118.4918,31.6809,2025-01-23T0000,121,175,1.2,74,7,49,101,159,细颗粒物(PM2.5)
马鞍山市,慈湖高新区,118.5274,31.72227,2025-01-23T0000,95,130,1.0,56,8,59,114,125,细颗粒物(PM2.5)
茂名市,电白南海,111.0286,21.4688,2025-01-23T0000,41,68,0.5,19,6,91,116,59,颗粒物(PM10)
茂名市,茂石化七小,110.9294,21.6533,2025-01-23T0000,27,63,0.5,16,8,84,122,57,颗粒物(PM10)
茂名市,健康路,110.9107,21.6687,2025-01-23T0000,34,56,0.8,17,7,95,126,53,颗粒物(PM10)
茂名市,高岭,110.8592,21.6828,2025-01-23T0000,36,80,0.7,19,9,93,121,65,颗粒物(PM10)
茂名市,电白水东,111.01,21.5165,2025-01-23T0000,36,68,0.7,16,8,82,108,59,颗粒物(PM10)
眉山市,黑龙滩水库,104.0308,30.0478,2025-01-23T0000,134,163,0.9,14,3,19,47,178,细颗粒物(PM2.5)
眉山市,气象局,103.8416,30.0874,2025-01-23T0000,188,237,1.5,53,6,5,32,238,细颗粒物(PM2.5)
眉山市,市委党校,103.8578,30.0744,2025-01-23T0000,195,224,1.5,54,7,4,24,245,细颗粒物(PM2.5)
眉山市,区人社局,103.8291,30.0564,2025-01-23T0000,197,,1.5,67,8,6,28,247,细颗粒物(PM2.5)
梅州市,梅江月梅,116.1231,24.3284,2025-01-23T0000,36,43,1.0,24,8,48,116,52,细颗粒物(PM2.5)
梅州市,梅县新城,116.0797,24.2719,2025-01-23T0000,56,71,0.9,53,4,5,106,77,细颗粒物(PM2.5)
梅州市,环境监控中心,116.1248,24.2654,2025-01-23T0000,50,62,0.8,49,8,11,102,69,细颗粒物(PM2.5)
梅州市,梅龙,116.1233,24.2991,2025-01-23T0000,42,56,1.0,43,6,29,114,59,细颗粒物(PM2.5)
绵阳市,富乐山,104.7778,31.4741,2025-01-23T0000,105,132,1.5,42,2,2,14,138,细颗粒物(PM2.5)
绵阳市,高新区自来水公司,104.6697,31.4668,2025-01-23T0000,110,177,1.5,49,8,2,8,144,细颗粒物(PM2.5)
绵阳市,三水厂,104.7287,31.5075,2025-01-23T0000,129,171,1.5,41,3,3,6,170,细颗粒物(PM2.5)
绵阳市,西科大附属小学,104.69,31.5322,2025-01-23T0000,114,147,1.2,37,6,7,16,149,细颗粒物(PM2.5)
绵阳市,安州区旅游局,104.5648,31.5343,2025-01-23T0000,132,159,1.4,35,9,6,13,175,细颗粒物(PM2.5)
绵阳市,绵阳市气象局,104.7651,31.4531,2025-01-23T0000,103,152,1.3,47,3,3,10,135,细颗粒物(PM2.5)
牡丹江市,环保大楼,129.61,44.561,2025-01-23T0000,83,99,0.8,47,9,36,53,110,细颗粒物(PM2.5)
牡丹江市,文化广场,129.6115,44.5782,2025-01-23T0000,84,109,1.1,34,10,48,58,112,细颗粒物(PM2.5)
牡丹江市,第一医院,129.5904,44.5963,2025-01-23T0000,103,103,1.0,50,9,30,68,135,细颗粒物(PM2.5)
牡丹江市,机车工厂,129.6364,44.6075,2025-01-23T0000,104,147,1.4,45,9,18,62,137,细颗粒物(PM2.5)
牡丹江市,第一中学,129.6386,44.5462,2025-01-23T0000,83,93,1.1,36,7,31,57,110,细颗粒物(PM2.5)
内江市,市监测站,105.0703,29.61,2025-01-23T0000,210,,1.3,34,8,7,10,260,细颗粒物(PM2.5)
内江市,东兴区政府,105.0717,29.5947,2025-01-23T0000,189,,1.8,38,6,9,16,239,细颗粒物(PM2.5)
内江市,内江二中,105.0653,29.5817,2025-01-23T0000,188,208,1.8,38,10,7,18,238,细颗粒物(PM2.5)
内江市,内江日报社,105.0406,29.5822,2025-01-23T0000,193,,1.4,36,10,7,16,243,细颗粒物(PM2.5)
那曲市,那曲监测站,92.0657,31.4846,2025-01-23T0000,54,71,2.1,23,15,21,89,74,细颗粒物(PM2.5)
那曲市,那曲会议中心,92.0506,31.4797,2025-01-23T0000,39,70,1.8,33,9,25,92,60,颗粒物(PM10)
南昌市,省外办,115.8931,28.6843,2025-01-23T0000,80,130,1.0,71,7,16,76,107,细颗粒物(PM2.5)
南昌市,省林业公司,115.8886,28.7003,2025-01-23T0000,61,92,0.6,83,9,25,90,83,细颗粒物(PM2.5)
南昌市,林科所,115.8126,28.7442,2025-01-23T0000,36,51,1.8,92,5,35,103,52,细颗粒物(PM2.5)
南昌市,建工学校,115.8518,28.687,2025-01-23T0000,62,91,0.9,68,12,52,97,84,细颗粒物(PM2.5)
南昌市,象湖,115.8921,28.6424,2025-01-23T0000,70,124,1.1,87,8,39,96,94,细颗粒物(PM2.5)
南昌市,武术学校,115.7423,28.7996,2025-01-23T0000,31,,0.5,19,3,30,77,45,
南昌市,机电学校,115.9084,28.6062,2025-01-23T0000,75,130,0.9,65,8,40,96,100,细颗粒物(PM2.5)
南昌市,外国语学校,115.9721,28.7031,2025-01-23T0000,68,96,0.7,59,8,48,109,92,细颗粒物(PM2.5)
南昌市,南京东路235号,115.9316,28.68677,2025-01-23T0000,70,106,0.7,67,6,45,95,94,细颗粒物(PM2.5)
南充市,西山风景区,106.056,30.8064,2025-01-23T0000,136,,1.3,12,2,28,53,180,细颗粒物(PM2.5)
南充市,南充市委,106.0789,30.8023,2025-01-23T0000,124,161,1.0,27,3,4,12,163,细颗粒物(PM2.5)
南充市,南充炼油厂,106.1031,30.8217,2025-01-23T0000,135,156,1.2,39,4,3,14,179,细颗粒物(PM2.5)
南充市,嘉陵区环保局,106.0642,30.7636,2025-01-23T0000,124,153,1.2,42,4,2,14,163,细颗粒物(PM2.5)
南充市,市环境监测站,106.1087,30.8388,2025-01-23T0000,124,160,1.0,29,6,8,17,163,细颗粒物(PM2.5)
南充市,梨树横街98号,106.1083,30.7884,2025-01-23T0000,131,154,1.0,38,8,4,15,173,细颗粒物(PM2.5)
南京市,迈皋桥,118.8086,32.1065,2025-01-23T0000,61,111,0.9,99,7,14,102,83,细颗粒物(PM2.5)
南京市,草场门,118.7538,32.0551,2025-01-23T0000,85,119,0.8,94,9,1,89,113,细颗粒物(PM2.5)
南京市,山西路,118.7794,32.0745,2025-01-23T0000,92,136,0.7,113,4,23,103,122,细颗粒物(PM2.5)
南京市,中华门,118.7752,32.0023,2025-01-23T0000,114,156,1.5,137,12,4,105,149,细颗粒物(PM2.5)
南京市,瑞金路,118.8109,32.0309,2025-01-23T0000,102,149,1.1,108,4,1,97,134,细颗粒物(PM2.5)
南京市,玄武湖,118.7997,32.0754,2025-01-23T0000,93,148,1.1,58,9,0,95,123,细颗粒物(PM2.5)
南京市,浦口,118.6414,32.0931,2025-01-23T0000,71,152,1.0,38,8,32,101,101,颗粒物(PM10)
南京市,奥体中心,118.7356,31.9996,2025-01-23T0000,,,,,,,86,,
南京市,仙林大学城,118.9125,32.1028,2025-01-23T0000,75,107,0.9,94,8,0,100,100,细颗粒物(PM2.5)
南京市,江宁彩虹桥,118.8436,31.9198,2025-01-23T0000,92,135,1.1,120,4,10,118,122,细颗粒物(PM2.5)
南京市,溧水永阳,119.0138,31.6494,2025-01-23T0000,108,,1.2,84,3,12,127,142,细颗粒物(PM2.5)
南京市,高淳老职中,118.879,31.3302,2025-01-23T0000,,,,,,,105,,
南京市,六合雄州,118.8554,32.3578,2025-01-23T0000,20,48,0.5,7,4,43,79,48,
南宁市,二十一中,108.3103,22.7881,2025-01-23T0000,42,44,0.7,20,7,105,140,59,细颗粒物(PM2.5)
南宁市,北湖,108.3141,22.8528,2025-01-23T0000,53,114,1.1,59,7,47,117,82,颗粒物(PM10)
南宁市,市监测站,108.3206,22.8225,2025-01-23T0000,41,56,1.0,23,9,95,139,58,细颗粒物(PM2.5)
南宁市,大自然花园,108.3829,22.8037,2025-01-23T0000,46,55,1.1,16,6,106,128,64,细颗粒物(PM2.5)
南宁市,仙葫,108.4394,22.7904,2025-01-23T0000,46,51,0.7,22,3,82,118,64,细颗粒物(PM2.5)
南宁市,区农职院,108.2397,22.8467,2025-01-23T0000,59,107,0.9,66,7,29,126,80,细颗粒物(PM2.5)
南宁市,英华嘉园,108.3275,22.735,2025-01-23T0000,36,52,0.9,19,8,91,124,52,细颗粒物(PM2.5)
南宁市,红星社区,108.4834,22.7618,2025-01-23T0000,57,73,1.0,60,8,17,124,78,细颗粒物(PM2.5)
南宁市,乐贤路16号,108.2177,22.7774,2025-01-23T0000,43,94,0.9,58,4,49,120,72,颗粒物(PM10)
南平市,茫荡山,118.0966,26.6761,2025-01-23T0000,,,,,,,,,
南平市,南平市监测站,118.1681,26.6369,2025-01-23T0000,48,68,0.9,38,4,20,86,67,细颗粒物(PM2.5)
南平市,南平铝业有限公司,118.1825,26.6489,2025-01-23T0000,43,49,0.7,41,4,19,89,60,细颗粒物(PM2.5)
南平市,南平七中,118.1756,26.6272,2025-01-23T0000,39,46,0.8,32,5,31,85,55,细颗粒物(PM2.5)
南通市,狼山街道,120.9098,31.9663,2025-01-23T0000,31,35,0.5,18,5,53,91,45,
南通市,虹桥,120.86,32.0005,2025-01-23T0000,31,70,0.6,19,4,55,94,60,颗粒物(PM10)
南通市,城中,120.87,32.02,2025-01-23T0000,26,40,0.8,25,7,58,94,40,
南通市,星湖花园,120.94,31.93,2025-01-23T0000,24,30,0.5,16,4,60,91,35,
南通市,紫琅学院,120.81,32.0417,2025-01-23T0000,27,38,0.7,29,2,47,87,39,
南通市,通州监测站,121.067,32.062,2025-01-23T0000,17,27,1.0,21,4,69,102,27,
南通市,环境教育馆,120.9348,31.9883,2025-01-23T0000,,,,,,,90,,
南阳市,瓦房庄,112.5224,33.0122,2025-01-23T0000,130,142,1.0,25,12,63,88,172,细颗粒物(PM2.5)
南阳市,汉画馆,112.5003,32.9735,2025-01-23T0000,92,133,0.8,27,11,68,85,122,细颗粒物(PM2.5)
南阳市,气象站,112.5573,33.027,2025-01-23T0000,90,156,1.0,26,12,63,90,119,细颗粒物(PM2.5)
南阳市,理工学院,112.5481,32.9689,2025-01-23T0000,91,138,0.8,28,12,64,88,120,细颗粒物(PM2.5)
南阳市,卧龙区政府,112.5234,32.9922,2025-01-23T0000,98,150,0.9,29,12,63,85,129,细颗粒物(PM2.5)
宁波市,区环保大楼,121.8358,29.911,2025-01-23T0000,8,29,0.9,62,6,19,93,31,
宁波市,万里学院,121.56,29.82,2025-01-23T0000,10,17,0.5,46,5,,102,,
宁波市,龙赛医院,121.713,29.9572,2025-01-23T0000,20,29,0.5,52,8,29,104,29,
宁波市,钱湖水厂,121.633,29.7733,2025-01-23T0000,7,11,0.7,9,4,72,117,23,
宁波市,太古小学,121.5856,29.8635,2025-01-23T0000,12,20,0.7,30,7,52,99,20,
宁波市,市环境监测中心,121.524,29.8674,2025-01-23T0000,16,25,0.7,42,5,38,101,25,
宁波市,万里国际学校,121.6147,29.9017,2025-01-23T0000,10,33,0.5,21,6,70,112,33,
宁波市,白沙活动中心,121.5594,29.8975,2025-01-23T0000,12,36,0.5,25,5,54,107,36,
宁德市,金涵水库,119.5001,26.6946,2025-01-23T0000,,,,,,,,,
宁德市,宁德市监测站,119.5388,26.6612,2025-01-23T0000,118,154,1.2,31,8,3,74,155,细颗粒物(PM2.5)
宁德市,宁德一中,119.5231,26.6562,2025-01-23T0000,80,118,0.8,30,5,21,79,107,细颗粒物(PM2.5)
怒江傈僳族自治州,州监测站,98.8601,25.8567,2025-01-23T0000,35,62,0.6,26,4,35,80,56,颗粒物(PM10)
怒江傈僳族自治州,泸水一中,98.8546,25.8417,2025-01-23T0000,36,38,0.7,23,8,26,68,52,细颗粒物(PM2.5)
攀枝花市,弄弄坪,101.6891,26.571,2025-01-23T0000,82,84,0.9,37,9,32,98,109,细颗粒物(PM2.5)
攀枝花市,河门口,101.5769,26.5928,2025-01-23T0000,60,84,1.1,34,12,35,98,82,细颗粒物(PM2.5)
攀枝花市,炳草岗,101.7169,26.585,2025-01-23T0000,73,111,1.3,68,12,4,100,98,细颗粒物(PM2.5)
攀枝花市,仁和,101.7369,26.5008,2025-01-23T0000,60,78,0.8,24,7,32,90,82,细颗粒物(PM2.5)
攀枝花市,四十中小,101.7227,26.567,2025-01-23T0000,68,104,1.9,87,17,4,82,92,细颗粒物(PM2.5)
盘锦市,开发区,122.0303,41.1489,2025-01-23T0000,102,125,1.7,57,10,11,67,134,细颗粒物(PM2.5)
盘锦市,兴隆台,122.0485,41.0883,2025-01-23T0000,86,110,0.9,29,13,44,64,114,细颗粒物(PM2.5)
盘锦市,新生街道,121.8297,41.1028,2025-01-23T0000,72,79,1.1,73,14,16,63,97,细颗粒物(PM2.5)
平顶山市,新华旅馆,113.3257,33.742,2025-01-23T0000,63,119,0.5,25,7,50,82,85,"颗粒物(PM10),细颗粒物(PM2.5)"
平顶山市,规划设计院,113.2919,33.737,2025-01-23T0000,60,105,0.5,21,9,58,86,82,细颗粒物(PM2.5)
平顶山市,平顶山工学院,113.182,33.774,2025-01-23T0000,56,117,0.6,22,10,59,91,84,颗粒物(PM10)
平顶山市,规划局,113.3025,33.73,2025-01-23T0000,69,127,0.9,24,6,53,86,93,细颗粒物(PM2.5)
平顶山市,石龙区,112.8867,33.9116,2025-01-23T0000,86,150,1.0,29,12,46,90,114,细颗粒物(PM2.5)
平凉市,聚贤嘉苑,106.6692,35.5461,2025-01-23T0000,70,128,1.4,72,18,32,118,94,细颗粒物(PM2.5)
平凉市,博物馆,106.7021,35.5307,2025-01-23T0000,95,137,1.8,80,25,39,115,125,细颗粒物(PM2.5)
萍乡市,武功山,114.0997,27.5002,2025-01-23T0000,28,37,0.9,14,10,71,120,40,
萍乡市,中医院,113.8385,27.6434,2025-01-23T0000,69,94,1.1,32,13,72,103,93,细颗粒物(PM2.5)
萍乡市,市政府车库,113.8493,27.6253,2025-01-23T0000,91,107,1.7,69,16,24,114,120,细颗粒物(PM2.5)
萍乡市,市环保局,113.8676,27.6435,2025-01-23T0000,71,98,0.9,27,17,86,105,95,细颗粒物(PM2.5)
萍乡市,安源区政府,113.866,27.6198,2025-01-23T0000,71,120,1.6,43,17,51,95,95,细颗粒物(PM2.5)
莆田市,荔城区仓后路,119.0141,25.4325,2025-01-23T0000,36,49,0.9,31,1,13,114,52,细颗粒物(PM2.5)
莆田市,莆田市监测站,119.0015,25.4553,2025-01-23T0000,20,,0.3,12,3,29,124,29,
莆田市,涵江区六中,119.1119,25.4561,2025-01-23T0000,43,56,0.8,42,2,7,108,60,细颗粒物(PM2.5)
莆田市,秀屿区政府,119.1013,25.3215,2025-01-23T0000,57,,0.7,42,1,31,111,78,细颗粒物(PM2.5)
莆田市,东圳水库,118.981,25.4792,2025-01-23T0000,,,,,,,,,
濮阳市,环保局,115.0312,35.7636,2025-01-23T0000,43,67,0.7,28,8,45,55,60,细颗粒物(PM2.5)
濮阳市,油田运输公司,115.0574,35.7609,2025-01-23T0000,65,74,0.6,29,7,38,51,88,细颗粒物(PM2.5)
濮阳市,濮水河管理处,115,35.7668,2025-01-23T0000,54,88,0.9,39,6,23,54,74,细颗粒物(PM2.5)
濮阳市,任丘路479号,115.0924,35.7686,2025-01-23T0000,51,88,1.0,24,9,35,52,70,细颗粒物(PM2.5)
普洱市,市环保局,100.98,22.7633,2025-01-23T0000,12,53,0.7,15,5,43,84,52,颗粒物(PM10)
普洱市,普洱第二中学,100.9817,22.8322,2025-01-23T0000,25,51,0.7,37,6,12,83,51,颗粒物(PM10)
七台河市,新一中,131.0518,45.8751,2025-01-23T0000,124,142,2.4,30,16,79,82,163,细颗粒物(PM2.5)
七台河市,中波台,131.0577,45.7879,2025-01-23T0000,143,160,1.4,55,8,43,62,190,细颗粒物(PM2.5)
七台河市,人民广场,131.0176,45.7761,2025-01-23T0000,132,183,,44,9,56,61,175,细颗粒物(PM2.5)
七台河市,新建矿广场,130.8781,45.8222,2025-01-23T0000,141,185,1.4,48,8,34,46,188,细颗粒物(PM2.5)
齐齐哈尔市,安居小区,123.9305,47.3636,2025-01-23T0000,165,,1.4,70,8,11,59,215,细颗粒物(PM2.5)
齐齐哈尔市,中心广场,123.9488,47.3386,2025-01-23T0000,120,143,1.2,59,4,22,54,158,细颗粒物(PM2.5)
齐齐哈尔市,农牧车辆厂,123.9483,47.3227,2025-01-23T0000,118,124,0.9,61,6,17,53,155,细颗粒物(PM2.5)
齐齐哈尔市,市环境监测站,123.945,47.2988,2025-01-23T0000,133,155,1.2,68,2,9,51,176,细颗粒物(PM2.5)
齐齐哈尔市,富区青少年活动中心,123.6333,47.2075,2025-01-23T0000,234,,1.7,41,10,34,64,284,细颗粒物(PM2.5)
黔东南苗族侗族自治州,市环境监测站,107.9783,26.5747,2025-01-23T0000,113,182,1.0,25,7,38,43,148,细颗粒物(PM2.5)
黔东南苗族侗族自治州,凯里学院,107.8908,26.5311,2025-01-23T0000,74,85,0.9,9,5,54,61,99,细颗粒物(PM2.5)
黔南布依族苗族自治州,小围寨,107.5228,26.2403,2025-01-23T0000,70,85,0.9,28,12,68,135,94,细颗粒物(PM2.5)
黔南布依族苗族自治州,沙坝,107.5175,26.2978,2025-01-23T0000,66,83,0.8,29,11,70,124,89,细颗粒物(PM2.5)
黔西南布依族苗族自治州,场坝街,104.9022,25.0925,2025-01-23T0000,115,117,0.8,29,6,99,114,150,细颗粒物(PM2.5)
黔西南布依族苗族自治州,坪东大道,104.8811,25.0992,2025-01-23T0000,100,104,0.7,38,6,78,110,132,细颗粒物(PM2.5)
钦州市,市环保站,108.6236,21.9667,2025-01-23T0000,83,153,1.3,87,10,9,104,110,细颗粒物(PM2.5)
钦州市,沙埠小学,108.6549,21.9481,2025-01-23T0000,78,167,1.2,86,6,3,111,109,颗粒物(PM10)
钦州市,港区一小,108.5989,21.7431,2025-01-23T0000,48,118,1.1,85,7,17,99,84,颗粒物(PM10)
钦州市,北职校,108.5959,21.9633,2025-01-23T0000,59,90,1.0,64,5,15,101,80,细颗粒物(PM2.5)
秦皇岛市,北戴河环保局,119.5134,39.8207,2025-01-23T0000,,,,,,,9,,
秦皇岛市,第一关,119.7493,40.0116,2025-01-23T0000,40,47,1.1,65,8,3,63,57,细颗粒物(PM2.5)
秦皇岛市,监测站,119.5897,39.9499,2025-01-23T0000,44,69,0.8,61,6,6,62,62,细颗粒物(PM2.5)
秦皇岛市,建设大厦,119.5251,39.9041,2025-01-23T0000,57,92,1.1,63,10,6,65,78,细颗粒物(PM2.5)
秦皇岛市,文明里,119.610547,39.943889,2025-01-23T0000,31,71,0.7,62,7,4,62,61,颗粒物(PM10)
青岛市,仰口,120.6659,36.2403,2025-01-23T0000,36,38,0.5,9,3,81,81,52,细颗粒物(PM2.5)
青岛市,市南区东部子站,120.4134,36.0658,2025-01-23T0000,31,68,0.8,21,10,66,75,59,颗粒物(PM10)
青岛市,四方区子站,120.3664,36.1032,2025-01-23T0000,,,,,,,14,,
青岛市,市南区西部子站,120.2994,36.054,2025-01-23T0000,42,63,0.7,30,4,56,77,59,细颗粒物(PM2.5)
青岛市,崂山区子站,120.4581,36.0858,2025-01-23T0000,44,58,0.7,27,10,60,82,62,细颗粒物(PM2.5)
青岛市,黄岛区子站,120.1983,35.9608,2025-01-23T0000,20,27,0.6,20,7,70,74,29,
青岛市,城阳区子站,120.3999,36.3083,2025-01-23T0000,63,112,1.2,70,10,17,65,85,细颗粒物(PM2.5)
青岛市,黄岛区4号,120.0405,35.8735,2025-01-23T0000,14,34,0.8,24,11,73,75,34,
青岛市,即墨2号,120.5014,36.4034,2025-01-23T0000,29,32,0.7,17,6,63,74,42,
青岛市,市北区南部,120.3503,36.0736,2025-01-23T0000,34,50,0.7,22,6,56,70,50,
青岛市,李沧区北部,120.3948,36.1805,2025-01-23T0000,134,163,1.2,80,15,10,41,178,细颗粒物(PM2.5)
清远市,环保大楼,113.0426,23.691,2025-01-23T0000,57,88,1.1,54,4,56,137,78,细颗粒物(PM2.5)
清远市,凤城街办,113.0208,23.7106,2025-01-23T0000,46,75,1.2,60,8,45,130,64,细颗粒物(PM2.5)
清远市,技师学院,113.0477,23.6344,2025-01-23T0000,68,123,0.8,59,7,37,132,92,细颗粒物(PM2.5)
清远市,清新太和,112.9903,23.7403,2025-01-23T0000,26,46,0.7,25,8,92,139,46,
清远市,清城东城,113.076,23.7198,2025-01-23T0000,40,68,1.2,24,10,70,135,59,颗粒物(PM10)
庆阳市,庆阳五中,107.6325,35.7357,2025-01-23T0000,105,109,1.2,33,12,99,122,138,细颗粒物(PM2.5)
庆阳市,市环保局,107.6364,35.7067,2025-01-23T0000,97,113,1.0,22,11,115,134,128,细颗粒物(PM2.5)
曲靖市,环境监测站,103.7897,25.5035,2025-01-23T0000,57,92,0.9,19,11,76,92,78,细颗粒物(PM2.5)
曲靖市,烟厂办公区,103.8,25.5364,2025-01-23T0000,55,78,0.5,15,4,73,84,75,细颗粒物(PM2.5)
曲靖市,南苑二区,103.7947,25.462,2025-01-23T0000,60,90,0.7,15,4,82,97,82,细颗粒物(PM2.5)
曲靖市,曲靖师范学院,103.7444,25.5261,2025-01-23T0000,67,86,0.6,16,9,74,105,90,细颗粒物(PM2.5)
衢州市,环保大楼,118.8692,28.9398,2025-01-23T0000,84,128,1.0,65,5,17,105,112,细颗粒物(PM2.5)
衢州市,实验学校,118.8709,28.9666,2025-01-23T0000,71,99,0.6,70,3,14,106,95,细颗粒物(PM2.5)
衢州市,衢州学院,118.8621,28.9808,2025-01-23T0000,59,83,0.6,84,4,6,106,80,细颗粒物(PM2.5)
泉州市,涂山街,118.5819,24.9117,2025-01-23T0000,46,55,0.9,31,4,31,112,64,细颗粒物(PM2.5)
泉州市,津头埔,118.5972,24.8978,2025-01-23T0000,50,66,0.9,31,2,36,105,69,细颗粒物(PM2.5)
泉州市,万安,118.6663,24.9424,2025-01-23T0000,44,58,0.8,59,3,12,117,62,细颗粒物(PM2.5)
泉州市,清源山,118.6117,24.9604,2025-01-23T0000,,,,,,,,,
泉州市,城华南路,118.6333,24.9264,2025-01-23T0000,39,70,0.5,22,2,35,112,60,颗粒物(PM10)
日喀则市,日喀则监测站,88.8876,29.2718,2025-01-23T0000,9,33,0.4,4,3,103,97,33,
日喀则市,林业技术推广中心,88.8781,29.2426,2025-01-23T0000,3,31,0.3,2,6,98,93,31,
日照市,监测站,119.471,35.4209,2025-01-23T0000,63,83,0.6,42,6,37,76,85,细颗粒物(PM2.5)
日照市,市政府广场,119.523,35.4216,2025-01-23T0000,37,58,0.6,23,4,63,84,54,颗粒物(PM10)
日照市,港务局,119.5587,35.4044,2025-01-23T0000,37,63,0.6,38,8,63,84,57,颗粒物(PM10)
日照市,职业技术学院,119.5328,35.4625,2025-01-23T0000,39,63,0.8,28,4,58,81,57,颗粒物(PM10)
日照市,岚山环保分局,119.3266,35.1044,2025-01-23T0000,33,53,0.8,24,4,68,87,52,颗粒物(PM10)
三门峡市,市政府,111.1922,34.7752,2025-01-23T0000,127,154,1.4,34,21,73,114,168,细颗粒物(PM2.5)
三门峡市,开发区,111.1587,34.7942,2025-01-23T0000,125,188,1.5,34,16,73,114,165,细颗粒物(PM2.5)
三门峡市,风景区,111.143,34.7955,2025-01-23T0000,128,168,1.6,34,19,70,118,169,细颗粒物(PM2.5)
三门峡市,三门峡市第一小学,111.1911,34.7829,2025-01-23T0000,107,130,1.4,32,20,71,109,140,细颗粒物(PM2.5)
三门峡市,富达温泉假日酒店,111.1,34.7167,2025-01-23T0000,130,180,1.5,60,20,61,108,172,细颗粒物(PM2.5)
三明市,三钢,117.6211,26.2625,2025-01-23T0000,43,45,0.6,39,3,28,101,60,细颗粒物(PM2.5)
三明市,三明二中,117.635,26.2714,2025-01-23T0000,33,42,0.9,32,3,32,94,48,
三明市,三元区政府,117.6028,26.2378,2025-01-23T0000,31,51,0.9,37,6,18,92,51,颗粒物(PM10)
三明市,洋溪,117.7275,26.3108,2025-01-23T0000,,,,,,,,,
三亚市,河东子站,109.5078,18.2489,2025-01-23T0000,26,43,0.5,13,1,78,125,43,
三亚市,河西子站,109.4964,18.2681,2025-01-23T0000,27,37,0.6,14,3,73,121,39,
三亚市,君悦子站,109.7348,18.3443,2025-01-23T0000,24,57,0.7,20,4,57,124,54,颗粒物(PM10)
山南市,山南监测站,91.7608,29.2313,2025-01-23T0000,3,13,0.3,4,4,72,96,23,
山南市,山南人民医院,91.7706,29.2436,2025-01-23T0000,3,16,0.4,2,2,79,90,25,
汕头市,金平子站,116.6794,23.3667,2025-01-23T0000,62,,1.2,26,6,87,118,84,细颗粒物(PM2.5)
汕头市,龙湖子站,116.7244,23.3633,2025-01-23T0000,42,53,0.9,22,5,86,112,59,细颗粒物(PM2.5)
汕头市,濠江子站,116.7258,23.2775,2025-01-23T0000,44,,0.9,16,4,88,113,62,细颗粒物(PM2.5)
汕头市,澄海子站,116.7519,23.4714,2025-01-23T0000,61,,1.1,23,8,82,112,83,细颗粒物(PM2.5)
汕头市,潮阳子站,116.6092,23.2539,2025-01-23T0000,29,48,0.6,15,7,89,114,48,
汕头市,潮南峡山,116.454,23.2684,2025-01-23T0000,54,141,0.8,15,9,81,108,96,颗粒物(PM10)
汕头市,潮南子站,116.4069,23.2533,2025-01-23T0000,60,95,1.0,24,10,75,110,82,细颗粒物(PM2.5)
汕尾市,市环保局,115.3653,22.775,2025-01-23T0000,34,,0.9,14,8,72,123,49,
汕尾市,市政府,115.3706,22.7898,2025-01-23T0000,28,,0.7,11,10,72,115,40,
汕尾市,新城中学,115.3622,22.7925,2025-01-23T0000,24,41,0.5,8,8,78,120,41,
商洛市,监测站,109.9154,33.8715,2025-01-23T0000,126,163,1.1,29,8,120,119,166,细颗粒物(PM2.5)
商洛市,商州区中学,109.9643,33.8471,2025-01-23T0000,117,125,1.0,29,8,113,114,153,细颗粒物(PM2.5)
商丘市,环境监测站,115.6702,34.4285,2025-01-23T0000,93,118,0.6,47,8,20,62,123,细颗粒物(PM2.5)
商丘市,粮食局,115.6458,34.4045,2025-01-23T0000,89,115,0.6,36,4,28,73,118,细颗粒物(PM2.5)
商丘市,睢阳区环保局,115.6293,34.3948,2025-01-23T0000,102,150,0.6,36,7,32,76,134,细颗粒物(PM2.5)
商丘市,梁园区档案局,115.6071,34.4465,2025-01-23T0000,93,,0.6,34,10,33,73,123,细颗粒物(PM2.5)
上海市,普陀,121.4,31.238,2025-01-23T0000,16,41,0.7,48,6,47,99,41,
上海市,十五厂,121.478,31.2036,2025-01-23T0000,22,47,0.6,53,6,38,99,47,
上海市,虹口,121.467,31.3008,2025-01-23T0000,27,40,0.6,104,9,2,107,52,二氧化氮
上海市,静安监测站,121.425,31.2261,2025-01-23T0000,23,38,0.5,40,9,58,104,38,
上海市,浦东川沙,121.703,31.1907,2025-01-23T0000,19,38,0.4,77,6,2,101,39,
上海市,浦东新区监测站,121.533,31.2284,2025-01-23T0000,23,45,0.6,85,6,11,104,45,
上海市,浦东张江,121.577,31.2071,2025-01-23T0000,23,44,0.8,86,6,2,104,44,
上海市,宝山庙行,121.4316,31.3322,2025-01-23T0000,26,51,0.4,94,9,1,106,51,颗粒物(PM10)
上海市,崇明上实东滩,121.8791,31.4662,2025-01-23T0000,16,28,0.6,14,7,75,77,28,
上海市,嘉定南翔,121.3162,31.2838,2025-01-23T0000,17,41,0.5,79,6,16,100,41,
上海市,金山新城,121.3359,30.7456,2025-01-23T0000,13,20,0.4,28,3,59,102,20,
上海市,闵行浦江,121.4996,31.0739,2025-01-23T0000,22,46,0.3,65,4,22,102,46,
上海市,青浦徐泾,121.2886,31.1663,2025-01-23T0000,30,49,0.4,70,9,21,112,49,
上海市,松江图书馆,121.2186,31.0378,2025-01-23T0000,25,36,0.5,67,6,17,109,36,
上海市,长宁仙霞,121.3902,31.2059,2025-01-23T0000,21,44,0.4,43,7,51,104,44,
上海市,浦东惠南,121.7965,31.0507,2025-01-23T0000,22,36,0.5,40,6,34,102,36,
上海市,奉贤南桥新城,121.4891,30.925,2025-01-23T0000,23,33,0.4,37,6,52,100,33,
上海市,冠生园路458号,121.4174,31.16637,2025-01-23T0000,29,40,0.2,40,6,29,86,42,
上海市,宁武路151号,121.5419,31.2683,2025-01-23T0000,25,47,0.3,93,4,2,99,47,
上饶市,百草园,118.005,28.4572,2025-01-23T0000,82,86,0.9,39,58,45,114,109,细颗粒物(PM2.5)
上饶市,市监测站,117.9756,28.4436,2025-01-23T0000,45,87,0.9,38,28,41,111,69,颗粒物(PM10)
上饶市,凤凰光学,117.9519,28.4628,2025-01-23T0000,58,91,1.0,36,12,42,108,79,细颗粒物(PM2.5)
上饶市,双创科技城,117.897,28.4315,2025-01-23T0000,57,85,0.9,33,12,61,111,78,细颗粒物(PM2.5)
上饶市,裕丰大道,118.1904,28.4448,2025-01-23T0000,61,95,1.0,42,8,40,105,83,细颗粒物(PM2.5)
韶关市,市八中,113.5824,24.7733,2025-01-23T0000,75,126,1.5,84,7,8,127,100,细颗粒物(PM2.5)
韶关市,园林处,113.5917,24.7972,2025-01-23T0000,71,86,1.0,70,10,21,113,95,细颗粒物(PM2.5)
韶关市,韶关学院,113.6735,24.7791,2025-01-23T0000,89,121,1.6,37,9,20,100,118,细颗粒物(PM2.5)
韶关市,曲江监测站,113.5971,24.6863,2025-01-23T0000,51,85,0.8,42,13,42,102,70,细颗粒物(PM2.5)
韶关市,碧湖山庄,113.5556,24.8082,2025-01-23T0000,64,97,1.0,28,12,56,115,87,细颗粒物(PM2.5)
邵阳市,市水土所,111.5239,27.3033,2025-01-23T0000,,,,,,,,,
邵阳市,市化工厂,111.5283,27.2442,2025-01-23T0000,101,147,1.2,31,14,74,113,133,细颗粒物(PM2.5)
邵阳市,市环保局,111.4328,27.2272,2025-01-23T0000,85,100,1.2,22,18,100,120,113,细颗粒物(PM2.5)
邵阳市,邵阳卫生学校,111.4399,27.2495,2025-01-23T0000,108,134,1.2,47,16,60,100,142,细颗粒物(PM2.5)
邵阳市,邵阳市第二中学图书馆,111.4684,27.2316,2025-01-23T0000,114,121,1.3,37,13,68,103,149,细颗粒物(PM2.5)
绍兴市,城东开发委,120.6053,29.9928,2025-01-23T0000,64,99,1.0,51,5,15,113,87,细颗粒物(PM2.5)
绍兴市,树下王站,120.5483,30.0003,2025-01-23T0000,76,97,1.2,54,5,11,118,102,细颗粒物(PM2.5)
绍兴市,绍兴中专,120.5683,29.9361,2025-01-23T0000,41,62,0.8,55,6,22,114,58,细颗粒物(PM2.5)
绍兴市,柯桥区政府,120.4906,30.0861,2025-01-23T0000,63,104,1.2,65,7,20,112,85,细颗粒物(PM2.5)
绍兴市,重华小学,120.8752,30.0249,2025-01-23T0000,55,74,1.0,41,8,21,115,75,细颗粒物(PM2.5)
绍兴市,上虞中学,120.8369,30.0137,2025-01-23T0000,54,65,0.9,31,6,34,117,74,细颗粒物(PM2.5)
绍兴市,柯桥妇保,120.4722,30.0415,2025-01-23T0000,46,67,0.8,28,6,51,114,64,细颗粒物(PM2.5)
绍兴市,袍江中学,120.6153,30.0764,2025-01-23T0000,73,88,1.2,75,3,2,109,98,细颗粒物(PM2.5)
深圳市,通心岭子站,114.1063,22.5545,2025-01-23T0000,49,68,0.6,29,6,38,107,68,细颗粒物(PM2.5)
深圳市,洪湖,114.117,22.5625,2025-01-23T0000,45,71,0.7,42,5,34,98,63,细颗粒物(PM2.5)
深圳市,华侨城,113.987,22.5417,2025-01-23T0000,29,48,0.7,21,5,55,108,48,
深圳市,南海子站,113.9181,22.5171,2025-01-23T0000,38,62,0.7,28,5,59,106,56,颗粒物(PM10)
深圳市,盐田,114.2458,22.5689,2025-01-23T0000,36,51,0.5,53,6,14,82,52,细颗粒物(PM2.5)
深圳市,龙岗,114.2283,22.7244,2025-01-23T0000,58,71,0.7,37,6,29,105,79,细颗粒物(PM2.5)
深圳市,南澳,114.494,22.5422,2025-01-23T0000,20,32,0.6,6,6,87,140,32,
深圳市,葵涌,114.41,22.6342,2025-01-23T0000,34,50,0.7,27,4,36,107,50,
深圳市,梅沙,114.297,22.5978,2025-01-23T0000,24,37,0.7,56,6,17,125,37,
深圳市,观澜,114.0678,22.738,2025-01-23T0000,40,61,0.8,25,6,42,106,57,细颗粒物(PM2.5)
深圳市,莲花,114.0731,22.559,2025-01-23T0000,40,52,0.7,17,3,32,100,57,细颗粒物(PM2.5)
深圳市,民治,114.0261,22.6198,2025-01-23T0000,42,68,0.8,24,5,59,109,59,"颗粒物(PM10),细颗粒物(PM2.5)"
深圳市,横岗,114.1871,22.6451,2025-01-23T0000,57,74,0.8,40,7,32,110,78,细颗粒物(PM2.5)
深圳市,坪山,114.3551,22.7151,2025-01-23T0000,50,67,0.9,36,4,24,113,69,细颗粒物(PM2.5)
深圳市,西乡,113.8953,22.5861,2025-01-23T0000,26,45,0.6,19,7,56,91,45,
沈阳市,森林路,123.6836,41.9339,2025-01-23T0000,,,,,,,,,
沈阳市,浑南东路,123.505,41.7406,2025-01-23T0000,109,143,1.4,71,13,16,47,143,细颗粒物(PM2.5)
沈阳市,新秀街,123.4231,41.6989,2025-01-23T0000,107,159,1.1,53,14,13,47,140,细颗粒物(PM2.5)
沈阳市,东陵路,123.5903,41.8411,2025-01-23T0000,85,106,1.1,50,6,17,44,113,细颗粒物(PM2.5)
沈阳市,陵东街,123.4264,41.8467,2025-01-23T0000,128,166,1.6,80,9,5,54,169,细颗粒物(PM2.5)
沈阳市,文化路,123.4114,41.7653,2025-01-23T0000,96,138,0.9,47,17,37,55,127,细颗粒物(PM2.5)
沈阳市,小河沿,123.4678,41.7867,2025-01-23T0000,99,137,1.3,62,14,22,51,130,细颗粒物(PM2.5)
沈阳市,太原街,123.4017,41.7972,2025-01-23T0000,88,122,0.9,46,15,38,50,117,细颗粒物(PM2.5)
沈阳市,京沈街,123.3783,41.9228,2025-01-23T0000,112,,1.0,40,19,33,58,147,细颗粒物(PM2.5)
沈阳市,沈辽西路,123.2444,41.7347,2025-01-23T0000,159,244,1.7,81,19,6,54,209,细颗粒物(PM2.5)
沈阳市,裕农路,123.5953,41.9086,2025-01-23T0000,86,127,0.9,36,8,41,52,114,细颗粒物(PM2.5)
十堰市,武当山,111.0419,32.395,2025-01-23T0000,106,121,1.2,29,18,124,160,139,细颗粒物(PM2.5)
十堰市,滨河新村,110.78,32.6494,2025-01-23T0000,175,187,1.2,26,15,93,114,225,细颗粒物(PM2.5)
十堰市,刘家沟,110.7258,32.6389,2025-01-23T0000,171,206,1.4,41,16,77,94,221,细颗粒物(PM2.5)
十堰市,铁二处,110.8839,32.5714,2025-01-23T0000,203,,1.3,34,16,89,108,253,细颗粒物(PM2.5)
十堰市,郧阳区金沙路,110.8054,32.8401,2025-01-23T0000,194,,1.4,38,9,65,76,244,细颗粒物(PM2.5)
石河子市,艾青诗歌馆,86.0497,44.2967,2025-01-23T0000,93,159,1.3,49,11,68,72,123,细颗粒物(PM2.5)
石河子市,南区管委会,86.047,44.2331,2025-01-23T0000,62,115,1.1,23,6,109,84,84,细颗粒物(PM2.5)
石河子市,世纪广场,86.0791,44.3017,2025-01-23T0000,84,170,1.2,58,8,65,74,112,细颗粒物(PM2.5)
石家庄市,职工医院,114.4422,38.0444,2025-01-23T0000,70,106,0.9,75,5,4,63,94,细颗粒物(PM2.5)
石家庄市,高新区,114.6063,38.0266,2025-01-23T0000,60,111,0.8,63,6,15,70,82,细颗粒物(PM2.5)
石家庄市,西北水源,114.4898,38.1328,2025-01-23T0000,95,,0.8,80,5,3,64,125,细颗粒物(PM2.5)
石家庄市,西南高教,114.4586,38.0058,2025-01-23T0000,78,109,0.7,77,4,9,70,104,细颗粒物(PM2.5)
石家庄市,世纪公园,114.5331,38.0178,2025-01-23T0000,54,86,0.6,37,6,32,68,74,细颗粒物(PM2.5)
石家庄市,人民会堂,114.509,38.0457,2025-01-23T0000,58,85,0.6,36,9,30,67,79,细颗粒物(PM2.5)
石家庄市,封龙山,114.3524,37.8911,2025-01-23T0000,28,54,0.8,26,14,64,78,52,颗粒物(PM10)
石家庄市,22中南校区,114.5481,38.0378,2025-01-23T0000,77,100,0.8,70,10,5,62,103,细颗粒物(PM2.5)
石家庄市,鹿泉一中,114.289,38.0906,2025-01-23T0000,,,,,,,73,,
石家庄市,藁城区实验学校,114.8506765,38.0322033,2025-01-23T0000,66,101,0.8,67,10,7,63,89,细颗粒物(PM2.5)
石家庄市,井陉矿区区委大楼,114.0504658,38.0591645,2025-01-23T0000,49,95,0.8,68,18,12,54,73,颗粒物(PM10)
石家庄市,栾城区星河路,114.6549,37.9020,2025-01-23T0000,78,104,1.0,72,9,8,70,104,细颗粒物(PM2.5)
石嘴山市,沙湖旅游区,106.3394,38.817,2025-01-23T0000,,,,,,,,,
石嘴山市,大武口朝阳西街,106.3668,39.0145,2025-01-23T0000,74,116,1.9,65,40,19,57,99,细颗粒物(PM2.5)
石嘴山市,惠农南大街,106.7704,39.2282,2025-01-23T0000,66,191,1.9,71,34,5,49,121,颗粒物(PM10)
石嘴山市,红果子镇惠新街,106.7099,39.1325,2025-01-23T0000,65,121,1.1,65,32,8,51,88,细颗粒物(PM2.5)
石嘴山市,妇女儿童医院,106.3495,38.9836,2025-01-23T0000,104,143,1.8,81,71,14,59,137,细颗粒物(PM2.5)
石嘴山市,石大公路,106.7492,39.2069,2025-01-23T0000,101,148,2.4,66,26,15,57,133,细颗粒物(PM2.5)
双鸭山市,双合村,131.1511,46.6937,2025-01-23T0000,158,195,1.4,32,19,53,44,208,细颗粒物(PM2.5)
双鸭山市,南小市,131.1652,46.6191,2025-01-23T0000,146,149,1.0,32,10,65,64,195,细颗粒物(PM2.5)
双鸭山市,环保局,131.1524,46.6554,2025-01-23T0000,145,165,1.2,28,14,63,57,193,细颗粒物(PM2.5)
双鸭山市,苗圃,131.12,46.5656,2025-01-23T0000,124,,1.0,25,8,90,96,163,细颗粒物(PM2.5)
朔州市,平朔,112.4397,39.3522,2025-01-23T0000,110,268,1.5,59,35,8,48,159,颗粒物(PM10)
朔州市,朔唯,112.4575,39.3617,2025-01-23T0000,96,243,1.4,72,88,12,51,147,颗粒物(PM10)
朔州市,区政府,112.4258,39.3197,2025-01-23T0000,131,223,1.3,57,50,10,46,173,细颗粒物(PM2.5)
朔州市,市环保局,112.4072,39.3278,2025-01-23T0000,98,152,0.9,50,62,13,43,129,细颗粒物(PM2.5)
朔州市,市二中,112.4272,39.3681,2025-01-23T0000,115,276,1.4,66,36,8,48,163,颗粒物(PM10)
朔州市,一水厂,112.2931,39.53,2025-01-23T0000,86,157,1.0,54,19,9,43,114,细颗粒物(PM2.5)
四平市,一商场,124.4002,43.1713,2025-01-23T0000,97,121,1.1,57,5,14,66,128,细颗粒物(PM2.5)
四平市,境园,124.388,43.193,2025-01-23T0000,73,111,0.8,52,6,6,65,98,细颗粒物(PM2.5)
四平市,植物园,124.4036,43.1411,2025-01-23T0000,47,69,0.5,,3,21,68,,
四平市,世纪城,124.3419,43.1666,2025-01-23T0000,101,139,1.5,51,9,13,75,133,细颗粒物(PM2.5)
松原市,江南,124.8006,45.1214,2025-01-23T0000,230,247,2.1,59,12,21,69,280,细颗粒物(PM2.5)
松原市,江北,124.7965,45.1722,2025-01-23T0000,115,124,1.1,56,2,11,72,150,细颗粒物(PM2.5)
苏州市,上方山,120.561,31.2472,2025-01-23T0000,,,,,,,,,
苏州市,彩香,120.591,31.3019,2025-01-23T0000,18,35,0.5,32,9,38,122,35,
苏州市,轧钢厂,120.596,31.3264,2025-01-23T0000,18,32,0.7,46,6,26,118,32,
苏州市,吴中区,120.613,31.2703,2025-01-23T0000,19,32,0.6,44,6,36,122,32,
苏州市,苏州新区,120.543,31.2994,2025-01-23T0000,20,34,0.6,66,8,26,129,34,
苏州市,苏州工业园区,120.669,31.3097,2025-01-23T0000,20,36,0.5,41,8,41,106,36,
苏州市,相城区,120.641,31.3708,2025-01-23T0000,20,41,0.5,62,8,19,88,41,
苏州市,方洲路,120.743,31.3188,2025-01-23T0000,18,40,0.6,63,4,23,117,40,
苏州市,木渎中学,120.5031,31.2774,2025-01-23T0000,18,35,0.6,33,8,45,126,35,
苏州市,越秀幼儿园,120.624,31.1733,2025-01-23T0000,20,41,0.7,46,6,33,124,41,
苏州市,高铁新城,120.6505,31.416,2025-01-23T0000,21,39,0.7,56,8,22,110,39,
宿迁市,宿迁学院,118.293,33.9528,2025-01-23T0000,29,43,0.8,9,2,59,110,43,
宿迁市,宿迁中学,118.2442,33.9592,2025-01-23T0000,25,42,0.6,17,5,62,106,42,
宿迁市,市供电局,118.283,33.965,2025-01-23T0000,25,44,0.7,11,2,64,108,44,
宿迁市,宿豫区政府,118.3225,33.9447,2025-01-23T0000,28,54,,10,1,59,109,,
宿州市,远航博物馆,116.9509,33.666,2025-01-23T0000,56,71,0.2,19,3,61,115,77,细颗粒物(PM2.5)
宿州市,社会福利中心,116.9708,33.591,2025-01-23T0000,46,62,0.4,21,6,64,107,64,细颗粒物(PM2.5)
宿州市,宿州学院,116.9884,33.6305,2025-01-23T0000,51,71,0.3,14,5,61,102,70,细颗粒物(PM2.5)
宿州市,皖北煤电集团,116.9648,33.6252,2025-01-23T0000,49,93,0.7,22,4,67,114,72,颗粒物(PM10)
绥化市,人和东街,126.9785,46.6365,2025-01-23T0000,127,142,0.9,36,4,46,70,168,细颗粒物(PM2.5)
绥化市,党政办公中心,126.964,46.6528,2025-01-23T0000,144,169,1.0,46,6,38,63,192,细颗粒物(PM2.5)
随州市,市委党校,113.3583,31.7275,2025-01-23T0000,161,211,1.4,41,13,74,109,211,细颗粒物(PM2.5)
随州市,市林业局,113.3833,31.6908,2025-01-23T0000,160,186,1.1,32,15,89,108,210,细颗粒物(PM2.5)
随州市,市立交桥水厂,113.3983,31.7308,2025-01-23T0000,142,188,1.2,38,13,74,107,189,细颗粒物(PM2.5)
遂宁市,石溪浩,105.5453,30.5678,2025-01-23T0000,131,173,1.2,28,3,4,8,173,细颗粒物(PM2.5)
遂宁市,市监测站,105.5582,30.5232,2025-01-23T0000,135,168,1.0,36,7,4,14,179,细颗粒物(PM2.5)
遂宁市,行政中心,105.5861,30.5366,2025-01-23T0000,136,169,0.8,39,9,5,12,180,细颗粒物(PM2.5)
遂宁市,美宁食品公司,105.5918,30.4728,2025-01-23T0000,125,164,1.1,36,8,7,14,165,细颗粒物(PM2.5)
塔城地区,东门外小游园,82.9994,46.7432,2025-01-23T0000,16,,0.0,20,4,47,56,23,
台州市,黄岩环保大楼,121.273,28.6459,2025-01-23T0000,30,48,0.5,23,3,50,97,48,
台州市,台州环保大楼,121.419,28.6542,2025-01-23T0000,35,54,0.4,28,4,48,85,52,颗粒物(PM10)
台州市,路桥田洋王,121.377,28.5773,2025-01-23T0000,37,54,0.6,32,3,36,82,53,细颗粒物(PM2.5)
台州市,台州科技职业学院,121.2568,28.6681,2025-01-23T0000,41,72,0.7,28,4,36,83,61,颗粒物(PM10)
太原市,尖草坪,112.522,37.8873,2025-01-23T0000,94,137,1.0,72,24,11,63,124,细颗粒物(PM2.5)
太原市,上兰,112.434,38.0108,2025-01-23T0000,71,90,1.1,37,11,47,70,95,细颗粒物(PM2.5)
太原市,晋源,112.469,37.7124,2025-01-23T0000,76,111,1.0,79,16,5,66,102,细颗粒物(PM2.5)
太原市,小店,112.5583,37.7394,2025-01-23T0000,53,94,0.8,40,13,53,70,73,细颗粒物(PM2.5)
太原市,桃园,112.5369,37.8692,2025-01-23T0000,90,153,1.4,79,24,13,65,119,细颗粒物(PM2.5)
太原市,坞城,112.57,37.8195,2025-01-23T0000,170,226,1.4,86,30,5,69,220,细颗粒物(PM2.5)
太原市,南寨,112.549,37.9854,2025-01-23T0000,69,100,0.9,39,13,32,67,93,细颗粒物(PM2.5)
太原市,金胜,112.4719,37.7831,2025-01-23T0000,70,103,1.0,43,19,36,72,94,细颗粒物(PM2.5)
太原市,育英中学,112.5608,37.8807,2025-01-23T0000,84,112,0.8,62,18,28,70,112,细颗粒物(PM2.5)
泰安市,监测站,117.1437,36.1937,2025-01-23T0000,118,156,1.4,31,14,49,106,155,细颗粒物(PM2.5)
泰安市,人口学校,117.0885,36.2017,2025-01-23T0000,133,173,1.1,35,14,43,90,176,细颗粒物(PM2.5)
泰安市,电力学校,117.1089,36.1758,2025-01-23T0000,131,163,1.5,37,14,46,102,173,细颗粒物(PM2.5)
泰安市,国网新校,117.1812,36.2275,2025-01-23T0000,122,149,1.6,53,16,49,117,160,细颗粒物(PM2.5)
泰安市,交通技校,117.0313,36.2018,2025-01-23T0000,132,154,1.3,36,10,56,82,175,细颗粒物(PM2.5)
泰安市,山东第一医科大学,117.0829,36.13,2025-01-23T0000,125,163,1.3,49,14,44,105,165,细颗粒物(PM2.5)
泰州市,公园路,119.905,32.4878,2025-01-23T0000,24,31,0.6,19,8,58,90,35,
泰州市,莲花,119.9189,32.4625,2025-01-23T0000,27,34,0.6,16,7,64,92,39,
泰州市,留学生创业园,119.888,32.4639,2025-01-23T0000,28,51,1.2,18,6,69,97,51,颗粒物(PM10)
泰州市,王营,119.8767,32.3289,2025-01-23T0000,34,47,0.8,21,5,44,72,49,
泰州市,姜堰区政府广场,120.1259,32.5099,2025-01-23T0000,12,21,0.6,15,5,70,103,22,
泰州市,周山河街区,119.9192,32.4322,2025-01-23T0000,22,36,0.7,18,6,59,82,36,
唐山市,雷达站,118.131,39.6363,2025-01-23T0000,39,56,0.4,28,9,52,65,55,细颗粒物(PM2.5)
唐山市,物资局,118.1725,39.6334,2025-01-23T0000,39,84,0.6,46,13,26,59,67,颗粒物(PM10)
唐山市,十二中,118.1705,39.6506,2025-01-23T0000,47,78,0.6,46,12,19,58,65,细颗粒物(PM2.5)
唐山市,小山,118.1869,39.622,2025-01-23T0000,65,87,0.6,52,13,22,65,88,细颗粒物(PM2.5)
唐山市,冀东油田职工医院,118.4359,39.2762,2025-01-23T0000,63,74,0.8,74,13,4,60,85,细颗粒物(PM2.5)
唐山市,正泰大街热力站,118.09279,39.58089,2025-01-23T0000,47,70,0.2,65,8,11,61,65,细颗粒物(PM2.5)
唐山市,丰润区政府,118.1562,39.8322,2025-01-23T0000,45,81,0.7,73,14,6,58,66,颗粒物(PM10)
唐山市,金山小学,118.43673,39.73809,2025-01-23T0000,54,89,0.7,29,13,34,60,74,细颗粒物(PM2.5)
唐山市,政府服务中心,118.24498,39.66941,2025-01-23T0000,47,80,1.0,53,16,17,64,65,"颗粒物(PM10),细颗粒物(PM2.5)"
唐山市,消防缸窑路中队,118.2059,39.6585,2025-01-23T0000,44,88,0.7,51,10,21,66,69,颗粒物(PM10)
唐山市,路南电大,118.1436,39.6202,2025-01-23T0000,32,80,0.4,34,10,28,40,65,颗粒物(PM10)
天津市,勤俭道,117.1444,39.1661,2025-01-23T0000,35,59,0.7,54,6,24,50,55,颗粒物(PM10)
天津市,前进道,117.202,39.0927,2025-01-23T0000,32,57,0.4,29,6,45,46,54,颗粒物(PM10)
天津市,淮河道,117.1837,39.2133,2025-01-23T0000,45,76,0.5,36,8,36,53,63,"颗粒物(PM10),细颗粒物(PM2.5)"
天津市,跃进路,117.307,39.0877,2025-01-23T0000,44,,1.8,56,6,18,56,62,细颗粒物(PM2.5)
天津市,第四大街,117.707,39.0343,2025-01-23T0000,27,53,0.7,84,7,2,43,52,颗粒物(PM10)
天津市,永明路,117.457,38.8394,2025-01-23T0000,53,72,0.7,60,7,15,54,73,细颗粒物(PM2.5)
天津市,汉北路,117.764,39.1587,2025-01-23T0000,27,50,0.5,62,4,4,52,50,
天津市,团泊洼,117.157,38.9194,2025-01-23T0000,,,,,,,,,
天津市,河西一经路,117.7918,39.2474,2025-01-23T0000,39,64,0.6,53,7,15,59,57,颗粒物(PM10)
天津市,津沽路,117.3747,38.9846,2025-01-23T0000,30,49,0.6,32,3,46,54,49,
天津市,宾水西道,117.1589,39.0845,2025-01-23T0000,35,60,0.5,31,4,38,46,55,颗粒物(PM10)
天津市,大理道,117.1941,39.1067,2025-01-23T0000,28,50,0.3,25,7,50,52,50,
天津市,中山北路,117.2101,39.1699,2025-01-23T0000,33,57,0.5,39,4,41,51,54,颗粒物(PM10)
天津市,西四道,117.3876,39.1488,2025-01-23T0000,32,62,0.6,73,7,4,50,56,颗粒物(PM10)
天津市,雍阳西道,117.0365,39.3828,2025-01-23T0000,97,161,0.7,69,11,8,63,128,细颗粒物(PM2.5)
天津市,辛老路,117.0296,39.0605,2025-01-23T0000,47,86,0.6,48,6,28,56,68,颗粒物(PM10)
天津市,地纬路,116.9638,38.9375,2025-01-23T0000,70,89,0.7,66,9,8,54,94,细颗粒物(PM2.5)
天津市,北环路,117.4067,40.0583,2025-01-23T0000,78,120,1.2,36,8,34,67,104,细颗粒物(PM2.5)
天津市,建设路,117.3045,39.7169,2025-01-23T0000,62,92,0.6,65,9,11,59,84,细颗粒物(PM2.5)
天津市,滨水东路,117.8199,39.3521,2025-01-23T0000,34,61,0.7,68,9,7,37,56,颗粒物(PM10)
天津市,光华路,117.2437,39.1029,2025-01-23T0000,44,63,0.8,32,6,31,46,62,细颗粒物(PM2.5)
天水市,麦积山,106.0055,34.343,2025-01-23T0000,,,,,,,,,
天水市,公园小学,105.7205,34.5786,2025-01-23T0000,62,77,0.9,30,17,102,57,84,细颗粒物(PM2.5)
天水市,麦积国土局,105.8945,34.5538,2025-01-23T0000,77,94,1.0,26,25,114,87,103,细颗粒物(PM2.5)
铁岭市,汇工街西,123.8139,42.3022,2025-01-23T0000,160,192,1.9,53,23,7,58,210,细颗粒物(PM2.5)
铁岭市,水上乐园,123.8649,42.2923,2025-01-23T0000,124,149,1.2,33,18,32,60,163,细颗粒物(PM2.5)
铁岭市,银州路东段,123.8486,42.2867,2025-01-23T0000,124,153,1.3,37,4,31,55,163,细颗粒物(PM2.5)
铁岭市,金沙江路北,123.7153,42.2217,2025-01-23T0000,118,142,1.3,58,5,12,57,155,细颗粒物(PM2.5)
通化市,光明,125.9358,41.7173,2025-01-23T0000,50,66,0.6,28,8,28,54,69,细颗粒物(PM2.5)
通化市,铁路,125.9446,41.7325,2025-01-23T0000,75,100,0.9,49,12,13,65,100,细颗粒物(PM2.5)
通辽市,艺术职业学校,122.2532,43.6801,2025-01-23T0000,46,86,0.4,31,10,40,56,68,颗粒物(PM10)
通辽市,老干部活动中心,122.2584,43.6333,2025-01-23T0000,48,63,0.4,18,8,61,58,67,细颗粒物(PM2.5)
通辽市,东方明珠社区,122.2922,43.6189,2025-01-23T0000,56,63,0.4,23,8,55,51,77,细颗粒物(PM2.5)
铜川市,党校,109.0656,35.0994,2025-01-23T0000,,,,,,,,,
铜川市,王益区政府,109.0697,35.0697,2025-01-23T0000,167,191,1.9,65,9,28,108,217,细颗粒物(PM2.5)
铜川市,新区管委会,108.9344,34.9058,2025-01-23T0000,151,181,1.3,36,16,75,114,201,细颗粒物(PM2.5)
铜川市,旺旺集团,108.9543,34.8732,2025-01-23T0000,171,195,1.7,39,19,75,124,221,细颗粒物(PM2.5)
铜陵市,市第四中学,117.8177,30.9412,2025-01-23T0000,161,241,1.0,66,18,91,58,211,细颗粒物(PM2.5)
铜陵市,市公路局,117.8059,30.9273,2025-01-23T0000,173,189,1.0,30,16,105,61,223,细颗粒物(PM2.5)
铜陵市,市新民污水厂,117.7807,30.9413,2025-01-23T0000,136,214,1.1,37,12,100,64,180,细颗粒物(PM2.5)
铜陵市,市第九中学,117.7439,30.8792,2025-01-23T0000,149,179,1.4,54,16,85,63,199,细颗粒物(PM2.5)
铜陵市,车站新区,117.846,30.9413,2025-01-23T0000,165,211,1.1,54,23,75,68,215,细颗粒物(PM2.5)
铜陵市,市职教基地,117.8483,30.97,2025-01-23T0000,161,188,1.3,43,12,75,83,211,细颗粒物(PM2.5)
铜仁市,铜仁卫校,109.1839,27.7344,2025-01-23T0000,113,158,1.6,35,1,2,4,148,细颗粒物(PM2.5)
铜仁市,铜仁七中,109.1753,27.6944,2025-01-23T0000,112,,1.2,32,3,3,8,147,细颗粒物(PM2.5)
吐鲁番市,市环保局,89.1904,42.9418,2025-01-23T0000,102,189,3.5,76,8,30,82,134,细颗粒物(PM2.5)
吐鲁番市,地区环保局,89.1673,42.9559,2025-01-23T0000,148,218,3.7,86,9,13,78,198,细颗粒物(PM2.5)
威海市,华夏技校,122.1214,37.4236,2025-01-23T0000,6,,0.4,12,3,69,70,22,
威海市,山大分校,122.0508,37.5236,2025-01-23T0000,22,27,0.4,31,2,39,82,32,
威海市,市监测站,122.1067,37.5072,2025-01-23T0000,7,17,0.7,19,2,51,70,17,
威海市,文登开发区,122.0693,37.2174,2025-01-23T0000,29,41,0.7,30,4,37,70,42,
威海市,临港区管委会,122.1379,37.3414,2025-01-23T0000,6,14,0.3,12,3,59,65,19,
潍坊市,环保局,119.1437,36.7023,2025-01-23T0000,69,88,1.1,37,13,34,65,93,细颗粒物(PM2.5)
潍坊市,坊子邮政,119.1641,36.6523,2025-01-23T0000,73,95,1.1,33,12,33,61,98,细颗粒物(PM2.5)
潍坊市,潍坊七中,119.0587,36.721,2025-01-23T0000,99,141,1.1,59,12,4,62,130,细颗粒物(PM2.5)
潍坊市,高新实验学校,119.1977,36.6872,2025-01-23T0000,80,100,1.0,48,10,24,65,107,细颗粒物(PM2.5)
潍坊市,潍坊学院,119.1755,36.7149,2025-01-23T0000,80,107,1.2,69,21,3,65,107,细颗粒物(PM2.5)
潍坊市,寒亭区实验一小,119.2041,36.7699,2025-01-23T0000,102,122,1.4,66,18,11,61,134,细颗粒物(PM2.5)
渭南市,农科所,109.5293,34.5101,2025-01-23T0000,,,,,,,,,
渭南市,体育馆,109.4636,34.493,2025-01-23T0000,208,276,1.9,90,11,12,81,258,细颗粒物(PM2.5)
