area,positionname,longitude,latitude,timepoint,pm2_5,pm10,co,no2,so2,o3,o3_8h,aqi,primarypollutant
阿坝藏族羌族自治州,州农科所,102.1879,31.914,2025-03-26T0000,3,21,0.2,11,8,58,84,21,
阿坝藏族羌族自治州,马师校,102.2502,31.8896,2025-03-26T0000,23,,0.4,26,4,45,101,33,
阿坝藏族羌族自治州,马尔康中学西区,102.2165,31.9024,2025-03-26T0000,11,16,0.3,16,5,58,104,19,
阿克苏地区,电视台,80.292,41.1694,2025-03-26T0000,63,155,0.8,52,9,60,153,103,颗粒物(PM10)
阿克苏地区,艺术中心,80.2613,41.1551,2025-03-26T0000,60,147,1.1,69,5,34,138,99,颗粒物(PM10)
阿拉善盟,西城区西花园,105.6467,38.8363,2025-03-26T0000,685,2835,0.8,6,9,111,107,500,"颗粒物(PM10),细颗粒物(PM2.5)"
阿拉善盟,蒙二幼,105.6985,38.8411,2025-03-26T0000,620,2500,0.6,6,6,98,95,500,"颗粒物(PM10),细颗粒物(PM2.5)"
阿拉善盟,环保局新楼,105.724,38.8516,2025-03-26T0000,574,2233,0.3,2,8,109,105,500,"颗粒物(PM10),细颗粒物(PM2.5)"
阿勒泰地区,市站,88.1264,47.8517,2025-03-26T0000,22,,0.4,2,3,72,79,32,
阿里地区,阿里监测站,80.1161,32.5,2025-03-26T0000,3,6,0.5,5,8,88,104,28,
阿里地区,阿里藏医院,80.0903,32.5028,2025-03-26T0000,3,8,0.3,1,6,94,102,30,
安康市,香溪洞,109.0318,32.6537,2025-03-26T0000,22,40,0.6,10,8,96,139,40,
安康市,汉滨区检察院,109.0072,32.6975,2025-03-26T0000,25,48,0.3,20,7,67,137,48,
安康市,市邮政管理局,109.0325,32.6913,2025-03-26T0000,35,68,0.5,28,15,47,129,59,颗粒物(PM10)
安庆市,环科院,117.0809,30.5177,2025-03-26T0000,33,51,0.4,50,10,89,144,51,颗粒物(PM10)
安庆市,马山宾馆,117.0331,30.5119,2025-03-26T0000,33,51,0.3,33,5,93,137,51,颗粒物(PM10)
安庆市,安庆大学,116.9896,30.6145,2025-03-26T0000,35,55,0.4,31,14,105,157,53,颗粒物(PM10)
安庆市,市人大,117.0598,30.5351,2025-03-26T0000,37,53,0.5,32,8,81,148,53,细颗粒物(PM2.5)
安顺市,伍家关,105.9606,26.2611,2025-03-26T0000,20,33,0.3,11,10,138,144,44,
安顺市,凤凰山,105.9408,26.2431,2025-03-26T0000,32,44,0.4,30,17,113,145,46,
安顺市,金钟山,105.9439,26.2564,2025-03-26T0000,24,37,0.5,13,11,140,147,44,
安顺市,娄家坡,105.8983,26.2481,2025-03-26T0000,21,30,0.5,9,7,146,145,46,
安阳市,棉研所,114.4839,36.0621,2025-03-26T0000,,,,,,,,,
安阳市,红庙街,114.3551,36.1017,2025-03-26T0000,86,310,,51,3,24,94,180,颗粒物(PM10)
安阳市,银杏小区,114.361,36.0681,2025-03-26T0000,86,298,0.6,58,3,20,102,174,颗粒物(PM10)
安阳市,信访局,114.3922,36.0878,2025-03-26T0000,63,273,0.6,44,4,44,108,162,颗粒物(PM10)
安阳市,左辅环卫站,114.4705,36.0637,2025-03-26T0000,70,296,0.3,31,6,62,112,173,颗粒物(PM10)
安阳市,安钢职工学校,114.2917,36.0949,2025-03-26T0000,82,420,0.7,86,4,0,98,300,颗粒物(PM10)
鞍山市,深沟寺,123.044,41.1196,2025-03-26T0000,108,182,0.7,18,9,71,88,142,细颗粒物(PM2.5)
鞍山市,太阳城,123.011,41.0931,2025-03-26T0000,114,190,0.9,20,8,80,88,149,细颗粒物(PM2.5)
鞍山市,太平,123.0485,41.1442,2025-03-26T0000,110,219,0.8,24,9,69,80,144,细颗粒物(PM2.5)
鞍山市,铁西三道街,122.9642,41.0971,2025-03-26T0000,120,209,1.2,32,11,73,89,158,细颗粒物(PM2.5)
鞍山市,明达新区,123.022,41.0821,2025-03-26T0000,112,182,0.6,19,6,80,87,147,细颗粒物(PM2.5)
鞍山市,千山,123.1289,41.0228,2025-03-26T0000,,,,,,,93,,
鞍山市,兴盛南路290号,122.9446,41.0826,2025-03-26T0000,124,230,1.2,36,19,70,88,163,细颗粒物(PM2.5)
巴彦淖尔市,附二中,107.4212,40.761,2025-03-26T0000,39,223,0.7,24,9,60,85,137,颗粒物(PM10)
巴彦淖尔市,市环保大楼,107.37,40.7372,2025-03-26T0000,34,206,0.3,44,7,28,86,128,颗粒物(PM10)
巴音郭楞蒙古自治州,孔雀公园,86.1472,41.7538,2025-03-26T0000,65,775,0.2,16,7,86,83,500,颗粒物(PM10)
巴音郭楞蒙古自治州,棉纺厂,86.1972,41.7166,2025-03-26T0000,136,1888,0.2,6,2,94,95,500,颗粒物(PM10)
巴音郭楞蒙古自治州,经济开发区,86.2357,41.7173,2025-03-26T0000,94,1845,0.1,3,4,99,101,500,颗粒物(PM10)
巴中市,苏山坪,106.7677,31.8794,2025-03-26T0000,24,41,0.3,6,6,144,146,45,
巴中市,市五中,106.7768,31.8526,2025-03-26T0000,35,72,0.6,59,6,21,132,61,颗粒物(PM10)
巴中市,圣泉水务公司,106.7418,31.8654,2025-03-26T0000,30,52,0.5,46,7,43,140,51,颗粒物(PM10)
巴中市,市中心医院,106.7616,31.8344,2025-03-26T0000,51,64,0.8,48,8,26,129,70,细颗粒物(PM2.5)
白城市,洮北区环保局,122.7911,45.6077,2025-03-26T0000,81,108,0.6,25,2,67,98,108,细颗粒物(PM2.5)
白城市,市环保局,122.8738,45.5725,2025-03-26T0000,103,107,0.9,31,3,51,107,135,细颗粒物(PM2.5)
白山市,喜丰,126.4219,41.9171,2025-03-26T0000,86,106,1.4,16,5,86,84,114,细颗粒物(PM2.5)
白山市,环保局,126.4077,41.9419,2025-03-26T0000,99,114,1.3,21,8,87,72,130,细颗粒物(PM2.5)
白银市,第三小学,104.1724,36.5446,2025-03-26T0000,334,1851,0.3,4,6,93,110,500,颗粒物(PM10)
白银市,动力公司,104.1465,36.5482,2025-03-26T0000,353,2071,0.2,5,4,98,113,500,颗粒物(PM10)
百色市,市监测站,106.6103,23.9011,2025-03-26T0000,83,124,1.3,30,15,59,166,110,细颗粒物(PM2.5)
百色市,市中心血站,106.6538,23.8859,2025-03-26T0000,74,96,1.1,16,16,107,162,99,细颗粒物(PM2.5)
百色市,祈福高中,106.6085,23.8798,2025-03-26T0000,87,130,1.2,41,15,58,169,115,细颗粒物(PM2.5)
蚌埠市,工人疗养院,117.396,32.939,2025-03-26T0000,39,72,0.7,24,7,129,160,61,颗粒物(PM10)
蚌埠市,百货大楼,117.3605,32.9427,2025-03-26T0000,37,72,0.4,19,8,123,149,61,颗粒物(PM10)
蚌埠市,蚌埠学院,117.4185,32.8911,2025-03-26T0000,43,85,0.5,19,6,111,155,68,颗粒物(PM10)
蚌埠市,淮上区政府,117.3533,32.9673,2025-03-26T0000,40,66,0.4,14,8,128,156,58,颗粒物(PM10)
蚌埠市,高新区,117.3145,32.8977,2025-03-26T0000,48,75,0.6,21,12,110,150,67,细颗粒物(PM2.5)
蚌埠市,蚌埠田家炳中学,117.3092,32.9314,2025-03-26T0000,46,83,0.5,29,12,112,153,67,颗粒物(PM10)
包头市,市环境监测站,109.8756,40.6532,2025-03-26T0000,72,190,0.4,17,13,82,102,120,颗粒物(PM10)
包头市,包头八中,109.9991,40.5842,2025-03-26T0000,63,204,0.7,29,16,64,103,127,颗粒物(PM10)
包头市,青山宾馆,109.8538,40.6821,2025-03-26T0000,56,190,0.4,9,9,88,97,120,颗粒物(PM10)
包头市,惠龙物流,109.8642,40.6288,2025-03-26T0000,46,188,0.7,19,11,84,106,119,颗粒物(PM10)
包头市,东河鸿龙湾,110.0377,40.5546,2025-03-26T0000,56,182,0.9,46,18,41,108,116,颗粒物(PM10)
包头市,滨河大厦,109.9154,40.5685,2025-03-26T0000,47,163,0.7,52,22,40,112,107,颗粒物(PM10)
包头市,包头市委党校,109.9447,40.6261,2025-03-26T0000,44,190,0.6,19,10,78,108,120,颗粒物(PM10)
包头市,昆区政府,109.8331,40.6576,2025-03-26T0000,54,193,0.6,14,8,85,98,122,颗粒物(PM10)
宝鸡市,庙沟村,107.185,34.3063,2025-03-26T0000,32,57,0.4,25,8,104,149,54,颗粒物(PM10)
宝鸡市,竹园沟,107.0708,34.3017,2025-03-26T0000,32,51,0.4,18,8,91,148,51,颗粒物(PM10)
宝鸡市,三陆医院,107.1906,34.3672,2025-03-26T0000,44,64,0.5,33,7,90,148,62,细颗粒物(PM2.5)
宝鸡市,监测站,107.1431,34.3547,2025-03-26T0000,36,71,0.5,28,12,80,147,61,颗粒物(PM10)
宝鸡市,技工学校,107.1186,34.3739,2025-03-26T0000,36,76,0.5,36,11,72,143,63,颗粒物(PM10)
宝鸡市,陈仓区环保局家属楼,107.3906,34.3528,2025-03-26T0000,48,81,0.7,18,8,106,141,67,细颗粒物(PM2.5)
宝鸡市,文理学院,107.2058,34.3497,2025-03-26T0000,36,72,0.5,26,7,87,154,61,颗粒物(PM10)
宝鸡市,三迪小学,107.2386,34.3622,2025-03-26T0000,45,70,0.5,26,9,103,147,63,细颗粒物(PM2.5)
保定市,游泳馆,115.493,38.8632,2025-03-26T0000,47,100,0.1,44,7,53,108,75,颗粒物(PM10)
保定市,华电二区,115.5213,38.8959,2025-03-26T0000,34,79,0.0,33,4,54,111,65,颗粒物(PM10)
保定市,接待中心,115.4713,38.9108,2025-03-26T0000,31,73,0.3,31,4,66,107,62,颗粒物(PM10)
保定市,地表水厂,115.4612,38.8416,2025-03-26T0000,45,110,0.4,44,6,55,110,80,颗粒物(PM10)
保定市,满城区生态环境分局,115.31981,38.95208,2025-03-26T0000,36,112,0.3,83,4,14,110,81,颗粒物(PM10)
保定市,清苑区第二中学,115.47694,38.76408,2025-03-26T0000,34,112,0.3,56,6,34,107,81,颗粒物(PM10)
保定市,徐水物探局,115.62909,39.02311,2025-03-26T0000,27,80,0.2,30,10,67,118,65,颗粒物(PM10)
保定市,双鹰农机,115.4202,38.8656,2025-03-26T0000,16,74,0.5,32,5,66,109,62,颗粒物(PM10)
保定市,植保所站,115.5150,38.8590,2025-03-26T0000,46,93,0.5,43,7,41,108,72,颗粒物(PM10)
保山市,市环境监测站,99.1678,25.1081,2025-03-26T0000,16,37,0.3,8,6,100,119,37,
保山市,市环保局,99.1711,25.1328,2025-03-26T0000,36,39,0.4,6,5,115,126,52,细颗粒物(PM2.5)
北海市,牛尾岭水库,109.2262,21.588,2025-03-26T0000,20,22,0.5,,6,28,85,,
北海市,海滩公园,109.1436,21.4086,2025-03-26T0000,12,27,0.7,15,5,68,90,27,
北海市,新市环保局,109.0981,21.4661,2025-03-26T0000,19,28,0.6,12,3,76,86,28,
北海市,北海工业园,109.1778,21.5233,2025-03-26T0000,24,38,0.5,10,6,70,90,38,
北海市,龙潭自来水厂,109.1911,21.4415,2025-03-26T0000,19,30,0.4,7,5,74,88,30,
北京市,万寿西宫,116.3621,39.8784,2025-03-26T0000,20,84,0.3,38,3,55,99,67,颗粒物(PM10)
北京市,定陵,116.2202,40.2915,2025-03-26T0000,,,,,,,,,
北京市,东四,116.4174,39.9289,2025-03-26T0000,26,113,0.5,35,7,55,95,82,颗粒物(PM10)
北京市,天坛,116.4072,39.8863,2025-03-26T0000,,,,,,,92,,
北京市,农展馆,116.462,39.9365,2025-03-26T0000,25,129,0.7,23,9,53,90,90,颗粒物(PM10)
北京市,官园,116.3392,39.9295,2025-03-26T0000,29,80,0.5,28,6,49,86,65,颗粒物(PM10)
北京市,海淀万柳,116.2878,39.9611,2025-03-26T0000,18,59,0.5,35,4,46,81,55,颗粒物(PM10)
北京市,顺义新城,116.6636,40.135,2025-03-26T0000,22,117,0.4,12,6,75,94,84,颗粒物(PM10)
北京市,怀柔镇,116.6275,40.3275,2025-03-26T0000,30,135,0.5,17,4,60,83,93,颗粒物(PM10)
北京市,昌平镇,116.2296,40.217,2025-03-26T0000,11,41,0.5,24,1,54,92,41,
北京市,奥体中心,116.3966,39.9821,2025-03-26T0000,21,89,0.7,31,5,52,86,70,颗粒物(PM10)
北京市,延庆夏都,115.9718,40.4529,2025-03-26T0000,7,20,0.4,14,5,66,89,21,
北京市,密云新城,116.8336,40.4095,2025-03-26T0000,13,68,0.5,20,4,59,87,59,颗粒物(PM10)
北京市,门头沟三家店,116.088,39.9726,2025-03-26T0000,14,56,0.4,39,4,35,75,53,颗粒物(PM10)
北京市,丰台云岗,116.1541,39.8204,2025-03-26T0000,17,62,0.5,55,5,36,106,56,颗粒物(PM10)
北京市,通州东关,116.6804,39.9081,2025-03-26T0000,25,139,0.5,22,6,66,91,95,颗粒物(PM10)
北京市,房山燕山,115.9577,39.7603,2025-03-26T0000,10,27,0.3,12,4,74,92,27,
北京市,大兴旧宫,116.4672,39.7733,2025-03-26T0000,26,123,0.4,23,3,57,86,87,颗粒物(PM10)
北京市,延庆石河营,115.986,40.4563,2025-03-26T0000,7,23,0.3,14,4,71,90,23,
北京市,怀柔新城,116.6151,40.3053,2025-03-26T0000,20,129,0.7,11,6,65,84,90,颗粒物(PM10)
北京市,丰台小屯,116.2545,39.8768,2025-03-26T0000,22,81,0.4,72,2,17,85,66,颗粒物(PM10)
北京市,密云镇,116.84,40.3844,2025-03-26T0000,22,120,0.4,14,6,77,90,85,颗粒物(PM10)
北京市,八角北路9号,116.1942,39.9158,2025-03-26T0000,15,63,0.2,39,3,53,99,57,颗粒物(PM10)
北京市,洳河巡河路,117.0790,40.1518,2025-03-26T0000,24,106,0.5,12,3,81,94,78,颗粒物(PM10)
本溪市,大峪,123.8275,41.3064,2025-03-26T0000,164,185,1.0,21,8,81,99,214,细颗粒物(PM2.5)
本溪市,溪湖,123.7567,41.3325,2025-03-26T0000,189,235,1.0,44,6,78,98,239,细颗粒物(PM2.5)
本溪市,彩屯,123.7169,41.3094,2025-03-26T0000,175,254,1.0,32,7,83,94,225,细颗粒物(PM2.5)
本溪市,东明,123.7669,41.2864,2025-03-26T0000,158,172,1.2,32,8,74,98,208,细颗粒物(PM2.5)
本溪市,新立屯,123.7992,41.2664,2025-03-26T0000,205,,1.1,32,6,88,107,255,细颗粒物(PM2.5)
本溪市,威宁,123.8142,41.3472,2025-03-26T0000,157,197,0.9,25,4,73,95,207,细颗粒物(PM2.5)
毕节市,八中,105.2864,27.3125,2025-03-26T0000,48,81,0.7,18,11,54,122,67,细颗粒物(PM2.5)
毕节市,师专,105.31,27.2944,2025-03-26T0000,71,129,1.5,68,10,9,134,95,细颗粒物(PM2.5)
毕节市,工业大道,105.3688,27.3598,2025-03-26T0000,92,166,1.0,49,11,31,129,122,细颗粒物(PM2.5)
滨州市,第二水厂,118.0018,37.3617,2025-03-26T0000,9,92,1.6,20,7,66,107,71,颗粒物(PM10)
滨州市,北中新校,117.9776,37.393,2025-03-26T0000,14,102,0.2,16,10,78,115,76,颗粒物(PM10)
滨州市,中海酒店,117.9378,37.3956,2025-03-26T0000,12,75,0.3,16,9,80,118,63,颗粒物(PM10)
滨州市,开发区一中,117.9378,37.3553,2025-03-26T0000,9,100,0.2,26,13,66,110,75,颗粒物(PM10)
滨州市,金海六路,118.0917,37.694,2025-03-26T0000,14,188,0.5,9,18,82,110,119,颗粒物(PM10)
滨州市,滨州市西街道办事处,117.9956,37.3753,2025-03-26T0000,12,107,0.1,16,7,78,116,79,颗粒物(PM10)
亳州市,污水处理厂,115.8072,33.8399,2025-03-26T0000,37,72,0.4,20,6,116,143,61,颗粒物(PM10)
亳州市,三国揽胜宫,115.7789,33.8518,2025-03-26T0000,40,79,0.4,12,6,118,138,65,颗粒物(PM10)
亳州市,亳州学院,115.7633,33.8034,2025-03-26T0000,32,80,0.5,13,6,115,135,65,颗粒物(PM10)
博尔塔拉蒙古自治州,市党校,82.0485,44.8556,2025-03-26T0000,16,97,0,9,3,81,93,74,颗粒物(PM10)
博尔塔拉蒙古自治州,市环保局,82.0806,44.8969,2025-03-26T0000,18,146,0.2,10,3,76,96,98,颗粒物(PM10)
沧州市,沧县城建局,116.8842,38.2991,2025-03-26T0000,30,79,0.3,40,4,40,101,65,颗粒物(PM10)
沧州市,电视转播站,116.8584,38.3254,2025-03-26T0000,22,57,0.4,43,5,45,113,54,颗粒物(PM10)
沧州市,市环保局,116.8709,38.3228,2025-03-26T0000,28,55,0.3,42,10,37,108,53,颗粒物(PM10)
沧州市,河北水利电力学院,116.8136,38.3004,2025-03-26T0000,24,58,0.2,31,8,62,102,54,颗粒物(PM10)
昌都市,昌都监测站,97.1806,31.1273,2025-03-26T0000,9,15,0.4,14,6,71,114,23,
昌都市,昌都会议中心,97.1714,31.1406,2025-03-26T0000,3,9,0.3,4,2,93,116,30,
昌吉回族自治州,天山天池,88.1236,43.8886,2025-03-26T0000,3,8,0.5,3,4,69,93,22,
昌吉回族自治州,新区政务中心,87.2717,44.0297,2025-03-26T0000,3,61,0.5,7,8,82,93,56,颗粒物(PM10)
昌吉回族自治州,亚心广场,87.3095,44.0142,2025-03-26T0000,12,88,0.4,12,5,78,95,69,颗粒物(PM10)
长春市,食品厂,125.3325,43.9166,2025-03-26T0000,103,,0.9,62,7,11,83,135,细颗粒物(PM2.5)
长春市,客车厂,125.2863,43.9027,2025-03-26T0000,149,,1.1,64,5,9,76,199,细颗粒物(PM2.5)
长春市,邮电学院,125.2841,43.8463,2025-03-26T0000,66,66,0.5,24,6,35,86,89,细颗粒物(PM2.5)
长春市,劳动公园,125.3716,43.8772,2025-03-26T0000,56,,0.6,16,6,46,83,77,细颗粒物(PM2.5)
长春市,园林处,125.3297,43.8805,2025-03-26T0000,48,63,0.4,19,6,57,84,67,细颗粒物(PM2.5)
长春市,净月潭,125.4605,43.79,2025-03-26T0000,70,80,0.5,23,5,31,82,94,细颗粒物(PM2.5)
长春市,甩湾子,125.7194,43.515,2025-03-26T0000,47,54,0.6,17,2,49,70,65,细颗粒物(PM2.5)
长春市,经开区环卫处,125.3863,43.8447,2025-03-26T0000,64,70,0.6,54,5,16,74,87,细颗粒物(PM2.5)
长春市,高新区管委会,125.245,43.7783,2025-03-26T0000,215,,1.0,65,7,13,78,265,细颗粒物(PM2.5)
长春市,岱山公园,125.1761,43.8325,2025-03-26T0000,171,177,1.1,73,5,6,76,221,细颗粒物(PM2.5)
长沙市,经开区环保局,113.0833,28.2325,2025-03-26T0000,66,106,0.8,47,9,105,187,89,细颗粒物(PM2.5)
长沙市,高开区环保局,112.8872,28.2189,2025-03-26T0000,74,103,0.8,40,10,113,183,99,细颗粒物(PM2.5)
长沙市,马坡岭,113.0792,28.2053,2025-03-26T0000,78,114,0.8,63,7,64,61,104,细颗粒物(PM2.5)
长沙市,湖南师范大学,112.9394,28.19,2025-03-26T0000,64,87,0.9,15,8,101,171,87,细颗粒物(PM2.5)
长沙市,雨花区环保局,113.0178,28.1322,2025-03-26T0000,82,111,0.9,95,11,38,182,109,细颗粒物(PM2.5)
长沙市,伍家岭,112.9792,28.2597,2025-03-26T0000,98,156,1.1,102,5,6,171,129,细颗粒物(PM2.5)
长沙市,火车新站,113.0014,28.1944,2025-03-26T0000,90,138,1.5,131,9,10,169,119,细颗粒物(PM2.5)
长沙市,天心区环保局,112.9844,28.1178,2025-03-26T0000,80,91,0.9,55,5,98,184,107,细颗粒物(PM2.5)
长沙市,湖南中医药大学,112.8908,28.1308,2025-03-26T0000,82,132,1.4,101,5,3,170,109,细颗粒物(PM2.5)
长沙市,沙坪,112.9581,28.3611,2025-03-26T0000,69,78,1.1,21,9,95,165,93,细颗粒物(PM2.5)
长治市,清华站,113.1147,36.1547,2025-03-26T0000,102,262,1.0,20,6,88,112,156,颗粒物(PM10)
长治市,审计局,113.0886,36.2125,2025-03-26T0000,112,280,1.0,27,10,94,118,165,颗粒物(PM10)
长治市,长治八中,113.0844,36.1856,2025-03-26T0000,123,276,1.2,22,10,99,119,163,颗粒物(PM10)
长治市,德盛苑,113.1569,36.1911,2025-03-26T0000,100,298,1.2,27,7,78,122,174,颗粒物(PM10)
长治市,向阳小学,113.06,36.0464,2025-03-26T0000,63,133,0.5,17,14,118,119,92,颗粒物(PM10)
长治市,屯留一中,112.8792,36.3144,2025-03-26T0000,67,244,0.8,35,12,77,112,147,颗粒物(PM10)
长治市,英华南巷50号,113.1131,36.19948,2025-03-26T0000,119,339,1.6,26,12,87,116,195,颗粒物(PM10)
长治市,学府街1号,113.2367,36.3344,2025-03-26T0000,82,371,0.9,55,8,37,122,230,颗粒物(PM10)
常德市,市二中,111.6975,28.9703,2025-03-26T0000,62,79,0.7,25,7,92,148,84,细颗粒物(PM2.5)
常德市,白鹤山,111.7158,29.1456,2025-03-26T0000,,,,,,,,,
常德市,武陵区永安,111.7153,29.0289,2025-03-26T0000,,,,,,,152,,
常德市,鼎城区玉霞,111.6892,28.9881,2025-03-26T0000,72,101,0.8,30,7,58,162,97,细颗粒物(PM2.5)
常德市,武陵区长庚,111.6625,29.0531,2025-03-26T0000,72,107,1.1,51,8,39,157,97,细颗粒物(PM2.5)
常州市,市监测站,119.9633,31.762,2025-03-26T0000,65,138,1.3,114,2,21,164,94,颗粒物(PM10)
常州市,武进监测站,119.9468,31.7069,2025-03-26T0000,42,93,0.8,46,7,106,156,72,颗粒物(PM10)
常州市,安家,119.9255,31.9087,2025-03-26T0000,48,118,0.9,117,12,19,155,84,颗粒物(PM10)
常州市,行政中心,119.9805,31.8174,2025-03-26T0000,40,85,0.6,46,18,102,152,68,颗粒物(PM10)
常州市,经开区,120.0522,31.7748,2025-03-26T0000,63,133,0.8,138,14,18,167,92,颗粒物(PM10)
常州市,钟楼,119.9025,31.7964,2025-03-26T0000,47,98,1.7,46,10,100,156,74,颗粒物(PM10)
常州市,武进经发区,119.8598,31.7066,2025-03-26T0000,44,102,0.9,41,8,124,160,76,颗粒物(PM10)
常州市,金坛城区,119.5826,31.7245,2025-03-26T0000,65,126,0.8,35,13,114,169,88,"颗粒物(PM10),细颗粒物(PM2.5)"
朝阳市,西梁,120.4318,41.5881,2025-03-26T0000,44,46,0.6,9,11,92,92,62,细颗粒物(PM2.5)
朝阳市,河畔小区,120.4521,41.5646,2025-03-26T0000,41,42,0.6,7,6,96,98,58,细颗粒物(PM2.5)
朝阳市,八里堡,120.4176,41.5648,2025-03-26T0000,35,44,0.4,8,6,88,92,50,
朝阳市,农业园区,120.3806,41.5969,2025-03-26T0000,46,56,0.7,36,8,55,93,64,细颗粒物(PM2.5)
潮州市,西园路,116.6367,23.6719,2025-03-26T0000,,,,,,,164,,
潮州市,市政府,116.6183,23.6608,2025-03-26T0000,57,,0.6,19,18,87,168,78,细颗粒物(PM2.5)
潮州市,金山,116.6461,23.6761,2025-03-26T0000,44,46,0.5,18,8,80,185,62,细颗粒物(PM2.5)
郴州市,马头岭,113.0073,25.9061,2025-03-26T0000,47,74,0.7,17,13,135,148,65,细颗粒物(PM2.5)
郴州市,市职中,113.0116,25.8226,2025-03-26T0000,56,71,0.7,13,11,171,178,77,细颗粒物(PM2.5)
郴州市,市审计局,113.0383,25.8071,2025-03-26T0000,50,59,0.6,13,7,169,174,69,细颗粒物(PM2.5)
郴州市,市环保局,113.0348,25.7759,2025-03-26T0000,51,82,0.6,11,10,172,164,70,细颗粒物(PM2.5)
郴州市,好美居路49号,113.0138,25.8011,2025-03-26T0000,52,75,0.7,10,12,177,177,72,"细颗粒物(PM2.5),臭氧1小时"
成都市,金泉两河,103.9728,30.7236,2025-03-26T0000,46,90,1.7,106,3,1,158,70,颗粒物(PM10)
成都市,十里店,104.176,30.6872,2025-03-26T0000,61,114,0.9,78,4,47,167,83,细颗粒物(PM2.5)
成都市,三瓦窑,104.079,30.5706,2025-03-26T0000,59,104,1.6,99,4,6,158,80,细颗粒物(PM2.5)
成都市,沙河铺,104.1114,30.63,2025-03-26T0000,55,93,1.5,84,6,3,143,75,细颗粒物(PM2.5)
成都市,君平街,104.0786,30.6531,2025-03-26T0000,41,114,1.6,135,8,14,142,82,颗粒物(PM10)
成都市,灵岩寺,103.613,31.0283,2025-03-26T0000,,,,,,,,,
成都市,大石西路,104.0239,30.65639,2025-03-26T0000,58,98,1.5,119,4,2,158,79,细颗粒物(PM2.5)
成都市,龙泉驿区区政府,104.2725,30.5589,2025-03-26T0000,17,44,0.7,16,5,121,162,44,
成都市,金博路,104.0106,30.6931,2025-03-26T0000,52,120,1.5,125,9,2,143,85,颗粒物(PM10)
成都市,华阳,104.0578,30.5225,2025-03-26T0000,85,,1.9,108,6,5,152,113,细颗粒物(PM2.5)
成都市,青白江技师分院,104.3853,30.7453,2025-03-26T0000,46,67,0.8,56,9,103,183,64,细颗粒物(PM2.5)
成都市,科学城,104.0789,30.4072,2025-03-26T0000,41,77,1.0,79,6,8,149,64,颗粒物(PM10)
成都市,光华大道三段,103.8506,30.6947,2025-03-26T0000,68,99,1.0,69,5,51,166,92,细颗粒物(PM2.5)
成都市,鲸龙路1057号,104.2433,30.5353,2025-03-26T0000,33,66,0.9,67,6,65,159,58,颗粒物(PM10)
承德市,铁路,117.9531,40.9081,2025-03-26T0000,10,32,0.3,21,7,56,90,32,
承德市,中国银行,117.9392,40.9763,2025-03-26T0000,16,16,0.3,19,4,43,91,23,
承德市,开发区,117.9503,40.928,2025-03-26T0000,15,48,0.3,25,8,52,92,48,
承德市,文化中心,117.8051,40.9655,2025-03-26T0000,8,20,0.3,12,4,68,90,22,
承德市,离宫,117.9268,41.0026,2025-03-26T0000,13,21,0.2,11,25,41,68,21,
池州市,池州学院,117.47,30.6618,2025-03-26T0000,33,52,0.6,16,7,113,146,51,颗粒物(PM10)
池州市,展览馆,117.4918,30.6617,2025-03-26T0000,39,64,0.7,18,7,86,148,57,颗粒物(PM10)
池州市,第八中学,117.5627,30.695,2025-03-26T0000,48,79,0.5,47,15,60,153,67,细颗粒物(PM2.5)
池州市,第十二中学,117.5038,30.6243,2025-03-26T0000,32,54,0.6,15,8,103,156,52,颗粒物(PM10)
赤峰市,松山一中,118.9233,42.2816,2025-03-26T0000,16,29,0.5,13,14,76,80,29,
赤峰市,哈达街,118.9576,42.2728,2025-03-26T0000,7,25,0.8,9,18,76,69,25,
赤峰市,天义路,118.8788,42.2554,2025-03-26T0000,21,37,0.4,14,10,73,76,37,
赤峰市,银河街,119.2658,42.0353,2025-03-26T0000,24,35,0.6,15,13,69,75,35,
赤峰市,桥北物流园区,118.9359,42.3147,2025-03-26T0000,25,28,1.2,29,22,61,80,36,
崇左市,市环保局江州分局,107.3476,22.4136,2025-03-26T0000,54,86,0.8,14,14,105,132,74,细颗粒物(PM2.5)
崇左市,石景林东路7号,107.3750,22.3736,2025-03-26T0000,60,70,0.8,17,15,109,142,82,细颗粒物(PM2.5)
滁州市,老年大学,118.3093,32.3153,2025-03-26T0000,44,82,0.7,28,8,96,169,66,颗粒物(PM10)
滁州市,人大宾馆,118.3244,32.2786,2025-03-26T0000,43,77,0.6,36,10,92,161,64,颗粒物(PM10)
滁州市,市政府原办公楼,118.3118,32.3038,2025-03-26T0000,46,76,0.5,34,7,89,175,64,细颗粒物(PM2.5)
滁州市,图书馆,118.3267,32.2634,2025-03-26T0000,43,,0.5,29,11,106,162,60,细颗粒物(PM2.5)
楚雄彝族自治州,州环境监测站,101.5482,25.0441,2025-03-26T0000,35,38,0.5,24,8,104,139,50,
楚雄彝族自治州,市经济开发区,101.538,25.0492,2025-03-26T0000,38,47,0.6,29,7,95,138,54,细颗粒物(PM2.5)
达州市,达州职业技术学院,107.5277,31.2827,2025-03-26T0000,40,78,0.3,52,7,20,128,64,颗粒物(PM10)
达州市,市环境监测站,107.5086,31.2186,2025-03-26T0000,36,75,0.8,67,7,26,137,63,颗粒物(PM10)
达州市,凤凰小区,107.4988,31.2132,2025-03-26T0000,39,78,0.6,65,9,30,137,64,颗粒物(PM10)
达州市,达县机关宾馆,107.5082,31.1986,2025-03-26T0000,39,80,0.9,74,6,2,120,65,颗粒物(PM10)
达州市,市政中心,107.4644,31.2124,2025-03-26T0000,41,89,0.8,88,5,4,126,70,颗粒物(PM10)
大理白族自治州,大理市环境监测站,100.1542,25.7054,2025-03-26T0000,22,24,0.6,17,7,101,123,32,
大理白族自治州,大理古城,100.2171,25.5811,2025-03-26T0000,17,30,0.5,12,7,97,123,31,
大连市,甘井子,121.612,38.9741,2025-03-26T0000,49,187,0.6,20,6,92,102,119,颗粒物(PM10)
大连市,周水子,121.565,38.9511,2025-03-26T0000,55,172,0.4,21,8,82,93,111,颗粒物(PM10)
大连市,星海三站,121.5637,38.8845,2025-03-26T0000,51,159,0.6,10,7,86,100,105,颗粒物(PM10)
大连市,青泥洼桥,121.6302,38.9117,2025-03-26T0000,54,164,0.6,11,9,87,100,107,颗粒物(PM10)
大连市,傅家庄,121.6251,38.8638,2025-03-26T0000,100,169,0.6,20,8,83,96,132,细颗粒物(PM2.5)
大连市,七贤岭,121.5213,38.8661,2025-03-26T0000,44,160,0.6,14,6,80,95,105,颗粒物(PM10)
大连市,旅顺,121.2529,38.8061,2025-03-26T0000,37,120,0.6,11,8,100,102,85,颗粒物(PM10)
大连市,金州,121.7485,39.1311,2025-03-26T0000,47,165,1.3,18,7,86,97,108,颗粒物(PM10)
大连市,开发区,121.7811,39.0496,2025-03-26T0000,53,178,0.8,16,6,82,94,114,颗粒物(PM10)
大连市,双D港,121.9762,39.0631,2025-03-26T0000,51,81,0.8,18,5,97,106,70,细颗粒物(PM2.5)
大庆市,大同区,124.81117,46.03138,2025-03-26T0000,33,47,0.4,23,6,47,82,48,
大庆市,龙凤区,125.129,46.533,2025-03-26T0000,21,39,0.4,19,7,50,77,39,
大庆市,红岗区,124.902,46.408,2025-03-26T0000,29,35,0.4,17,7,49,85,42,
大庆市,萨尔图区,125.153,46.586,2025-03-26T0000,18,23,0.3,15,11,60,76,26,
大庆市,让胡路区,124.9042,46.6215,2025-03-26T0000,29,37,0.4,29,9,46,76,42,
大庆市,萨区政府监测点,125.141,46.634,2025-03-26T0000,9,26,0.3,8,5,67,83,26,
大同市,果树场,113.3819,40.1097,2025-03-26T0000,47,95,1.3,59,11,12,94,73,颗粒物(PM10)
大同市,云冈宾馆,113.2994,40.0758,2025-03-26T0000,37,116,0.9,72,11,9,99,83,颗粒物(PM10)
大同市,大同大学,113.3444,40.0917,2025-03-26T0000,43,130,1.3,53,20,25,98,90,颗粒物(PM10)
大同市,安家小村,113.2661,40.1269,2025-03-26T0000,40,96,0.5,58,12,26,95,73,颗粒物(PM10)
大同市,教育学院,113.2711,40.0844,2025-03-26T0000,56,112,0.7,69,12,20,99,81,颗粒物(PM10)
大同市,大同市卫生学校,113.3397,40.0597,2025-03-26T0000,77,78,0.5,41,9,49,96,103,细颗粒物(PM2.5)
大同市,云冈站,113.1367,40.1122,2025-03-26T0000,43,122,0.6,66,34,10,93,86,颗粒物(PM10)
大同市,图书馆,113.1186,40.2556,2025-03-26T0000,40,85,1.0,19,11,34,90,68,颗粒物(PM10)
大同市,区一中,113.5931,40.0461,2025-03-26T0000,26,57,0.4,12,18,82,99,54,颗粒物(PM10)
大同市,魏都大道141号,113.2798,40.0997,2025-03-26T0000,63,146,1.1,81,18,10,101,98,颗粒物(PM10)
大兴安岭地区,科技局,124.1069,50.4097,2025-03-26T0000,17,18,0.3,4,7,73,79,25,
大兴安岭地区,红旗社区,124.1164,50.4278,2025-03-26T0000,3,7,0.4,16,28,66,81,21,
丹东市,江湾东路,124.3303,40.0625,2025-03-26T0000,91,179,0.8,22,8,94,102,120,细颗粒物(PM2.5)
丹东市,临江后街,124.4256,40.1503,2025-03-26T0000,91,179,0.9,19,10,84,98,120,细颗粒物(PM2.5)
丹东市,元宝山,124.3933,40.1461,2025-03-26T0000,77,161,0.5,19,6,84,95,106,颗粒物(PM10)
丹东市,民主桥,124.3633,40.1092,2025-03-26T0000,86,163,0.9,19,7,88,97,114,细颗粒物(PM2.5)
儋州市,第一中学子站,109.5726,19.5167,2025-03-26T0000,30,46,0.8,12,5,56,101,46,
儋州市,东坡学校子站,109.5567,19.5187,2025-03-26T0000,39,54,0.7,9,5,62,108,55,细颗粒物(PM2.5)
德宏傣族景颇族自治州,德宏州监测站,98.5842,24.428,2025-03-26T0000,44,61,0.7,22,7,70,123,62,细颗粒物(PM2.5)
德宏傣族景颇族自治州,芒市人民政府综合楼,98.5881,24.4368,2025-03-26T0000,40,76,0.5,15,8,75,124,63,颗粒物(PM10)
德阳市,东山公园,104.4239,31.1208,2025-03-26T0000,58,91,0.6,20,8,175,194,79,细颗粒物(PM2.5)
德阳市,西小区,104.3826,31.1317,2025-03-26T0000,95,132,1.0,120,7,18,175,125,细颗粒物(PM2.5)
德阳市,耐火材料厂,104.3553,31.1091,2025-03-26T0000,106,139,0.7,78,9,61,187,139,细颗粒物(PM2.5)
德阳市,市教育局,104.4019,31.1244,2025-03-26T0000,78,94,1.0,118,7,31,180,104,细颗粒物(PM2.5)
德州市,儿童乐园,116.3032,37.4674,2025-03-26T0000,34,107,0.6,29,12,72,116,79,颗粒物(PM10)
德州市,监理站,116.2991,37.4451,2025-03-26T0000,36,119,0.3,24,19,77,110,85,颗粒物(PM10)
德州市,九衢泉纯净水厂,116.2721,37.4379,2025-03-26T0000,29,110,0.6,28,13,81,114,80,颗粒物(PM10)
德州市,开发区人民医院,116.3728,37.4403,2025-03-26T0000,34,97,0.4,32,12,71,112,74,颗粒物(PM10)
德州市,太阳城中学,116.3572,37.4094,2025-03-26T0000,24,105,0.4,29,12,72,112,78,颗粒物(PM10)
德州市,陵城艺术中心,116.5652,37.3319,2025-03-26T0000,29,102,0.5,30,16,69,110,76,颗粒物(PM10)
迪庆藏族自治州,迪庆州站,99.7056,27.8317,2025-03-26T0000,18,25,0.5,12,9,72,107,26,
迪庆藏族自治州,质量技术监督局,99.7136,27.8094,2025-03-26T0000,12,31,0.7,18,9,69,112,31,
定西市,将台街,104.6092,35.5962,2025-03-26T0000,28,83,0.7,41,10,63,116,67,颗粒物(PM10)
定西市,正龙路62号,104.6159,35.5701,2025-03-26T0000,34,67,0.6,19,12,88,121,59,颗粒物(PM10)
东莞市,莞城梨川,113.7547,23.0494,2025-03-26T0000,19,41,0.4,15,4,105,211,41,
东莞市,东城石井,113.7944,23.0128,2025-03-26T0000,18,42,0.5,19,6,108,211,42,
东莞市,南城西平,113.7383,22.9658,2025-03-26T0000,13,42,0.6,14,6,105,195,42,
东莞市,万江金泰,113.7338,23.0381,2025-03-26T0000,17,39,0.7,10,5,112,226,39,
东莞市,南城元岭,113.7533,23.0202,2025-03-26T0000,15,37,0.6,14,6,100,204,37,
东莞市,东城主山,113.7875,23.0457,2025-03-26T0000,20,42,0.5,25,7,102,213,42,
东营市,市环保局,118.6614,37.4309,2025-03-26T0000,34,161,0.4,15,5,82,114,106,颗粒物(PM10)
东营市,开发区管委会,118.6904,37.4338,2025-03-26T0000,19,201,0.5,22,5,75,110,126,颗粒物(PM10)
东营市,垦利区民丰路,118.5719,37.565,2025-03-26T0000,17,239,0.5,16,3,74,108,145,颗粒物(PM10)
东营市,河口城区,118.5055,37.8612,2025-03-26T0000,24,205,0.6,12,4,99,112,128,颗粒物(PM10)
东营市,胜利站,118.4978,37.4623,2025-03-26T0000,14,171,0.8,14,8,85,114,111,颗粒物(PM10)
东营市,理想之城,118.35,37.26,2025-03-26T0000,17,173,0.3,14,6,81,113,112,颗粒物(PM10)
鄂尔多斯市,综合楼,110.0023,39.8129,2025-03-26T0000,95,517,0.5,23,11,72,108,417,颗粒物(PM10)
鄂尔多斯市,巴音孟克林场办事处,109.9486,39.8261,2025-03-26T0000,100,427,0.5,20,11,74,112,309,颗粒物(PM10)
鄂尔多斯市,康泽苑,109.7736,39.5986,2025-03-26T0000,107,525,0.3,22,5,57,112,425,颗粒物(PM10)
鄂尔多斯市,华泰汽车城,109.8119,39.5989,2025-03-26T0000,102,498,0.5,33,5,47,110,398,颗粒物(PM10)
鄂尔多斯市,奥林花园,109.9734,39.7884,2025-03-26T0000,85,517,0.5,24,9,68,115,417,颗粒物(PM10)
鄂州市,市政府,114.8938,30.3994,2025-03-26T0000,52,76,1.4,19,12,117,128,72,细颗粒物(PM2.5)
鄂州市,赵家坝,114.8989,30.3714,2025-03-26T0000,51,72,1.4,17,11,105,142,70,细颗粒物(PM2.5)
鄂州市,精准医疗中心,114.8094,30.4089,2025-03-26T0000,58,92,2.9,33,60,120,167,79,细颗粒物(PM2.5)
恩施土家族苗族自治州,湖北民院,109.4978,30.2981,2025-03-26T0000,,,,,,,89,,
恩施土家族苗族自治州,州电力总公司,109.4707,30.2798,2025-03-26T0000,63,92,0.7,64,6,7,114,85,细颗粒物(PM2.5)
恩施土家族苗族自治州,龙凤新区,109.5061,30.3772,2025-03-26T0000,35,51,0.4,14,6,44,126,51,颗粒物(PM10)
防城港市,沙万,108.3411,21.6158,2025-03-26T0000,23,23,0.4,23,7,41,64,33,
防城港市,防城档案局,108.3514,21.7731,2025-03-26T0000,13,29,0.3,10,1,53,78,29,
防城港市,大海花园,108.3506,21.6414,2025-03-26T0000,16,26,0.6,8,4,54,70,26,
佛山市,湾梁,113.1294,23.0067,2025-03-26T0000,24,58,0.8,34,8,85,180,54,颗粒物(PM10)
佛山市,华材职中,113.1083,23.0478,2025-03-26T0000,27,56,0.5,28,7,97,210,53,颗粒物(PM10)
佛山市,南海气象局,113.144,23.0453,2025-03-26T0000,32,44,0.6,33,8,72,158,46,
佛山市,顺德苏岗,113.2881,22.8094,2025-03-26T0000,27,56,0.7,23,11,76,148,53,颗粒物(PM10)
佛山市,高明孔堂,112.8383,22.8678,2025-03-26T0000,29,44,0.4,11,8,105,162,44,
佛山市,三水监测站,112.8836,23.1588,2025-03-26T0000,37,61,0.6,50,4,66,158,56,颗粒物(PM10)
佛山市,三水云东海,112.867,23.185,2025-03-26T0000,34,66,0.6,50,2,74,195,58,颗粒物(PM10)
佛山市,容桂街道办,113.2544,22.7642,2025-03-26T0000,19,39,0.7,28,9,87,161,39,
福州市,鼓山,119.3903,26.0543,2025-03-26T0000,,,,,,,226,,
福州市,师大,119.2681,26.0504,2025-03-26T0000,50,66,0.4,25,5,92,223,69,细颗粒物(PM2.5)
福州市,五四北路,119.2984,26.1028,2025-03-26T0000,45,64,0.6,36,5,85,221,63,细颗粒物(PM2.5)
福州市,杨桥西路,119.2648,26.0768,2025-03-26T0000,45,71,0.5,40,5,70,223,63,细颗粒物(PM2.5)
福州市,紫阳,119.317,26.0746,2025-03-26T0000,52,65,0.3,30,6,95,209,72,细颗粒物(PM2.5)
福州市,九龙,119.5799,26.0936,2025-03-26T0000,39,65,0.3,30,5,76,191,58,颗粒物(PM10)
福州市,吴航,119.5189,25.9664,2025-03-26T0000,35,61,0.4,20,5,91,208,56,颗粒物(PM10)
抚顺市,望花区,123.7977,41.8491,2025-03-26T0000,173,214,0.9,22,9,88,96,223,细颗粒物(PM2.5)
抚顺市,顺城区,123.9161,41.8822,2025-03-26T0000,163,190,0.9,33,5,76,93,213,细颗粒物(PM2.5)
抚顺市,东洲区,124.0436,41.8611,2025-03-26T0000,182,204,1.0,28,6,64,93,232,细颗粒物(PM2.5)
抚顺市,新抚区,123.9247,41.8642,2025-03-26T0000,176,189,0.8,22,4,83,90,226,细颗粒物(PM2.5)
抚顺市,大伙房水库,124.0972,41.8961,2025-03-26T0000,178,192,1.0,26,6,72,96,228,细颗粒物(PM2.5)
抚顺市,沈抚新城,123.7086,41.8391,2025-03-26T0000,140,162,1.0,30,7,72,94,186,细颗粒物(PM2.5)
抚州市,桐源党溪,116.2127,28.0814,2025-03-26T0000,43,68,0.5,37,3,29,134,60,细颗粒物(PM2.5)
抚州市,市站,116.3544,27.9831,2025-03-26T0000,24,107,1.5,69,6,41,128,79,颗粒物(PM10)
抚州市,血防站,116.3565,27.963,2025-03-26T0000,62,113,1.5,64,16,43,131,84,细颗粒物(PM2.5)
抚州市,采茶剧团,116.3564,28.0007,2025-03-26T0000,58,90,0.8,28,6,44,110,79,细颗粒物(PM2.5)
抚州市,医学分院,116.385,27.9647,2025-03-26T0000,59,108,1.3,55,13,46,107,80,细颗粒物(PM2.5)
阜新市,工业园区,121.6094,41.998,2025-03-26T0000,81,111,0.6,20,14,82,94,108,细颗粒物(PM2.5)
阜新市,长青街,121.6697,42.0279,2025-03-26T0000,87,112,0.8,25,20,68,96,115,细颗粒物(PM2.5)
阜新市,农业园区,121.6673,42.0705,2025-03-26T0000,85,120,0.7,33,75,51,100,113,细颗粒物(PM2.5)
阜新市,东苑,121.6717,42.0224,2025-03-26T0000,86,136,0.8,23,35,72,96,114,细颗粒物(PM2.5)
阜新市,玉龙新城,121.6506,42.0498,2025-03-26T0000,91,125,0.8,48,35,31,88,120,细颗粒物(PM2.5)
阜阳市,市监测站,115.8277,32.8929,2025-03-26T0000,37,82,0.4,40,8,67,142,66,颗粒物(PM10)
阜阳市,开发区,115.8554,32.8605,2025-03-26T0000,38,84,0.5,33,7,82,149,67,颗粒物(PM10)
阜阳市,阜阳职业技术学院,115.784,32.8892,2025-03-26T0000,34,59,0.5,15,8,109,136,55,颗粒物(PM10)
阜阳市,市规划展馆,115.7901,32.8613,2025-03-26T0000,44,64,0.4,22,8,104,156,62,细颗粒物(PM2.5)
阜阳市,枣园社区,115.836,32.9183,2025-03-26T0000,43,65,0.6,27,9,96,154,60,细颗粒物(PM2.5)
甘南藏族自治州,州政府,102.9099,34.9841,2025-03-26T0000,43,78,1.3,61,18,9,93,64,颗粒物(PM10)
甘南藏族自治州,甘肃民族师范学院,102.8914,34.9617,2025-03-26T0000,8,36,0.4,43,9,35,102,36,
甘孜藏族自治州,水桥子,101.9603,30.0475,2025-03-26T0000,15,54,0.7,55,4,15,94,52,颗粒物(PM10)
甘孜藏族自治州,州环保局,101.9533,29.9972,2025-03-26T0000,3,21,0.4,6,4,80,106,25,
赣江新区,桑海产业园,115.8347,28.932,2025-03-26T0000,58,97,0.6,62,12,64,156,79,细颗粒物(PM2.5)
赣州市,通天岩,114.9017,25.9149,2025-03-26T0000,13,67,0.9,4,12,179,219,74,臭氧1小时
赣州市,地委,114.9367,25.8664,2025-03-26T0000,44,64,1.2,10,6,149,173,62,细颗粒物(PM2.5)
赣州市,气象台,114.9461,25.8481,2025-03-26T0000,39,66,0.7,12,12,159,182,58,颗粒物(PM10)
赣州市,市图书馆,114.9322,25.8333,2025-03-26T0000,40,56,0.8,11,7,156,179,57,细颗粒物(PM2.5)
赣州市,华坚鞋城,114.8905,25.8471,2025-03-26T0000,39,62,0.9,14,14,168,198,60,臭氧1小时
赣州市,赣县区卫计委,115.0093,25.8613,2025-03-26T0000,57,87,0.9,38,6,70,175,78,细颗粒物(PM2.5)
固原市,马园,106.2319,36.1417,2025-03-26T0000,14,44,0.5,11,5,93,106,44,
固原市,监测站,106.2792,36.0022,2025-03-26T0000,21,49,0.5,51,7,56,112,49,
固原市,新区,106.2375,36.0211,2025-03-26T0000,19,40,0.2,6,7,113,110,40,
固原市,原州区十五小,106.2177,35.9959,2025-03-26T0000,17,59,0.3,6,7,110,110,55,颗粒物(PM10)
广安市,小平旧居,106.6308,30.5278,2025-03-26T0000,,,,,,,,,
广安市,市委,106.6303,30.4576,2025-03-26T0000,48,64,0.5,24,9,90,138,67,细颗粒物(PM2.5)
广安市,友谊中学,106.6271,30.4663,2025-03-26T0000,31,57,0.5,19,5,111,147,54,颗粒物(PM10)
广安市,广电花园,106.6388,30.4551,2025-03-26T0000,61,78,1.3,75,5,16,134,83,细颗粒物(PM2.5)
广安市,北辰小学,106.6351,30.4865,2025-03-26T0000,40,63,0.6,16,12,119,160,57,"颗粒物(PM10),细颗粒物(PM2.5)"
广元市,黑石坡,105.8945,32.4535,2025-03-26T0000,28,52,0.5,16,5,106,138,51,颗粒物(PM10)
广元市,老城,105.821,32.4444,2025-03-26T0000,28,57,0.6,104,1,6,148,54,颗粒物(PM10)
广元市,监测站,105.8628,32.4287,2025-03-26T0000,21,53,0.4,23,7,92,150,52,颗粒物(PM10)
广元市,经开区,105.8047,32.4166,2025-03-26T0000,40,61,0.6,79,5,30,135,57,细颗粒物(PM2.5)
广州市,广雅中学,113.2347,23.1423,2025-03-26T0000,32,64,0.7,68,5,31,182,57,颗粒物(PM10)
广州市,市五中,113.2612,23.105,2025-03-26T0000,27,62,0.7,73,3,27,189,56,颗粒物(PM10)
广州市,广东商学院,113.3478,23.0916,2025-03-26T0000,30,73,0.7,77,5,24,197,62,颗粒物(PM10)
广州市,市八十六中,113.4332,23.1047,2025-03-26T0000,15,41,0.5,46,4,58,176,41,
广州市,番禺中学,113.3505,22.9483,2025-03-26T0000,27,53,0.4,47,5,58,202,52,颗粒物(PM10)
广州市,花都师范,113.2146,23.3916,2025-03-26T0000,23,60,0.5,48,4,42,223,55,颗粒物(PM10)
广州市,市监测站,113.2597,23.1331,2025-03-26T0000,26,53,0.7,68,6,32,179,52,颗粒物(PM10)
广州市,九龙镇镇龙,113.5618,23.312,2025-03-26T0000,26,62,0.5,50,7,57,208,56,颗粒物(PM10)
广州市,麓湖,113.2765,23.1544,2025-03-26T0000,25,54,0.5,62,6,41,200,52,颗粒物(PM10)
广州市,帽峰山森林公园,113.443,23.3035,2025-03-26T0000,17,63,0.6,50,10,56,217,57,颗粒物(PM10)
广州市,体育西,113.3221,23.1322,2025-03-26T0000,30,70,0.5,57,5,26,205,60,颗粒物(PM10)
广州市,从化街口,113.5717,23.5491,2025-03-26T0000,33,67,0.8,55,10,77,251,59,颗粒物(PM10)
广州市,白云竹料,113.3472,23.3692,2025-03-26T0000,28,68,0.6,58,10,57,231,59,颗粒物(PM10)
广州市,白云嘉禾,113.2981,23.237,2025-03-26T0000,27,61,0.3,72,5,31,200,56,颗粒物(PM10)
广州市,黄埔科学城,113.4256,23.1716,2025-03-26T0000,20,55,0.4,48,10,59,208,53,颗粒物(PM10)
广州市,番禺大学城,113.3942,23.0483,2025-03-26T0000,20,64,0.4,43,11,67,206,57,颗粒物(PM10)
广州市,南沙黄阁,113.4922,22.8168,2025-03-26T0000,17,38,0.6,27,5,78,168,38,
广州市,南沙街,113.5342,22.7896,2025-03-26T0000,18,43,0.6,26,4,82,160,43,
广州市,花都梯面,113.2902,23.5544,2025-03-26T0000,34,77,0.8,37,9,75,239,64,颗粒物(PM10)
广州市,从化良口,113.7858,23.7478,2025-03-26T0000,45,66,0.7,22,7,120,237,63,细颗粒物(PM2.5)
广州市,增城荔城,113.8051,23.2614,2025-03-26T0000,24,54,0.4,30,7,74,242,52,颗粒物(PM10)
贵港市,德智高中,109.568,23.1478,2025-03-26T0000,,,,,,,,,
贵港市,江南子站,109.6047,23.0666,2025-03-26T0000,33,56,0.7,20,4,89,131,53,颗粒物(PM10)
贵港市,贵城子站,109.6014,23.0948,2025-03-26T0000,27,48,0.7,14,6,86,124,48,
贵港市,荷城子站,109.5669,23.1065,2025-03-26T0000,19,44,0.5,15,9,76,110,44,
贵港市,新世纪学校,109.5886,23.1172,2025-03-26T0000,28,46,0.7,12,4,87,125,46,
贵阳市,马鞍山,106.6899,26.5998,2025-03-26T0000,48,63,0.6,32,4,31,154,67,细颗粒物(PM2.5)
贵阳市,鉴湖路,106.6243,26.6266,2025-03-26T0000,27,63,0.5,14,15,114,146,57,颗粒物(PM10)
贵阳市,燕子冲,106.7487,26.6343,2025-03-26T0000,34,51,0.5,37,5,62,162,51,颗粒物(PM10)
贵阳市,碧云窝,106.6555,26.4365,2025-03-26T0000,36,63,0.5,21,31,110,156,57,颗粒物(PM10)
贵阳市,红边门,106.7109,26.6027,2025-03-26T0000,56,97,1.8,79,30,3,149,77,细颗粒物(PM2.5)
贵阳市,新华路,106.7164,26.5699,2025-03-26T0000,66,139,2.1,68,23,3,144,95,颗粒物(PM10)
贵阳市,太慈桥,106.674,26.5424,2025-03-26T0000,36,68,0.6,55,9,24,152,59,颗粒物(PM10)
贵阳市,桐木岭,106.805,26.3003,2025-03-26T0000,30,42,0.7,6,20,121,140,43,
贵阳市,花果园大街66号,106.6882,26.5695,2025-03-26T0000,45,70,0.7,85,14,43,144,63,细颗粒物(PM2.5)
贵阳市,漓江路57号,106.6873,26.5169,2025-03-26T0000,53,105,0.8,104,16,7,144,78,颗粒物(PM10)
桂林市,电子科大尧山校区,110.4144,25.3167,2025-03-26T0000,,,,,,,,,
桂林市,龙隐路小学,110.3089,25.2708,2025-03-26T0000,66,83,0.8,39,11,65,167,89,细颗粒物(PM2.5)
桂林市,八中,110.2869,25.2178,2025-03-26T0000,67,107,1.0,46,11,57,159,90,细颗粒物(PM2.5)
桂林市,旅游学院,110.296,25.1253,2025-03-26T0000,61,83,0.6,26,11,81,156,83,细颗粒物(PM2.5)
桂林市,环湖路276号,110.1835,25.2444,2025-03-26T0000,63,92,0.6,53,8,47,149,85,细颗粒物(PM2.5)
桂林市,信义路13号,110.2803,25.2773,2025-03-26T0000,84,92,1.1,57,14,52,164,112,细颗粒物(PM2.5)
果洛藏族自治州,玛沁县大武镇,100.2561,34.4714,2025-03-26T0000,15,22,0.3,1,14,100,113,32,
哈尔滨市,岭北,126.5422,45.755,2025-03-26T0000,37,54,1.1,27,16,71,102,53,细颗粒物(PM2.5)
哈尔滨市,松北商大,126.561,45.8167,2025-03-26T0000,41,78,0.7,54,6,20,79,64,颗粒物(PM10)
哈尔滨市,阿城会宁,126.979,45.5419,2025-03-26T0000,48,56,0.8,34,2,28,80,67,细颗粒物(PM2.5)
哈尔滨市,南岗学府路,126.599,45.7222,2025-03-26T0000,11,46,0.5,23,6,61,76,46,
哈尔滨市,太平宏伟公园,126.689,45.7733,2025-03-26T0000,28,46,1.2,19,6,55,73,46,
哈尔滨市,道外承德广场,126.635,45.7667,2025-03-26T0000,34,61,0.7,34,6,45,63,56,颗粒物(PM10)
哈尔滨市,香坊红旗大街,126.685,45.7319,2025-03-26T0000,23,41,0.8,25,9,54,74,41,
哈尔滨市,动力和平路,126.6411,45.7258,2025-03-26T0000,21,28,0.4,17,10,63,76,30,
哈尔滨市,道里建国路,126.593,45.7478,2025-03-26T0000,21,39,0.3,24,3,61,73,39,
哈尔滨市,平房东轻厂,126.615,45.61,2025-03-26T0000,46,60,0.9,54,9,22,67,64,细颗粒物(PM2.5)
哈尔滨市,呼兰师专,126.595,45.9855,2025-03-26T0000,75,110,1.4,76,11,10,73,100,细颗粒物(PM2.5)
哈尔滨市,省农科院,126.6206,45.6842,2025-03-26T0000,33,36,0.8,32,11,47,72,48,
哈密市,地区监测站,93.5128,42.8172,2025-03-26T0000,49,205,0.1,2,13,78,77,128,颗粒物(PM10)
哈密市,哈密师范学校,93.4961,42.8328,2025-03-26T0000,70,265,0.1,6,4,82,79,158,颗粒物(PM10)
海北藏族自治州,海晏县西海镇,100.9048,36.9639,2025-03-26T0000,13,21,0.5,6,7,69,108,22,
海东市,平安区公安北苑,102.0738,36.5056,2025-03-26T0000,28,47,0.8,45,19,22,106,47,
海口市,东寨港,110.576,19.9507,2025-03-26T0000,18,26,0.2,5,3,53,97,26,
海口市,海南大学,110.3232,20.0574,2025-03-26T0000,14,31,0.3,5,2,66,115,31,
海口市,秀英海南医院,110.283,20.0053,2025-03-26T0000,16,42,0.4,18,4,49,110,42,
海口市,海南师范大学,110.338,19.9969,2025-03-26T0000,16,40,0.3,3,3,63,124,40,
海口市,龙华路环保局宿舍,110.33,20.0356,2025-03-26T0000,14,39,0.3,3,4,66,119,39,
海口市,桂林洋子站,110.5111,19.9736,2025-03-26T0000,14,29,0.3,7,3,62,113,29,
海南藏族自治州,共和县恰卜恰镇,100.6188,36.2866,2025-03-26T0000,3,26,0.4,8,12,89,109,28,
海西蒙古族藏族自治州,德令哈市,97.3731,37.3753,2025-03-26T0000,17,22,0.4,6,14,79,103,25,
邯郸市,东污水处理厂,114.5302,36.6116,2025-03-26T0000,29,150,0.4,51,2,38,96,100,颗粒物(PM10)
邯郸市,矿院,114.4918,36.5713,2025-03-26T0000,48,206,0.4,58,3,20,90,128,颗粒物(PM10)
邯郸市,丛台公园,114.484,36.6133,2025-03-26T0000,48,214,0.4,80,5,3,96,132,颗粒物(PM10)
邯郸市,香泉濮院小区,114.7895,36.5593,2025-03-26T0000,71,207,0.3,51,6,35,107,129,颗粒物(PM10)
邯郸市,永年区实验高中,114.50634,36.77178,2025-03-26T0000,50,190,0.5,34,7,48,95,120,颗粒物(PM10)
邯郸市,峰峰矿区临水派出所,114.20016,36.44293,2025-03-26T0000,51,254,0.7,7,13,87,108,152,颗粒物(PM10)
汉中市,汉川机床厂子校,106.9893,33.1842,2025-03-26T0000,31,46,0.4,8,7,77,156,46,
汉中市,市监测站,107.0154,33.0706,2025-03-26T0000,50,84,1.2,50,9,46,150,69,细颗粒物(PM2.5)
汉中市,鑫源开发区,107.0089,33.1138,2025-03-26T0000,47,81,0.8,55,8,49,149,66,颗粒物(PM10)
汉中市,南郑大河坎水厂,107.007,33.0323,2025-03-26T0000,44,75,0.7,32,7,71,150,63,颗粒物(PM10)
杭州市,滨江,120.2072,30.2111,2025-03-26T0000,57,80,0.6,44,7,74,155,78,细颗粒物(PM2.5)
杭州市,西溪,120.0633,30.2747,2025-03-26T0000,28,60,0.3,24,6,25,146,55,颗粒物(PM10)
杭州市,下沙,120.3417,30.3150,2025-03-26T0000,54,113,0.6,128,8,26,146,82,颗粒物(PM10)
杭州市,卧龙桥,120.1269,30.2456,2025-03-26T0000,25,49,0.4,39,6,35,152,49,
杭州市,浙江农大,120.1903,30.2692,2025-03-26T0000,54,97,0.6,78,3,24,150,74,"颗粒物(PM10),细颗粒物(PM2.5)"
杭州市,和睦小学,120.1197,30.3119,2025-03-26T0000,39,70,0.9,73,7,20,145,60,颗粒物(PM10)
杭州市,临平镇,120.3019,30.4183,2025-03-26T0000,76,143,0.9,138,8,4,154,102,细颗粒物(PM2.5)
杭州市,城厢镇,120.2753,30.1839,2025-03-26T0000,46,94,0.6,60,8,69,152,72,颗粒物(PM10)
杭州市,云栖,120.0883,30.1808,2025-03-26T0000,23,49,0.4,46,8,45,148,49,
杭州市,镇二中,119.9464,30.0494,2025-03-26T0000,54,80,0.8,74,7,9,137,74,细颗粒物(PM2.5)
杭州市,市府大楼,119.7183,30.2367,2025-03-26T0000,41,71,0.7,42,8,63,136,61,颗粒物(PM10)
杭州市,消防大队,120.1556,30.2864,2025-03-26T0000,55,94,0.6,56,3,56,138,75,细颗粒物(PM2.5)
合肥市,明珠广场,117.1959,31.7848,2025-03-26T0000,36,61,0.4,43,6,83,158,56,颗粒物(PM10)
合肥市,三里街,117.3072,31.8764,2025-03-26T0000,39,70,0.6,84,6,31,146,60,颗粒物(PM10)
合肥市,琥珀山庄,117.2588,31.8707,2025-03-26T0000,39,56,0.4,24,3,112,156,55,细颗粒物(PM2.5)
合肥市,董铺水库,117.1604,31.9052,2025-03-26T0000,31,73,0.3,24,3,112,156,62,颗粒物(PM10)
合肥市,长江中路,117.25,31.8571,2025-03-26T0000,35,58,0.4,26,9,108,152,54,颗粒物(PM10)
合肥市,庐阳区,117.266,31.9436,2025-03-26T0000,24,61,0.5,24,8,118,155,56,颗粒物(PM10)
合肥市,瑶海区,117.3453,31.8616,2025-03-26T0000,32,68,0.6,37,7,81,156,59,颗粒物(PM10)
合肥市,包河区,117.3027,31.7964,2025-03-26T0000,31,68,0.6,44,6,78,164,59,颗粒物(PM10)
合肥市,滨湖新区,117.2776,31.7385,2025-03-26T0000,31,58,0.4,16,12,123,156,54,颗粒物(PM10)
合肥市,高新区,117.1318,31.8403,2025-03-26T0000,32,68,0.6,28,4,103,146,59,颗粒物(PM10)
合肥市,高教基地,117.3803,31.9147,2025-03-26T0000,31,57,0.3,22,10,98,179,54,颗粒物(PM10)
和田地区,地区环保局,79.924,37.0877,2025-03-26T0000,96,346,0.6,42,2,56,86,198,颗粒物(PM10)
和田地区,市环保局,79.9131,37.113,2025-03-26T0000,90,373,1.1,38,2,50,95,233,颗粒物(PM10)
河池市,东仁乐园,108.2011,24.715,2025-03-26T0000,69,110,1.0,45,8,54,153,93,细颗粒物(PM2.5)
河池市,市环保站,108.0497,24.6947,2025-03-26T0000,,,0.8,20,,87,148,,
河池市,市疾控中心,108.0983,24.6989,2025-03-26T0000,69,78,1.0,58,8,56,159,93,细颗粒物(PM2.5)
河源市,源西,114.6778,23.7569,2025-03-26T0000,41,78,0.7,27,6,112,192,64,颗粒物(PM10)
河源市,东埔,114.6944,23.7586,2025-03-26T0000,49,100,0.6,28,7,124,225,75,颗粒物(PM10)
河源市,老城,114.6892,23.7233,2025-03-26T0000,40,77,0.7,29,8,123,232,64,颗粒物(PM10)
菏泽市,气象局,115.4208,35.2464,2025-03-26T0000,62,211,0.5,17,10,113,114,131,颗粒物(PM10)
菏泽市,定陶老年大学,115.5564,35.0891,2025-03-26T0000,63,222,0.7,27,11,82,115,136,颗粒物(PM10)
菏泽市,永昌路1号,115.4797,35.24401,2025-03-26T0000,62,243,0.5,20,14,100,120,147,颗粒物(PM10)
菏泽市,长城路999号,115.4715,35.2800,2025-03-26T0000,64,268,0.7,30,27,98,115,159,颗粒物(PM10)
贺州市,环保小区,111.5264,24.4172,2025-03-26T0000,71,110,1.1,58,12,46,182,95,细颗粒物(PM2.5)
贺州市,政协大楼,111.5608,24.4078,2025-03-26T0000,62,98,1.1,65,19,39,179,84,细颗粒物(PM2.5)
贺州市,西湾,111.4744,24.4553,2025-03-26T0000,72,92,1.1,54,9,61,164,97,细颗粒物(PM2.5)
鹤壁市,市监测站,114.17,35.9019,2025-03-26T0000,77,382,0.6,54,7,15,101,246,颗粒物(PM10)
鹤壁市,市交警支队,114.2956,35.7511,2025-03-26T0000,54,313,0.2,46,11,38,101,182,颗粒物(PM10)
鹤壁市,迎宾馆,114.2878,35.7306,2025-03-26T0000,53,377,0.7,37,7,42,107,239,颗粒物(PM10)
鹤壁市,大新区,114.2617,35.6822,2025-03-26T0000,68,373,0.7,33,6,50,105,233,颗粒物(PM10)
鹤壁市,南山宾馆,114.1572,35.9603,2025-03-26T0000,64,379,0.5,26,14,69,107,242,颗粒物(PM10)
鹤岗市,哈啤分公司,130.2537,47.3416,2025-03-26T0000,14,15,0.5,1,14,66,76,21,
鹤岗市,斯达机电,130.2684,47.3086,2025-03-26T0000,12,19,0.3,2,13,69,71,22,
鹤岗市,东山纸板厂,130.3114,47.3388,2025-03-26T0000,25,27,0.1,2,13,74,74,36,
鹤岗市,五号水库,130.1097,47.3382,2025-03-26T0000,,,,,,,,,
黑河市,交通局,127.4833,50.2524,2025-03-26T0000,15,20,0.4,7,8,57,77,22,
黑河市,环保局,127.5144,50.2341,2025-03-26T0000,16,,0.3,7,6,66,81,23,
黑河市,大黑河岛,127.5291,50.2472,2025-03-26T0000,7,,,6,3,39,31,,
衡水市,电机北厂,115.6838,37.7541,2025-03-26T0000,31,88,0.3,38,6,63,115,69,颗粒物(PM10)
衡水市,市监测站,115.6303,37.7316,2025-03-26T0000,18,74,0.3,24,9,85,113,62,颗粒物(PM10)
衡水市,市城管局,115.6683,37.7217,2025-03-26T0000,38,87,0.4,33,9,70,106,69,颗粒物(PM10)
衡水市,地表水厂,115.5989,37.5491,2025-03-26T0000,32,85,0.3,42,17,60,115,68,颗粒物(PM10)
衡阳市,原169医院,112.5003,26.9167,2025-03-26T0000,63,97,0.8,39,14,64,134,85,细颗粒物(PM2.5)
衡阳市,衡阳化工总厂,112.6194,26.9258,2025-03-26T0000,102,110,0.9,38,12,60,170,134,细颗粒物(PM2.5)
衡阳市,珠晖区环保局,112.6211,26.8956,2025-03-26T0000,84,127,1.3,57,12,35,168,112,细颗粒物(PM2.5)
衡阳市,市委党校,112.6197,26.8733,2025-03-26T0000,73,99,1.1,55,9,47,178,98,细颗粒物(PM2.5)
衡阳市,市监测站,112.6006,26.8919,2025-03-26T0000,92,124,1.6,79,10,6,155,122,细颗粒物(PM2.5)
衡阳市,真空机电公司,112.5664,26.9056,2025-03-26T0000,71,113,2.2,72,14,44,169,95,细颗粒物(PM2.5)
衡阳市,师范学院,112.6703,26.882,2025-03-26T0000,76,100,1.1,28,11,73,172,102,细颗粒物(PM2.5)
红河哈尼族彝族自治州,污水处理厂,103.3772,23.3993,2025-03-26T0000,50,56,0.5,6,8,102,132,69,细颗粒物(PM2.5)
红河哈尼族彝族自治州,监测站,103.3861,23.35,2025-03-26T0000,52,63,0.4,8,14,97,134,72,细颗粒物(PM2.5)
红河哈尼族彝族自治州,州图书馆,103.3758,23.368,2025-03-26T0000,47,71,0.4,6,6,102,132,65,细颗粒物(PM2.5)
呼和浩特市,呼市一监,111.6507,40.7517,2025-03-26T0000,37,127,0.6,33,9,59,99,89,颗粒物(PM10)
呼和浩特市,小召,111.6572,40.8033,2025-03-26T0000,32,134,0.6,46,5,55,96,92,颗粒物(PM10)
呼和浩特市,如意水处理厂,111.7516,40.8369,2025-03-26T0000,40,138,0.4,85,7,5,92,94,颗粒物(PM10)
呼和浩特市,二十九中,111.7276,40.8062,2025-03-26T0000,40,131,0.6,48,4,41,95,91,颗粒物(PM10)
呼和浩特市,工大金川校区,111.5512,40.7866,2025-03-26T0000,36,145,0.5,55,7,33,97,98,颗粒物(PM10)
呼和浩特市,化肥厂生活区,111.717,40.7612,2025-03-26T0000,34,150,0.4,31,7,66,99,100,颗粒物(PM10)
呼和浩特市,红旗小学,111.5968,40.8178,2025-03-26T0000,33,132,0.5,36,5,57,96,91,颗粒物(PM10)
呼和浩特市,海东办,111.6518,40.8389,2025-03-26T0000,43,139,0.7,56,6,25,93,95,颗粒物(PM10)
呼伦贝尔市,区环保局,119.7594,49.2261,2025-03-26T0000,18,30,0.3,6,6,83,86,30,
呼伦贝尔市,国华电力东,119.7512,49.1577,2025-03-26T0000,7,29,0.2,4,5,80,91,29,
湖州市,城西水厂,120.0751,30.8669,2025-03-26T0000,62,133,0.7,137,10,6,138,92,颗粒物(PM10)
湖州市,仁皇山新区,120.0830,30.8929,2025-03-26T0000,49,93,0.7,58,6,42,149,72,颗粒物(PM10)
湖州市,吴兴区站,120.1844,30.8596,2025-03-26T0000,70,147,0.5,52,10,64,154,99,颗粒物(PM10)
湖州市,南浔区站,120.4148,30.8538,2025-03-26T0000,74,159,0.5,48,6,109,171,105,颗粒物(PM10)
葫芦岛市,龙港区,120.9049,40.7211,2025-03-26T0000,56,70,0.6,34,19,52,88,77,细颗粒物(PM2.5)
葫芦岛市,化工街,120.8392,40.7514,2025-03-26T0000,51,68,0.6,25,13,75,92,70,细颗粒物(PM2.5)
葫芦岛市,新区,120.8341,40.7073,2025-03-26T0000,57,,0.7,48,14,54,97,78,细颗粒物(PM2.5)
葫芦岛市,东城区,120.8695,40.7677,2025-03-26T0000,57,,0.8,35,10,59,89,78,细颗粒物(PM2.5)
怀化市,林科所,109.5981,27.5721,2025-03-26T0000,51,84,0.2,15,5,105,148,70,细颗粒物(PM2.5)
怀化市,河西地税局,109.9453,27.5444,2025-03-26T0000,65,87,0.6,23,10,43,141,88,细颗粒物(PM2.5)
怀化市,市四医院,109.9781,27.5342,2025-03-26T0000,70,137,0.8,86,8,18,147,94,"颗粒物(PM10),细颗粒物(PM2.5)"
怀化市,监测楼,109.9972,27.5578,2025-03-26T0000,81,137,1.1,58,8,10,149,108,细颗粒物(PM2.5)
怀化市,市委党校,110.0394,27.583,2025-03-26T0000,71,114,0.9,56,5,8,155,95,细颗粒物(PM2.5)
淮安市,钵池山,119.036,33.5981,2025-03-26T0000,47,200,0.8,19,11,112,152,125,颗粒物(PM10)
淮安市,北京南路,119.007,33.575,2025-03-26T0000,56,202,0.6,23,12,119,148,126,颗粒物(PM10)
淮安市,市监测站,118.989,33.6067,2025-03-26T0000,56,200,0.5,22,12,129,160,125,颗粒物(PM10)
淮安市,楚州区监测站,119.135,33.5039,2025-03-26T0000,51,198,0.6,22,10,103,154,124,颗粒物(PM10)
淮安市,新华书店,118.8755,33.2894,2025-03-26T0000,65,123,0.9,24,10,110,155,88,细颗粒物(PM2.5)
淮安市,承德北路606号,119.0288,33.6319,2025-03-26T0000,46,246,0.6,21,12,118,155,148,颗粒物(PM10)
淮北市,监测站,116.8004,33.975,2025-03-26T0000,45,84,0.6,28,11,89,140,67,颗粒物(PM10)
淮北市,烈山区政府,116.8091,33.9007,2025-03-26T0000,46,80,1.1,34,18,93,148,65,颗粒物(PM10)
淮北市,杜集区检察院,116.8873,33.9836,2025-03-26T0000,46,79,0.8,49,9,72,151,65,颗粒物(PM10)
淮北市,市博物馆,116.7923,33.9535,2025-03-26T0000,43,91,1.2,29,13,85,144,71,颗粒物(PM10)
淮南市,潘集区政府,116.8305,32.7727,2025-03-26T0000,57,86,0.6,28,9,97,150,78,细颗粒物(PM2.5)
淮南市,谢家集区政府,116.8569,32.5951,2025-03-26T0000,44,89,0.5,25,9,93,149,70,颗粒物(PM10)
淮南市,八公山区政府,116.8281,32.633,2025-03-26T0000,41,86,0.4,16,7,101,151,68,颗粒物(PM10)
淮南市,焦岗湖风景区管理处,116.6325,32.6201,2025-03-26T0000,32,77,0.7,24,10,61,79,64,颗粒物(PM10)
淮南市,经济技术开发区消防队,117.0566,32.6531,2025-03-26T0000,44,90,0.5,28,9,98,158,70,颗粒物(PM10)
淮南市,山南新区,117.0108,32.5893,2025-03-26T0000,59,103,0.6,18,10,102,154,80,细颗粒物(PM2.5)
淮南市,国庆中路369号,117.0031,32.6445,2025-03-26T0000,35,77,0.6,21,14,117,155,64,颗粒物(PM10)
黄冈市,职工中心,114.9028,30.4742,2025-03-26T0000,66,88,0.8,24,16,118,151,89,细颗粒物(PM2.5)
黄冈市,红卫路,114.8858,30.4519,2025-03-26T0000,48,77,0.8,23,14,131,154,67,细颗粒物(PM2.5)
黄冈市,市林业局,114.9136,30.4445,2025-03-26T0000,56,85,0.7,28,17,128,159,77,细颗粒物(PM2.5)
黄南藏族自治州,同仁县隆务镇,102.0199,35.5102,2025-03-26T0000,8,38,0.3,4,13,73,102,38,
黄山市,延安路89号,118.2903,29.6963,2025-03-26T0000,29,48,0.4,18,5,55,147,48,
黄山市,黄山区政府5号楼,118.1371,30.2756,2025-03-26T0000,69,95,0.9,7,8,50,140,93,细颗粒物(PM2.5)
黄山市,滨江东路7-2号,118.3354,29.7203,2025-03-26T0000,31,62,0.5,13,5,47,146,56,颗粒物(PM10)
黄石市,沈家营,115.0601,30.2313,2025-03-26T0000,52,83,1.2,46,12,66,154,72,细颗粒物(PM2.5)
黄石市,铁山,114.8988,30.2019,2025-03-26T0000,46,68,0.9,46,28,108,153,64,细颗粒物(PM2.5)
黄石市,团城山,115.0307,30.2092,2025-03-26T0000,34,63,0.6,17,13,139,146,57,颗粒物(PM10)
黄石市,笔架山北路,115.0235,30.1578,2025-03-26T0000,45,76,1.0,23,20,131,154,63,"颗粒物(PM10),细颗粒物(PM2.5)"
黄石市,磁湖东路29号,115.0780,30.21118,2025-03-26T0000,55,101,1.1,49,20,105,142,76,颗粒物(PM10)
惠州市,河南岸金山湖子站,114.4183,23.0528,2025-03-26T0000,28,57,0.6,30,9,65,206,54,颗粒物(PM10)
惠州市,下埔横江三路子站,114.4053,23.0822,2025-03-26T0000,35,67,0.5,31,10,72,234,59,颗粒物(PM10)
惠州市,江北云山西路子站,114.4103,23.1142,2025-03-26T0000,29,62,0.6,28,10,83,248,56,颗粒物(PM10)
惠州市,惠阳区承修路船湖子站,114.4645,22.7833,2025-03-26T0000,26,51,0.7,32,10,63,143,51,颗粒物(PM10)
惠州市,大亚湾管委会子站,114.5317,22.7422,2025-03-26T0000,24,44,0.5,27,9,79,132,44,
惠州市,惠阳秋长,114.4338,22.8134,2025-03-26T0000,23,51,0.7,26,19,64,167,51,颗粒物(PM10)
惠州市,大亚湾霞涌,114.6517,22.775,2025-03-26T0000,16,31,0.2,14,8,89,140,31,
鸡西市,环保局,130.9762,45.3001,2025-03-26T0000,43,55,0.3,10,6,66,72,60,细颗粒物(PM2.5)
鸡西市,第一中学,130.9429,45.3039,2025-03-26T0000,3,12,0.4,10,6,68,72,22,
鸡西市,欧美日汽修厂,131.0207,45.3073,2025-03-26T0000,25,34,0.5,10,8,65,84,36,
鸡西市,市政设施管理处,130.9967,45.3106,2025-03-26T0000,7,72,0.3,5,4,66,67,61,颗粒物(PM10)
吉安市,红声器材厂,114.9754,27.0803,2025-03-26T0000,59,87,0.6,13,19,148,173,80,细颗粒物(PM2.5)
吉安市,市森林工业局,114.9658,27.0999,2025-03-26T0000,61,89,0.6,17,16,150,169,83,细颗粒物(PM2.5)
吉安市,市环境监测站,114.99,27.1312,2025-03-26T0000,64,71,0.4,16,20,144,179,87,细颗粒物(PM2.5)
吉安市,青原区法院,115.0093,27.0968,2025-03-26T0000,55,90,0.4,16,16,170,184,75,细颗粒物(PM2.5)
吉林市,哈达湾,126.54,43.8622,2025-03-26T0000,21,48,0.6,16,8,61,84,48,
吉林市,东局子,126.5844,43.8358,2025-03-26T0000,15,,0.4,11,9,72,91,23,
吉林市,电力学院,126.5052,43.8245,2025-03-26T0000,28,34,0.4,17,9,52,83,40,
吉林市,江北,126.6133,43.8972,2025-03-26T0000,18,23,0.4,26,3,55,86,26,
吉林市,江南公园,126.555,43.8306,2025-03-26T0000,21,27,0.2,12,6,67,85,30,
吉林市,丰满,126.7061,43.7133,2025-03-26T0000,23,23,0.9,11,6,73,114,33,
吉林市,九站,126.4739,43.953,2025-03-26T0000,,,,,,,,,
济南市,科干所,116.9862,36.6114,2025-03-26T0000,37,168,0.5,14,11,109,94,109,颗粒物(PM10)
济南市,农科所,116.9376,36.665,2025-03-26T0000,24,112,0.5,61,8,33,105,81,颗粒物(PM10)
济南市,开发区,117.1265,36.6734,2025-03-26T0000,32,129,0.6,79,10,30,108,90,颗粒物(PM10)
济南市,省种子仓库,117.0624,36.6868,2025-03-26T0000,29,127,0.8,58,9,35,110,89,颗粒物(PM10)
济南市,机床二厂,116.9489,36.6447,2025-03-26T0000,37,210,0.8,27,12,99,106,130,颗粒物(PM10)
济南市,市监测站,117.0495,36.663,2025-03-26T0000,27,127,0.6,78,10,24,104,89,颗粒物(PM10)
济南市,长清党校,116.7675,36.5484,2025-03-26T0000,39,212,0.7,37,7,102,113,131,颗粒物(PM10)
济南市,技术学院,117.6795,36.229,2025-03-26T0000,24,149,0.5,20,12,109,114,100,颗粒物(PM10)
济南市,东山小学,117.532,36.6868,2025-03-26T0000,37,159,1.1,78,22,31,117,105,颗粒物(PM10)
济南市,泰兴公司,117.7161,36.2049,2025-03-26T0000,36,132,0.5,23,11,101,113,91,颗粒物(PM10)
济南市,莱芜战役纪念馆,117.6867,36.2171,2025-03-26T0000,24,102,0.4,21,8,108,115,76,颗粒物(PM10)
济南市,济阳区政府,117.1673,36.9782,2025-03-26T0000,29,120,0.7,29,23,65,110,85,颗粒物(PM10)
济南市,锦屏中学,117.1171,36.63,2025-03-26T0000,34,164,0.5,20,12,95,105,107,颗粒物(PM10)
济南市,济南四建,116.9814,36.6819,2025-03-26T0000,34,134,0.5,78,9,25,102,92,颗粒物(PM10)
济宁市,火炬城,116.6251,35.4302,2025-03-26T0000,66,188,0.6,29,28,87,112,119,颗粒物(PM10)
济宁市,电化厂,116.5491,35.4042,2025-03-26T0000,63,270,0.7,20,60,110,112,160,颗粒物(PM10)
济宁市,北湖一中,116.5814,35.3707,2025-03-26T0000,48,168,0.6,24,45,105,112,109,颗粒物(PM10)
济宁市,服务中心,116.8249,35.5593,2025-03-26T0000,50,207,0.6,31,8,88,105,129,颗粒物(PM10)
济宁市,市第七中学,116.5907,35.4054,2025-03-26T0000,51,203,0.5,22,42,104,111,127,颗粒物(PM10)
佳木斯市,佳纺,130.2751,46.8028,2025-03-26T0000,10,21,0.3,21,4,35,59,21,
佳木斯市,发电厂,130.3995,46.8307,2025-03-26T0000,9,20,0.4,2,3,59,69,20,
佳木斯市,环保局,130.3258,46.7975,2025-03-26T0000,6,20,0.3,16,3,59,60,20,
佳木斯市,十一中,130.3648,46.8032,2025-03-26T0000,10,21,0.3,6,4,68,64,22,
佳木斯市,四丰,130.3794,46.7588,2025-03-26T0000,9,20,0.7,10,1,53,61,20,
嘉兴市,清河小学,120.7436,30.778,2025-03-26T0000,86,144,1.0,53,10,114,131,114,细颗粒物(PM2.5)
嘉兴市,嘉兴学院,120.726,30.7478,2025-03-26T0000,,,,,,,138,,
嘉兴市,南湖区残联,120.7846,30.7525,2025-03-26T0000,65,123,0.5,31,16,156,151,88,细颗粒物(PM2.5)
嘉兴市,秀洲住建,120.6916,30.7739,2025-03-26T0000,64,152,0.5,40,9,150,156,101,颗粒物(PM10)
嘉峪关市,气象局,98.2908,39.7711,2025-03-26T0000,73,615,0.6,5,6,91,97,500,颗粒物(PM10)
嘉峪关市,酒钢宾馆,98.2672,39.7978,2025-03-26T0000,53,488,1.0,16,56,81,97,385,颗粒物(PM10)
嘉峪关市,雄关区,98.2643,39.7724,2025-03-26T0000,63,357,0.8,19,9,81,97,210,颗粒物(PM10)
江门市,北街,113.1064,22.6058,2025-03-26T0000,18,48,0.5,15,3,77,151,48,
江门市,西区,113.0731,22.5835,2025-03-26T0000,26,54,0.4,24,7,84,160,52,颗粒物(PM10)
江门市,圭峰西,113.0219,22.5311,2025-03-26T0000,30,,0.5,26,4,63,138,43,
江门市,东湖,113.0828,22.5947,2025-03-26T0000,27,45,0.5,19,9,86,163,45,
江门市,江海富民,113.1075,22.5647,2025-03-26T0000,15,54,0.5,15,7,82,155,52,颗粒物(PM10)
江门市,新会银湖,113.05,22.4667,2025-03-26T0000,20,26,0.4,25,8,78,141,29,
焦作市,影视城,113.1992,35.2590,2025-03-26T0000,,,,,,,,,
焦作市,太极体育中心,113.2725,35.2067,2025-03-26T0000,93,502,0.3,14,9,106,112,402,颗粒物(PM10)
焦作市,马村街道办,113.3137,35.2641,2025-03-26T0000,86,439,0.6,31,9,82,100,324,颗粒物(PM10)
焦作市,焦作技师学院,113.2465,35.2373,2025-03-26T0000,78,475,0.8,15,8,107,109,369,颗粒物(PM10)
焦作市,中站许衡医院,113.1656,35.2539,2025-03-26T0000,83,371,0.6,10,10,119,122,230,颗粒物(PM10)
焦作市,原李万街道办,113.2449,35.1803,2025-03-26T0000,85,438,0.3,17,16,107,117,323,颗粒物(PM10)
焦作市,新安路1731号,113.2340,35.2190,2025-03-26T0000,88,460,0.7,15,9,100,112,350,颗粒物(PM10)
揭阳市,新兴,116.3701,23.5345,2025-03-26T0000,69,104,0.8,37,11,60,168,93,细颗粒物(PM2.5)
揭阳市,西马,116.3264,23.5443,2025-03-26T0000,84,112,0.9,31,12,58,171,112,细颗粒物(PM2.5)
揭阳市,东兴,116.3611,23.5626,2025-03-26T0000,71,102,0.9,34,17,51,175,95,细颗粒物(PM2.5)
揭阳市,渔湖,116.4151,23.5294,2025-03-26T0000,43,84,0.8,32,9,50,172,67,颗粒物(PM10)
揭阳市,曲溪,116.403,23.5699,2025-03-26T0000,54,71,0.7,37,11,62,202,74,细颗粒物(PM2.5)
金昌市,天庆家园,102.1692,38.5167,2025-03-26T0000,279,886,0.6,3,12,98,99,500,颗粒物(PM10)
金昌市,金川区人防中心,102.1647,38.5371,2025-03-26T0000,424,1152,0.4,4,12,,98,500,颗粒物(PM10)
金昌市,长春路96号,102.1930,38.5319,2025-03-26T0000,306,1528,0.5,4,14,93,96,500,颗粒物(PM10)
金华市,十五中,119.647,29.077,2025-03-26T0000,62,109,0.7,91,7,18,154,84,细颗粒物(PM2.5)
金华市,监测站,119.686,29.1029,2025-03-26T0000,58,111,0.5,109,6,3,152,81,颗粒物(PM10)
金华市,气象局,119.656,29.1131,2025-03-26T0000,75,116,0.7,109,7,1,151,100,细颗粒物(PM2.5)
锦州市,南山,121.1115,41.0879,2025-03-26T0000,66,,0.8,18,30,79,92,89,细颗粒物(PM2.5)
锦州市,开发区,121.0604,40.8428,2025-03-26T0000,61,61,0.8,28,10,67,92,83,细颗粒物(PM2.5)
锦州市,百股街道,121.1836,41.1119,2025-03-26T0000,58,69,0.9,25,19,67,93,79,细颗粒物(PM2.5)
锦州市,天安街道,121.1178,41.1222,2025-03-26T0000,64,,0.7,21,20,68,81,87,细颗粒物(PM2.5)
锦州市,北湖公园,121.1303,41.1386,2025-03-26T0000,55,62,0.8,22,15,63,91,75,细颗粒物(PM2.5)
晋城市,自来水公司,112.85,35.5051,2025-03-26T0000,68,250,0.7,31,9,89,132,150,颗粒物(PM10)
晋城市,白云商贸,112.8318,35.4936,2025-03-26T0000,63,246,0.6,33,8,86,129,148,颗粒物(PM10)
晋城市,市环保局,112.8508,35.4887,2025-03-26T0000,73,290,0.5,43,7,68,129,170,颗粒物(PM10)
晋城市,技术学院,112.8676,35.4897,2025-03-26T0000,66,279,0.7,39,8,77,124,165,颗粒物(PM10)
晋城市,白马寺,112.8453,35.546,2025-03-26T0000,,,,,,,,,
晋城市,泽州一中,112.8271,35.4828,2025-03-26T0000,68,268,0.6,21,10,116,132,159,颗粒物(PM10)
晋中市,南都小区,112.7249,37.7067,2025-03-26T0000,60,294,0.6,26,8,78,110,172,颗粒物(PM10)
晋中市,榆次区政府,112.6991,37.6982,2025-03-26T0000,41,278,0.6,29,9,77,110,164,颗粒物(PM10)
晋中市,榆次三中,112.7195,37.6828,2025-03-26T0000,58,332,0.4,21,6,88,112,191,颗粒物(PM10)
晋中市,迎宾街26号,112.7478,37.6954,2025-03-26T0000,70,324,0.5,22,7,89,115,187,颗粒物(PM10)
荆门市,竹园小学,112.2014,31.0481,2025-03-26T0000,54,84,0.6,14,9,134,158,74,细颗粒物(PM2.5)
荆门市,掇刀,112.1969,30.9891,2025-03-26T0000,56,80,0.4,17,10,124,151,77,细颗粒物(PM2.5)
荆门市,石化一小,112.2213,31.0386,2025-03-26T0000,54,82,0.5,19,8,126,149,74,细颗粒物(PM2.5)
荆门市,西山林语,112.1849,31.0362,2025-03-26T0000,50,72,0.5,15,9,123,160,69,细颗粒物(PM2.5)
荆门市,龙泉中学南校,112.1632,31.0138,2025-03-26T0000,53,77,0.6,11,12,102,149,73,细颗粒物(PM2.5)
荆州市,市图书馆,112.2494,30.3197,2025-03-26T0000,57,60,0.7,17,18,140,155,78,细颗粒物(PM2.5)
荆州市,市委党校,112.2008,30.3544,2025-03-26T0000,56,81,0.6,18,11,143,156,77,细颗粒物(PM2.5)
荆州市,管委会,112.2747,30.3122,2025-03-26T0000,62,94,0.6,16,13,143,158,84,细颗粒物(PM2.5)
荆州市,学苑路85号,112.1722,30.3366,2025-03-26T0000,63,,0.7,14,9,138,152,85,细颗粒物(PM2.5)
景德镇市,王港中学,117.3102,29.3867,2025-03-26T0000,,,,,,,,,
景德镇市,老干部活动中心,117.2117,29.2933,2025-03-26T0000,48,98,0.4,47,8,44,153,74,颗粒物(PM10)
景德镇市,兽医站,117.1894,29.2789,2025-03-26T0000,53,96,0.6,35,4,50,153,73,"颗粒物(PM10),细颗粒物(PM2.5)"
景德镇市,台达陶瓷,117.1547,29.2617,2025-03-26T0000,47,87,0.7,46,7,47,139,69,颗粒物(PM10)
景德镇市,陶研所,117.2461,29.2956,2025-03-26T0000,66,86,0.6,43,10,36,155,89,细颗粒物(PM2.5)
九江市,十里,115.9872,29.6815,2025-03-26T0000,69,88,1.0,88,5,20,179,93,细颗粒物(PM2.5)
九江市,茅山头,115.9584,29.7046,2025-03-26T0000,55,115,0.9,111,7,7,162,83,颗粒物(PM10)
九江市,西园,115.9877,29.7295,2025-03-26T0000,47,113,0.9,42,19,104,171,82,颗粒物(PM10)
九江市,综合工业园,115.9114,29.6038,2025-03-26T0000,80,102,0.9,84,14,80,155,107,细颗粒物(PM2.5)
九江市,石化总厂,116.0721,29.7535,2025-03-26T0000,59,64,0.7,23,16,137,166,80,细颗粒物(PM2.5)
九江市,庐山气象台,115.9773,29.5698,2025-03-26T0000,43,62,0.6,7,6,168,168,60,"细颗粒物(PM2.5),臭氧1小时"
九江市,外国语学校,116.0254,29.6994,2025-03-26T0000,53,72,0.7,52,13,97,180,73,细颗粒物(PM2.5)
九江市,莲花大道8号,116.0102,29.6594,2025-03-26T0000,42,70,0.6,2,9,118,168,60,颗粒物(PM10)
酒泉市,玉门东路5号,98.4958,39.7339,2025-03-26T0000,69,610,0.2,1,7,85,95,500,颗粒物(PM10)
酒泉市,北大街108号,98.5099,39.7506,2025-03-26T0000,62,596,0.3,4,9,83,92,496,颗粒物(PM10)
喀什地区,巡警大队,76.0072,39.4467,2025-03-26T0000,3,77,0.4,10,4,87,91,64,颗粒物(PM10)
喀什地区,吾办,75.9755,39.4694,2025-03-26T0000,15,90,0.4,12,3,87,92,70,颗粒物(PM10)
喀什地区,老干局,75.9483,39.4689,2025-03-26T0000,15,96,0.3,6,3,90,100,73,颗粒物(PM10)
开封市,肿瘤医院,114.3389,34.7781,2025-03-26T0000,68,301,0.8,29,10,69,113,176,颗粒物(PM10)
开封市,世纪星幼儿园,114.2885,34.7965,2025-03-26T0000,67,280,0.8,35,7,73,122,165,颗粒物(PM10)
开封市,龙亭公园,114.3438,34.8106,2025-03-26T0000,63,282,0.3,41,4,64,114,166,颗粒物(PM10)
开封市,汴京公园,114.3644,34.7964,2025-03-26T0000,72,310,1.0,41,8,66,115,180,颗粒物(PM10)
开封市,技师学院,114.2485,34.8306,2025-03-26T0000,83,288,1.1,53,14,51,112,169,颗粒物(PM10)
开封市,祥符区生态环境局,114.4644,34.7556,2025-03-26T0000,62,300,0.6,36,7,61,101,175,颗粒物(PM10)
克拉玛依市,长征新村,84.895,45.6094,2025-03-26T0000,3,6,0.2,9,6,77,102,25,
克拉玛依市,南林小区,84.8988,45.5893,2025-03-26T0000,3,,0.3,2,4,80,94,25,
克拉玛依市,独山子区,84.905,44.3396,2025-03-26T0000,36,,0.3,3,5,81,81,,
克拉玛依市,乌尔禾区商贸楼,85.6979,46.098,2025-03-26T0000,3,23,0.3,1,4,88,95,28,
克拉玛依市,白碱滩区新站,85.1045,45.6899,2025-03-26T0000,3,,0.1,2,7,78,88,25,
克孜勒苏柯尔克孜自治州,市人民政府,76.1454,39.7142,2025-03-26T0000,8,44,0.4,1,5,97,103,44,
克孜勒苏柯尔克孜自治州,克州文化中心,76.1658,39.7157,2025-03-26T0000,7,66,0.4,2,7,93,99,58,颗粒物(PM10)
昆明市,呈贡新区,102.8204,24.8886,2025-03-26T0000,45,46,0.4,32,8,80,143,63,细颗粒物(PM2.5)
昆明市,西山森林公园,102.6251,24.9608,2025-03-26T0000,,,,,,,,,
昆明市,龙泉镇,102.7252,25.0902,2025-03-26T0000,34,47,0.7,40,8,60,148,49,
昆明市,东风东路,102.7266,25.0375,2025-03-26T0000,41,50,0.4,33,9,86,143,58,细颗粒物(PM2.5)
昆明市,金鼎山,102.6742,25.0669,2025-03-26T0000,46,,0.6,31,8,84,143,64,细颗粒物(PM2.5)
昆明市,碧鸡广场,102.6644,25.0401,2025-03-26T0000,51,70,0.5,77,9,38,146,70,细颗粒物(PM2.5)
昆明市,官渡区博物馆,102.7494,25.0119,2025-03-26T0000,34,43,0.4,12,9,117,144,49,
昆明市,青年创业园,102.8017,24.8336,2025-03-26T0000,34,52,0.4,11,7,97,142,51,颗粒物(PM10)
昆明市,昆明学院,102.7997,24.9786,2025-03-26T0000,33,52,0.3,12,5,111,144,51,颗粒物(PM10)
昆明市,晋宁区生态环境分局,102.5967,24.6736,2025-03-26T0000,56,61,0.5,19,9,81,144,77,细颗粒物(PM2.5)
昆明市,云天化总部,102.6678,24.9856,2025-03-26T0000,31,44,0.2,11,10,120,150,45,
拉萨市,八廓街,91.1319,29.6514,2025-03-26T0000,16,25,0.9,48,6,48,118,25,
拉萨市,市环保局,91.1221,29.6747,2025-03-26T0000,22,43,1.1,33,8,53,109,43,
拉萨市,区监测站,91.0874,29.6475,2025-03-26T0000,15,31,0.7,66,5,38,112,33,
拉萨市,西藏大学,91.1774,29.6541,2025-03-26T0000,13,25,1.1,33,,64,109,,
拉萨市,区辐射站,90.9798,29.6588,2025-03-26T0000,12,18,0.6,20,7,81,106,26,
拉萨市,拉萨火车站,91.0834,29.6292,2025-03-26T0000,10,16,0.6,33,3,62,109,20,
来宾市,来宾技工学校,109.2203,23.7256,2025-03-26T0000,68,70,0.8,18,31,72,150,92,细颗粒物(PM2.5)
来宾市,兴宾区政府,109.1781,23.7297,2025-03-26T0000,44,69,0.8,6,9,91,147,62,细颗粒物(PM2.5)
来宾市,中南小学,109.2416,23.7461,2025-03-26T0000,38,70,0.8,16,25,63,135,60,颗粒物(PM10)
兰州市,榆中兰大校区,104.1373,35.9454,2025-03-26T0000,,,,,,,,,
兰州市,铁路设计院,103.831,36.0464,2025-03-26T0000,68,341,0.4,12,6,84,95,196,颗粒物(PM10)
兰州市,百合公园,103.7439,36.0842,2025-03-26T0000,92,561,0.7,17,4,72,112,461,颗粒物(PM10)
兰州市,和平,103.9611,35.998,2025-03-26T0000,60,317,0.4,7,8,92,115,184,颗粒物(PM10)
兰州市,庄浪东路808号,103.6293,36.0938,2025-03-26T0000,68,328,0.4,14,10,87,150,189,颗粒物(PM10)
兰州市,安宁西路88号,103.7251,36.1043,2025-03-26T0000,114,770,0.4,7,9,88,124,500,颗粒物(PM10)
兰州市,北滨河东路1号,103.8470,36.0676,2025-03-26T0000,97,518,0.5,8,8,95,108,418,颗粒物(PM10)
兰州新区,新区管委会,103.6633,36.533,2025-03-26T0000,517,1925,0.2,4,6,94,111,500,"颗粒物(PM10),细颗粒物(PM2.5)"
兰州新区,舟曲中学,103.6975,36.4789,2025-03-26T0000,557,1705,0.4,2,2,94,114,500,"颗粒物(PM10),细颗粒物(PM2.5)"
廊坊市,药材公司,116.6708,39.5111,2025-03-26T0000,33,174,0.5,22,4,67,92,112,颗粒物(PM10)
廊坊市,开发区,116.7214,39.5589,2025-03-26T0000,34,210,0.4,21,4,75,95,130,颗粒物(PM10)
廊坊市,北华航天学院,116.7244,39.5269,2025-03-26T0000,24,163,0.4,20,5,68,90,107,颗粒物(PM10)
廊坊市,河北工业大学,116.7022,39.5453,2025-03-26T0000,25,161,0.4,15,7,74,96,106,颗粒物(PM10)
乐山市,花湖湾,103.7723,29.5462,2025-03-26T0000,64,91,0.8,53,8,63,163,87,细颗粒物(PM2.5)
乐山市,牛耳桥,103.7627,29.5844,2025-03-26T0000,52,86,0.9,78,6,4,142,72,细颗粒物(PM2.5)
乐山市,市第三水厂,103.7508,29.6006,2025-03-26T0000,65,102,1.3,80,4,4,147,88,细颗粒物(PM2.5)
乐山市,市监测站,103.7571,29.5664,2025-03-26T0000,42,65,0.6,21,7,114,152,59,细颗粒物(PM2.5)
乐山市,理工大学,103.7311,29.5628,2025-03-26T0000,48,72,0.7,44,6,75,158,67,细颗粒物(PM2.5)
丽江市,西南郊,100.2143,26.8576,2025-03-26T0000,,,,,,,,,
丽江市,丽江古城,100.2497,26.8802,2025-03-26T0000,14,20,0.5,7,7,114,107,36,
丽江市,市中心,100.2203,26.8906,2025-03-26T0000,12,,0.6,13,8,111,106,35,
丽水市,监测站大楼,119.914,28.4514,2025-03-26T0000,66,71,0.8,45,4,41,146,89,细颗粒物(PM2.5)
丽水市,莲都小学,119.93,28.4586,2025-03-26T0000,41,60,0.5,32,4,70,120,58,细颗粒物(PM2.5)
丽水市,余庄前,119.879,28.4231,2025-03-26T0000,47,66,0.6,30,5,32,148,65,细颗粒物(PM2.5)
连云港市,市环境监测站,119.176,34.5885,2025-03-26T0000,27,173,0.5,18,16,118,140,112,颗粒物(PM10)
连云港市,德源药业,119.3581,34.6972,2025-03-26T0000,17,141,0.3,18,11,111,137,96,颗粒物(PM10)
连云港市,新城一中,119.178,34.844,2025-03-26T0000,23,133,0.7,22,9,113,134,92,颗粒物(PM10)
连云港市,胡沟管理处,119.3608,34.7519,2025-03-26T0000,19,97,0.4,26,10,109,131,74,颗粒物(PM10)
连云港市,矿山设计院,119.1478,34.5911,2025-03-26T0000,24,173,0.5,25,14,114,138,112,颗粒物(PM10)
连云港市,工贸学校,119.2413,34.6539,2025-03-26T0000,24,160,0.5,12,10,137,146,105,颗粒物(PM10)
连云港市,连云街道,119.4172,34.7341,2025-03-26T0000,20,161,0.3,10,6,123,138,106,颗粒物(PM10)
凉山彝族自治州,青龙寺,102.3431,27.8099,2025-03-26T0000,3,11,0.6,8,6,72,134,23,
凉山彝族自治州,邛海宾馆,102.2721,27.8415,2025-03-26T0000,16,27,0.4,26,3,66,129,27,
凉山彝族自治州,西昌市政府,102.2625,27.898,2025-03-26T0000,12,21,0.5,9,7,78,119,25,
凉山彝族自治州,凉山州政府,102.2685,27.8851,2025-03-26T0000,19,33,0.4,26,5,61,129,33,
凉山彝族自治州,凯乐南路30号,102.2342,27.8859,2025-03-26T0000,12,29,0.4,30,6,59,116,29,
辽阳市,宏伟区,123.2,41.1953,2025-03-26T0000,99,101,1.1,18,11,83,98,130,细颗粒物(PM2.5)
辽阳市,新华园,123.1683,41.2495,2025-03-26T0000,97,,0.9,22,8,74,90,128,细颗粒物(PM2.5)
辽阳市,滨河路,123.2354,41.2639,2025-03-26T0000,93,,0.7,23,7,72,92,123,细颗粒物(PM2.5)
辽阳市,铁西工业园,123.149,41.2991,2025-03-26T0000,98,99,0.9,28,10,61,91,129,细颗粒物(PM2.5)
辽源市,环保局,125.1358,42.8845,2025-03-26T0000,85,117,0.8,22,4,66,80,113,细颗粒物(PM2.5)
辽源市,银鹰制药,125.0764,42.9078,2025-03-26T0000,128,142,1.1,22,5,57,80,169,细颗粒物(PM2.5)
聊城市,区政府,115.9848,36.4372,2025-03-26T0000,38,122,0.5,59,11,39,106,86,颗粒物(PM10)
聊城市,聊大东校,116.0072,36.4343,2025-03-26T0000,47,146,0.6,57,10,38,104,98,颗粒物(PM10)
聊城市,监控中心,115.9819,36.4978,2025-03-26T0000,27,128,0.7,86,13,13,105,89,颗粒物(PM10)
聊城市,九州社区,116.0445,36.4361,2025-03-26T0000,55,155,0.6,64,12,29,110,103,颗粒物(PM10)
聊城市,星美广场,116.0567,36.4608,2025-03-26T0000,38,139,0.7,50,11,28,103,95,颗粒物(PM10)
林芝市,林芝监测站,94.3681,29.6376,2025-03-26T0000,8,17,0.1,8,5,78,107,25,
林芝市,林芝人民医院,94.3616,29.6616,2025-03-26T0000,6,13,0.0,4,7,79,102,25,
临沧市,市环保局,100.0781,23.8982,2025-03-26T0000,60,71,0.7,19,9,75,127,82,细颗粒物(PM2.5)
临沧市,市气象局,100.0894,23.8822,2025-03-26T0000,54,56,0.6,19,7,73,128,74,细颗粒物(PM2.5)
临汾市,临钢医院,111.5531,36.0783,2025-03-26T0000,68,349,0.8,27,6,54,118,200,颗粒物(PM10)
临汾市,技工学校,111.5028,36.0714,2025-03-26T0000,82,312,0.9,46,9,38,120,181,颗粒物(PM10)
临汾市,市委,111.5018,36.0855,2025-03-26T0000,92,353,0.7,47,6,42,120,205,颗粒物(PM10)
临汾市,唐尧大酒店,111.505,36.1014,2025-03-26T0000,64,317,0.7,41,9,41,113,184,颗粒物(PM10)
临汾市,启星学校,111.4879,36.0530,2025-03-26T0000,131,388,1.0,68,6,9,117,255,颗粒物(PM10)
临夏回族自治州,滨河东路1号,103.2464,35.6123,2025-03-26T0000,63,166,0.7,50,10,9,117,108,颗粒物(PM10)
临夏回族自治州,新华街21号,103.2093,35.5995,2025-03-26T0000,64,146,0.8,47,16,29,112,98,颗粒物(PM10)
临沂市,沂河小区,118.3429,35.0532,2025-03-26T0000,17,124,0.4,12,9,105,136,87,颗粒物(PM10)
临沂市,鲁南制药厂,118.295,35.0583,2025-03-26T0000,24,134,0.1,21,10,118,148,92,颗粒物(PM10)
临沂市,新光毛纺厂,118.2794,34.9976,2025-03-26T0000,24,141,0.6,23,8,112,147,96,颗粒物(PM10)
临沂市,河东保险公司,118.3956,35.0888,2025-03-26T0000,22,119,0.3,27,7,104,143,85,颗粒物(PM10)
临沂市,十里堡居委,118.3564,35.0215,2025-03-26T0000,14,136,0.5,19,10,108,142,93,颗粒物(PM10)
临沂市,南坊新区,118.3604,35.1084,2025-03-26T0000,22,139,0.7,20,9,101,134,95,颗粒物(PM10)
临沂市,皇山花园小区,118.3920,35.0300,2025-03-26T0000,17,139,0.2,13,8,108,145,95,颗粒物(PM10)
柳州市,柳东小学,109.4856,24.3895,2025-03-26T0000,50,66,0.5,16,11,93,153,69,细颗粒物(PM2.5)
柳州市,环保监测站,109.4157,24.3277,2025-03-26T0000,55,64,0.8,10,10,86,140,75,细颗粒物(PM2.5)
柳州市,河西水厂,109.389,24.341,2025-03-26T0000,39,71,0.7,22,6,74,149,61,颗粒物(PM10)
柳州市,市四中,109.4311,24.2921,2025-03-26T0000,47,58,0.6,15,8,88,154,65,细颗粒物(PM2.5)
柳州市,市九中,109.4006,24.3631,2025-03-26T0000,73,,0.8,12,8,78,155,98,细颗粒物(PM2.5)
柳州市,古亭山,109.4958,24.3134,2025-03-26T0000,67,68,0.7,19,8,77,161,90,细颗粒物(PM2.5)
柳州市,市二中,109.5422,24.3996,2025-03-26T0000,48,81,0.4,20,22,91,163,67,细颗粒物(PM2.5)
六安市,监测大楼,116.5079,31.737,2025-03-26T0000,36,55,0.6,23,8,146,141,53,颗粒物(PM10)
六安市,皖西学院,116.4738,31.7643,2025-03-26T0000,35,65,0.5,10,6,142,143,58,颗粒物(PM10)
六安市,朝阳厂,116.4996,31.7905,2025-03-26T0000,32,54,0.5,13,6,141,134,52,颗粒物(PM10)
六安市,开发区,116.5567,31.7886,2025-03-26T0000,63,87,0.6,60,12,116,143,85,细颗粒物(PM2.5)
六盘水市,窑上,104.8,26.5892,2025-03-26T0000,16,26,0.4,4,5,98,125,31,
六盘水市,黄土坡,104.83,26.5917,2025-03-26T0000,24,47,0.5,22,5,94,125,47,
六盘水市,水钢,104.89,26.5939,2025-03-26T0000,41,87,1.0,40,23,91,120,69,颗粒物(PM10)
六盘水市,民中,104.8475,26.5894,2025-03-26T0000,31,106,0.9,85,17,16,124,78,颗粒物(PM10)
六盘水市,双水,104.9544,26.5506,2025-03-26T0000,28,73,0.5,33,10,86,120,62,颗粒物(PM10)
龙岩市,龙岩师专,117.0189,25.1181,2025-03-26T0000,,,,,,,,,
龙岩市,龙岩市监测站,117.0217,25.1033,2025-03-26T0000,,,,,,,,,
龙岩市,闽西职业技术学院,117.0258,25.0661,2025-03-26T0000,61,98,0.5,40,55,96,184,83,细颗粒物(PM2.5)
龙岩市,龙岩学院,117.0196,25.0306,2025-03-26T0000,51,61,0.6,19,3,120,198,70,细颗粒物(PM2.5)
陇南市,汉王镇固水子,105.0822,33.3261,2025-03-26T0000,,,,,,,,,
陇南市,滨江中学,104.9339,33.3826,2025-03-26T0000,28,55,0.4,6,7,116,108,53,颗粒物(PM10)
陇南市,市总工会,104.955,33.371,2025-03-26T0000,22,50,0.3,3,9,123,116,50,
娄底市,电视发射台,111.9589,27.8901,2025-03-26T0000,57,81,1.2,11,7,90,157,78,细颗粒物(PM2.5)
娄底市,市监测站,111.9975,27.725,2025-03-26T0000,98,135,1.9,114,18,8,167,129,细颗粒物(PM2.5)
娄底市,市委党校,112.0194,27.7314,2025-03-26T0000,80,96,1.2,54,4,48,159,107,细颗粒物(PM2.5)
娄底市,涟钢,111.9561,27.7569,2025-03-26T0000,104,155,1.7,35,8,50,150,137,细颗粒物(PM2.5)
娄底市,市政府,111.9892,27.7044,2025-03-26T0000,97,143,1.1,69,9,16,167,128,细颗粒物(PM2.5)
泸州市,九狮山,105.4324,28.9634,2025-03-26T0000,,,,,,,,,
泸州市,小市上码头,105.4427,28.9063,2025-03-26T0000,59,92,0.8,79,9,53,169,80,细颗粒物(PM2.5)
泸州市,兰田宪桥,105.4241,28.8573,2025-03-26T0000,61,64,0.8,54,7,26,160,83,细颗粒物(PM2.5)
泸州市,市环监站,105.4379,28.8833,2025-03-26T0000,,,,,,,,,
泸州市,纳溪中医医院,105.3689,28.7783,2025-03-26T0000,43,108,0.9,66,6,15,162,79,颗粒物(PM10)
吕梁市,环保局,111.1406,37.5211,2025-03-26T0000,123,498,0.4,63,3,4,99,398,颗粒物(PM10)
吕梁市,自来水公司,111.1297,37.5136,2025-03-26T0000,130,472,0.6,60,3,8,99,365,颗粒物(PM10)
吕梁市,马茂庄小学,111.1283,37.51,2025-03-26T0000,120,518,0.8,66,12,4,100,418,颗粒物(PM10)
洛阳市,市委党校,112.3931,34.6516,2025-03-26T0000,90,440,0.6,28,7,65,128,325,颗粒物(PM10)
洛阳市,河南林校,112.494,34.6886,2025-03-26T0000,100,510,0.7,28,9,60,131,410,颗粒物(PM10)
洛阳市,开发区管委会,112.3844,34.623,2025-03-26T0000,107,429,0.4,26,9,75,136,312,颗粒物(PM10)
洛阳市,市委新办公区,112.4267,34.6258,2025-03-26T0000,96,401,1.0,32,8,68,136,273,颗粒物(PM10)
洛阳市,伊滨,112.6005,34.6326,2025-03-26T0000,78,248,0.9,29,7,72,138,149,颗粒物(PM10)
洛阳市,中移产业园,112.4951,34.6332,2025-03-26T0000,98,400,0.6,28,7,58,128,272,颗粒物(PM10)
洛阳市,吉利监测站,112.5736,34.8993,2025-03-26T0000,117,546,0.6,21,11,91,129,446,颗粒物(PM10)
洛阳市,河科大西苑校区,112.3677,34.662,2025-03-26T0000,80,475,0.7,27,11,68,133,369,颗粒物(PM10)
洛阳市,英才小学,112.4388,34.6781,2025-03-26T0000,103,439,0.6,26,13,63,130,324,颗粒物(PM10)
洛阳市,春都路1号院,112.4600,34.6949,2025-03-26T0000,89,511,0.7,29,10,66,134,411,颗粒物(PM10)
漯河市,三五一五工厂,114.051,33.5699,2025-03-26T0000,44,66,0.4,26,8,79,135,62,细颗粒物(PM2.5)
漯河市,漯河大学,114.0055,33.5698,2025-03-26T0000,36,71,0.5,21,18,95,133,61,颗粒物(PM10)
漯河市,市水利局,114.0138,33.5828,2025-03-26T0000,39,70,0.3,23,12,87,136,60,颗粒物(PM10)
漯河市,市广电局,114.0261,33.5698,2025-03-26T0000,39,68,0.5,24,7,82,136,59,颗粒物(PM10)
漯河市,市图书馆,113.9749,33.5664,2025-03-26T0000,40,76,0.5,29,12,83,139,63,颗粒物(PM10)
漯河市,韶山路11号,114.0892,33.5882,2025-03-26T0000,32,64,0.5,15,8,103,145,57,颗粒物(PM10)
马鞍山市,湖东路四小,118.5092,31.6837,2025-03-26T0000,44,81,1.2,57,12,55,161,66,颗粒物(PM10)
马鞍山市,开发区,118.5024,31.6449,2025-03-26T0000,42,99,1.0,81,8,40,153,75,颗粒物(PM10)
马鞍山市,濮塘,118.6245,31.7241,2025-03-26T0000,38,65,0.8,19,10,100,167,58,颗粒物(PM10)
马鞍山市,雨山,118.4918,31.6809,2025-03-26T0000,36,82,1.3,56,12,61,158,66,颗粒物(PM10)
马鞍山市,慈湖高新区,118.5274,31.72227,2025-03-26T0000,39,86,1.2,42,10,76,153,68,颗粒物(PM10)
茂名市,电白南海,111.0286,21.4688,2025-03-26T0000,27,44,0.7,25,1,62,116,44,
茂名市,茂石化七小,110.9294,21.6533,2025-03-26T0000,24,46,0.7,14,1,,116,,
茂名市,健康路,110.9107,21.6687,2025-03-26T0000,19,34,0.6,7,2,96,140,34,
茂名市,高岭,110.8592,21.6828,2025-03-26T0000,17,46,0.5,11,11,92,132,46,
茂名市,电白水东,111.01,21.5165,2025-03-26T0000,14,31,0.4,1,2,85,121,31,
眉山市,黑龙滩水库,104.0308,30.0478,2025-03-26T0000,26,37,0.8,10,3,72,157,38,
眉山市,气象局,103.8416,30.0874,2025-03-26T0000,,114,0.8,74,7,24,156,,
眉山市,市委党校,103.8578,30.0744,2025-03-26T0000,56,92,0.8,70,13,21,142,77,细颗粒物(PM2.5)
眉山市,区人社局,103.8291,30.0564,2025-03-26T0000,53,68,0.9,100,18,22,158,73,细颗粒物(PM2.5)
梅州市,梅江月梅,116.1231,24.3284,2025-03-26T0000,55,74,0.6,34,5,102,215,75,细颗粒物(PM2.5)
梅州市,梅县新城,116.0797,24.2719,2025-03-26T0000,51,76,0.7,48,9,75,209,70,细颗粒物(PM2.5)
梅州市,环境监控中心,116.1248,24.2654,2025-03-26T0000,49,69,0.8,45,8,92,202,68,细颗粒物(PM2.5)
梅州市,梅龙,116.1233,24.2991,2025-03-26T0000,50,83,1.0,38,8,81,204,69,细颗粒物(PM2.5)
绵阳市,富乐山,104.7778,31.4741,2025-03-26T0000,36,58,0.6,20,4,107,154,54,颗粒物(PM10)
绵阳市,高新区自来水公司,104.6697,31.4668,2025-03-26T0000,48,113,0.8,113,5,2,149,82,颗粒物(PM10)
绵阳市,三水厂,104.7287,31.5075,2025-03-26T0000,61,110,0.8,98,7,4,153,83,细颗粒物(PM2.5)
绵阳市,西科大附属小学,104.69,31.5322,2025-03-26T0000,44,83,0.8,69,9,62,154,67,颗粒物(PM10)
绵阳市,安州区旅游局,104.5648,31.5343,2025-03-26T0000,44,89,0.6,43,7,31,139,70,颗粒物(PM10)
绵阳市,绵阳市气象局,104.7651,31.4531,2025-03-26T0000,47,99,0.8,117,4,9,139,75,颗粒物(PM10)
牡丹江市,环保大楼,129.61,44.561,2025-03-26T0000,42,,0.4,20,5,50,82,59,细颗粒物(PM2.5)
牡丹江市,文化广场,129.6115,44.5782,2025-03-26T0000,35,48,0.5,15,10,56,75,50,
牡丹江市,第一医院,129.5904,44.5963,2025-03-26T0000,72,,0.2,20,10,48,76,97,细颗粒物(PM2.5)
牡丹江市,机车工厂,129.6364,44.6075,2025-03-26T0000,45,81,0.6,29,112,31,76,66,颗粒物(PM10)
牡丹江市,第一中学,129.6386,44.5462,2025-03-26T0000,23,30,0.4,9,8,51,88,33,
内江市,市监测站,105.0703,29.61,2025-03-26T0000,61,62,0.5,66,8,27,169,83,细颗粒物(PM2.5)
内江市,东兴区政府,105.0717,29.5947,2025-03-26T0000,54,74,1.6,101,10,5,163,74,细颗粒物(PM2.5)
内江市,内江二中,105.0653,29.5817,2025-03-26T0000,59,83,0.7,96,11,23,169,80,细颗粒物(PM2.5)
内江市,内江日报社,105.0406,29.5822,2025-03-26T0000,55,75,0.9,94,12,25,168,75,细颗粒物(PM2.5)
那曲市,那曲监测站,92.0657,31.4846,2025-03-26T0000,63,95,3.5,66,6,27,102,85,细颗粒物(PM2.5)
那曲市,那曲会议中心,92.0506,31.4797,2025-03-26T0000,,,,,,,,,
南昌市,省外办,115.8931,28.6843,2025-03-26T0000,105,149,1.9,96,8,9,148,138,细颗粒物(PM2.5)
南昌市,省林业公司,115.8886,28.7003,2025-03-26T0000,78,124,0.5,96,10,15,157,104,细颗粒物(PM2.5)
南昌市,林科所,115.8126,28.7442,2025-03-26T0000,56,90,0.5,142,7,11,172,77,细颗粒物(PM2.5)
南昌市,建工学校,115.8518,28.687,2025-03-26T0000,92,141,1.5,113,5,5,159,122,细颗粒物(PM2.5)
南昌市,象湖,115.8921,28.6424,2025-03-26T0000,66,142,1.5,105,8,2,172,96,颗粒物(PM10)
南昌市,武术学校,115.7423,28.7996,2025-03-26T0000,43,,0.7,12,8,56,164,60,细颗粒物(PM2.5)
南昌市,机电学校,115.9084,28.6062,2025-03-26T0000,68,119,0.9,82,10,41,167,92,细颗粒物(PM2.5)
南昌市,外国语学校,115.9721,28.7031,2025-03-26T0000,66,94,0.5,62,6,47,167,89,细颗粒物(PM2.5)
南昌市,南京东路235号,115.9316,28.68677,2025-03-26T0000,86,173,1.3,80,8,26,150,114,细颗粒物(PM2.5)
南充市,西山风景区,106.056,30.8064,2025-03-26T0000,26,47,0.7,11,8,146,168,47,
南充市,南充市委,106.0789,30.8023,2025-03-26T0000,38,76,0.9,63,4,35,152,63,颗粒物(PM10)
南充市,南充炼油厂,106.1031,30.8217,2025-03-26T0000,49,85,0.7,62,6,43,145,68,"颗粒物(PM10),细颗粒物(PM2.5)"
南充市,嘉陵区环保局,106.0642,30.7636,2025-03-26T0000,46,90,1.0,102,5,2,137,70,颗粒物(PM10)
南充市,梨树横街98号,106.1083,30.7884,2025-03-26T0000,22,141,0.9,86,6,15,116,96,颗粒物(PM10)
南充市,清泉寺北路188号,106.1172,30.843,2025-03-26T0000,40,78,0.4,26,9,98,157,64,颗粒物(PM10)
南京市,迈皋桥,118.8086,32.1065,2025-03-26T0000,27,54,0.5,57,4,47,155,52,颗粒物(PM10)
南京市,草场门,118.7538,32.0551,2025-03-26T0000,31,61,0.7,79,9,50,149,56,颗粒物(PM10)
南京市,山西路,118.7794,32.0745,2025-03-26T0000,27,63,0.8,52,5,45,151,57,颗粒物(PM10)
南京市,中华门,118.7752,32.0023,2025-03-26T0000,27,51,0.7,59,9,44,137,51,颗粒物(PM10)
南京市,瑞金路,118.8109,32.0309,2025-03-26T0000,36,,1.0,102,7,5,154,,
南京市,玄武湖,118.7997,32.0754,2025-03-26T0000,27,60,0.5,30,7,54,150,55,颗粒物(PM10)
南京市,浦口,118.6414,32.0931,2025-03-26T0000,25,68,0.5,23,9,91,172,59,颗粒物(PM10)
南京市,奥体中心,118.7356,31.9996,2025-03-26T0000,29,59,0.7,78,9,30,155,55,颗粒物(PM10)
南京市,仙林大学城,118.9125,32.1028,2025-03-26T0000,24,56,0.8,47,11,54,158,53,颗粒物(PM10)
南京市,江宁彩虹桥,118.8436,31.9198,2025-03-26T0000,27,74,0.7,96,4,22,158,62,颗粒物(PM10)
南京市,溧水永阳,119.0138,31.6494,2025-03-26T0000,41,48,0.6,51,6,43,172,58,细颗粒物(PM2.5)
南京市,六合雄州,118.8554,32.3578,2025-03-26T0000,29,83,0.6,63,8,17,149,67,颗粒物(PM10)
南京市,汶溪路181号,118.8708,31.3402,2025-03-26T0000,42,71,0.8,34,5,85,165,61,颗粒物(PM10)
南宁市,二十一中,108.3103,22.7881,2025-03-26T0000,,,,,,,141,,
南宁市,北湖,108.3141,22.8528,2025-03-26T0000,29,45,0.6,19,10,60,138,45,
南宁市,市监测站,108.3206,22.8225,2025-03-26T0000,31,34,0.9,16,10,61,134,45,
南宁市,大自然花园,108.3829,22.8037,2025-03-26T0000,32,40,0.8,11,8,69,137,46,
南宁市,仙葫,108.4394,22.7904,2025-03-26T0000,23,32,0.6,14,5,61,125,33,
南宁市,区农职院,108.2397,22.8467,2025-03-26T0000,24,47,0.9,20,8,56,134,47,
南宁市,英华嘉园,108.3275,22.735,2025-03-26T0000,23,44,0.6,22,11,55,139,44,
南宁市,红星社区,108.4834,22.7618,2025-03-26T0000,21,32,0.8,14,12,63,135,32,
南宁市,乐贤路16号,108.2177,22.7774,2025-03-26T0000,27,47,0.8,24,9,32,119,47,
南平市,茫荡山,118.0966,26.6761,2025-03-26T0000,,,,,,,,,
南平市,南平市监测站,118.1681,26.6369,2025-03-26T0000,61,72,1.2,33,3,49,173,83,细颗粒物(PM2.5)
南平市,南平铝业有限公司,118.1825,26.6489,2025-03-26T0000,59,76,1.0,23,6,64,170,80,细颗粒物(PM2.5)
南平市,南平七中,118.1756,26.6272,2025-03-26T0000,58,64,0.9,27,4,54,171,79,细颗粒物(PM2.5)
南通市,狼山街道,120.9098,31.9663,2025-03-26T0000,61,105,0.7,129,8,3,142,83,细颗粒物(PM2.5)
南通市,虹桥,120.86,32.0005,2025-03-26T0000,50,105,0.7,78,12,66,120,78,颗粒物(PM10)
南通市,城中,120.87,32.02,2025-03-26T0000,48,122,0.7,77,12,64,127,86,颗粒物(PM10)
南通市,星湖花园,120.94,31.93,2025-03-26T0000,52,110,0.5,118,13,25,139,80,颗粒物(PM10)
南通市,紫琅学院,120.81,32.0417,2025-03-26T0000,50,120,1.0,132,9,7,131,85,颗粒物(PM10)
南通市,通州监测站,121.067,32.062,2025-03-26T0000,53,124,0.8,54,12,90,164,87,颗粒物(PM10)
南通市,环境教育馆,120.9348,31.9883,2025-03-26T0000,59,132,0.9,138,12,0,156,91,颗粒物(PM10)
南阳市,瓦房庄,112.5224,33.0122,2025-03-26T0000,31,57,0.4,12,3,113,124,54,颗粒物(PM10)
南阳市,汉画馆,112.5003,32.9735,2025-03-26T0000,25,51,0.4,21,6,100,120,51,颗粒物(PM10)
南阳市,气象站,112.5573,33.027,2025-03-26T0000,24,55,0.4,16,7,113,124,53,颗粒物(PM10)
南阳市,理工学院,112.5481,32.9689,2025-03-26T0000,21,53,0.4,18,4,110,128,52,颗粒物(PM10)
南阳市,卧龙区政府,112.5234,32.9922,2025-03-26T0000,35,54,0.4,14,5,116,128,52,颗粒物(PM10)
宁波市,区环保大楼,121.8358,29.911,2025-03-26T0000,45,108,0.8,122,14,2,97,79,颗粒物(PM10)
宁波市,万里学院,121.56,29.82,2025-03-26T0000,56,96,0.7,51,10,92,181,77,细颗粒物(PM2.5)
宁波市,龙赛医院,121.713,29.9572,2025-03-26T0000,56,132,0.9,139,12,13,185,91,颗粒物(PM10)
宁波市,钱湖水厂,121.633,29.7733,2025-03-26T0000,48,74,0.7,27,8,108,176,67,细颗粒物(PM2.5)
宁波市,太古小学,121.5856,29.8635,2025-03-26T0000,50,112,0.9,52,10,87,183,81,颗粒物(PM10)
宁波市,市环境监测中心,121.524,29.8674,2025-03-26T0000,95,129,1.1,87,11,69,186,125,细颗粒物(PM2.5)
宁波市,万里国际学校,121.6147,29.9017,2025-03-26T0000,50,103,0.7,34,10,120,191,77,颗粒物(PM10)
宁波市,白沙活动中心,121.5594,29.8975,2025-03-26T0000,63,111,0.8,67,8,68,199,85,细颗粒物(PM2.5)
宁德市,金涵水库,119.5001,26.6946,2025-03-26T0000,,,,,,,,,
宁德市,宁德市监测站,119.5388,26.6612,2025-03-26T0000,85,,1.1,83,5,30,202,113,细颗粒物(PM2.5)
宁德市,宁德一中,119.5231,26.6562,2025-03-26T0000,67,73,0.8,18,6,112,194,90,细颗粒物(PM2.5)
怒江傈僳族自治州,州监测站,98.8601,25.8567,2025-03-26T0000,16,27,0.3,8,6,94,126,30,
怒江傈僳族自治州,泸水一中,98.8546,25.8417,2025-03-26T0000,6,18,0.4,20,6,59,109,19,
攀枝花市,弄弄坪,101.6891,26.571,2025-03-26T0000,18,46,0.9,35,15,78,131,46,
攀枝花市,河门口,101.5769,26.5928,2025-03-26T0000,16,33,0.7,31,26,58,130,33,
攀枝花市,炳草岗,101.7169,26.585,2025-03-26T0000,32,50,0.8,68,19,27,136,50,
攀枝花市,仁和,101.7369,26.5008,2025-03-26T0000,26,44,0.6,25,8,65,129,44,
攀枝花市,四十中小,101.7227,26.567,2025-03-26T0000,25,47,0.4,52,11,61,136,47,
盘锦市,开发区,122.0303,41.1489,2025-03-26T0000,109,,0.7,18,16,94,99,143,细颗粒物(PM2.5)
盘锦市,兴隆台,122.0485,41.0883,2025-03-26T0000,109,,0.7,18,9,88,82,143,细颗粒物(PM2.5)
盘锦市,新生街道,121.8297,41.1028,2025-03-26T0000,104,,0.7,19,6,86,90,137,细颗粒物(PM2.5)
平顶山市,新华旅馆,113.3257,33.742,2025-03-26T0000,32,91,0.3,62,6,26,136,71,颗粒物(PM10)
平顶山市,规划设计院,113.2919,33.737,2025-03-26T0000,45,77,0.5,63,5,27,134,64,颗粒物(PM10)
平顶山市,平顶山工学院,113.182,33.774,2025-03-26T0000,17,44,0.4,3,9,115,140,44,
平顶山市,规划局,113.3025,33.73,2025-03-26T0000,34,56,0.5,27,6,79,135,53,颗粒物(PM10)
平顶山市,石龙区,112.8867,33.9116,2025-03-26T0000,25,72,0.1,33,8,105,148,61,颗粒物(PM10)
平凉市,聚贤嘉苑,106.6692,35.5461,2025-03-26T0000,18,68,0.7,39,17,87,114,59,颗粒物(PM10)
平凉市,博物馆,106.7021,35.5307,2025-03-26T0000,28,73,0.8,61,26,62,115,62,颗粒物(PM10)
萍乡市,武功山,114.0997,27.5002,2025-03-26T0000,31,47,0.5,10,14,91,135,47,
萍乡市,中医院,113.8385,27.6434,2025-03-26T0000,64,117,1.5,72,12,9,170,87,细颗粒物(PM2.5)
萍乡市,市政府车库,113.8493,27.6253,2025-03-26T0000,78,,0.8,37,7,48,167,104,细颗粒物(PM2.5)
萍乡市,市环保局,113.8676,27.6435,2025-03-26T0000,81,118,1.1,64,8,30,171,108,细颗粒物(PM2.5)
萍乡市,安源区政府,113.866,27.6198,2025-03-26T0000,60,102,1.0,32,16,50,169,82,细颗粒物(PM2.5)
莆田市,荔城区仓后路,119.0141,25.4325,2025-03-26T0000,46,66,0.8,36,4,39,165,64,细颗粒物(PM2.5)
莆田市,莆田市监测站,119.0015,25.4553,2025-03-26T0000,48,51,0.5,19,4,50,184,67,细颗粒物(PM2.5)
莆田市,涵江区六中,119.1119,25.4561,2025-03-26T0000,39,53,0.6,46,9,53,157,55,细颗粒物(PM2.5)
莆田市,秀屿区政府,119.1013,25.3215,2025-03-26T0000,35,44,0.5,18,8,81,136,50,
莆田市,东圳水库,118.981,25.4792,2025-03-26T0000,,,,,,,,,
濮阳市,环保局,115.0312,35.7636,2025-03-26T0000,48,194,0.7,40,40,58,111,122,颗粒物(PM10)
濮阳市,油田运输公司,115.0574,35.7609,2025-03-26T0000,41,208,1.1,43,43,42,116,129,颗粒物(PM10)
濮阳市,濮水河管理处,115,35.7668,2025-03-26T0000,36,197,0.7,42,11,44,111,124,颗粒物(PM10)
濮阳市,任丘路479号,115.0924,35.7686,2025-03-26T0000,46,214,1.0,44,54,44,120,132,颗粒物(PM10)
普洱市,市环保局,100.98,22.7633,2025-03-26T0000,20,77,0.7,16,4,64,126,64,颗粒物(PM10)
普洱市,普洱第二中学,100.9817,22.8322,2025-03-26T0000,42,,0.6,39,6,31,111,,
七台河市,新一中,131.0518,45.8751,2025-03-26T0000,3,11,0.5,5,11,77,81,25,
七台河市,中波台,131.0577,45.7879,2025-03-26T0000,3,9,0.5,7,5,68,74,22,
七台河市,人民广场,131.0176,45.7761,2025-03-26T0000,10,12,0.7,5,5,68,75,22,
七台河市,新建矿广场,130.8781,45.8222,2025-03-26T0000,19,19,0.6,17,7,57,73,28,
齐齐哈尔市,安居小区,123.9305,47.3636,2025-03-26T0000,20,34,0.4,10,8,68,79,34,
齐齐哈尔市,中心广场,123.9488,47.3386,2025-03-26T0000,23,38,0.4,12,6,56,74,38,
齐齐哈尔市,农牧车辆厂,123.9483,47.3227,2025-03-26T0000,22,34,0.3,13,6,58,83,34,
齐齐哈尔市,市环境监测站,123.945,47.2988,2025-03-26T0000,21,,0.3,8,2,64,79,30,
齐齐哈尔市,富区青少年活动中心,123.6333,47.2075,2025-03-26T0000,46,,0.5,20,8,52,83,64,细颗粒物(PM2.5)
黔东南苗族侗族自治州,市环境监测站,107.9783,26.5747,2025-03-26T0000,54,68,0.6,24,5,106,154,74,细颗粒物(PM2.5)
黔东南苗族侗族自治州,凯里学院,107.8908,26.5311,2025-03-26T0000,43,58,0.7,8,4,121,166,60,细颗粒物(PM2.5)
黔南布依族苗族自治州,小围寨,107.5228,26.2403,2025-03-26T0000,34,39,0.8,16,,92,161,,
黔南布依族苗族自治州,沙坝,107.5175,26.2978,2025-03-26T0000,44,63,0.6,38,6,35,151,62,细颗粒物(PM2.5)
黔西南布依族苗族自治州,场坝街,104.9022,25.0925,2025-03-26T0000,42,,0.2,7,2,127,161,59,细颗粒物(PM2.5)
黔西南布依族苗族自治州,坪东大道,104.8811,25.0992,2025-03-26T0000,20,27,0.2,8,2,124,153,39,
钦州市,市环保站,108.6236,21.9667,2025-03-26T0000,17,29,0.5,23,8,51,85,29,
钦州市,沙埠小学,108.6549,21.9481,2025-03-26T0000,18,41,0.6,23,8,47,85,41,
钦州市,港区一小,108.5989,21.7431,2025-03-26T0000,16,30,0.7,21,6,55,70,30,
钦州市,北职校,108.5959,21.9633,2025-03-26T0000,26,32,0.6,17,8,51,84,38,
秦皇岛市,第一关,119.7493,40.0116,2025-03-26T0000,40,50,0.4,41,6,45,90,57,细颗粒物(PM2.5)
秦皇岛市,监测站,119.5897,39.9499,2025-03-26T0000,24,41,0.4,28,6,54,95,41,
秦皇岛市,建设大厦,119.5251,39.9041,2025-03-26T0000,39,58,0.4,27,6,62,90,55,细颗粒物(PM2.5)
秦皇岛市,文明里,119.610547,39.943889,2025-03-26T0000,33,65,0.3,27,7,60,89,58,颗粒物(PM10)
秦皇岛市,北戴河轮滑馆,119.5090,39.8253,2025-03-26T0000,37,53,0.3,4,5,88,94,53,细颗粒物(PM2.5)
青岛市,仰口,120.6659,36.2403,2025-03-26T0000,12,119,0.4,5,3,100,115,85,颗粒物(PM10)
青岛市,市南区东部子站,120.4134,36.0658,2025-03-26T0000,7,134,0.4,5,8,102,112,92,颗粒物(PM10)
青岛市,四方区子站,120.3664,36.1032,2025-03-26T0000,12,100,0.6,11,4,108,120,75,颗粒物(PM10)
青岛市,市南区西部子站,120.2994,36.054,2025-03-26T0000,3,105,0.5,28,8,78,110,78,颗粒物(PM10)
青岛市,崂山区子站,120.4581,36.0858,2025-03-26T0000,7,112,0.5,6,8,108,121,81,颗粒物(PM10)
青岛市,城阳区子站,120.3999,36.3083,2025-03-26T0000,10,97,0.6,17,8,91,113,74,颗粒物(PM10)
青岛市,黄岛区4号,120.0405,35.8735,2025-03-26T0000,3,66,0.5,21,8,84,125,58,颗粒物(PM10)
青岛市,即墨2号,120.5014,36.4034,2025-03-26T0000,12,126,0.6,10,8,86,105,88,颗粒物(PM10)
青岛市,市北区南部,120.3503,36.0736,2025-03-26T0000,7,70,0.5,5,5,96,101,60,颗粒物(PM10)
青岛市,李沧区北部,120.3948,36.1805,2025-03-26T0000,12,102,0.6,22,8,85,114,76,颗粒物(PM10)
青岛市,珠江路669号,120.1969,35.9546,2025-03-26T0000,10,110,0.6,33,8,76,112,80,颗粒物(PM10)
清远市,环保大楼,113.0426,23.691,2025-03-26T0000,37,55,0.8,28,4,110,247,53,"颗粒物(PM10),细颗粒物(PM2.5)"
清远市,凤城街办,113.0208,23.7106,2025-03-26T0000,29,69,0.7,41,9,94,217,60,颗粒物(PM10)
清远市,技师学院,113.0477,23.6344,2025-03-26T0000,34,78,0.7,49,10,80,239,64,颗粒物(PM10)
清远市,清新太和,112.9903,23.7403,2025-03-26T0000,41,77,0.6,37,10,104,239,64,颗粒物(PM10)
清远市,清城东城,113.076,23.7198,2025-03-26T0000,45,97,0.5,33,8,93,220,74,颗粒物(PM10)
庆阳市,庆阳五中,107.6325,35.7357,2025-03-26T0000,24,77,0.5,11,3,119,116,64,颗粒物(PM10)
庆阳市,市环保局,107.6364,35.7067,2025-03-26T0000,28,59,0.5,11,5,116,117,55,颗粒物(PM10)
曲靖市,环境监测站,103.7897,25.5035,2025-03-26T0000,24,38,0.5,19,4,97,147,38,
曲靖市,烟厂办公区,103.8,25.5364,2025-03-26T0000,33,48,0.5,21,6,99,158,48,
曲靖市,南苑二区,103.7947,25.462,2025-03-26T0000,21,41,0.4,13,7,95,146,41,
曲靖市,曲靖师范学院,103.7444,25.5261,2025-03-26T0000,38,60,0.4,29,18,85,156,55,颗粒物(PM10)
衢州市,环保大楼,118.8692,28.9398,2025-03-26T0000,56,94,0.6,94,4,17,150,77,细颗粒物(PM2.5)
衢州市,实验学校,118.8709,28.9666,2025-03-26T0000,44,82,0.7,68,1,8,151,66,颗粒物(PM10)
衢州市,衢州学院,118.8621,28.9808,2025-03-26T0000,53,87,0.5,94,5,3,144,73,细颗粒物(PM2.5)
泉州市,涂山街,118.5819,24.9117,2025-03-26T0000,36,43,0.5,24,5,88,180,52,细颗粒物(PM2.5)
泉州市,津头埔,118.5972,24.8978,2025-03-26T0000,33,52,0.6,32,5,84,166,51,颗粒物(PM10)
泉州市,万安,118.6663,24.9424,2025-03-26T0000,30,44,0.7,34,4,74,163,44,
泉州市,清源山,118.6117,24.9604,2025-03-26T0000,,,,,,,,,
泉州市,城华南路,118.6333,24.9264,2025-03-26T0000,29,57,0.4,25,4,81,172,54,颗粒物(PM10)
日喀则市,日喀则监测站,88.8876,29.2718,2025-03-26T0000,20,33,1.0,24,2,76,116,33,
日喀则市,林业技术推广中心,88.8781,29.2426,2025-03-26T0000,8,28,0.5,5,7,79,110,28,
日照市,监测站,119.471,35.4209,2025-03-26T0000,11,73,0.5,17,6,99,122,62,颗粒物(PM10)
日照市,市政府广场,119.523,35.4216,2025-03-26T0000,15,70,0.6,12,5,91,114,60,颗粒物(PM10)
日照市,港务局,119.5587,35.4044,2025-03-26T0000,17,88,0.5,17,5,97,120,69,颗粒物(PM10)
日照市,职业技术学院,119.5328,35.4625,2025-03-26T0000,3,83,0.6,17,5,96,119,67,颗粒物(PM10)
日照市,岚山环保分局,119.3266,35.1044,2025-03-26T0000,18,117,0.5,25,9,101,123,84,颗粒物(PM10)
三门峡市,市政府,111.1922,34.7752,2025-03-26T0000,58,297,0.7,17,8,124,154,174,颗粒物(PM10)
三门峡市,开发区,111.1587,34.7942,2025-03-26T0000,104,209,0.5,19,13,123,145,137,细颗粒物(PM2.5)
三门峡市,风景区,111.143,34.7955,2025-03-26T0000,74,288,0.6,14,13,114,140,169,颗粒物(PM10)
三门峡市,三门峡市第一小学,111.1911,34.7829,2025-03-26T0000,110,333,0.7,20,9,124,152,192,颗粒物(PM10)
三门峡市,富达温泉假日酒店,111.1,34.7167,2025-03-26T0000,101,293,0.7,26,15,110,140,172,颗粒物(PM10)
三明市,三钢,117.6211,26.2625,2025-03-26T0000,69,69,1.8,54,9,37,169,93,细颗粒物(PM2.5)
三明市,三明二中,117.635,26.2714,2025-03-26T0000,49,58,1.2,51,3,34,162,68,细颗粒物(PM2.5)
三明市,三元区政府,117.6028,26.2378,2025-03-26T0000,44,65,0.7,34,6,56,167,62,细颗粒物(PM2.5)
三明市,洋溪,117.7275,26.3108,2025-03-26T0000,,,,,,,,,
三亚市,河东子站,109.5078,18.2489,2025-03-26T0000,13,25,0.4,5,3,65,89,25,
三亚市,河西子站,109.4964,18.2681,2025-03-26T0000,16,28,0.4,8,3,53,92,28,
三亚市,君悦子站,109.7348,18.3443,2025-03-26T0000,15,34,0.2,17,4,37,90,34,
山南市,山南监测站,91.7608,29.2313,2025-03-26T0000,14,40,0.3,16,6,70,109,40,
山南市,山南人民医院,91.7706,29.2436,2025-03-26T0000,8,16,0.3,4,4,92,105,29,
汕头市,金平子站,116.6794,23.3667,2025-03-26T0000,36,,0.7,15,6,97,141,52,细颗粒物(PM2.5)
汕头市,龙湖子站,116.7244,23.3633,2025-03-26T0000,30,37,0.6,7,5,100,140,43,
汕头市,濠江子站,116.7258,23.2775,2025-03-26T0000,28,31,0.7,11,4,99,132,40,
汕头市,澄海子站,116.7519,23.4714,2025-03-26T0000,38,53,0.8,27,4,86,149,54,细颗粒物(PM2.5)
汕头市,潮阳子站,116.6092,23.2539,2025-03-26T0000,22,39,0.3,10,7,108,134,39,
汕头市,潮南峡山,116.454,23.2684,2025-03-26T0000,18,41,0.5,2,8,114,161,41,
汕头市,潮南子站,116.4069,23.2533,2025-03-26T0000,25,57,0.6,12,8,104,151,54,颗粒物(PM10)
汕尾市,市环保局,115.3653,22.775,2025-03-26T0000,33,,0.8,6,7,108,143,48,
汕尾市,市政府,115.3706,22.7898,2025-03-26T0000,34,,0.6,11,5,96,137,49,
汕尾市,新城中学,115.3622,22.7925,2025-03-26T0000,30,,0.6,8,9,100,138,43,
商洛市,监测站,109.9154,33.8715,2025-03-26T0000,30,57,0.7,56,12,30,134,54,颗粒物(PM10)
商洛市,商州区中学,109.9643,33.8471,2025-03-26T0000,28,52,0.7,40,28,49,128,51,颗粒物(PM10)
商丘市,环境监测站,115.6702,34.4285,2025-03-26T0000,65,134,0.4,27,9,75,125,92,颗粒物(PM10)
商丘市,粮食局,115.6458,34.4045,2025-03-26T0000,53,108,0.3,22,7,,124,,
商丘市,睢阳区环保局,115.6293,34.3948,2025-03-26T0000,56,114,0.3,19,8,96,127,82,颗粒物(PM10)
商丘市,梁园区档案局,115.6071,34.4465,2025-03-26T0000,52,122,0.6,30,6,78,122,86,颗粒物(PM10)
上海市,普陀,121.4,31.238,2025-03-26T0000,55,131,0.6,55,10,132,145,91,颗粒物(PM10)
上海市,十五厂,121.478,31.2036,2025-03-26T0000,55,118,0.8,44,12,127,148,84,颗粒物(PM10)
上海市,虹口,121.467,31.3008,2025-03-26T0000,53,132,0.8,91,13,90,153,91,颗粒物(PM10)
上海市,静安监测站,121.425,31.2261,2025-03-26T0000,52,133,0.5,56,11,127,147,92,颗粒物(PM10)
上海市,浦东川沙,121.703,31.1907,2025-03-26T0000,62,132,0.6,87,9,69,170,91,颗粒物(PM10)
上海市,浦东新区监测站,121.533,31.2284,2025-03-26T0000,55,116,0.8,50,10,134,159,83,颗粒物(PM10)
上海市,浦东张江,121.577,31.2071,2025-03-26T0000,59,155,0.8,50,8,119,158,103,颗粒物(PM10)
上海市,宝山庙行,121.4316,31.3322,2025-03-26T0000,61,132,0.7,50,11,139,152,91,颗粒物(PM10)
上海市,崇明上实东滩,121.8791,31.4662,2025-03-26T0000,38,78,0.5,104,8,18,172,64,颗粒物(PM10)
上海市,嘉定南翔,121.3162,31.2838,2025-03-26T0000,61,132,0.7,101,10,86,144,91,颗粒物(PM10)
上海市,金山新城,121.3359,30.7456,2025-03-26T0000,52,93,0.7,43,8,92,202,72,"颗粒物(PM10),细颗粒物(PM2.5)"
上海市,闵行浦江,121.4996,31.0739,2025-03-26T0000,53,114,0.8,54,8,104,161,82,颗粒物(PM10)
上海市,青浦徐泾,121.2886,31.1663,2025-03-26T0000,59,133,0.7,80,8,94,147,92,颗粒物(PM10)
上海市,松江图书馆,121.2186,31.0378,2025-03-26T0000,70,127,0.8,80,10,98,156,94,细颗粒物(PM2.5)
上海市,长宁仙霞,121.3902,31.2059,2025-03-26T0000,52,105,0.7,45,12,146,151,78,颗粒物(PM10)
上海市,浦东惠南,121.7965,31.0507,2025-03-26T0000,48,117,0.9,137,8,6,206,84,颗粒物(PM10)
上海市,奉贤南桥新城,121.4891,30.925,2025-03-26T0000,55,102,0.9,64,10,70,175,76,颗粒物(PM10)
上海市,冠生园路458号,121.4174,31.16637,2025-03-26T0000,52,105,0.9,53,10,98,145,78,颗粒物(PM10)
上海市,宁武路151号,121.5419,31.2683,2025-03-26T0000,61,189,0.8,122,8,55,143,120,颗粒物(PM10)
上饶市,百草园,118.005,28.4572,2025-03-26T0000,,,,,,,,,
上饶市,市监测站,117.9756,28.4436,2025-03-26T0000,48,78,0.7,19,22,98,173,67,细颗粒物(PM2.5)
上饶市,凤凰光学,117.9519,28.4628,2025-03-26T0000,50,91,1.0,50,15,56,160,71,颗粒物(PM10)
上饶市,双创科技城,117.897,28.4315,2025-03-26T0000,64,97,0.9,87,17,26,160,87,细颗粒物(PM2.5)
上饶市,裕丰大道,118.1904,28.4448,2025-03-26T0000,60,99,0.7,53,10,41,159,82,细颗粒物(PM2.5)
韶关市,市八中,113.5824,24.7733,2025-03-26T0000,66,,0.7,,24,178,202,,
韶关市,园林处,113.5917,24.7972,2025-03-26T0000,62,84,0.8,31,20,173,195,84,细颗粒物(PM2.5)
韶关市,韶关学院,113.6735,24.7791,2025-03-26T0000,75,97,0.7,21,14,111,198,100,细颗粒物(PM2.5)
韶关市,曲江监测站,113.5971,24.6863,2025-03-26T0000,52,94,0.8,28,14,192,201,90,臭氧1小时
韶关市,碧湖山庄,113.5556,24.8082,2025-03-26T0000,64,99,0.8,27,14,162,211,87,细颗粒物(PM2.5)
邵阳市,市水土所,111.5239,27.3033,2025-03-26T0000,,,,,,,,,
邵阳市,市化工厂,111.5283,27.2442,2025-03-26T0000,86,116,1.1,56,9,37,166,114,细颗粒物(PM2.5)
邵阳市,市环保局,111.4328,27.2272,2025-03-26T0000,87,91,1.4,46,12,67,173,115,细颗粒物(PM2.5)
邵阳市,北塔二期4-26地块,111.4460,27.2472,2025-03-26T0000,90,117,1.1,32,11,45,151,119,细颗粒物(PM2.5)
邵阳市,邵水西路287号,111.4739,27.2282,2025-03-26T0000,91,114,1.4,63,12,36,159,120,细颗粒物(PM2.5)
绍兴市,城东开发委,120.6053,29.9928,2025-03-26T0000,37,69,0.4,26,7,79,156,60,颗粒物(PM10)
绍兴市,树下王站,120.5483,30.0003,2025-03-26T0000,43,72,0.9,40,7,64,169,61,颗粒物(PM10)
绍兴市,绍兴中专,120.5683,29.9361,2025-03-26T0000,40,63,0.8,67,7,40,160,57,"颗粒物(PM10),细颗粒物(PM2.5)"
绍兴市,柯桥区政府,120.4906,30.0861,2025-03-26T0000,40,84,0.6,30,9,98,156,67,颗粒物(PM10)
绍兴市,重华小学,120.8752,30.0249,2025-03-26T0000,41,68,0.5,23,10,94,165,59,颗粒物(PM10)
绍兴市,上虞中学,120.8369,30.0137,2025-03-26T0000,43,70,0.5,28,8,80,164,60,"颗粒物(PM10),细颗粒物(PM2.5)"
绍兴市,柯桥妇保,120.4722,30.0415,2025-03-26T0000,49,93,0.4,40,7,75,168,72,颗粒物(PM10)
绍兴市,袍江中学,120.6153,30.0764,2025-03-26T0000,41,81,0.5,33,4,74,165,66,颗粒物(PM10)
深圳市,通心岭子站,114.1063,22.5545,2025-03-26T0000,20,42,0.5,34,6,64,168,42,
深圳市,洪湖,114.117,22.5625,2025-03-26T0000,22,46,0.4,35,7,77,168,46,
深圳市,华侨城,113.987,22.5417,2025-03-26T0000,19,43,0.4,16,7,84,152,43,
深圳市,南海子站,113.9181,22.5171,2025-03-26T0000,24,44,0.5,32,7,84,136,44,
深圳市,盐田,114.2458,22.5689,2025-03-26T0000,24,46,0.5,85,8,11,51,46,
深圳市,龙岗,114.2283,22.7244,2025-03-26T0000,27,53,0.7,77,7,41,174,52,颗粒物(PM10)
深圳市,南澳,114.494,22.5422,2025-03-26T0000,17,32,0.5,15,6,81,130,32,
深圳市,葵涌,114.41,22.6342,2025-03-26T0000,27,47,0.6,42,7,36,123,47,
深圳市,梅沙,114.297,22.5978,2025-03-26T0000,15,32,0.5,15,8,82,108,32,
深圳市,观澜,114.0678,22.738,2025-03-26T0000,19,54,0.7,31,6,82,165,52,颗粒物(PM10)
深圳市,莲花,114.0731,22.559,2025-03-26T0000,18,32,0.5,13,6,107,159,34,
深圳市,民治,114.0261,22.6198,2025-03-26T0000,19,45,0.6,33,8,74,147,45,
深圳市,横岗,114.1871,22.6451,2025-03-26T0000,31,54,0.6,85,8,27,167,52,颗粒物(PM10)
深圳市,坪山,114.3551,22.7151,2025-03-26T0000,29,58,0.5,28,7,70,154,54,颗粒物(PM10)
深圳市,西乡,113.8953,22.5861,2025-03-26T0000,15,44,0.6,41,12,88,142,44,
沈阳市,森林路,123.6836,41.9339,2025-03-26T0000,,,,,,,,,
沈阳市,浑南东路,123.505,41.7406,2025-03-26T0000,132,167,0.9,17,13,87,89,175,细颗粒物(PM2.5)
沈阳市,新秀街,123.4231,41.6989,2025-03-26T0000,134,187,0.8,30,7,83,90,178,细颗粒物(PM2.5)
沈阳市,东陵路,123.5903,41.8411,2025-03-26T0000,126,126,0.9,29,7,70,88,166,细颗粒物(PM2.5)
沈阳市,陵东街,123.4264,41.8467,2025-03-26T0000,135,159,1.1,27,7,84,88,179,细颗粒物(PM2.5)
沈阳市,文化路,123.4114,41.7653,2025-03-26T0000,153,198,0.9,22,6,90,88,203,细颗粒物(PM2.5)
沈阳市,小河沿,123.4678,41.7867,2025-03-26T0000,141,178,0.9,25,6,90,94,188,细颗粒物(PM2.5)
沈阳市,太原街,123.4017,41.7972,2025-03-26T0000,171,197,0.8,25,4,90,86,221,细颗粒物(PM2.5)
沈阳市,京沈街,123.3783,41.9228,2025-03-26T0000,119,,0.8,25,7,68,86,156,细颗粒物(PM2.5)
沈阳市,沈辽西路,123.2444,41.7347,2025-03-26T0000,112,156,0.8,28,8,82,97,147,细颗粒物(PM2.5)
沈阳市,裕农路,123.5953,41.9086,2025-03-26T0000,116,148,0.9,35,6,71,93,152,细颗粒物(PM2.5)
十堰市,武当山,111.0419,32.395,2025-03-26T0000,17,25,0.5,5,9,119,136,38,
十堰市,滨河新村,110.78,32.6494,2025-03-26T0000,45,74,0.9,45,12,42,127,63,细颗粒物(PM2.5)
十堰市,刘家沟,110.7258,32.6389,2025-03-26T0000,26,40,0.6,18,20,71,128,40,
十堰市,铁二处,110.8839,32.5714,2025-03-26T0000,40,,0.9,18,12,67,135,57,细颗粒物(PM2.5)
十堰市,郧阳区金沙路,110.8054,32.8401,2025-03-26T0000,26,38,0.5,7,7,101,133,38,
石河子市,艾青诗歌馆,86.0497,44.2967,2025-03-26T0000,39,202,0.2,9,4,74,84,126,颗粒物(PM10)
石河子市,南区管委会,86.047,44.2331,2025-03-26T0000,27,163,0.3,15,8,,89,107,颗粒物(PM10)
石河子市,世纪广场,86.0791,44.3017,2025-03-26T0000,22,257,0.3,10,6,71,86,154,颗粒物(PM10)
石家庄市,职工医院,114.4422,38.0444,2025-03-26T0000,35,129,0.3,31,4,58,109,90,颗粒物(PM10)
石家庄市,高新区,114.6063,38.0266,2025-03-26T0000,26,86,0.3,26,4,76,114,68,颗粒物(PM10)
石家庄市,西北水源,114.4898,38.1328,2025-03-26T0000,24,93,0.3,26,4,61,106,72,颗粒物(PM10)
石家庄市,西南高教,114.4586,38.0058,2025-03-26T0000,29,150,0.2,32,1,48,114,100,颗粒物(PM10)
石家庄市,世纪公园,114.5331,38.0178,2025-03-26T0000,31,103,0.3,23,15,55,95,77,颗粒物(PM10)
石家庄市,人民会堂,114.509,38.0457,2025-03-26T0000,35,117,0.3,22,3,67,118,84,颗粒物(PM10)
石家庄市,封龙山,114.3524,37.8911,2025-03-26T0000,40,198,0.5,14,21,93,108,124,颗粒物(PM10)
石家庄市,22中南校区,114.5481,38.0378,2025-03-26T0000,34,101,0.3,25,2,63,112,76,颗粒物(PM10)
石家庄市,鹿泉一中,114.289,38.0906,2025-03-26T0000,43,236,0.3,37,2,51,110,143,颗粒物(PM10)
石家庄市,藁城区实验学校,114.8506765,38.0322033,2025-03-26T0000,17,67,0.6,19,10,77,110,59,颗粒物(PM10)
石家庄市,井陉矿区区委大楼,114.0504658,38.0591645,2025-03-26T0000,34,282,0.5,42,7,58,114,166,颗粒物(PM10)
石家庄市,栾城区星河路,114.6549,37.9020,2025-03-26T0000,20,88,0.2,22,4,67,111,69,颗粒物(PM10)
石嘴山市,沙湖旅游区,106.3394,38.817,2025-03-26T0000,,,,,,,,,
石嘴山市,大武口朝阳西街,106.3668,39.0145,2025-03-26T0000,242,1054,0.7,5,8,108,105,500,颗粒物(PM10)
石嘴山市,惠农南大街,106.7704,39.2282,2025-03-26T0000,348,1381,0.4,10,10,100,98,500,颗粒物(PM10)
石嘴山市,红果子镇惠新街,106.7099,39.1325,2025-03-26T0000,310,1158,0.9,8,5,100,99,500,颗粒物(PM10)
石嘴山市,妇女儿童医院,106.3495,38.9836,2025-03-26T0000,179,885,0.3,5,2,96,105,500,颗粒物(PM10)
石嘴山市,石大公路,106.7492,39.2069,2025-03-26T0000,361,771,0.0,15,6,95,105,500,颗粒物(PM10)
双鸭山市,双合村,131.1511,46.6937,2025-03-26T0000,9,14,0.3,6,9,61,76,20,
双鸭山市,南小市,131.1652,46.6191,2025-03-26T0000,11,,0.2,7,8,62,76,20,
双鸭山市,环保局,131.1524,46.6554,2025-03-26T0000,26,27,0.2,5,8,70,74,38,
双鸭山市,苗圃,131.12,46.5656,2025-03-26T0000,,,,,,,,,
朔州市,平朔,112.4397,39.3522,2025-03-26T0000,63,251,0.8,59,17,3,108,151,颗粒物(PM10)
朔州市,朔唯,112.4575,39.3617,2025-03-26T0000,56,236,0.7,68,14,9,103,143,颗粒物(PM10)
朔州市,区政府,112.4258,39.3197,2025-03-26T0000,40,163,0.8,42,8,28,110,107,颗粒物(PM10)
朔州市,市环保局,112.4072,39.3278,2025-03-26T0000,37,178,0.7,49,8,20,101,114,颗粒物(PM10)
朔州市,市二中,112.4272,39.3681,2025-03-26T0000,69,270,0.8,62,18,3,104,160,颗粒物(PM10)
朔州市,一水厂,112.2931,39.53,2025-03-26T0000,37,172,0.6,50,5,20,101,111,颗粒物(PM10)
四平市,一商场,124.4002,43.1713,2025-03-26T0000,61,121,0.5,36,4,36,75,86,颗粒物(PM10)
四平市,境园,124.388,43.193,2025-03-26T0000,73,121,0.9,58,5,7,71,98,细颗粒物(PM2.5)
四平市,植物园,124.4036,43.1411,2025-03-26T0000,84,128,0.4,30,4,32,80,112,细颗粒物(PM2.5)
四平市,世纪城,124.3419,43.1666,2025-03-26T0000,83,122,1.2,52,4,14,74,110,细颗粒物(PM2.5)
松原市,江南,124.8006,45.1214,2025-03-26T0000,72,124,0.9,65,6,4,81,97,细颗粒物(PM2.5)
松原市,江北,124.7965,45.1722,2025-03-26T0000,62,87,0.7,49,3,21,72,84,细颗粒物(PM2.5)
苏州市,上方山,120.561,31.2472,2025-03-26T0000,,,,,,,,,
苏州市,彩香,120.591,31.3019,2025-03-26T0000,63,114,0.9,80,6,51,146,85,细颗粒物(PM2.5)
苏州市,轧钢厂,120.596,31.3264,2025-03-26T0000,56,125,0.9,72,8,61,154,88,颗粒物(PM10)
苏州市,吴中区,120.613,31.2703,2025-03-26T0000,59,126,0.6,87,10,59,150,88,颗粒物(PM10)
苏州市,苏州新区,120.543,31.2994,2025-03-26T0000,63,127,0.7,128,8,26,158,89,颗粒物(PM10)
苏州市,苏州工业园区,120.669,31.3097,2025-03-26T0000,61,138,0.7,44,9,118,150,94,颗粒物(PM10)
苏州市,相城区,120.641,31.3708,2025-03-26T0000,55,135,0.6,77,10,67,159,93,颗粒物(PM10)
苏州市,方洲路,120.743,31.3188,2025-03-26T0000,49,116,0.7,36,9,136,159,83,颗粒物(PM10)
苏州市,木渎中学,120.5031,31.2774,2025-03-26T0000,48,104,0.6,65,8,49,167,77,颗粒物(PM10)
苏州市,越秀幼儿园,120.624,31.1733,2025-03-26T0000,70,125,0.8,67,10,98,160,94,细颗粒物(PM2.5)
苏州市,高铁新城,120.6505,31.416,2025-03-26T0000,56,135,0.6,78,11,84,138,93,颗粒物(PM10)
宿迁市,宿迁学院,118.293,33.9528,2025-03-26T0000,70,151,0.7,17,4,111,151,101,颗粒物(PM10)
宿迁市,宿迁中学,118.2442,33.9592,2025-03-26T0000,63,155,0.6,18,10,109,140,103,颗粒物(PM10)
宿迁市,市供电局,118.283,33.965,2025-03-26T0000,71,169,0.7,19,6,109,145,110,颗粒物(PM10)
宿迁市,宿豫区政府,118.3225,33.9447,2025-03-26T0000,67,148,0.7,17,5,106,148,99,颗粒物(PM10)
宿州市,远航博物馆,116.9509,33.666,2025-03-26T0000,46,92,0.2,18,6,120,152,71,颗粒物(PM10)
宿州市,社会福利中心,116.9708,33.591,2025-03-26T0000,36,88,0.4,30,7,87,139,69,颗粒物(PM10)
宿州市,宿州学院,116.9884,33.6305,2025-03-26T0000,46,93,0.5,26,8,101,151,72,颗粒物(PM10)
宿州市,皖北煤电集团,116.9648,33.6252,2025-03-26T0000,38,84,0.7,17,7,100,135,67,颗粒物(PM10)
绥化市,人和东街,126.9785,46.6365,2025-03-26T0000,21,42,0.7,23,6,48,71,42,
绥化市,党政办公中心,126.964,46.6528,2025-03-26T0000,18,36,0.5,26,9,44,74,36,
随州市,市委党校,113.3583,31.7275,2025-03-26T0000,49,76,0.9,24,14,86,138,68,细颗粒物(PM2.5)
随州市,市林业局,113.3833,31.6908,2025-03-26T0000,53,70,0.7,22,15,98,144,73,细颗粒物(PM2.5)
随州市,市立交桥水厂,113.3983,31.7308,2025-03-26T0000,65,79,0.8,30,12,90,148,88,细颗粒物(PM2.5)
遂宁市,石溪浩,105.5453,30.5678,2025-03-26T0000,46,192,0.4,61,4,34,150,121,颗粒物(PM10)
遂宁市,市监测站,105.5582,30.5232,2025-03-26T0000,47,94,0.5,77,6,21,163,72,颗粒物(PM10)
遂宁市,行政中心,105.5861,30.5366,2025-03-26T0000,39,99,0.7,66,8,38,183,75,颗粒物(PM10)
遂宁市,美宁食品公司,105.5918,30.4728,2025-03-26T0000,50,84,0.7,71,8,8,162,69,细颗粒物(PM2.5)
塔城地区,东门外小游园,82.9994,46.7432,2025-03-26T0000,10,16,0.0,1,4,79,88,25,
台州市,黄岩环保大楼,121.273,28.6459,2025-03-26T0000,69,129,0.8,57,6,40,215,93,细颗粒物(PM2.5)
台州市,台州环保大楼,121.419,28.6542,2025-03-26T0000,39,73,0.6,12,5,82,180,62,颗粒物(PM10)
台州市,路桥田洋王,121.377,28.5773,2025-03-26T0000,57,101,0.7,20,4,76,198,78,细颗粒物(PM2.5)
台州市,台州科技职业学院,121.2568,28.6681,2025-03-26T0000,75,129,0.7,41,6,55,214,100,细颗粒物(PM2.5)
太原市,尖草坪,112.522,37.8873,2025-03-26T0000,127,449,0.7,89,11,5,106,337,颗粒物(PM10)
太原市,上兰,112.434,38.0108,2025-03-26T0000,114,408,0.5,32,8,59,104,283,颗粒物(PM10)
太原市,晋源,112.469,37.7124,2025-03-26T0000,79,402,0.5,38,13,67,110,275,颗粒物(PM10)
太原市,小店,112.5583,37.7394,2025-03-26T0000,83,399,0.6,39,11,75,112,270,颗粒物(PM10)
太原市,桃园,112.5369,37.8692,2025-03-26T0000,116,437,0.6,85,6,9,110,322,颗粒物(PM10)
太原市,坞城,112.57,37.8195,2025-03-26T0000,107,350,0.6,30,13,75,110,200,颗粒物(PM10)
太原市,南寨,112.549,37.9854,2025-03-26T0000,92,383,0.6,67,6,4,106,248,颗粒物(PM10)
太原市,金胜,112.4719,37.7831,2025-03-26T0000,93,377,0.6,39,12,65,109,239,颗粒物(PM10)
太原市,育英中学,112.5608,37.8807,2025-03-26T0000,116,440,0.8,76,10,7,104,325,颗粒物(PM10)
泰安市,监测站,117.1437,36.1937,2025-03-26T0000,26,127,0.6,24,14,86,109,89,颗粒物(PM10)
泰安市,人口学校,117.0885,36.2017,2025-03-26T0000,42,161,0.5,16,15,94,106,106,颗粒物(PM10)
泰安市,电力学校,117.1089,36.1758,2025-03-26T0000,41,134,0.4,17,12,80,100,92,颗粒物(PM10)
泰安市,国网新校,117.1812,36.2275,2025-03-26T0000,31,120,0.7,19,12,94,119,85,颗粒物(PM10)
泰安市,交通技校,117.0313,36.2018,2025-03-26T0000,52,166,0.5,19,13,105,110,108,颗粒物(PM10)
泰安市,山东第一医科大学,117.0829,36.13,2025-03-26T0000,32,151,0.5,24,14,74,104,101,颗粒物(PM10)
泰州市,公园路,119.905,32.4878,2025-03-26T0000,48,78,0.9,38,10,86,166,67,细颗粒物(PM2.5)
泰州市,莲花,119.9189,32.4625,2025-03-26T0000,46,90,1.1,49,16,90,172,70,颗粒物(PM10)
泰州市,留学生创业园,119.888,32.4639,2025-03-26T0000,56,117,0.8,54,14,74,162,84,颗粒物(PM10)
泰州市,王营,119.8767,32.3289,2025-03-26T0000,61,95,1.3,115,19,24,157,83,细颗粒物(PM2.5)
泰州市,姜堰区政府广场,120.1259,32.5099,2025-03-26T0000,56,92,0.8,60,16,64,168,77,细颗粒物(PM2.5)
泰州市,周山河街区,119.9192,32.4322,2025-03-26T0000,65,122,0.9,85,17,40,166,88,细颗粒物(PM2.5)
唐山市,物资局,118.1725,39.6334,2025-03-26T0000,36,101,0.3,8,4,83,92,76,颗粒物(PM10)
唐山市,十二中,118.1705,39.6506,2025-03-26T0000,34,104,0.4,6,3,82,90,77,颗粒物(PM10)
唐山市,小山,118.1869,39.622,2025-03-26T0000,32,92,0.3,2,3,86,95,71,颗粒物(PM10)
唐山市,冀东油田职工医院,118.4359,39.2762,2025-03-26T0000,44,58,0.6,15,8,79,91,62,细颗粒物(PM2.5)
唐山市,正泰大街热力站,118.09279,39.58089,2025-03-26T0000,41,78,0.6,4,3,76,81,64,颗粒物(PM10)
唐山市,丰润区政府,118.1562,39.8322,2025-03-26T0000,43,156,0.9,20,12,71,91,103,颗粒物(PM10)
唐山市,金山小学,118.43673,39.73809,2025-03-26T0000,33,186,0.6,6,6,74,90,118,颗粒物(PM10)
唐山市,政府服务中心,118.24498,39.66941,2025-03-26T0000,28,128,0.9,12,4,71,87,89,颗粒物(PM10)
唐山市,消防缸窑路中队,118.2059,39.6585,2025-03-26T0000,41,154,0.8,17,9,82,102,102,颗粒物(PM10)
唐山市,路南电大,118.1436,39.6202,2025-03-26T0000,48,90,0.3,4,3,76,83,70,颗粒物(PM10)
唐山市,友谊北路34号,118.1309,39.6360,2025-03-26T0000,40,89,0.3,7,2,86,94,70,颗粒物(PM10)
天津市,勤俭道,117.1444,39.1661,2025-03-26T0000,38,154,0.6,25,6,79,94,102,颗粒物(PM10)
天津市,前进道,117.202,39.0927,2025-03-26T0000,30,142,0.7,24,11,81,99,96,颗粒物(PM10)
天津市,淮河道,117.1837,39.2133,2025-03-26T0000,32,136,0.5,22,6,85,101,93,颗粒物(PM10)
天津市,跃进路,117.3083,39.0884,2025-03-26T0000,32,150,0.5,29,6,78,97,100,颗粒物(PM10)
天津市,第四大街,117.707,39.0343,2025-03-26T0000,41,123,0.4,25,6,87,95,87,颗粒物(PM10)
天津市,永明路,117.457,38.8394,2025-03-26T0000,39,126,0.4,12,7,96,96,88,颗粒物(PM10)
天津市,汉北路,117.764,39.1587,2025-03-26T0000,35,130,0.4,15,4,96,100,90,颗粒物(PM10)
天津市,团泊洼,117.157,38.9194,2025-03-26T0000,,,,,,,,,
天津市,河西一经路,117.7918,39.2474,2025-03-26T0000,37,125,0.5,13,10,101,100,88,颗粒物(PM10)
天津市,津沽路,117.3747,38.9846,2025-03-26T0000,37,139,0.4,8,3,89,93,95,颗粒物(PM10)
天津市,宾水西道,117.1589,39.0845,2025-03-26T0000,28,133,0.5,20,14,90,107,92,颗粒物(PM10)
天津市,大理道,117.1941,39.1067,2025-03-26T0000,30,104,0.4,21,7,86,101,77,颗粒物(PM10)
天津市,中山北路,117.2101,39.1699,2025-03-26T0000,30,139,0.4,27,4,75,57,95,颗粒物(PM10)
天津市,西四道,117.3876,39.1488,2025-03-26T0000,31,125,0.8,18,10,85,94,88,颗粒物(PM10)
天津市,雍阳西道,117.0365,39.3828,2025-03-26T0000,28,157,0.1,18,6,83,92,104,颗粒物(PM10)
天津市,辛老路,117.0296,39.0605,2025-03-26T0000,28,150,0.4,12,4,95,101,100,颗粒物(PM10)
天津市,地纬路,116.9638,38.9375,2025-03-26T0000,25,126,0.2,13,7,90,108,88,颗粒物(PM10)
天津市,北环路,117.4067,40.0583,2025-03-26T0000,23,119,0.5,14,7,78,86,85,颗粒物(PM10)
天津市,建设路,117.3045,39.7169,2025-03-26T0000,31,120,0.7,20,9,78,93,85,颗粒物(PM10)
天津市,滨水东路,117.8199,39.3521,2025-03-26T0000,33,118,0.3,21,11,78,94,84,颗粒物(PM10)
天津市,光华路,117.2437,39.1029,2025-03-26T0000,34,113,0.7,18,6,95,111,82,颗粒物(PM10)
天水市,麦积山,106.0055,34.343,2025-03-26T0000,,,,,,,,,
天水市,公园小学,105.7205,34.5786,2025-03-26T0000,32,50,0.4,10,8,154,154,50,
天水市,麦积国土局,105.8945,34.5538,2025-03-26T0000,30,49,0.6,7,8,140,137,49,
铁岭市,汇工街西,123.8139,42.3022,2025-03-26T0000,140,,0.7,23,9,58,90,186,细颗粒物(PM2.5)
铁岭市,水上乐园,123.8649,42.2923,2025-03-26T0000,139,,0.8,70,4,20,83,185,细颗粒物(PM2.5)
铁岭市,银州路东段,123.8486,42.2867,2025-03-26T0000,138,146,0.5,49,5,44,86,183,细颗粒物(PM2.5)
铁岭市,金沙江路北,123.7153,42.2217,2025-03-26T0000,115,,0.8,26,8,65,83,150,细颗粒物(PM2.5)
通化市,光明,125.9358,41.7173,2025-03-26T0000,89,100,0.9,19,8,91,75,118,细颗粒物(PM2.5)
通化市,铁路,125.9446,41.7325,2025-03-26T0000,91,102,0.7,18,6,89,69,120,细颗粒物(PM2.5)
通辽市,艺术职业学校,122.2532,43.6801,2025-03-26T0000,45,78,0.4,14,13,86,93,64,颗粒物(PM10)
通辽市,老干部活动中心,122.2584,43.6333,2025-03-26T0000,54,76,0.5,17,9,84,94,74,细颗粒物(PM2.5)
通辽市,东方明珠社区,122.2922,43.6189,2025-03-26T0000,81,112,0.6,24,16,73,91,108,细颗粒物(PM2.5)
铜川市,党校,109.0656,35.0994,2025-03-26T0000,,,,,,,,,
铜川市,王益区政府,109.0697,35.0697,2025-03-26T0000,36,96,0.8,54,5,17,121,73,颗粒物(PM10)
铜川市,新区管委会,108.9344,34.9058,2025-03-26T0000,35,62,0.7,22,9,86,132,56,颗粒物(PM10)
铜川市,大唐三路,108.9497,34.8705,2025-03-26T0000,32,66,0.3,19,8,93,138,58,颗粒物(PM10)
铜陵市,市第四中学,117.8177,30.9412,2025-03-26T0000,41,79,0.5,76,12,36,144,65,颗粒物(PM10)
铜陵市,市公路局,117.8059,30.9273,2025-03-26T0000,50,80,0.8,92,7,15,141,69,细颗粒物(PM2.5)
铜陵市,市新民污水厂,117.7807,30.9413,2025-03-26T0000,35,93,0.8,115,14,2,126,72,颗粒物(PM10)
铜陵市,市第九中学,117.7439,30.8792,2025-03-26T0000,37,97,0.8,125,10,1,122,74,颗粒物(PM10)
铜陵市,车站新区,117.846,30.9413,2025-03-26T0000,42,62,0.7,61,9,49,148,59,细颗粒物(PM2.5)
铜陵市,市职教基地,117.8483,30.97,2025-03-26T0000,51,85,0.8,72,16,36,145,70,细颗粒物(PM2.5)
铜仁市,铜仁卫校,109.1839,27.7344,2025-03-26T0000,65,106,0.9,60,4,12,144,88,细颗粒物(PM2.5)
铜仁市,铜仁七中,109.1753,27.6944,2025-03-26T0000,43,65,0.6,42,9,39,140,60,细颗粒物(PM2.5)
吐鲁番市,市环保局,89.1904,42.9418,2025-03-26T0000,680,3395,0.8,7,3,73,89,500,"颗粒物(PM10),细颗粒物(PM2.5)"
吐鲁番市,地区环保局,89.1673,42.9559,2025-03-26T0000,611,2746,0.4,5,3,76,90,500,"颗粒物(PM10),细颗粒物(PM2.5)"
威海市,华夏技校,122.1214,37.4236,2025-03-26T0000,48,454,0.4,18,3,82,102,343,颗粒物(PM10)
威海市,山大分校,122.0508,37.5236,2025-03-26T0000,39,254,0.3,12,5,102,112,152,颗粒物(PM10)
威海市,市监测站,122.1067,37.5072,2025-03-26T0000,49,474,0.4,14,1,94,105,368,颗粒物(PM10)
威海市,文登开发区,122.0693,37.2174,2025-03-26T0000,46,406,0.4,19,3,95,104,280,颗粒物(PM10)
威海市,临港区管委会,122.1379,37.3414,2025-03-26T0000,45,400,0.4,12,6,90,98,272,颗粒物(PM10)
潍坊市,环保局,119.1437,36.7023,2025-03-26T0000,14,61,0.5,17,12,85,118,56,颗粒物(PM10)
潍坊市,坊子邮政,119.1641,36.6523,2025-03-26T0000,24,78,0.7,30,10,76,114,64,颗粒物(PM10)
潍坊市,潍坊七中,119.0587,36.721,2025-03-26T0000,9,63,0.8,16,12,81,116,57,颗粒物(PM10)
潍坊市,高新实验学校,119.1977,36.6872,2025-03-26T0000,13,75,0.4,23,2,75,124,63,颗粒物(PM10)
潍坊市,潍坊学院,119.1755,36.7149,2025-03-26T0000,10,70,0.6,19,7,86,120,60,颗粒物(PM10)
潍坊市,寒亭区实验一小,119.2041,36.7699,2025-03-26T0000,17,70,0.4,24,12,70,116,60,颗粒物(PM10)
渭南市,农科所,109.5293,34.5101,2025-03-26T0000,,,,,,,,,
渭南市,体育馆,109.4636,34.493,2025-03-26T0000,44,110,0.5,66,6,43,142,80,颗粒物(PM10)
渭南市,高新一小,109.4259,34.5023,2025-03-26T0000,44,91,0.7,85,6,26,142,71,颗粒物(PM10)
渭南市,渭花路4号,109.5051,34.4921,2025-03-26T0000,44,88,0.4,44,13,44,135,69,颗粒物(PM10)
温州市,瓯海,120.634,28.0089,2025-03-26T0000,48,72,0.5,25,8,82,192,67,细颗粒物(PM2.5)
温州市,南浦,120.6748,27.9939,2025-03-26T0000,28,54,0.5,14,6,106,196,52,颗粒物(PM10)
温州市,龙湾,120.76,27.9747,2025-03-26T0000,33,79,0.6,65,6,50,153,65,颗粒物(PM10)
温州市,市站,120.6709,28.0167,2025-03-26T0000,38,82,0.5,33,4,73,200,66,颗粒物(PM10)
温州市,茶山,120.6985,27.9251,2025-03-26T0000,59,104,0.6,74,7,19,186,80,细颗粒物(PM2.5)
文山壮族苗族自治州,州水务局,104.2533,23.3594,2025-03-26T0000,50,52,0.5,9,12,108,128,69,细颗粒物(PM2.5)
文山壮族苗族自治州,市便民服务中心,104.2319,23.3892,2025-03-26T0000,48,51,0.8,15,10,84,121,67,细颗粒物(PM2.5)
乌海市,市林业局,106.8174,39.6973,2025-03-26T0000,540,2609,0.2,7,9,95,100,500,"颗粒物(PM10),细颗粒物(PM2.5)"
乌海市,中海勃湾学校,106.7907,39.6667,2025-03-26T0000,551,2570,0.5,5,8,98,103,500,"颗粒物(PM10),细颗粒物(PM2.5)"
乌海市,海北新区,106.813,39.7274,2025-03-26T0000,507,2334,0.3,8,10,96,103,500,"颗粒物(PM10),细颗粒物(PM2.5)"
乌海市,聚英学校,106.8288,39.6778,2025-03-26T0000,476,2417,0.4,8,13,95,98,500,颗粒物(PM10)
乌兰察布市,集宁新区,113.1306,40.9923,2025-03-26T0000,28,98,0.3,24,24,58,102,74,颗粒物(PM10)
