area,positionname,longitude,latitude,timepoint,pm2_5,pm10,co,no2,so2,o3,o3_8h,aqi,primarypollutant
阿坝藏族羌族自治州,州农科所,102.1879,31.914,2025-04-13T1400,6,6,0.4,2,12,93,69,30,
阿坝藏族羌族自治州,马师校,102.2502,31.8896,2025-04-13T1400,3,15,0.4,4,5,109,80,35,
阿坝藏族羌族自治州,马尔康中学西区,102.2165,31.9024,2025-04-13T1400,3,6,0.2,2,3,115,96,36,
阿克苏地区,电视台,80.292,41.1694,2025-04-13T1400,74,320,0.5,10,9,95,48,185,颗粒物(PM10)
阿克苏地区,艺术中心,80.2613,41.1551,2025-04-13T1400,83,348,0.4,9,4,95,35,199,颗粒物(PM10)
阿拉善盟,西城区西花园,105.6467,38.8363,2025-04-13T1400,3,56,0.7,6,18,107,99,53,颗粒物(PM10)
阿拉善盟,蒙二幼,105.6985,38.8411,2025-04-13T1400,11,80,0.4,4,6,96,92,65,颗粒物(PM10)
阿拉善盟,环保局新楼,105.724,38.8516,2025-04-13T1400,7,52,0.5,3,9,102,101,51,颗粒物(PM10)
阿勒泰地区,市站,88.1264,47.8517,2025-04-13T1400,7,10,0.2,6,2,101,109,32,
阿里地区,阿里监测站,80.1161,32.5,2025-04-13T1400,6,12,0.4,4,6,112,117,35,
阿里地区,阿里藏医院,80.0903,32.5028,2025-04-13T1400,3,13,0.5,2,8,118,118,37,
安康市,香溪洞,109.0318,32.6537,2025-04-13T1400,140,463,0.5,7,7,89,58,354,颗粒物(PM10)
安康市,汉滨区检察院,109.0072,32.6975,2025-04-13T1400,164,439,0.4,11,8,89,46,324,颗粒物(PM10)
安康市,市邮政管理局,109.0325,32.6913,2025-04-13T1400,127,438,0.5,10,6,91,46,323,颗粒物(PM10)
安庆市,环科院,117.0809,30.5177,2025-04-13T1400,45,231,0.4,7,8,114,83,141,颗粒物(PM10)
安庆市,马山宾馆,117.0331,30.5119,2025-04-13T1400,59,217,0.0,8,6,114,84,134,颗粒物(PM10)
安庆市,安庆大学,116.9896,30.6145,2025-04-13T1400,44,205,0.3,7,6,119,86,128,颗粒物(PM10)
安庆市,市人大,117.0598,30.5351,2025-04-13T1400,46,220,0.2,2,8,116,83,135,颗粒物(PM10)
安顺市,伍家关,105.9606,26.2611,2025-04-13T1400,73,201,0.2,1,3,139,108,126,颗粒物(PM10)
安顺市,凤凰山,105.9408,26.2431,2025-04-13T1400,57,207,0.2,4,6,109,88,129,颗粒物(PM10)
安顺市,金钟山,105.9439,26.2564,2025-04-13T1400,55,232,0.4,4,5,106,85,141,颗粒物(PM10)
安顺市,娄家坡,105.8983,26.2481,2025-04-13T1400,60,194,0.4,4,6,107,86,122,颗粒物(PM10)
安阳市,棉研所,114.4839,36.0621,2025-04-13T1400,,,,,,,,,
安阳市,红庙街,114.3551,36.1017,2025-04-13T1400,23,75,0.4,4,5,93,75,63,颗粒物(PM10)
安阳市,银杏小区,114.361,36.0681,2025-04-13T1400,28,96,0.3,5,5,95,78,73,颗粒物(PM10)
安阳市,信访局,114.3922,36.0878,2025-04-13T1400,77,104,0.1,8,5,103,86,103,细颗粒物(PM2.5)
安阳市,左辅环卫站,114.4705,36.0637,2025-04-13T1400,25,134,0.8,17,5,103,76,92,颗粒物(PM10)
安阳市,安钢职工学校,114.2917,36.0949,2025-04-13T1400,32,195,0.3,4,4,99,76,123,颗粒物(PM10)
鞍山市,深沟寺,123.044,41.1196,2025-04-13T1400,18,35,0.8,19,14,61,61,35,
鞍山市,太阳城,123.011,41.0931,2025-04-13T1400,15,31,0.5,11,2,70,65,31,
鞍山市,太平,123.0485,41.1442,2025-04-13T1400,18,44,1.0,19,12,58,56,44,
鞍山市,铁西三道街,122.9642,41.0971,2025-04-13T1400,15,33,0.5,17,3,67,64,33,
鞍山市,明达新区,123.022,41.0821,2025-04-13T1400,15,32,0.4,14,6,70,69,32,
鞍山市,千山,123.1289,41.0228,2025-04-13T1400,,,,,,,69,,
鞍山市,兴盛南路290号,122.9446,41.0826,2025-04-13T1400,14,32,0.4,18,6,69,65,32,
巴彦淖尔市,附二中,107.4212,40.761,2025-04-13T1400,17,39,0.4,3,6,96,83,39,
巴彦淖尔市,市环保大楼,107.37,40.7372,2025-04-13T1400,14,27,0.3,4,5,99,86,31,
巴音郭楞蒙古自治州,孔雀公园,86.1472,41.7538,2025-04-13T1400,39,167,0.3,14,8,100,62,109,颗粒物(PM10)
巴音郭楞蒙古自治州,棉纺厂,86.1972,41.7166,2025-04-13T1400,27,159,0.3,11,6,102,53,105,颗粒物(PM10)
巴音郭楞蒙古自治州,经济开发区,86.2357,41.7173,2025-04-13T1400,26,123,0.2,10,7,109,76,87,颗粒物(PM10)
巴中市,苏山坪,106.7677,31.8794,2025-04-13T1400,101,339,0.2,6,3,102,77,195,颗粒物(PM10)
巴中市,市五中,106.7768,31.8526,2025-04-13T1400,87,349,0.5,6,5,105,60,200,颗粒物(PM10)
巴中市,圣泉水务公司,106.7418,31.8654,2025-04-13T1400,92,320,0.6,3,2,108,65,185,颗粒物(PM10)
巴中市,市中心医院,106.7616,31.8344,2025-04-13T1400,102,342,0.4,5,6,107,61,196,颗粒物(PM10)
白城市,洮北区环保局,122.7911,45.6077,2025-04-13T1400,10,21,0.2,9,3,76,71,24,
白城市,市环保局,122.8738,45.5725,2025-04-13T1400,16,,0.4,4,5,75,69,24,
白山市,喜丰,126.4219,41.9171,2025-04-13T1400,,,,,,,79,,
白山市,环保局,126.4077,41.9419,2025-04-13T1400,3,22,1.3,10,5,77,76,25,
白银市,第三小学,104.1724,36.5446,2025-04-13T1400,17,86,0.1,3,7,114,78,68,颗粒物(PM10)
白银市,动力公司,104.1465,36.5482,2025-04-13T1400,21,82,0.3,4,4,112,79,66,颗粒物(PM10)
百色市,市监测站,106.6103,23.9011,2025-04-13T1400,86,347,0.2,10,8,87,68,199,颗粒物(PM10)
百色市,市中心血站,106.6538,23.8859,2025-04-13T1400,97,401,0.4,10,6,93,67,273,颗粒物(PM10)
百色市,祈福高中,106.6085,23.8798,2025-04-13T1400,87,386,0.2,8,6,87,67,252,颗粒物(PM10)
蚌埠市,工人疗养院,117.396,32.939,2025-04-13T1400,39,168,0.4,8,4,104,83,109,颗粒物(PM10)
蚌埠市,百货大楼,117.3605,32.9427,2025-04-13T1400,30,163,0.3,14,5,102,81,107,颗粒物(PM10)
蚌埠市,蚌埠学院,117.4185,32.8911,2025-04-13T1400,28,173,0.3,8,3,109,85,112,颗粒物(PM10)
蚌埠市,淮上区政府,117.3533,32.9673,2025-04-13T1400,25,168,0.2,8,4,104,84,109,颗粒物(PM10)
蚌埠市,高新区,117.3145,32.8977,2025-04-13T1400,29,178,0.4,10,4,105,82,114,颗粒物(PM10)
蚌埠市,蚌埠田家炳中学,117.3092,32.9314,2025-04-13T1400,58,220,0.2,16,4,106,83,135,颗粒物(PM10)
包头市,市环境监测站,109.8756,40.6532,2025-04-13T1400,6,119,0.4,5,9,91,88,85,颗粒物(PM10)
包头市,包头八中,109.9991,40.5842,2025-04-13T1400,11,59,0.3,6,9,93,83,55,颗粒物(PM10)
包头市,青山宾馆,109.8538,40.6821,2025-04-13T1400,10,76,0.4,3,8,92,88,63,颗粒物(PM10)
包头市,惠龙物流,109.8642,40.6288,2025-04-13T1400,12,82,0.3,5,7,95,90,66,颗粒物(PM10)
包头市,东河鸿龙湾,110.0377,40.5546,2025-04-13T1400,3,47,0.2,8,7,92,86,47,
包头市,滨河大厦,109.9154,40.5685,2025-04-13T1400,3,62,0.4,3,8,94,87,56,颗粒物(PM10)
包头市,包头市委党校,109.9447,40.6261,2025-04-13T1400,6,68,0.4,4,6,71,82,59,颗粒物(PM10)
包头市,昆区政府,109.8331,40.6576,2025-04-13T1400,14,102,0.5,6,5,91,88,76,颗粒物(PM10)
宝鸡市,庙沟村,107.185,34.3063,2025-04-13T1400,28,173,0.4,2,7,109,84,112,颗粒物(PM10)
宝鸡市,竹园沟,107.0708,34.3017,2025-04-13T1400,40,151,0.4,3,7,114,76,101,颗粒物(PM10)
宝鸡市,三陆医院,107.1906,34.3672,2025-04-13T1400,40,193,0.4,2,4,106,67,122,颗粒物(PM10)
宝鸡市,监测站,107.1431,34.3547,2025-04-13T1400,152,203,0.5,4,8,100,62,202,细颗粒物(PM2.5)
宝鸡市,技工学校,107.1186,34.3739,2025-04-13T1400,51,182,0.5,4,5,106,68,116,颗粒物(PM10)
宝鸡市,陈仓区环保局家属楼,107.3906,34.3528,2025-04-13T1400,32,197,0.3,6,7,105,71,124,颗粒物(PM10)
宝鸡市,文理学院,107.2058,34.3497,2025-04-13T1400,44,178,0.3,6,6,106,69,114,颗粒物(PM10)
宝鸡市,三迪小学,107.2386,34.3622,2025-04-13T1400,39,210,0.5,8,6,106,65,130,颗粒物(PM10)
保定市,游泳馆,115.493,38.8632,2025-04-13T1400,8,35,0.2,6,2,101,89,35,
保定市,华电二区,115.5213,38.8959,2025-04-13T1400,9,28,0,2,3,101,88,32,
保定市,接待中心,115.4713,38.9108,2025-04-13T1400,3,30,0,2,3,99,88,31,
保定市,地表水厂,115.4612,38.8416,2025-04-13T1400,7,45,0.3,8,3,104,92,45,
保定市,满城区生态环境分局,115.31981,38.95208,2025-04-13T1400,7,114,0.1,4,2,107,97,82,颗粒物(PM10)
保定市,清苑区第二中学,115.47694,38.76408,2025-04-13T1400,3,61,0.2,5,3,104,90,56,颗粒物(PM10)
保定市,徐水物探局,115.62909,39.02311,2025-04-13T1400,19,51,0,4,1,104,85,51,颗粒物(PM10)
保定市,双鹰农机,115.4202,38.8656,2025-04-13T1400,12,53,0.0,2,2,100,90,52,颗粒物(PM10)
保定市,植保所站,115.5150,38.8590,2025-04-13T1400,,,0.3,2,3,89,81,,
保山市,市环境监测站,99.1678,25.1081,2025-04-13T1400,3,11,0.4,7,11,91,60,29,
保山市,市环保局,99.1711,25.1328,2025-04-13T1400,8,16,0.5,6,6,94,67,30,
北海市,牛尾岭水库,109.2262,21.588,2025-04-13T1400,78,289,0.4,,6,84,50,170,颗粒物(PM10)
北海市,海滩公园,109.1436,21.4086,2025-04-13T1400,85,357,0.3,10,6,104,80,210,颗粒物(PM10)
北海市,新市环保局,109.0981,21.4661,2025-04-13T1400,88,367,0.3,12,4,105,81,225,颗粒物(PM10)
北海市,北海工业园,109.1778,21.5233,2025-04-13T1400,93,368,0.3,8,9,107,80,226,颗粒物(PM10)
北海市,龙潭自来水厂,109.1911,21.4415,2025-04-13T1400,98,365,0.1,10,7,108,77,222,颗粒物(PM10)
北京市,万寿西宫,116.3621,39.8784,2025-04-13T1400,25,128,0.6,8,5,97,94,89,颗粒物(PM10)
北京市,定陵,116.2202,40.2915,2025-04-13T1400,,,,,,,,,
北京市,东四,116.4174,39.9289,2025-04-13T1400,27,177,0.3,4,5,68,84,114,颗粒物(PM10)
北京市,天坛,116.4072,39.8863,2025-04-13T1400,22,133,0.4,7,3,88,85,92,颗粒物(PM10)
北京市,农展馆,116.462,39.9365,2025-04-13T1400,29,146,0.2,3,6,94,90,98,颗粒物(PM10)
北京市,官园,116.3392,39.9295,2025-04-13T1400,24,147,0.3,3,6,84,82,99,颗粒物(PM10)
北京市,海淀万柳,116.2878,39.9611,2025-04-13T1400,25,104,0.4,9,2,76,73,77,颗粒物(PM10)
北京市,顺义新城,116.6636,40.135,2025-04-13T1400,14,133,0.3,1,5,93,92,92,颗粒物(PM10)
北京市,怀柔镇,116.6275,40.3275,2025-04-13T1400,19,149,0.3,2,2,82,80,100,颗粒物(PM10)
北京市,昌平镇,116.2296,40.217,2025-04-13T1400,18,110,0.5,2,3,91,86,80,颗粒物(PM10)
北京市,奥体中心,116.3966,39.9821,2025-04-13T1400,27,128,0.4,4,3,87,85,89,颗粒物(PM10)
北京市,延庆夏都,115.9718,40.4529,2025-04-13T1400,19,94,0.3,3,5,94,90,72,颗粒物(PM10)
北京市,密云新城,116.8336,40.4095,2025-04-13T1400,14,115,0.3,3,3,82,81,83,颗粒物(PM10)
北京市,门头沟三家店,116.088,39.9726,2025-04-13T1400,14,105,0.3,2,4,82,79,78,颗粒物(PM10)
北京市,丰台云岗,116.1541,39.8204,2025-04-13T1400,28,109,0.2,2,1,93,91,80,颗粒物(PM10)
北京市,通州东关,116.6804,39.9081,2025-04-13T1400,25,169,0.5,2,3,88,84,110,颗粒物(PM10)
北京市,房山燕山,115.9577,39.7603,2025-04-13T1400,15,91,0.3,2,3,86,86,71,颗粒物(PM10)
北京市,大兴旧宫,116.4672,39.7733,2025-04-13T1400,23,145,0.1,1,3,90,86,98,颗粒物(PM10)
北京市,延庆石河营,115.986,40.4563,2025-04-13T1400,17,98,0.3,3,4,93,90,74,颗粒物(PM10)
北京市,怀柔新城,116.6151,40.3053,2025-04-13T1400,17,126,0.4,2,1,82,81,88,颗粒物(PM10)
北京市,丰台小屯,116.2545,39.8768,2025-04-13T1400,13,82,0.2,1,1,83,80,66,颗粒物(PM10)
北京市,密云镇,116.84,40.3844,2025-04-13T1400,13,97,0.3,2,3,84,83,74,颗粒物(PM10)
北京市,八角北路9号,116.1942,39.9158,2025-04-13T1400,16,83,0.0,2,2,89,85,67,颗粒物(PM10)
北京市,洳河巡河路,117.0790,40.1518,2025-04-13T1400,11,93,0.2,4,1,88,84,72,颗粒物(PM10)
本溪市,大峪,123.8275,41.3064,2025-04-13T1400,32,32,0.8,19,6,56,56,46,
本溪市,溪湖,123.7567,41.3325,2025-04-13T1400,20,25,0.7,17,7,64,63,29,
本溪市,彩屯,123.7169,41.3094,2025-04-13T1400,16,25,0.8,14,8,70,66,25,
本溪市,东明,123.7669,41.2864,2025-04-13T1400,16,27,1.1,22,7,49,54,27,
本溪市,新立屯,123.7992,41.2664,2025-04-13T1400,23,,0.8,23,7,55,60,33,
本溪市,威宁,123.8142,41.3472,2025-04-13T1400,20,34,0.9,12,4,52,59,34,
毕节市,八中,105.2864,27.3125,2025-04-13T1400,27,87,0.2,5,8,102,70,69,颗粒物(PM10)
毕节市,师专,105.31,27.2944,2025-04-13T1400,23,69,0.2,8,14,121,76,60,颗粒物(PM10)
毕节市,工业大道,105.3688,27.3598,2025-04-13T1400,21,80,0.1,7,8,103,64,65,颗粒物(PM10)
滨州市,第二水厂,118.0018,37.3617,2025-04-13T1400,3,63,0,7,6,97,76,57,颗粒物(PM10)
滨州市,北中新校,117.9776,37.393,2025-04-13T1400,3,51,0.6,5,4,104,80,51,颗粒物(PM10)
滨州市,中海酒店,117.9378,37.3956,2025-04-13T1400,27,41,0.5,3,7,102,80,41,
滨州市,开发区一中,117.9378,37.3553,2025-04-13T1400,34,83,0.2,8,24,100,78,67,颗粒物(PM10)
滨州市,金海六路,118.0917,37.694,2025-04-13T1400,,,0.3,,6,,76,,
滨州市,滨州市西街道办事处,117.9956,37.3753,2025-04-13T1400,,46,0.2,6,3,111,87,,
亳州市,污水处理厂,115.8072,33.8399,2025-04-13T1400,28,152,0.2,10,2,106,78,101,颗粒物(PM10)
亳州市,三国揽胜宫,115.7789,33.8518,2025-04-13T1400,24,156,0.1,12,3,106,79,103,颗粒物(PM10)
亳州市,亳州学院,115.7633,33.8034,2025-04-13T1400,24,145,0.2,10,3,109,81,98,颗粒物(PM10)
博尔塔拉蒙古自治州,市党校,82.0485,44.8556,2025-04-13T1400,15,63,0.3,15,3,142,94,57,颗粒物(PM10)
博尔塔拉蒙古自治州,市环保局,82.0806,44.8969,2025-04-13T1400,13,55,0.4,13,2,124,76,53,颗粒物(PM10)
沧州市,沧县城建局,116.8842,38.2991,2025-04-13T1400,12,39,0.0,6,1,96,74,39,
沧州市,电视转播站,116.8584,38.3254,2025-04-13T1400,12,46,0.2,8,6,105,83,46,
沧州市,市环保局,116.8709,38.3228,2025-04-13T1400,9,36,0.2,8,5,102,82,36,
沧州市,河北水利电力学院,116.8136,38.3004,2025-04-13T1400,6,46,0.0,12,6,111,88,46,
昌都市,昌都监测站,97.1806,31.1273,2025-04-13T1400,3,,0.2,2,2,93,78,30,
昌都市,昌都会议中心,97.1714,31.1406,2025-04-13T1400,3,6,0.1,4,2,93,79,30,
昌吉回族自治州,天山天池,88.1236,43.8886,2025-04-13T1400,3,13,0.4,4,5,107,92,34,
昌吉回族自治州,新区政务中心,87.2717,44.0297,2025-04-13T1400,13,65,0.2,4,5,115,108,58,颗粒物(PM10)
昌吉回族自治州,亚心广场,87.3095,44.0142,2025-04-13T1400,7,151,0.2,6,7,111,104,101,颗粒物(PM10)
长春市,食品厂,125.3325,43.9166,2025-04-13T1400,7,,0.4,25,7,49,43,16,
长春市,客车厂,125.2863,43.9027,2025-04-13T1400,8,,0.4,18,4,56,43,18,
长春市,邮电学院,125.2841,43.8463,2025-04-13T1400,7,,0.3,17,5,59,54,19,
长春市,劳动公园,125.3716,43.8772,2025-04-13T1400,7,10,0.2,16,6,54,44,17,
长春市,园林处,125.3297,43.8805,2025-04-13T1400,3,7,0.4,17,6,59,53,19,
长春市,净月潭,125.4605,43.79,2025-04-13T1400,7,8,0.2,21,5,54,53,17,
长春市,甩湾子,125.7194,43.515,2025-04-13T1400,,,,,,,,,
长春市,经开区环卫处,125.3863,43.8447,2025-04-13T1400,7,8,0.4,16,5,50,41,16,
长春市,高新区管委会,125.245,43.7783,2025-04-13T1400,8,,0.3,12,6,62,58,20,
长春市,岱山公园,125.1761,43.8325,2025-04-13T1400,6,,0.4,18,4,58,57,19,
长沙市,经开区环保局,113.0833,28.2325,2025-04-13T1400,78,310,0.4,8,6,114,61,180,颗粒物(PM10)
长沙市,高开区环保局,112.8872,28.2189,2025-04-13T1400,72,316,0.6,4,8,115,79,183,颗粒物(PM10)
长沙市,马坡岭,113.0792,28.2053,2025-04-13T1400,79,310,0.5,8,5,115,60,180,颗粒物(PM10)
长沙市,湖南师范大学,112.9394,28.19,2025-04-13T1400,69,310,0.4,7,7,111,70,180,颗粒物(PM10)
长沙市,雨花区环保局,113.0178,28.1322,2025-04-13T1400,73,302,0.3,9,4,103,68,176,颗粒物(PM10)
长沙市,伍家岭,112.9792,28.2597,2025-04-13T1400,67,307,0.3,11,6,112,61,179,颗粒物(PM10)
长沙市,火车新站,113.0014,28.1944,2025-04-13T1400,70,316,0.4,10,8,112,69,183,颗粒物(PM10)
长沙市,天心区环保局,112.9844,28.1178,2025-04-13T1400,68,294,0.1,8,4,111,76,172,颗粒物(PM10)
长沙市,湖南中医药大学,112.8908,28.1308,2025-04-13T1400,58,326,0.3,8,6,114,65,188,颗粒物(PM10)
长沙市,沙坪,112.9581,28.3611,2025-04-13T1400,75,281,0.5,8,8,98,59,166,颗粒物(PM10)
长治市,清华站,113.1147,36.1547,2025-04-13T1400,9,87,0.6,6,4,106,87,69,颗粒物(PM10)
长治市,审计局,113.0886,36.2125,2025-04-13T1400,7,54,0.2,10,7,107,88,52,颗粒物(PM10)
长治市,长治八中,113.0844,36.1856,2025-04-13T1400,18,67,0.4,9,8,109,91,59,颗粒物(PM10)
长治市,德盛苑,113.1569,36.1911,2025-04-13T1400,7,70,0.3,6,4,106,89,60,颗粒物(PM10)
长治市,向阳小学,113.06,36.0464,2025-04-13T1400,11,86,0.2,9,10,115,94,68,颗粒物(PM10)
长治市,屯留一中,112.8792,36.3144,2025-04-13T1400,3,78,0.3,11,8,106,89,64,颗粒物(PM10)
长治市,英华南巷50号,113.1131,36.19948,2025-04-13T1400,7,75,0.3,7,4,108,89,63,颗粒物(PM10)
长治市,学府街1号,113.2367,36.3344,2025-04-13T1400,14,116,0.3,4,1,111,92,83,颗粒物(PM10)
常德市,市二中,111.6975,28.9703,2025-04-13T1400,96,320,0.4,7,4,84,51,185,颗粒物(PM10)
常德市,白鹤山,111.7158,29.1456,2025-04-13T1400,,,,,,,,,
常德市,武陵区永安,111.7153,29.0289,2025-04-13T1400,94,390,0.4,6,2,98,66,258,颗粒物(PM10)
常德市,鼎城区玉霞,111.6892,28.9881,2025-04-13T1400,83,349,0.5,4,3,97,55,200,颗粒物(PM10)
常德市,武陵区长庚,111.6625,29.0531,2025-04-13T1400,100,355,0.4,4,5,95,61,208,颗粒物(PM10)
常州市,市监测站,119.9633,31.762,2025-04-13T1400,28,132,0.5,15,8,117,93,91,颗粒物(PM10)
常州市,武进监测站,119.9468,31.7069,2025-04-13T1400,34,125,0.1,14,12,114,94,88,颗粒物(PM10)
常州市,安家,119.9255,31.9087,2025-04-13T1400,19,124,0.5,9,8,108,84,87,颗粒物(PM10)
常州市,行政中心,119.9805,31.8174,2025-04-13T1400,18,83,0.4,14,15,107,84,67,颗粒物(PM10)
常州市,经开区,120.0522,31.7748,2025-04-13T1400,23,145,0.5,16,9,110,89,98,颗粒物(PM10)
常州市,钟楼,119.9025,31.7964,2025-04-13T1400,19,121,0.6,11,8,106,85,86,颗粒物(PM10)
常州市,武进经发区,119.8598,31.7066,2025-04-13T1400,47,166,0.6,12,9,110,90,108,颗粒物(PM10)
常州市,金坛城区,119.5826,31.7245,2025-04-13T1400,44,141,0.4,9,8,117,95,96,颗粒物(PM10)
朝阳市,西梁,120.4318,41.5881,2025-04-13T1400,3,7,0.3,5,10,77,78,25,
朝阳市,河畔小区,120.4521,41.5646,2025-04-13T1400,3,7,0.4,7,7,80,81,25,
朝阳市,八里堡,120.4176,41.5648,2025-04-13T1400,6,13,0.5,6,7,78,77,25,
朝阳市,农业园区,120.3806,41.5969,2025-04-13T1400,3,9,0.4,6,8,82,83,26,
潮州市,西园路,116.6367,23.6719,2025-04-13T1400,,,,,,,,,
潮州市,市政府,116.6183,23.6608,2025-04-13T1400,35,137,0.4,5,3,88,82,94,颗粒物(PM10)
潮州市,金山,116.6461,23.6761,2025-04-13T1400,32,146,0.3,9,7,91,81,98,颗粒物(PM10)
郴州市,马头岭,113.0073,25.9061,2025-04-13T1400,55,303,0.6,8,7,86,49,177,颗粒物(PM10)
郴州市,市职中,113.0116,25.8226,2025-04-13T1400,76,343,0.4,6,3,98,61,197,颗粒物(PM10)
郴州市,市审计局,113.0383,25.8071,2025-04-13T1400,69,332,,11,9,100,62,191,颗粒物(PM10)
郴州市,市环保局,113.0348,25.7759,2025-04-13T1400,81,385,0.3,5,5,98,50,250,颗粒物(PM10)
郴州市,好美居路49号,113.0138,25.8011,2025-04-13T1400,90,283,0.3,8,4,98,58,167,颗粒物(PM10)
成都市,金泉两河,103.9728,30.7236,2025-04-13T1400,40,210,0.8,20,3,91,19,130,颗粒物(PM10)
成都市,十里店,104.176,30.6872,2025-04-13T1400,48,235,0.6,16,3,94,46,143,颗粒物(PM10)
成都市,三瓦窑,104.079,30.5706,2025-04-13T1400,46,232,0.4,15,4,101,49,141,颗粒物(PM10)
成都市,沙河铺,104.1114,30.63,2025-04-13T1400,56,208,0.6,13,6,83,41,129,颗粒物(PM10)
成都市,君平街,104.0786,30.6531,2025-04-13T1400,54,218,0.6,20,8,95,30,134,颗粒物(PM10)
成都市,灵岩寺,103.613,31.0283,2025-04-13T1400,,,,,,,,,
成都市,大石西路,104.0239,30.65639,2025-04-13T1400,46,213,,17,6,98,46,132,颗粒物(PM10)
成都市,龙泉驿区区政府,104.2725,30.5589,2025-04-13T1400,56,320,0.5,16,4,90,62,185,颗粒物(PM10)
成都市,金博路,104.0106,30.6931,2025-04-13T1400,35,211,0.4,20,8,90,44,131,颗粒物(PM10)
成都市,华阳,104.0578,30.5225,2025-04-13T1400,63,227,0.7,12,6,100,51,139,颗粒物(PM10)
成都市,青白江技师分院,104.3853,30.7453,2025-04-13T1400,76,308,0.3,15,6,107,58,179,颗粒物(PM10)
成都市,科学城,104.0789,30.4072,2025-04-13T1400,59,221,0.2,9,5,90,51,136,颗粒物(PM10)
成都市,光华大道三段,103.8506,30.6947,2025-04-13T1400,38,166,0.6,18,,106,58,108,颗粒物(PM10)
成都市,鲸龙路1057号,104.2433,30.5353,2025-04-13T1400,82,352,0.4,15,4,99,60,203,颗粒物(PM10)
承德市,铁路,117.9531,40.9081,2025-04-13T1400,6,82,0.2,1,7,82,82,66,颗粒物(PM10)
承德市,中国银行,117.9392,40.9763,2025-04-13T1400,9,69,0.3,2,4,83,84,60,颗粒物(PM10)
承德市,开发区,117.9503,40.928,2025-04-13T1400,15,69,0.2,3,8,80,79,60,颗粒物(PM10)
承德市,文化中心,117.8051,40.9655,2025-04-13T1400,10,87,0.3,2,4,83,84,69,颗粒物(PM10)
承德市,离宫,117.9268,41.0026,2025-04-13T1400,,,,,,,,,
池州市,池州学院,117.47,30.6618,2025-04-13T1400,69,219,0.3,6,6,100,84,135,颗粒物(PM10)
池州市,展览馆,117.4918,30.6617,2025-04-13T1400,45,214,0.4,6,5,116,90,132,颗粒物(PM10)
池州市,第八中学,117.5627,30.695,2025-04-13T1400,46,236,0.3,3,6,116,92,143,颗粒物(PM10)
池州市,第十二中学,117.5038,30.6243,2025-04-13T1400,50,209,0.4,5,7,116,85,130,颗粒物(PM10)
赤峰市,松山一中,118.9233,42.2816,2025-04-13T1400,3,34,0.4,10,9,83,89,34,
赤峰市,哈达街,118.9576,42.2728,2025-04-13T1400,3,21,0.5,9,10,76,82,24,
赤峰市,天义路,118.8788,42.2554,2025-04-13T1400,3,21,0.2,8,7,78,82,25,
赤峰市,银河街,119.2658,42.0353,2025-04-13T1400,8,18,0.3,6,14,70,82,22,
赤峰市,桥北物流园区,118.9359,42.3147,2025-04-13T1400,8,16,0.6,4,8,72,76,23,
崇左市,市环保局江州分局,107.3476,22.4136,2025-04-13T1400,85,386,0.3,8,6,92,74,252,颗粒物(PM10)
崇左市,石景林东路7号,107.3750,22.3736,2025-04-13T1400,92,378,0.6,9,7,102,76,240,颗粒物(PM10)
滁州市,老年大学,118.3093,32.3153,2025-04-13T1400,44,130,0.1,11,4,110,98,90,颗粒物(PM10)
滁州市,人大宾馆,118.3244,32.2786,2025-04-13T1400,30,161,0.2,5,8,112,99,106,颗粒物(PM10)
滁州市,市政府原办公楼,118.3118,32.3038,2025-04-13T1400,29,124,0.2,2,4,111,99,87,颗粒物(PM10)
滁州市,图书馆,118.3267,32.2634,2025-04-13T1400,28,146,0.3,6,7,111,100,98,颗粒物(PM10)
楚雄彝族自治州,州环境监测站,101.5482,25.0441,2025-04-13T1400,16,51,0.4,6,7,108,86,51,颗粒物(PM10)
楚雄彝族自治州,市经济开发区,101.538,25.0492,2025-04-13T1400,13,48,0.5,6,8,110,84,48,
达州市,达州职业技术学院,107.5277,31.2827,2025-04-13T1400,141,538,0.0,8,6,95,44,438,颗粒物(PM10)
达州市,市环境监测站,107.5086,31.2186,2025-04-13T1400,114,527,0.4,12,5,99,41,427,颗粒物(PM10)
达州市,凤凰小区,107.4988,31.2132,2025-04-13T1400,122,542,0.2,10,7,101,49,442,颗粒物(PM10)
达州市,达县机关宾馆,107.5082,31.1986,2025-04-13T1400,145,581,0.3,10,5,99,44,481,颗粒物(PM10)
达州市,市政中心,107.4644,31.2124,2025-04-13T1400,114,534,0.3,10,2,106,51,434,颗粒物(PM10)
大理白族自治州,大理市环境监测站,100.1542,25.7054,2025-04-13T1400,11,12,0.6,6,7,104,91,33,
大理白族自治州,大理古城,100.2171,25.5811,2025-04-13T1400,12,15,0.6,5,6,90,86,29,
大连市,甘井子,121.612,38.9741,2025-04-13T1400,6,31,0.3,8,5,95,90,31,
大连市,周水子,121.565,38.9511,2025-04-13T1400,3,31,0.2,7,6,80,76,31,
大连市,星海三站,121.5637,38.8845,2025-04-13T1400,6,32,0.3,2,13,87,84,32,
大连市,青泥洼桥,121.6302,38.9117,2025-04-13T1400,6,33,0.2,8,8,91,86,33,
大连市,傅家庄,121.6251,38.8638,2025-04-13T1400,6,36,0.2,10,6,84,80,36,
大连市,七贤岭,121.5213,38.8661,2025-04-13T1400,7,36,0.6,7,5,86,81,36,
大连市,旅顺,121.2529,38.8061,2025-04-13T1400,9,41,0.4,10,8,80,78,41,
大连市,金州,121.7485,39.1311,2025-04-13T1400,8,23,0.3,10,6,89,83,28,
大连市,开发区,121.7811,39.0496,2025-04-13T1400,3,29,0.4,5,7,80,74,29,
大连市,双D港,121.9762,39.0631,2025-04-13T1400,6,29,0.2,2,8,94,87,30,
大庆市,大同区,124.81117,46.03138,2025-04-13T1400,23,39,0.5,6,4,102,92,39,
大庆市,龙凤区,125.129,46.533,2025-04-13T1400,17,18,0.4,8,5,105,104,33,
大庆市,红岗区,124.902,46.408,2025-04-13T1400,31,,0.4,7,8,109,107,45,
大庆市,萨尔图区,125.153,46.586,2025-04-13T1400,17,40,0.4,11,8,97,100,40,
大庆市,让胡路区,124.9042,46.6215,2025-04-13T1400,27,29,0.3,10,5,93,90,39,
大庆市,萨区政府监测点,125.141,46.634,2025-04-13T1400,7,25,0.4,6,6,101,100,32,
大同市,果树场,113.3819,40.1097,2025-04-13T1400,11,26,0.3,3,7,92,68,29,
大同市,云冈宾馆,113.2994,40.0758,2025-04-13T1400,3,24,0.3,4,7,95,78,30,
大同市,大同大学,113.3444,40.0917,2025-04-13T1400,3,36,0.4,1,9,88,70,36,
大同市,安家小村,113.2661,40.1269,2025-04-13T1400,3,36,0.3,6,9,61,73,36,
大同市,教育学院,113.2711,40.0844,2025-04-13T1400,8,28,0.3,5,7,96,75,30,
大同市,大同市卫生学校,113.3397,40.0597,2025-04-13T1400,8,28,0.4,5,6,93,70,30,
大同市,云冈站,113.1367,40.1122,2025-04-13T1400,11,49,0.4,7,10,85,66,49,
大同市,图书馆,113.1186,40.2556,2025-04-13T1400,20,22,0.7,2,8,80,61,29,
大同市,区一中,113.5931,40.0461,2025-04-13T1400,3,31,0.4,4,12,94,67,31,
大同市,魏都大道141号,113.2798,40.0997,2025-04-13T1400,21,48,0.2,5,11,98,74,48,
大兴安岭地区,科技局,124.1069,50.4097,2025-04-13T1400,10,18,0.2,4,2,81,81,26,
大兴安岭地区,红旗社区,124.1164,50.4278,2025-04-13T1400,3,,0.3,3,4,82,81,26,
丹东市,江湾东路,124.3303,40.0625,2025-04-13T1400,9,17,0.1,7,7,81,73,26,
丹东市,临江后街,124.4256,40.1503,2025-04-13T1400,6,16,0.5,8,5,76,79,24,
丹东市,元宝山,124.3933,40.1461,2025-04-13T1400,9,15,0.3,9,6,70,74,22,
丹东市,民主桥,124.3633,40.1092,2025-04-13T1400,8,22,0.7,9,8,78,74,25,
儋州市,第一中学子站,109.5726,19.5167,2025-04-13T1400,89,278,0.3,8,5,85,68,164,颗粒物(PM10)
儋州市,东坡学校子站,109.5567,19.5187,2025-04-13T1400,88,227,0.4,7,6,86,69,139,颗粒物(PM10)
德宏傣族景颇族自治州,德宏州监测站,98.5842,24.428,2025-04-13T1400,,,,,,,51,,
德宏傣族景颇族自治州,芒市人民政府综合楼,98.5881,24.4368,2025-04-13T1400,23,41,0.5,9,7,86,37,41,
德阳市,东山公园,104.4239,31.1208,2025-04-13T1400,61,268,0.3,9,3,108,65,159,颗粒物(PM10)
德阳市,西小区,104.3826,31.1317,2025-04-13T1400,89,267,0.5,17,5,102,53,159,颗粒物(PM10)
德阳市,耐火材料厂,104.3553,31.1091,2025-04-13T1400,67,260,0.4,12,6,107,56,155,颗粒物(PM10)
德阳市,市教育局,104.4019,31.1244,2025-04-13T1400,66,253,0.5,11,5,109,61,152,颗粒物(PM10)
德州市,儿童乐园,116.3032,37.4674,2025-04-13T1400,7,48,0.4,5,6,99,81,48,
德州市,监理站,116.2991,37.4451,2025-04-13T1400,14,39,0.3,11,12,103,82,39,
德州市,九衢泉纯净水厂,116.2721,37.4379,2025-04-13T1400,22,56,0.5,11,11,103,79,53,颗粒物(PM10)
德州市,开发区人民医院,116.3728,37.4403,2025-04-13T1400,14,34,0.5,5,8,96,78,34,
德州市,太阳城中学,116.3572,37.4094,2025-04-13T1400,12,39,0.1,5,6,101,77,39,
德州市,陵城艺术中心,116.5652,37.3319,2025-04-13T1400,,41,0.5,9,4,94,73,,
迪庆藏族自治州,迪庆州站,99.7056,27.8317,2025-04-13T1400,11,,0.4,8,9,100,84,32,
迪庆藏族自治州,质量技术监督局,99.7136,27.8094,2025-04-13T1400,3,24,0.6,9,10,103,90,33,
定西市,将台街,104.6092,35.5962,2025-04-13T1400,13,91,0,6,8,118,62,71,颗粒物(PM10)
定西市,正龙路62号,104.6159,35.5701,2025-04-13T1400,10,103,0.3,2,10,120,72,77,颗粒物(PM10)
东莞市,莞城梨川,113.7547,23.0494,2025-04-13T1400,77,385,0.4,9,4,93,87,250,颗粒物(PM10)
东莞市,东城石井,113.7944,23.0128,2025-04-13T1400,102,350,0.4,14,7,100,88,200,颗粒物(PM10)
东莞市,南城西平,113.7383,22.9658,2025-04-13T1400,81,363,0.4,13,6,104,88,219,颗粒物(PM10)
东莞市,万江金泰,113.7338,23.0381,2025-04-13T1400,84,337,0.6,6,4,96,88,194,颗粒物(PM10)
东莞市,南城元岭,113.7533,23.0202,2025-04-13T1400,75,358,0.4,9,7,93,84,212,颗粒物(PM10)
东莞市,东城主山,113.7875,23.0457,2025-04-13T1400,72,337,0.4,17,4,94,87,194,颗粒物(PM10)
东营市,市环保局,118.6614,37.4309,2025-04-13T1400,3,34,0.3,5,4,103,88,34,
东营市,开发区管委会,118.6904,37.4338,2025-04-13T1400,12,35,0.5,11,3,92,76,35,
东营市,垦利区民丰路,118.5719,37.565,2025-04-13T1400,7,41,0.4,4,6,98,81,41,
东营市,河口城区,118.5055,37.8612,2025-04-13T1400,3,34,0.7,10,4,107,86,34,
东营市,胜利站,118.4978,37.4623,2025-04-13T1400,3,40,,11,6,103,80,,
东营市,理想之城,118.35,37.26,2025-04-13T1400,9,56,0.3,8,5,101,81,53,颗粒物(PM10)
鄂尔多斯市,综合楼,110.0023,39.8129,2025-04-13T1400,7,102,0.2,12,5,92,81,76,颗粒物(PM10)
鄂尔多斯市,巴音孟克林场办事处,109.9486,39.8261,2025-04-13T1400,24,73,0.2,8,6,95,84,62,颗粒物(PM10)
鄂尔多斯市,康泽苑,109.7736,39.5986,2025-04-13T1400,14,261,0.2,4,4,97,88,156,颗粒物(PM10)
鄂尔多斯市,华泰汽车城,109.8119,39.5989,2025-04-13T1400,12,114,0.3,5,3,91,83,82,颗粒物(PM10)
鄂尔多斯市,奥林花园,109.9734,39.7884,2025-04-13T1400,7,78,0.3,9,5,95,85,64,颗粒物(PM10)
鄂州市,市政府,114.8938,30.3994,2025-04-13T1400,58,226,0.6,5,8,92,59,138,颗粒物(PM10)
鄂州市,赵家坝,114.8989,30.3714,2025-04-13T1400,59,236,0.5,9,3,120,79,143,颗粒物(PM10)
鄂州市,精准医疗中心,114.8094,30.4089,2025-04-13T1400,56,201,0.3,1,4,126,90,126,颗粒物(PM10)
恩施土家族苗族自治州,湖北民院,109.4978,30.2981,2025-04-13T1400,32,38,0.1,1,6,95,46,46,
恩施土家族苗族自治州,州电力总公司,109.4707,30.2798,2025-04-13T1400,130,488,0.3,3,5,95,37,385,颗粒物(PM10)
恩施土家族苗族自治州,龙凤新区,109.5061,30.3772,2025-04-13T1400,121,440,0.3,9,7,90,40,325,颗粒物(PM10)
防城港市,沙万,108.3411,21.6158,2025-04-13T1400,43,182,0.2,4,1,86,74,116,颗粒物(PM10)
防城港市,防城档案局,108.3514,21.7731,2025-04-13T1400,41,218,0.3,8,2,78,69,134,颗粒物(PM10)
防城港市,大海花园,108.3506,21.6414,2025-04-13T1400,40,197,0.3,6,3,92,79,124,颗粒物(PM10)
佛山市,湾梁,113.1294,23.0067,2025-04-13T1400,72,449,0.4,24,7,85,76,337,颗粒物(PM10)
佛山市,华材职中,113.1083,23.0478,2025-04-13T1400,86,473,0.4,30,7,78,70,367,颗粒物(PM10)
佛山市,南海气象局,113.144,23.0453,2025-04-13T1400,75,423,0.4,23,6,80,70,304,颗粒物(PM10)
佛山市,顺德苏岗,113.2881,22.8094,2025-04-13T1400,83,369,0.4,22,5,77,70,228,颗粒物(PM10)
佛山市,高明孔堂,112.8383,22.8678,2025-04-13T1400,75,453,0.4,20,8,86,71,342,颗粒物(PM10)
佛山市,三水监测站,112.8836,23.1588,2025-04-13T1400,90,427,0.3,26,3,68,59,309,颗粒物(PM10)
佛山市,三水云东海,112.867,23.185,2025-04-13T1400,89,349,0.5,23,4,66,54,200,颗粒物(PM10)
佛山市,容桂街道办,113.2544,22.7642,2025-04-13T1400,88,373,0.4,24,6,79,70,233,颗粒物(PM10)
福州市,鼓山,119.3903,26.0543,2025-04-13T1400,,,,,,,63,,
福州市,师大,119.2681,26.0504,2025-04-13T1400,30,111,0.2,,3,105,93,,
福州市,五四北路,119.2984,26.1028,2025-04-13T1400,36,129,0.3,4,4,104,92,90,颗粒物(PM10)
福州市,杨桥西路,119.2648,26.0768,2025-04-13T1400,32,164,0.2,4,3,104,93,107,颗粒物(PM10)
福州市,紫阳,119.317,26.0746,2025-04-13T1400,,,,,,,60,,
福州市,九龙,119.5799,26.0936,2025-04-13T1400,53,225,0.2,8,4,110,89,138,颗粒物(PM10)
福州市,吴航,119.5189,25.9664,2025-04-13T1400,50,206,0.1,7,4,121,92,128,颗粒物(PM10)
抚顺市,望花区,123.7977,41.8491,2025-04-13T1400,12,23,0.3,13,7,73,71,23,
抚顺市,顺城区,123.9161,41.8822,2025-04-13T1400,17,26,0.4,12,8,72,68,26,
抚顺市,东洲区,124.0436,41.8611,2025-04-13T1400,21,34,0.4,17,6,61,64,34,
抚顺市,新抚区,123.9247,41.8642,2025-04-13T1400,19,,0.4,,,63,65,,
抚顺市,大伙房水库,124.0972,41.8961,2025-04-13T1400,18,25,0.4,12,7,64,66,26,
抚顺市,沈抚新城,123.7086,41.8391,2025-04-13T1400,12,26,0.5,16,6,69,70,26,
抚州市,桐源党溪,116.2127,28.0814,2025-04-13T1400,58,302,0.4,3,6,96,63,176,颗粒物(PM10)
抚州市,市站,116.3544,27.9831,2025-04-13T1400,43,242,0.9,1,4,83,61,146,颗粒物(PM10)
抚州市,血防站,116.3565,27.963,2025-04-13T1400,47,224,0.7,2,5,88,61,137,颗粒物(PM10)
抚州市,采茶剧团,116.3564,28.0007,2025-04-13T1400,46,246,1.3,2,1,88,65,148,颗粒物(PM10)
抚州市,医学分院,116.385,27.9647,2025-04-13T1400,42,237,0.4,3,4,90,62,144,颗粒物(PM10)
阜新市,工业园区,121.6094,41.998,2025-04-13T1400,,13,0.2,8,7,74,73,,
阜新市,长青街,121.6697,42.0279,2025-04-13T1400,3,7,0.3,5,4,74,74,24,
阜新市,农业园区,121.6673,42.0705,2025-04-13T1400,3,6,0.5,4,6,72,70,23,
阜新市,东苑,121.6717,42.0224,2025-04-13T1400,7,13,0.5,6,4,71,69,23,
阜新市,玉龙新城,121.6506,42.0498,2025-04-13T1400,3,10,0.4,8,7,73,72,23,
阜阳市,市监测站,115.8277,32.8929,2025-04-13T1400,39,149,0.1,7,6,102,84,100,颗粒物(PM10)
阜阳市,开发区,115.8554,32.8605,2025-04-13T1400,36,220,0.3,9,6,102,83,135,颗粒物(PM10)
阜阳市,阜阳职业技术学院,115.784,32.8892,2025-04-13T1400,29,184,0.1,,7,104,84,117,颗粒物(PM10)
阜阳市,市规划展馆,115.7901,32.8613,2025-04-13T1400,42,205,0.5,5,5,107,87,128,颗粒物(PM10)
阜阳市,枣园社区,115.836,32.9183,2025-04-13T1400,40,152,0.3,9,4,108,90,101,颗粒物(PM10)
甘南藏族自治州,州政府,102.9099,34.9841,2025-04-13T1400,8,24,0.2,2,6,102,58,32,
甘南藏族自治州,甘肃民族师范学院,102.8914,34.9617,2025-04-13T1400,3,33,0.3,2,6,104,54,33,
甘孜藏族自治州,水桥子,101.9603,30.0475,2025-04-13T1400,,,,,,,62,,
甘孜藏族自治州,州环保局,101.9533,29.9972,2025-04-13T1400,3,14,0.2,19,1,81,70,26,
赣江新区,桑海产业园,115.8347,28.932,2025-04-13T1400,42,222,0.1,7,7,91,46,136,颗粒物(PM10)
赣州市,通天岩,114.9017,25.9149,2025-04-13T1400,25,423,1.0,3,20,118,84,304,颗粒物(PM10)
赣州市,地委,114.9367,25.8664,2025-04-13T1400,72,313,0.9,4,2,82,57,182,颗粒物(PM10)
赣州市,气象台,114.9461,25.8481,2025-04-13T1400,70,333,0.5,8,9,101,70,192,颗粒物(PM10)
赣州市,市图书馆,114.9322,25.8333,2025-04-13T1400,72,378,0.4,8,4,113,78,240,颗粒物(PM10)
赣州市,华坚鞋城,114.8905,25.8471,2025-04-13T1400,64,372,0.1,10,10,110,74,232,颗粒物(PM10)
赣州市,赣县区卫计委,115.0093,25.8613,2025-04-13T1400,87,408,0.2,3,5,97,64,283,颗粒物(PM10)
固原市,马园,106.2319,36.1417,2025-04-13T1400,,310,0.5,2,4,104,73,,
固原市,监测站,106.2792,36.0022,2025-04-13T1400,21,127,0.2,2,3,107,100,89,颗粒物(PM10)
固原市,新区,106.2375,36.0211,2025-04-13T1400,18,180,0.2,4,5,105,98,115,颗粒物(PM10)
固原市,原州区十五小,106.2177,35.9959,2025-04-13T1400,18,124,0.1,3,5,101,93,87,颗粒物(PM10)
广安市,小平旧居,106.6308,30.5278,2025-04-13T1400,,,,,,,,,
广安市,市委,106.6303,30.4576,2025-04-13T1400,138,615,0.3,5,8,105,60,500,颗粒物(PM10)
广安市,友谊中学,106.6271,30.4663,2025-04-13T1400,129,528,0.2,10,4,100,60,428,颗粒物(PM10)
广安市,广电花园,106.6388,30.4551,2025-04-13T1400,122,559,0.3,8,3,102,60,459,颗粒物(PM10)
广安市,北辰小学,106.6351,30.4865,2025-04-13T1400,138,631,0.4,8,8,95,55,500,颗粒物(PM10)
广元市,黑石坡,105.8945,32.4535,2025-04-13T1400,66,266,0.3,8,2,93,58,158,颗粒物(PM10)
广元市,老城,105.821,32.4444,2025-04-13T1400,85,262,0.8,9,2,99,46,156,颗粒物(PM10)
广元市,监测站,105.8628,32.4287,2025-04-13T1400,82,184,0.5,14,11,101,61,117,颗粒物(PM10)
广元市,经开区,105.8047,32.4166,2025-04-13T1400,96,260,0.7,16,25,89,42,155,颗粒物(PM10)
广州市,广雅中学,113.2347,23.1423,2025-04-13T1400,101,475,0.3,28,5,77,73,369,颗粒物(PM10)
广州市,市五中,113.2612,23.105,2025-04-13T1400,110,448,0.5,18,2,84,75,335,颗粒物(PM10)
广州市,广东商学院,113.3478,23.0916,2025-04-13T1400,108,394,0.2,17,5,92,81,263,颗粒物(PM10)
广州市,市八十六中,113.4332,23.1047,2025-04-13T1400,89,390,0.6,16,3,87,77,258,颗粒物(PM10)
广州市,番禺中学,113.3505,22.9483,2025-04-13T1400,89,430,0.3,24,4,89,78,313,颗粒物(PM10)
广州市,花都师范,113.2146,23.3916,2025-04-13T1400,80,444,0.3,15,6,90,77,330,颗粒物(PM10)
广州市,市监测站,113.2597,23.1331,2025-04-13T1400,102,475,0.3,22,5,79,72,369,颗粒物(PM10)
广州市,九龙镇镇龙,113.5618,23.312,2025-04-13T1400,95,418,0.4,9,4,85,73,298,颗粒物(PM10)
广州市,麓湖,113.2765,23.1544,2025-04-13T1400,99,445,0.2,21,4,84,79,332,颗粒物(PM10)
广州市,帽峰山森林公园,113.443,23.3035,2025-04-13T1400,86,397,0.2,9,5,89,79,268,颗粒物(PM10)
广州市,体育西,113.3221,23.1322,2025-04-13T1400,95,433,0.3,10,5,91,80,317,颗粒物(PM10)
广州市,从化街口,113.5717,23.5491,2025-04-13T1400,101,461,0.5,7,8,90,85,352,颗粒物(PM10)
广州市,白云竹料,113.3472,23.3692,2025-04-13T1400,100,479,0.3,9,8,104,96,374,颗粒物(PM10)
广州市,白云嘉禾,113.2981,23.237,2025-04-13T1400,88,466,0.2,26,5,76,73,358,颗粒物(PM10)
广州市,黄埔科学城,113.4256,23.1716,2025-04-13T1400,102,432,0.2,9,8,95,82,315,颗粒物(PM10)
广州市,番禺大学城,113.3942,23.0483,2025-04-13T1400,98,354,0.4,23,5,93,81,206,颗粒物(PM10)
广州市,南沙黄阁,113.4922,22.8168,2025-04-13T1400,88,422,0.5,19,8,96,82,303,颗粒物(PM10)
广州市,南沙街,113.5342,22.7896,2025-04-13T1400,86,386,0.4,15,6,96,84,252,颗粒物(PM10)
广州市,花都梯面,113.2902,23.5544,2025-04-13T1400,96,439,0.5,11,10,88,79,324,颗粒物(PM10)
广州市,从化良口,113.7858,23.7478,2025-04-13T1400,113,444,0.2,4,6,96,84,330,颗粒物(PM10)
广州市,增城荔城,113.8051,23.2614,2025-04-13T1400,84,394,0.2,8,8,95,89,263,颗粒物(PM10)
贵港市,德智高中,109.568,23.1478,2025-04-13T1400,,,,,,,,,
贵港市,江南子站,109.6047,23.0666,2025-04-13T1400,88,420,0.6,13,7,98,81,300,颗粒物(PM10)
贵港市,荷城子站,109.5669,23.1065,2025-04-13T1400,90,394,0.4,13,4,92,79,263,颗粒物(PM10)
贵港市,新世纪学校,109.5886,23.1172,2025-04-13T1400,98,385,0.6,12,7,93,80,250,颗粒物(PM10)
贵港市,中山路155-3号,109.5933,23.0951,2025-04-13T1400,90,360,0.7,14,9,100,86,215,颗粒物(PM10)
贵阳市,马鞍山,106.6899,26.5998,2025-04-13T1400,61,266,0.2,8,5,110,66,158,颗粒物(PM10)
贵阳市,鉴湖路,106.6243,26.6266,2025-04-13T1400,53,251,0.2,6,9,115,81,151,颗粒物(PM10)
贵阳市,燕子冲,106.7487,26.6343,2025-04-13T1400,73,283,0,8,57,114,70,167,颗粒物(PM10)
贵阳市,碧云窝,106.6555,26.4365,2025-04-13T1400,78,342,0.3,9,4,110,72,196,颗粒物(PM10)
贵阳市,红边门,106.7109,26.6027,2025-04-13T1400,75,293,0.1,15,4,105,73,172,颗粒物(PM10)
贵阳市,新华路,106.7164,26.5699,2025-04-13T1400,75,298,0.2,6,21,116,79,174,颗粒物(PM10)
贵阳市,太慈桥,106.674,26.5424,2025-04-13T1400,70,298,0.3,12,5,102,66,174,颗粒物(PM10)
贵阳市,桐木岭,106.805,26.3003,2025-04-13T1400,117,408,0.4,1,1,104,90,283,颗粒物(PM10)
贵阳市,花果园大街66号,106.6882,26.5695,2025-04-13T1400,93,288,0.3,,6,100,71,169,颗粒物(PM10)
贵阳市,漓江路57号,106.6873,26.5169,2025-04-13T1400,83,315,0.3,8,9,113,70,183,颗粒物(PM10)
桂林市,电子科大尧山校区,110.4144,25.3167,2025-04-13T1400,,,,,,,,,
桂林市,龙隐路小学,110.3089,25.2708,2025-04-13T1400,119,487,0.2,12,11,99,75,384,颗粒物(PM10)
桂林市,八中,110.2869,25.2178,2025-04-13T1400,123,504,0.6,18,13,90,64,404,颗粒物(PM10)
桂林市,旅游学院,110.296,25.1253,2025-04-13T1400,114,483,0.5,11,3,85,56,379,颗粒物(PM10)
桂林市,环湖路276号,110.1835,25.2444,2025-04-13T1400,124,481,0.4,19,17,75,56,377,颗粒物(PM10)
桂林市,信义路13号,110.2803,25.2773,2025-04-13T1400,120,463,0.3,15,10,95,71,354,颗粒物(PM10)
果洛藏族自治州,玛沁县大武镇,100.2561,34.4714,2025-04-13T1400,7,21,0.3,1,13,127,81,40,
哈尔滨市,岭北,126.5422,45.755,2025-04-13T1400,21,35,0.8,13,14,111,114,35,
哈尔滨市,松北商大,126.561,45.8167,2025-04-13T1400,20,39,0.6,14,21,103,110,39,
哈尔滨市,阿城会宁,126.979,45.5419,2025-04-13T1400,39,60,0.5,13,2,109,115,55,"颗粒物(PM10),细颗粒物(PM2.5)"
哈尔滨市,南岗学府路,126.599,45.7222,2025-04-13T1400,24,43,0.8,14,8,100,107,43,
哈尔滨市,太平宏伟公园,126.689,45.7733,2025-04-13T1400,26,37,0.5,6,6,95,100,38,
哈尔滨市,道外承德广场,126.635,45.7667,2025-04-13T1400,29,39,0.5,20,6,88,97,42,
哈尔滨市,香坊红旗大街,126.685,45.7319,2025-04-13T1400,29,41,0.5,19,10,99,107,42,
哈尔滨市,动力和平路,126.6411,45.7258,2025-04-13T1400,22,35,0.5,12,10,100,101,35,
哈尔滨市,道里建国路,126.593,45.7478,2025-04-13T1400,22,31,0.6,16,5,97,107,32,
哈尔滨市,平房东轻厂,126.615,45.61,2025-04-13T1400,25,53,0.5,10,9,102,93,52,颗粒物(PM10)
哈尔滨市,呼兰师专,126.595,45.9855,2025-04-13T1400,22,27,0.5,15,6,90,100,32,
哈尔滨市,省农科院,126.6206,45.6842,2025-04-13T1400,24,41,0.6,17,12,100,106,41,
哈密市,地区监测站,93.5128,42.8172,2025-04-13T1400,38,54,0.5,12,12,115,81,54,细颗粒物(PM2.5)
哈密市,哈密师范学校,93.4961,42.8328,2025-04-13T1400,11,28,0.7,12,11,120,77,38,
海北藏族自治州,海晏县西海镇,100.9048,36.9639,2025-04-13T1400,7,10,0.1,1,7,100,78,32,
海东市,平安区公安北苑,102.0738,36.5056,2025-04-13T1400,6,28,0.5,4,2,110,61,35,
海口市,东寨港,110.576,19.9507,2025-04-13T1400,48,290,0.4,4,14,79,66,170,颗粒物(PM10)
海口市,海南大学,110.3232,20.0574,2025-04-13T1400,72,312,0.3,5,3,92,70,181,颗粒物(PM10)
海口市,秀英海南医院,110.283,20.0053,2025-04-13T1400,71,265,0.2,7,5,91,65,158,颗粒物(PM10)
海口市,海南师范大学,110.338,19.9969,2025-04-13T1400,78,269,0.3,3,5,91,70,160,颗粒物(PM10)
海口市,龙华路环保局宿舍,110.33,20.0356,2025-04-13T1400,82,265,0.4,3,5,93,69,158,颗粒物(PM10)
海口市,桂林洋子站,110.5111,19.9736,2025-04-13T1400,86,323,0.2,5,5,94,77,187,颗粒物(PM10)
海南藏族自治州,共和县恰卜恰镇,100.6188,36.2866,2025-04-13T1400,17,20,0.4,2,11,110,66,35,
海西蒙古族藏族自治州,德令哈市,97.3731,37.3753,2025-04-13T1400,7,32,0.4,2,12,110,86,35,
邯郸市,东污水处理厂,114.5302,36.6116,2025-04-13T1400,9,52,0.7,18,5,100,71,51,颗粒物(PM10)
邯郸市,矿院,114.4918,36.5713,2025-04-13T1400,39,,0.5,1,5,83,58,55,细颗粒物(PM2.5)
邯郸市,丛台公园,114.484,36.6133,2025-04-13T1400,9,74,0.4,8,6,102,72,62,颗粒物(PM10)
邯郸市,香泉濮院小区,114.7895,36.5593,2025-04-13T1400,3,54,0.7,9,5,96,68,52,颗粒物(PM10)
邯郸市,永年区实验高中,114.50634,36.77178,2025-04-13T1400,18,69,0.6,8,8,88,63,60,颗粒物(PM10)
邯郸市,峰峰矿区临水派出所,114.20016,36.44293,2025-04-13T1400,17,88,0.6,7,4,108,88,69,颗粒物(PM10)
汉中市,汉川机床厂子校,106.9893,33.1842,2025-04-13T1400,149,566,1.3,5,7,218,80,466,颗粒物(PM10)
汉中市,市监测站,107.0154,33.0706,2025-04-13T1400,129,437,0.8,6,5,91,50,322,颗粒物(PM10)
汉中市,鑫源开发区,107.0089,33.1138,2025-04-13T1400,134,487,0.4,7,5,106,54,384,颗粒物(PM10)
汉中市,南郑大河坎水厂,107.007,33.0323,2025-04-13T1400,233,416,0.4,7,3,96,57,295,颗粒物(PM10)
杭州市,滨江,120.2072,30.2111,2025-04-13T1400,23,111,0.5,8,6,103,81,81,颗粒物(PM10)
杭州市,西溪,120.0633,30.2747,2025-04-13T1400,13,77,0.4,6,5,104,86,64,颗粒物(PM10)
杭州市,下沙,120.3417,30.3150,2025-04-13T1400,17,101,0.2,15,6,104,84,76,颗粒物(PM10)
杭州市,卧龙桥,120.1269,30.2456,2025-04-13T1400,22,81,0.3,4,6,103,87,66,颗粒物(PM10)
杭州市,浙江农大,120.1903,30.2692,2025-04-13T1400,24,92,0.2,10,3,102,88,71,颗粒物(PM10)
杭州市,和睦小学,120.1197,30.3119,2025-04-13T1400,20,89,0.5,9,6,102,86,70,颗粒物(PM10)
杭州市,临平镇,120.3019,30.4183,2025-04-13T1400,14,124,0.2,14,6,106,88,87,颗粒物(PM10)
杭州市,城厢镇,120.2753,30.1839,2025-04-13T1400,27,98,0.3,8,6,109,80,74,颗粒物(PM10)
杭州市,云栖,120.0883,30.1808,2025-04-13T1400,18,85,0.4,12,8,100,74,68,颗粒物(PM10)
杭州市,镇二中,119.9464,30.0494,2025-04-13T1400,20,87,0.3,11,1,99,74,69,颗粒物(PM10)
杭州市,市府大楼,119.7183,30.2367,2025-04-13T1400,16,74,0.4,7,7,104,87,62,颗粒物(PM10)
杭州市,消防大队,120.1556,30.2864,2025-04-13T1400,17,100,0.4,12,4,107,92,75,颗粒物(PM10)
合肥市,明珠广场,117.1959,31.7848,2025-04-13T1400,17,105,0.2,,3,102,81,,
合肥市,三里街,117.3072,31.8764,2025-04-13T1400,17,95,0.2,8,5,94,82,73,颗粒物(PM10)
合肥市,琥珀山庄,117.2588,31.8707,2025-04-13T1400,23,124,0.3,7,3,104,92,87,颗粒物(PM10)
合肥市,董铺水库,117.1604,31.9052,2025-04-13T1400,27,135,0.3,6,1,67,92,93,颗粒物(PM10)
合肥市,长江中路,117.25,31.8571,2025-04-13T1400,17,107,0.3,7,7,104,90,79,颗粒物(PM10)
合肥市,庐阳区,117.266,31.9436,2025-04-13T1400,9,80,0.2,4,4,97,88,65,颗粒物(PM10)
合肥市,瑶海区,117.3453,31.8616,2025-04-13T1400,20,119,0.2,8,5,96,80,85,颗粒物(PM10)
合肥市,包河区,117.3027,31.7964,2025-04-13T1400,17,95,0.3,7,4,98,79,73,颗粒物(PM10)
合肥市,滨湖新区,117.2776,31.7385,2025-04-13T1400,19,105,0.4,9,3,98,73,78,颗粒物(PM10)
合肥市,高新区,117.1318,31.8403,2025-04-13T1400,17,102,0.3,5,1,102,91,76,颗粒物(PM10)
合肥市,高教基地,117.3803,31.9147,2025-04-13T1400,20,100,0.3,4,5,103,92,75,颗粒物(PM10)
和田地区,地区环保局,79.924,37.0877,2025-04-13T1400,270,1006,0.6,6,2,75,63,500,颗粒物(PM10)
和田地区,市环保局,79.9131,37.113,2025-04-13T1400,226,992,0.5,2,3,82,64,500,颗粒物(PM10)
河池市,东仁乐园,108.2011,24.715,2025-04-13T1400,87,418,,12,10,,68,298,颗粒物(PM10)
河池市,市环保站,108.0497,24.6947,2025-04-13T1400,84,359,0.3,10,7,92,68,213,颗粒物(PM10)
河池市,市疾控中心,108.0983,24.6989,2025-04-13T1400,91,337,0.4,11,8,94,68,194,颗粒物(PM10)
河源市,源西,114.6778,23.7569,2025-04-13T1400,52,283,0.2,8,4,99,86,167,颗粒物(PM10)
河源市,东埔,114.6944,23.7586,2025-04-13T1400,38,359,0.4,8,4,98,86,213,颗粒物(PM10)
河源市,老城,114.6892,23.7233,2025-04-13T1400,58,284,0.3,8,4,98,86,167,颗粒物(PM10)
菏泽市,气象局,115.4208,35.2464,2025-04-13T1400,30,151,0.3,7,4,111,73,101,颗粒物(PM10)
菏泽市,定陶老年大学,115.5564,35.0891,2025-04-13T1400,73,124,0.3,13,4,106,74,98,细颗粒物(PM2.5)
菏泽市,永昌路1号,115.4797,35.24401,2025-04-13T1400,51,132,0.3,11,5,97,65,91,颗粒物(PM10)
菏泽市,长城路999号,115.4715,35.2800,2025-04-13T1400,28,128,0.0,15,5,111,80,89,颗粒物(PM10)
贺州市,环保小区,111.5264,24.4172,2025-04-13T1400,117,446,0.2,8,6,92,69,333,颗粒物(PM10)
贺州市,政协大楼,111.5608,24.4078,2025-04-13T1400,108,388,0.4,8,7,92,67,255,颗粒物(PM10)
贺州市,西湾,111.4744,24.4553,2025-04-13T1400,,,,,,,65,,
鹤壁市,市监测站,114.17,35.9019,2025-04-13T1400,19,78,0.6,5,5,111,80,64,颗粒物(PM10)
鹤壁市,市交警支队,114.2956,35.7511,2025-04-13T1400,24,110,0.7,17,8,104,70,80,颗粒物(PM10)
鹤壁市,迎宾馆,114.2878,35.7306,2025-04-13T1400,16,120,0.5,13,5,106,71,85,颗粒物(PM10)
鹤壁市,大新区,114.2617,35.6822,2025-04-13T1400,28,136,0.5,7,8,103,65,93,颗粒物(PM10)
鹤壁市,南山宾馆,114.1572,35.9603,2025-04-13T1400,20,97,0.4,5,4,114,84,74,颗粒物(PM10)
鹤岗市,哈啤分公司,130.2537,47.3416,2025-04-13T1400,14,31,0.2,6,14,103,91,33,
鹤岗市,斯达机电,130.2684,47.3086,2025-04-13T1400,14,35,0.6,6,11,103,91,35,
鹤岗市,东山纸板厂,130.3114,47.3388,2025-04-13T1400,15,91,0.2,6,12,90,86,71,颗粒物(PM10)
鹤岗市,五号水库,130.1097,47.3382,2025-04-13T1400,,,,,,,,,
黑河市,交通局,127.4833,50.2524,2025-04-13T1400,8,8,0.3,4,7,69,69,22,
黑河市,环保局,127.5144,50.2341,2025-04-13T1400,12,14,0.3,7,4,67,64,21,
黑河市,大黑河岛,127.5291,50.2472,2025-04-13T1400,,,,,,,,,
衡水市,电机北厂,115.6838,37.7541,2025-04-13T1400,13,50,0.3,6,14,98,86,50,
衡水市,市监测站,115.6303,37.7316,2025-04-13T1400,3,63,0.3,9,14,95,83,57,颗粒物(PM10)
衡水市,市城管局,115.6683,37.7217,2025-04-13T1400,15,50,0.4,9,6,96,79,50,
衡水市,地表水厂,115.5989,37.5491,2025-04-13T1400,24,75,0.4,9,8,106,86,63,颗粒物(PM10)
衡阳市,原169医院,112.5003,26.9167,2025-04-13T1400,,336,0.4,2,32,107,60,193,颗粒物(PM10)
衡阳市,衡阳化工总厂,112.6194,26.9258,2025-04-13T1400,82,402,0.5,9,7,97,57,275,颗粒物(PM10)
衡阳市,珠晖区环保局,112.6211,26.8956,2025-04-13T1400,76,357,0.7,7,9,102,49,210,颗粒物(PM10)
衡阳市,市委党校,112.6197,26.8733,2025-04-13T1400,111,360,0.3,8,5,101,54,215,颗粒物(PM10)
衡阳市,市监测站,112.6006,26.8919,2025-04-13T1400,86,359,0.4,,9,97,51,213,颗粒物(PM10)
衡阳市,真空机电公司,112.5664,26.9056,2025-04-13T1400,87,412,0.2,7,,99,58,289,颗粒物(PM10)
衡阳市,师范学院,112.6703,26.882,2025-04-13T1400,92,367,0.4,10,10,103,52,225,颗粒物(PM10)
红河哈尼族彝族自治州,污水处理厂,103.3772,23.3993,2025-04-13T1400,34,82,0.3,6,22,99,80,66,颗粒物(PM10)
红河哈尼族彝族自治州,监测站,103.3861,23.35,2025-04-13T1400,38,98,0.3,8,5,97,85,74,颗粒物(PM10)
红河哈尼族彝族自治州,州图书馆,103.3758,23.368,2025-04-13T1400,36,86,0.1,7,8,104,89,68,颗粒物(PM10)
呼和浩特市,呼市一监,111.6507,40.7517,2025-04-13T1400,3,22,0.5,2,10,85,88,27,
呼和浩特市,小召,111.6572,40.8033,2025-04-13T1400,3,22,0.3,8,5,80,81,25,
呼和浩特市,如意水处理厂,111.7516,40.8369,2025-04-13T1400,13,24,0.3,3,6,81,81,26,
呼和浩特市,二十九中,111.7276,40.8062,2025-04-13T1400,3,25,0.4,1,3,84,86,27,
呼和浩特市,工大金川校区,111.5512,40.7866,2025-04-13T1400,3,18,0.4,5,5,85,86,27,
呼和浩特市,化肥厂生活区,111.717,40.7612,2025-04-13T1400,12,20,0.3,5,6,86,87,27,
呼和浩特市,红旗小学,111.5968,40.8178,2025-04-13T1400,6,53,0.4,6,4,86,89,52,颗粒物(PM10)
呼和浩特市,海东办,111.6518,40.8389,2025-04-13T1400,3,27,0.5,2,6,81,83,27,
呼伦贝尔市,区环保局,119.7594,49.2261,2025-04-13T1400,23,27,0.2,8,5,82,80,33,
呼伦贝尔市,国华电力东,119.7512,49.1577,2025-04-13T1400,10,20,0.3,6,5,87,85,28,
湖州市,城西水厂,120.0751,30.8669,2025-04-13T1400,22,116,0.2,21,7,97,78,83,颗粒物(PM10)
湖州市,仁皇山新区,120.0830,30.8929,2025-04-13T1400,24,122,0.3,12,4,106,86,86,颗粒物(PM10)
湖州市,吴兴区站,120.1844,30.8596,2025-04-13T1400,22,110,0.2,10,5,100,85,80,颗粒物(PM10)
湖州市,南浔区站,120.4148,30.8538,2025-04-13T1400,22,110,0.1,10,2,115,100,80,颗粒物(PM10)
葫芦岛市,龙港区,120.9049,40.7211,2025-04-13T1400,3,28,0.3,9,8,76,77,28,
葫芦岛市,化工街,120.8392,40.7514,2025-04-13T1400,3,12,0.3,10,7,74,73,24,
葫芦岛市,新区,120.8341,40.7073,2025-04-13T1400,6,32,0.4,9,9,81,81,32,
葫芦岛市,东城区,120.8695,40.7677,2025-04-13T1400,3,29,0.4,10,4,80,80,29,
怀化市,林科所,109.5981,27.5721,2025-04-13T1400,69,346,0.6,7,4,88,51,198,颗粒物(PM10)
怀化市,河西地税局,109.9453,27.5444,2025-04-13T1400,101,374,,6,10,95,41,235,颗粒物(PM10)
怀化市,市四医院,109.9781,27.5342,2025-04-13T1400,106,430,,7,,101,54,313,颗粒物(PM10)
怀化市,监测楼,109.9972,27.5578,2025-04-13T1400,99,395,0.3,6,8,84,48,265,颗粒物(PM10)
怀化市,市委党校,110.0394,27.583,2025-04-13T1400,89,375,0.4,6,6,104,60,236,颗粒物(PM10)
淮安市,钵池山,119.036,33.5981,2025-04-13T1400,24,185,0.4,12,11,102,80,118,颗粒物(PM10)
淮安市,北京南路,119.007,33.575,2025-04-13T1400,24,188,0.4,10,9,97,72,119,颗粒物(PM10)
淮安市,市监测站,118.989,33.6067,2025-04-13T1400,46,190,0.3,9,8,100,77,120,颗粒物(PM10)
淮安市,楚州区监测站,119.135,33.5039,2025-04-13T1400,34,178,0.4,,8,94,74,114,颗粒物(PM10)
淮安市,新华书店,118.8755,33.2894,2025-04-13T1400,43,161,0.4,10,8,104,84,106,颗粒物(PM10)
淮安市,承德北路606号,119.0288,33.6319,2025-04-13T1400,21,178,,6,6,96,78,114,颗粒物(PM10)
淮北市,监测站,116.8004,33.975,2025-04-13T1400,32,167,0.5,10,6,106,76,109,颗粒物(PM10)
淮北市,烈山区政府,116.8091,33.9007,2025-04-13T1400,48,142,0.2,10,4,110,81,96,颗粒物(PM10)
淮北市,杜集区检察院,116.8873,33.9836,2025-04-13T1400,64,169,0.6,11,6,101,78,110,颗粒物(PM10)
淮北市,市博物馆,116.7923,33.9535,2025-04-13T1400,47,176,0.6,10,7,104,77,113,颗粒物(PM10)
淮南市,潘集区政府,116.8305,32.7727,2025-04-13T1400,32,230,0.2,6,4,99,83,140,颗粒物(PM10)
淮南市,谢家集区政府,116.8569,32.5951,2025-04-13T1400,38,182,0.4,5,6,102,80,116,颗粒物(PM10)
淮南市,八公山区政府,116.8281,32.633,2025-04-13T1400,37,184,0.2,4,3,98,85,117,颗粒物(PM10)
淮南市,焦岗湖风景区管理处,116.6325,32.6201,2025-04-13T1400,,,,,,,,,
淮南市,经济技术开发区消防队,117.0566,32.6531,2025-04-13T1400,41,191,0.2,9,6,105,90,121,颗粒物(PM10)
淮南市,山南新区,117.0108,32.5893,2025-04-13T1400,31,220,0.1,4,5,104,85,135,颗粒物(PM10)
淮南市,国庆中路369号,117.0031,32.6445,2025-04-13T1400,52,170,0.3,14,4,103,84,110,颗粒物(PM10)
黄冈市,职工中心,114.9028,30.4742,2025-04-13T1400,56,186,0.5,8,6,127,84,118,颗粒物(PM10)
黄冈市,红卫路,114.8858,30.4519,2025-04-13T1400,46,239,0.5,5,5,112,75,145,颗粒物(PM10)
黄冈市,市林业局,114.9136,30.4445,2025-04-13T1400,39,228,0.4,5,6,112,73,139,颗粒物(PM10)
黄南藏族自治州,同仁县隆务镇,102.0199,35.5102,2025-04-13T1400,3,25,0.0,2,14,101,81,32,
黄山市,延安路89号,118.2903,29.6963,2025-04-13T1400,68,140,0.1,2,4,96,60,95,颗粒物(PM10)
黄山市,黄山区政府5号楼,118.1371,30.2756,2025-04-13T1400,32,166,0.7,2,4,96,70,108,颗粒物(PM10)
黄山市,滨江东路7-2号,118.3354,29.7203,2025-04-13T1400,45,183,0.3,3,5,97,57,117,颗粒物(PM10)
黄石市,沈家营,115.0601,30.2313,2025-04-13T1400,59,210,0.4,6,7,118,81,130,颗粒物(PM10)
黄石市,铁山,114.8988,30.2019,2025-04-13T1400,71,241,0.7,3,5,107,75,146,颗粒物(PM10)
黄石市,团城山,115.0307,30.2092,2025-04-13T1400,54,208,0.5,7,7,107,77,129,颗粒物(PM10)
黄石市,笔架山北路,115.0235,30.1578,2025-04-13T1400,53,164,0.4,4,6,115,82,107,颗粒物(PM10)
黄石市,磁湖东路29号,115.0780,30.21118,2025-04-13T1400,66,246,0.6,1,7,125,89,148,颗粒物(PM10)
惠州市,河南岸金山湖子站,114.4183,23.0528,2025-04-13T1400,68,276,0.4,11,8,97,86,163,颗粒物(PM10)
惠州市,下埔横江三路子站,114.4053,23.0822,2025-04-13T1400,69,291,0.4,9,9,96,87,171,颗粒物(PM10)
惠州市,江北云山西路子站,114.4103,23.1142,2025-04-13T1400,72,294,0.2,8,10,102,92,172,颗粒物(PM10)
惠州市,惠阳区承修路船湖子站,114.4645,22.7833,2025-04-13T1400,71,307,0.4,12,9,92,82,179,颗粒物(PM10)
惠州市,大亚湾管委会子站,114.5317,22.7422,2025-04-13T1400,75,298,0.3,12,6,94,85,174,颗粒物(PM10)
惠州市,惠阳秋长,114.4338,22.8134,2025-04-13T1400,69,305,0.1,6,9,100,92,178,颗粒物(PM10)
惠州市,大亚湾霞涌,114.6517,22.775,2025-04-13T1400,79,286,0.5,13,7,91,82,168,颗粒物(PM10)
鸡西市,环保局,130.9762,45.3001,2025-04-13T1400,19,172,0.5,8,5,106,105,111,颗粒物(PM10)
鸡西市,第一中学,130.9429,45.3039,2025-04-13T1400,19,114,0.5,9,6,101,102,82,颗粒物(PM10)
鸡西市,欧美日汽修厂,131.0207,45.3073,2025-04-13T1400,35,243,0.4,4,4,100,99,147,颗粒物(PM10)
鸡西市,市政设施管理处,130.9967,45.3106,2025-04-13T1400,13,127,0.4,5,6,101,95,89,颗粒物(PM10)
吉安市,红声器材厂,114.9754,27.0803,2025-04-13T1400,61,315,0.3,10,10,99,54,183,颗粒物(PM10)
吉安市,市森林工业局,114.9658,27.0999,2025-04-13T1400,65,301,0.1,8,9,96,56,176,颗粒物(PM10)
吉安市,市环境监测站,114.99,27.1312,2025-04-13T1400,44,267,0.2,6,16,102,60,159,颗粒物(PM10)
吉安市,青原区法院,115.0093,27.0968,2025-04-13T1400,66,324,0.5,7,10,104,61,187,颗粒物(PM10)
吉林市,哈达湾,126.54,43.8622,2025-04-13T1400,3,8,0.5,17,6,52,89,17,
吉林市,东局子,126.5844,43.8358,2025-04-13T1400,11,15,0.7,29,5,34,91,16,
吉林市,电力学院,126.5052,43.8245,2025-04-13T1400,8,10,0.6,22,4,49,92,16,
吉林市,江北,126.6133,43.8972,2025-04-13T1400,25,33,0.9,34,7,29,80,36,
吉林市,江南公园,126.555,43.8306,2025-04-13T1400,10,15,0.4,22,,45,93,,
吉林市,丰满,126.7061,43.7133,2025-04-13T1400,,,,,,,109,,
吉林市,九站,126.4739,43.953,2025-04-13T1400,6,10,0.5,,6,53,91,,
济南市,科干所,116.9862,36.6114,2025-04-13T1400,10,53,0.4,6,7,95,,52,颗粒物(PM10)
济南市,农科所,116.9376,36.665,2025-04-13T1400,3,59,0.3,10,7,93,74,55,颗粒物(PM10)
济南市,开发区,117.1265,36.6734,2025-04-13T1400,22,59,0.4,9,7,99,86,55,颗粒物(PM10)
济南市,省种子仓库,117.0624,36.6868,2025-04-13T1400,22,68,0.6,2,11,97,81,59,颗粒物(PM10)
济南市,机床二厂,116.9489,36.6447,2025-04-13T1400,7,71,0.3,12,8,100,78,61,颗粒物(PM10)
济南市,市监测站,117.0495,36.663,2025-04-13T1400,20,120,0.4,7,8,91,77,85,颗粒物(PM10)
济南市,长清党校,116.7675,36.5484,2025-04-13T1400,22,63,0.4,8,6,105,92,57,颗粒物(PM10)
济南市,技术学院,117.6795,36.229,2025-04-13T1400,7,61,0.4,8,10,97,83,56,颗粒物(PM10)
济南市,东山小学,117.532,36.6868,2025-04-13T1400,12,44,0.2,3,5,103,,44,
济南市,泰兴公司,117.7161,36.2049,2025-04-13T1400,17,53,0.4,7,9,100,85,52,颗粒物(PM10)
济南市,莱芜战役纪念馆,117.6867,36.2171,2025-04-13T1400,7,56,0.3,10,5,102,86,53,颗粒物(PM10)
济南市,济阳区政府,117.1673,36.9782,2025-04-13T1400,17,39,0.2,15,9,108,87,39,
济南市,锦屏中学,117.1171,36.63,2025-04-13T1400,3,46,0.2,10,8,93,83,46,
济南市,济南四建,116.9814,36.6819,2025-04-13T1400,15,61,0.2,6,5,94,77,56,颗粒物(PM10)
济宁市,火炬城,116.6251,35.4302,2025-04-13T1400,34,86,0.1,2,4,100,67,68,颗粒物(PM10)
济宁市,电化厂,116.5491,35.4042,2025-04-13T1400,39,110,0.1,10,2,103,66,80,颗粒物(PM10)
济宁市,北湖一中,116.5814,35.3707,2025-04-13T1400,19,79,0.1,9,3,108,68,65,颗粒物(PM10)
济宁市,服务中心,116.8249,35.5593,2025-04-13T1400,12,73,0.6,6,2,104,67,62,颗粒物(PM10)
济宁市,市第七中学,116.5907,35.4054,2025-04-13T1400,17,100,0.2,6,3,107,72,75,颗粒物(PM10)
佳木斯市,佳纺,130.2751,46.8028,2025-04-13T1400,45,82,0.7,14,9,101,91,66,颗粒物(PM10)
佳木斯市,发电厂,130.3995,46.8307,2025-04-13T1400,38,103,0.7,18,14,102,90,77,颗粒物(PM10)
佳木斯市,环保局,130.3258,46.7975,2025-04-13T1400,46,85,0.5,24,5,97,94,68,颗粒物(PM10)
佳木斯市,十一中,130.3648,46.8032,2025-04-13T1400,42,84,0.5,15,8,101,93,67,颗粒物(PM10)
佳木斯市,四丰,130.3794,46.7588,2025-04-13T1400,70,104,1.2,18,1,93,83,94,细颗粒物(PM2.5)
嘉兴市,清河小学,120.7436,30.778,2025-04-13T1400,20,123,0.8,6,6,97,82,87,颗粒物(PM10)
嘉兴市,嘉兴学院,120.726,30.7478,2025-04-13T1400,18,114,0.8,12,6,109,94,82,颗粒物(PM10)
嘉兴市,南湖区残联,120.7846,30.7525,2025-04-13T1400,50,142,0.5,4,6,111,96,96,颗粒物(PM10)
嘉兴市,秀洲住建,120.6916,30.7739,2025-04-13T1400,,,0.4,5,,108,91,,
嘉峪关市,气象局,98.2908,39.7711,2025-04-13T1400,12,19,0.9,11,25,119,94,38,
嘉峪关市,酒钢宾馆,98.2672,39.7978,2025-04-13T1400,12,34,1.0,14,52,109,91,35,
嘉峪关市,雄关区,98.2643,39.7724,2025-04-13T1400,16,29,0.9,14,14,114,88,36,
江门市,北街,113.1064,22.6058,2025-04-13T1400,93,414,0.3,30,3,80,72,292,颗粒物(PM10)
江门市,西区,113.0731,22.5835,2025-04-13T1400,71,444,0.3,26,8,87,77,330,颗粒物(PM10)
江门市,圭峰西,113.0219,22.5311,2025-04-13T1400,94,405,0.3,21,6,78,66,279,颗粒物(PM10)
江门市,东湖,113.0828,22.5947,2025-04-13T1400,104,417,0.3,25,7,86,76,296,颗粒物(PM10)
江门市,江海富民,113.1075,22.5647,2025-04-13T1400,85,403,0.5,26,7,82,70,276,颗粒物(PM10)
江门市,新会银湖,113.05,22.4667,2025-04-13T1400,99,397,0.3,20,1,82,69,268,颗粒物(PM10)
焦作市,影视城,113.1992,35.2590,2025-04-13T1400,,,,,,,,,
焦作市,太极体育中心,113.2725,35.2067,2025-04-13T1400,29,253,0.3,5,6,117,88,152,颗粒物(PM10)
焦作市,马村街道办,113.3137,35.2641,2025-04-13T1400,54,160,,4,,108,90,105,颗粒物(PM10)
焦作市,焦作技师学院,113.2465,35.2373,2025-04-13T1400,56,195,0.4,6,4,111,89,123,颗粒物(PM10)
焦作市,中站许衡医院,113.1656,35.2539,2025-04-13T1400,16,120,0.4,5,7,116,96,85,颗粒物(PM10)
焦作市,原李万街道办,113.2449,35.1803,2025-04-13T1400,12,153,0.4,8,9,110,79,102,颗粒物(PM10)
焦作市,新安路1731号,113.2340,35.2190,2025-04-13T1400,22,210,0.3,3,5,114,91,130,颗粒物(PM10)
揭阳市,新兴,116.3701,23.5345,2025-04-13T1400,36,115,0.4,11,6,96,79,83,颗粒物(PM10)
揭阳市,西马,116.3264,23.5443,2025-04-13T1400,31,138,0.3,8,7,98,85,94,颗粒物(PM10)
揭阳市,东兴,116.3611,23.5626,2025-04-13T1400,30,118,0.4,8,7,100,83,84,颗粒物(PM10)
揭阳市,渔湖,116.4151,23.5294,2025-04-13T1400,40,121,0.3,11,4,94,85,86,颗粒物(PM10)
揭阳市,曲溪,116.403,23.5699,2025-04-13T1400,38,133,0.3,11,2,101,93,92,颗粒物(PM10)
金昌市,天庆家园,102.1692,38.5167,2025-04-13T1400,13,87,0.5,2,6,114,106,69,颗粒物(PM10)
金昌市,金川区人防中心,102.1647,38.5371,2025-04-13T1400,17,142,0.6,3,12,109,99,96,颗粒物(PM10)
金昌市,长春路96号,102.1930,38.5319,2025-04-13T1400,20,119,0.6,1,15,104,99,85,颗粒物(PM10)
金华市,十五中,119.647,29.077,2025-04-13T1400,34,206,0.3,8,7,107,77,128,颗粒物(PM10)
金华市,监测站,119.686,29.1029,2025-04-13T1400,43,215,0.2,3,5,113,78,133,颗粒物(PM10)
金华市,气象局,119.656,29.1131,2025-04-13T1400,39,186,0.3,6,2,109,73,118,颗粒物(PM10)
锦州市,南山,121.1115,41.0879,2025-04-13T1400,8,14,0.5,10,10,74,76,24,
锦州市,开发区,121.0604,40.8428,2025-04-13T1400,9,30,0.5,11,5,71,73,30,
锦州市,百股街道,121.1836,41.1119,2025-04-13T1400,3,16,0.4,8,6,75,75,24,
锦州市,天安街道,121.1178,41.1222,2025-04-13T1400,3,14,0.4,9,8,79,86,25,
锦州市,北湖公园,121.1303,41.1386,2025-04-13T1400,8,,0.5,11,7,72,74,23,
晋城市,自来水公司,112.85,35.5051,2025-04-13T1400,24,199,0.3,8,7,106,90,125,颗粒物(PM10)
晋城市,白云商贸,112.8318,35.4936,2025-04-13T1400,139,180,0.5,10,4,106,87,185,细颗粒物(PM2.5)
晋城市,市环保局,112.8508,35.4887,2025-04-13T1400,17,132,0.2,5,4,103,87,91,颗粒物(PM10)
晋城市,技术学院,112.8676,35.4897,2025-04-13T1400,51,137,0.3,8,5,101,86,94,颗粒物(PM10)
晋城市,白马寺,112.8453,35.546,2025-04-13T1400,42,98,0.6,38,4,101,93,74,颗粒物(PM10)
晋城市,泽州一中,112.8271,35.4828,2025-04-13T1400,39,155,0.3,6,6,106,90,103,颗粒物(PM10)
晋中市,南都小区,112.7249,37.7067,2025-04-13T1400,10,73,0.3,7,3,100,84,62,颗粒物(PM10)
晋中市,榆次区政府,112.6991,37.6982,2025-04-13T1400,11,112,0,9,4,102,88,81,颗粒物(PM10)
晋中市,榆次三中,112.7195,37.6828,2025-04-13T1400,12,158,0.1,5,3,104,88,104,颗粒物(PM10)
晋中市,迎宾街26号,112.7478,37.6954,2025-04-13T1400,9,166,0.6,3,3,102,85,108,颗粒物(PM10)
荆门市,竹园小学,112.2014,31.0481,2025-04-13T1400,126,411,0.1,14,7,112,88,288,颗粒物(PM10)
荆门市,掇刀,112.1969,30.9891,2025-04-13T1400,102,415,0.3,9,10,111,72,293,颗粒物(PM10)
荆门市,石化一小,112.2213,31.0386,2025-04-13T1400,121,394,0.1,12,11,114,88,263,颗粒物(PM10)
荆门市,西山林语,112.1849,31.0362,2025-04-13T1400,103,341,0.2,9,8,112,87,196,颗粒物(PM10)
荆门市,龙泉中学南校,112.1632,31.0138,2025-04-13T1400,107,513,0.2,20,3,108,79,413,颗粒物(PM10)
荆州市,市图书馆,112.2494,30.3197,2025-04-13T1400,88,330,0.4,9,4,106,78,190,颗粒物(PM10)
荆州市,市委党校,112.2008,30.3544,2025-04-13T1400,90,346,0.5,10,5,104,78,198,颗粒物(PM10)
荆州市,管委会,112.2747,30.3122,2025-04-13T1400,90,301,0.4,10,4,112,81,176,颗粒物(PM10)
荆州市,学苑路85号,112.1722,30.3366,2025-04-13T1400,85,287,0.3,14,2,107,79,169,颗粒物(PM10)
景德镇市,王港中学,117.3102,29.3867,2025-04-13T1400,,,,,,,,,
景德镇市,老干部活动中心,117.2117,29.2933,2025-04-13T1400,61,281,0.3,11,11,102,58,166,颗粒物(PM10)
景德镇市,兽医站,117.1894,29.2789,2025-04-13T1400,45,321,0.5,10,6,100,55,186,颗粒物(PM10)
景德镇市,台达陶瓷,117.1547,29.2617,2025-04-13T1400,50,322,0.4,22,20,100,55,186,颗粒物(PM10)
景德镇市,陶研所,117.2461,29.2956,2025-04-13T1400,77,268,0.4,15,13,96,56,159,颗粒物(PM10)
九江市,十里,115.9872,29.6815,2025-04-13T1400,40,180,0.3,3,2,107,71,115,颗粒物(PM10)
九江市,茅山头,115.9584,29.7046,2025-04-13T1400,30,181,0.3,8,4,107,72,116,颗粒物(PM10)
九江市,西园,115.9877,29.7295,2025-04-13T1400,29,147,0.7,14,5,110,74,99,颗粒物(PM10)
九江市,综合工业园,115.9114,29.6038,2025-04-13T1400,48,200,0.5,10,6,109,77,125,颗粒物(PM10)
九江市,石化总厂,116.0721,29.7535,2025-04-13T1400,40,174,0.4,15,3,102,72,112,颗粒物(PM10)
九江市,庐山气象台,115.9773,29.5698,2025-04-13T1400,40,180,0.6,5,6,95,97,115,颗粒物(PM10)
九江市,外国语学校,116.0254,29.6994,2025-04-13T1400,50,210,0.8,8,9,93,68,130,颗粒物(PM10)
九江市,莲花大道8号,116.0102,29.6594,2025-04-13T1400,41,202,0.3,3,3,102,70,126,颗粒物(PM10)
酒泉市,玉门东路5号,98.4958,39.7339,2025-04-13T1400,11,22,0.3,5,15,123,91,39,
酒泉市,北大街108号,98.5099,39.7506,2025-04-13T1400,3,19,0.6,6,14,134,96,42,
喀什地区,巡警大队,76.0072,39.4467,2025-04-13T1400,184,769,0.4,13,4,86,35,500,颗粒物(PM10)
喀什地区,吾办,75.9755,39.4694,2025-04-13T1400,233,720,0.4,8,4,91,53,500,颗粒物(PM10)
喀什地区,老干局,75.9483,39.4689,2025-04-13T1400,188,728,0.3,10,2,96,59,500,颗粒物(PM10)
开封市,肿瘤医院,114.3389,34.7781,2025-04-13T1400,24,177,0.4,5,8,110,72,114,颗粒物(PM10)
开封市,世纪星幼儿园,114.2885,34.7965,2025-04-13T1400,31,157,0.4,13,5,117,76,104,颗粒物(PM10)
开封市,龙亭公园,114.3438,34.8106,2025-04-13T1400,54,195,0.5,11,3,114,79,123,颗粒物(PM10)
开封市,汴京公园,114.3644,34.7964,2025-04-13T1400,33,299,0.6,10,3,117,81,175,颗粒物(PM10)
开封市,技师学院,114.2485,34.8306,2025-04-13T1400,,164,0.6,13,1,110,77,,
开封市,祥符区生态环境局,114.4644,34.7556,2025-04-13T1400,36,188,0.4,11,6,110,73,119,颗粒物(PM10)
克拉玛依市,长征新村,84.895,45.6094,2025-04-13T1400,27,70,0.3,11,9,96,86,60,颗粒物(PM10)
克拉玛依市,南林小区,84.8988,45.5893,2025-04-13T1400,16,86,0.4,2,5,107,98,68,颗粒物(PM10)
克拉玛依市,独山子区,84.905,44.3396,2025-04-13T1400,10,53,0.2,5,7,109,114,52,颗粒物(PM10)
克拉玛依市,乌尔禾区商贸楼,85.6979,46.098,2025-04-13T1400,14,41,0.3,3,8,112,97,41,
克拉玛依市,白碱滩区新站,85.1045,45.6899,2025-04-13T1400,23,55,0.3,6,12,107,97,53,颗粒物(PM10)
克孜勒苏柯尔克孜自治州,市人民政府,76.1454,39.7142,2025-04-13T1400,261,749,0.1,2,5,110,86,500,颗粒物(PM10)
克孜勒苏柯尔克孜自治州,克州文化中心,76.1658,39.7157,2025-04-13T1400,220,743,0.3,2,5,103,76,500,颗粒物(PM10)
昆明市,呈贡新区,102.8204,24.8886,2025-04-13T1400,27,82,0.3,14,7,103,66,66,颗粒物(PM10)
昆明市,西山森林公园,102.6251,24.9608,2025-04-13T1400,,,,,,,,,
昆明市,龙泉镇,102.7252,25.0902,2025-04-13T1400,24,58,0.3,12,8,104,80,54,颗粒物(PM10)
昆明市,东风东路,102.7266,25.0375,2025-04-13T1400,24,76,0.3,16,8,106,77,63,颗粒物(PM10)
昆明市,金鼎山,102.6742,25.0669,2025-04-13T1400,16,70,0.5,14,6,109,77,60,颗粒物(PM10)
昆明市,碧鸡广场,102.6644,25.0401,2025-04-13T1400,19,62,0.5,12,7,107,76,56,颗粒物(PM10)
昆明市,官渡区博物馆,102.7494,25.0119,2025-04-13T1400,23,89,0.3,14,6,105,73,70,颗粒物(PM10)
昆明市,青年创业园,102.8017,24.8336,2025-04-13T1400,32,103,0.3,10,10,103,71,77,颗粒物(PM10)
昆明市,昆明学院,102.7997,24.9786,2025-04-13T1400,34,104,0.3,17,6,101,78,77,颗粒物(PM10)
昆明市,晋宁区生态环境分局,102.5967,24.6736,2025-04-13T1400,27,61,0.5,8,10,112,83,56,颗粒物(PM10)
昆明市,云天化总部,102.6678,24.9856,2025-04-13T1400,28,80,0.4,13,7,102,79,65,颗粒物(PM10)
拉萨市,八廓街,91.1319,29.6514,2025-04-13T1400,7,14,0.5,8,7,138,135,44,
拉萨市,市环保局,91.1221,29.6747,2025-04-13T1400,6,13,0.3,13,4,131,130,41,
拉萨市,区监测站,91.0874,29.6475,2025-04-13T1400,6,13,0.5,9,6,128,129,40,
拉萨市,西藏大学,91.1774,29.6541,2025-04-13T1400,3,9,0.2,12,6,129,130,41,
拉萨市,区辐射站,90.9798,29.6588,2025-04-13T1400,11,17,0.4,9,8,132,120,42,
拉萨市,拉萨火车站,91.0834,29.6292,2025-04-13T1400,6,20,0.2,8,4,128,131,40,
来宾市,来宾技工学校,109.2203,23.7256,2025-04-13T1400,43,163,0.7,8,9,90,66,107,颗粒物(PM10)
来宾市,兴宾区政府,109.1781,23.7297,2025-04-13T1400,51,144,0.5,9,9,90,68,97,颗粒物(PM10)
来宾市,中南小学,109.2416,23.7461,2025-04-13T1400,42,182,0.5,8,8,89,63,116,颗粒物(PM10)
兰州市,榆中兰大校区,104.1373,35.9454,2025-04-13T1400,,,,,,,,,
兰州市,铁路设计院,103.831,36.0464,2025-04-13T1400,23,64,0.6,16,15,110,52,57,颗粒物(PM10)
兰州市,百合公园,103.7439,36.0842,2025-04-13T1400,24,55,0.3,10,19,117,58,53,颗粒物(PM10)
兰州市,和平,103.9611,35.998,2025-04-13T1400,40,88,0.5,9,17,106,60,69,颗粒物(PM10)
兰州市,庄浪东路808号,103.6293,36.0938,2025-04-13T1400,27,65,0.3,18,16,147,68,58,颗粒物(PM10)
兰州市,安宁西路88号,103.7251,36.1043,2025-04-13T1400,39,108,0.5,13,18,133,64,79,颗粒物(PM10)
兰州市,北滨河东路1号,103.8470,36.0676,2025-04-13T1400,27,56,0.5,15,18,116,52,53,颗粒物(PM10)
兰州新区,新区管委会,103.6633,36.533,2025-04-13T1400,17,31,0.3,4,9,116,70,37,
兰州新区,舟曲中学,103.6975,36.4789,2025-04-13T1400,14,69,0.1,7,9,112,75,60,颗粒物(PM10)
廊坊市,药材公司,116.6708,39.5111,2025-04-13T1400,27,113,0.3,4,2,91,85,82,颗粒物(PM10)
廊坊市,开发区,116.7214,39.5589,2025-04-13T1400,28,223,0.3,3,1,93,88,137,颗粒物(PM10)
廊坊市,北华航天学院,116.7244,39.5269,2025-04-13T1400,22,221,0.2,7,4,91,87,136,颗粒物(PM10)
廊坊市,河北工业大学,116.7022,39.5453,2025-04-13T1400,40,182,0.3,3,4,92,87,116,颗粒物(PM10)
乐山市,花湖湾,103.7723,29.5462,2025-04-13T1400,68,185,0.4,11,7,89,31,118,颗粒物(PM10)
乐山市,牛耳桥,103.7627,29.5844,2025-04-13T1400,65,200,0.5,10,8,95,37,125,颗粒物(PM10)
乐山市,市第三水厂,103.7508,29.6006,2025-04-13T1400,54,194,0.5,6,5,98,41,122,颗粒物(PM10)
乐山市,市监测站,103.7571,29.5664,2025-04-13T1400,70,210,0.6,11,7,94,36,130,颗粒物(PM10)
乐山市,理工大学,103.7311,29.5628,2025-04-13T1400,80,237,0.5,12,5,101,38,144,颗粒物(PM10)
丽江市,西南郊,100.2143,26.8576,2025-04-13T1400,17,32,0.6,4,5,99,92,32,
丽江市,丽江古城,100.2497,26.8802,2025-04-13T1400,11,27,,9,9,90,74,,
丽江市,市中心,100.2203,26.8906,2025-04-13T1400,8,26,0.4,6,6,91,73,29,
丽水市,监测站大楼,119.914,28.4514,2025-04-13T1400,23,143,0,6,3,109,74,97,颗粒物(PM10)
丽水市,莲都小学,119.93,28.4586,2025-04-13T1400,28,144,0.1,6,4,110,74,97,颗粒物(PM10)
丽水市,余庄前,119.879,28.4231,2025-04-13T1400,32,126,0.1,8,3,112,71,88,颗粒物(PM10)
连云港市,市环境监测站,119.176,34.5885,2025-04-13T1400,17,105,0.6,12,13,89,74,78,颗粒物(PM10)
连云港市,德源药业,119.3581,34.6972,2025-04-13T1400,17,112,0.4,11,12,92,76,81,颗粒物(PM10)
连云港市,新城一中,119.178,34.844,2025-04-13T1400,21,79,0.7,12,10,99,80,65,颗粒物(PM10)
连云港市,胡沟管理处,119.3608,34.7519,2025-04-13T1400,12,75,0.5,12,11,96,74,63,颗粒物(PM10)
连云港市,矿山设计院,119.1478,34.5911,2025-04-13T1400,12,105,0.4,,,88,70,,
连云港市,工贸学校,119.2413,34.6539,2025-04-13T1400,22,92,0.5,18,12,91,76,71,颗粒物(PM10)
连云港市,连云街道,119.4172,34.7341,2025-04-13T1400,19,94,0.5,14,11,94,80,72,颗粒物(PM10)
凉山彝族自治州,青龙寺,102.3431,27.8099,2025-04-13T1400,9,35,0.8,6,16,107,72,35,
凉山彝族自治州,邛海宾馆,102.2721,27.8415,2025-04-13T1400,30,50,0.9,31,14,90,67,50,
凉山彝族自治州,西昌市政府,102.2625,27.898,2025-04-13T1400,28,48,0.7,12,12,100,67,48,
凉山彝族自治州,凉山州政府,102.2685,27.8851,2025-04-13T1400,21,43,1.2,13,10,101,70,43,
凉山彝族自治州,凯乐南路30号,102.2342,27.8859,2025-04-13T1400,21,44,1.0,15,15,94,56,44,
辽阳市,宏伟区,123.2,41.1953,2025-04-13T1400,14,32,0.6,9,11,76,65,32,
辽阳市,新华园,123.1683,41.2495,2025-04-13T1400,11,26,0.6,8,10,78,63,26,
辽阳市,滨河路,123.2354,41.2639,2025-04-13T1400,12,,0.5,8,6,75,63,24,
辽阳市,铁西工业园,123.149,41.2991,2025-04-13T1400,15,30,0.5,7,10,75,62,30,
辽源市,环保局,125.1358,42.8845,2025-04-13T1400,3,15,0.5,14,5,72,67,23,
辽源市,银鹰制药,125.0764,42.9078,2025-04-13T1400,6,7,0.5,10,6,79,76,25,
聊城市,区政府,115.9848,36.4372,2025-04-13T1400,18,57,0.3,19,12,108,82,54,颗粒物(PM10)
聊城市,聊大东校,116.0072,36.4343,2025-04-13T1400,25,66,0.6,10,10,104,78,58,颗粒物(PM10)
聊城市,监控中心,115.9819,36.4978,2025-04-13T1400,24,62,0.3,10,10,107,81,56,颗粒物(PM10)
聊城市,九州社区,116.0445,36.4361,2025-04-13T1400,7,61,0.4,7,12,111,81,56,颗粒物(PM10)
聊城市,星美广场,116.0567,36.4608,2025-04-13T1400,7,50,0.5,10,10,107,82,50,
林芝市,林芝监测站,94.3681,29.6376,2025-04-13T1400,3,6,0.3,5,5,111,96,35,
林芝市,林芝人民医院,94.3616,29.6616,2025-04-13T1400,3,7,0.3,2,5,106,82,34,
临沧市,市环保局,100.0781,23.8982,2025-04-13T1400,25,,0.6,11,5,67,56,36,
临沧市,市气象局,100.0894,23.8822,2025-04-13T1400,18,,0.6,11,6,68,59,26,
临汾市,临钢医院,111.5531,36.0783,2025-04-13T1400,16,118,0.2,3,4,102,64,84,颗粒物(PM10)
临汾市,技工学校,111.5028,36.0714,2025-04-13T1400,11,108,0.3,2,1,103,67,79,颗粒物(PM10)
临汾市,市委,111.5018,36.0855,2025-04-13T1400,51,93,0.5,2,2,104,66,72,颗粒物(PM10)
临汾市,唐尧大酒店,111.505,36.1014,2025-04-13T1400,12,118,0.4,2,6,106,64,84,颗粒物(PM10)
临汾市,启星学校,111.4879,36.0530,2025-04-13T1400,25,124,0.3,2,2,102,66,87,颗粒物(PM10)
临夏回族自治州,滨河东路1号,103.2464,35.6123,2025-04-13T1400,11,84,0.3,2,6,104,58,67,颗粒物(PM10)
临夏回族自治州,新华街21号,103.2093,35.5995,2025-04-13T1400,20,63,0.2,7,11,100,57,57,颗粒物(PM10)
临沂市,沂河小区,118.3429,35.0532,2025-04-13T1400,13,78,0.4,4,8,97,80,64,颗粒物(PM10)
临沂市,鲁南制药厂,118.295,35.0583,2025-04-13T1400,20,80,0.2,12,10,108,90,65,颗粒物(PM10)
临沂市,新光毛纺厂,118.2794,34.9976,2025-04-13T1400,16,85,0.2,14,7,100,81,68,颗粒物(PM10)
临沂市,河东保险公司,118.3956,35.0888,2025-04-13T1400,8,63,0.3,10,2,101,82,57,颗粒物(PM10)
临沂市,十里堡居委,118.3564,35.0215,2025-04-13T1400,19,83,0.5,16,3,101,82,67,颗粒物(PM10)
临沂市,南坊新区,118.3604,35.1084,2025-04-13T1400,7,92,0.5,12,6,110,90,71,颗粒物(PM10)
临沂市,皇山花园小区,118.3920,35.0300,2025-04-13T1400,10,83,0.3,6,7,104,86,67,颗粒物(PM10)
柳州市,柳东小学,109.4856,24.3895,2025-04-13T1400,65,156,0.5,12,9,78,65,103,颗粒物(PM10)
柳州市,环保监测站,109.4157,24.3277,2025-04-13T1400,52,171,0.8,18,14,77,65,111,颗粒物(PM10)
柳州市,河西水厂,109.389,24.341,2025-04-13T1400,38,164,0.7,16,27,81,59,107,颗粒物(PM10)
柳州市,市四中,109.4311,24.2921,2025-04-13T1400,40,164,1.0,21,15,68,60,107,颗粒物(PM10)
柳州市,市九中,109.4006,24.3631,2025-04-13T1400,56,191,0.8,14,20,83,62,121,颗粒物(PM10)
柳州市,古亭山,109.4958,24.3134,2025-04-13T1400,50,163,0.6,4,7,79,58,107,颗粒物(PM10)
柳州市,市二中,109.5422,24.3996,2025-04-13T1400,61,180,0.4,13,10,81,58,115,颗粒物(PM10)
六安市,监测大楼,116.5079,31.737,2025-04-13T1400,27,134,0.2,2,5,95,84,92,颗粒物(PM10)
六安市,皖西学院,116.4738,31.7643,2025-04-13T1400,30,198,0.3,2,5,106,87,124,颗粒物(PM10)
六安市,朝阳厂,116.4996,31.7905,2025-04-13T1400,26,144,0.3,10,4,103,91,97,颗粒物(PM10)
六安市,开发区,116.5567,31.7886,2025-04-13T1400,39,167,0.4,7,5,108,96,109,颗粒物(PM10)
六盘水市,窑上,104.8,26.5892,2025-04-13T1400,41,83,0.2,6,5,106,84,67,颗粒物(PM10)
六盘水市,黄土坡,104.83,26.5917,2025-04-13T1400,36,107,0.0,9,9,102,77,79,颗粒物(PM10)
六盘水市,水钢,104.89,26.5939,2025-04-13T1400,33,104,0.2,5,7,108,78,77,颗粒物(PM10)
六盘水市,民中,104.8475,26.5894,2025-04-13T1400,27,96,0.2,4,8,113,81,73,颗粒物(PM10)
六盘水市,双水,104.9544,26.5506,2025-04-13T1400,31,134,0.2,6,9,111,76,92,颗粒物(PM10)
龙岩市,龙岩师专,117.0189,25.1181,2025-04-13T1400,,,,,,,,,
龙岩市,龙岩市监测站,117.0217,25.1033,2025-04-13T1400,22,95,0.2,8,4,114,102,73,颗粒物(PM10)
龙岩市,闽西职业技术学院,117.0258,25.0661,2025-04-13T1400,27,81,0.3,4,4,120,105,66,颗粒物(PM10)
龙岩市,龙岩学院,117.0196,25.0306,2025-04-13T1400,23,92,0.3,4,2,121,103,71,颗粒物(PM10)
陇南市,汉王镇固水子,105.0822,33.3261,2025-04-13T1400,,,,,,,,,
陇南市,滨江中学,104.9339,33.3826,2025-04-13T1400,45,203,0.4,4,7,84,50,127,颗粒物(PM10)
陇南市,市总工会,104.955,33.371,2025-04-13T1400,70,197,0.3,4,8,88,54,124,颗粒物(PM10)
娄底市,电视发射台,111.9589,27.8901,2025-04-13T1400,96,424,0.6,5,10,98,76,305,颗粒物(PM10)
娄底市,市监测站,111.9975,27.725,2025-04-13T1400,91,330,0.6,2,9,101,63,190,颗粒物(PM10)
娄底市,市委党校,112.0194,27.7314,2025-04-13T1400,81,322,0.2,7,4,95,55,186,颗粒物(PM10)
娄底市,涟钢,111.9561,27.7569,2025-04-13T1400,90,378,0.1,16,27,86,56,240,颗粒物(PM10)
娄底市,市政府,111.9892,27.7044,2025-04-13T1400,77,298,0.3,3,4,94,59,174,颗粒物(PM10)
泸州市,九狮山,105.4324,28.9634,2025-04-13T1400,,,,,,,,,
泸州市,小市上码头,105.4427,28.9063,2025-04-13T1400,88,153,0.4,9,5,112,63,117,细颗粒物(PM2.5)
泸州市,兰田宪桥,105.4241,28.8573,2025-04-13T1400,96,195,0.4,10,7,111,56,127,细颗粒物(PM2.5)
泸州市,市环监站,105.4379,28.8833,2025-04-13T1400,,,,,,,,,
泸州市,纳溪中医医院,105.3689,28.7783,2025-04-13T1400,71,460,0.4,18,7,100,46,350,颗粒物(PM10)
吕梁市,环保局,111.1406,37.5211,2025-04-13T1400,17,88,0.4,5,6,97,62,69,颗粒物(PM10)
吕梁市,自来水公司,111.1297,37.5136,2025-04-13T1400,19,87,0.5,6,4,96,57,69,颗粒物(PM10)
吕梁市,马茂庄小学,111.1283,37.51,2025-04-13T1400,13,102,0.3,6,3,97,61,76,颗粒物(PM10)
洛阳市,市委党校,112.3931,34.6516,2025-04-13T1400,60,143,0.4,10,2,102,81,97,颗粒物(PM10)
洛阳市,河南林校,112.494,34.6886,2025-04-13T1400,26,161,0.5,5,3,106,81,106,颗粒物(PM10)
洛阳市,开发区管委会,112.3844,34.623,2025-04-13T1400,77,133,0.2,9,6,103,78,103,细颗粒物(PM2.5)
洛阳市,市委新办公区,112.4267,34.6258,2025-04-13T1400,31,119,0.1,6,4,110,82,85,颗粒物(PM10)
洛阳市,伊滨,112.6005,34.6326,2025-04-13T1400,22,124,0.4,6,3,106,84,87,颗粒物(PM10)
洛阳市,中移产业园,112.4951,34.6332,2025-04-13T1400,50,241,0.3,6,5,99,75,146,颗粒物(PM10)
洛阳市,吉利监测站,112.5736,34.8993,2025-04-13T1400,33,138,0.4,6,7,105,87,94,颗粒物(PM10)
洛阳市,河科大西苑校区,112.3677,34.662,2025-04-13T1400,27,155,0.3,9,6,104,83,103,颗粒物(PM10)
洛阳市,英才小学,112.4388,34.6781,2025-04-13T1400,32,152,0.2,6,6,106,84,101,颗粒物(PM10)
洛阳市,春都路1号院,112.4600,34.6949,2025-04-13T1400,28,152,0.4,7,5,112,87,101,颗粒物(PM10)
漯河市,三五一五工厂,114.051,33.5699,2025-04-13T1400,48,198,0.4,5,4,102,84,124,颗粒物(PM10)
漯河市,漯河大学,114.0055,33.5698,2025-04-13T1400,56,205,0.2,3,5,102,79,128,颗粒物(PM10)
漯河市,市水利局,114.0138,33.5828,2025-04-13T1400,61,190,0.2,6,4,100,81,120,颗粒物(PM10)
漯河市,市广电局,114.0261,33.5698,2025-04-13T1400,40,195,0.3,5,4,100,80,123,颗粒物(PM10)
漯河市,市图书馆,113.9749,33.5664,2025-04-13T1400,71,201,0.5,9,3,100,80,126,颗粒物(PM10)
漯河市,韶山路11号,114.0892,33.5882,2025-04-13T1400,48,201,0.3,7,2,105,84,126,颗粒物(PM10)
马鞍山市,湖东路四小,118.5092,31.6837,2025-04-13T1400,39,148,0.4,6,6,114,94,99,颗粒物(PM10)
马鞍山市,开发区,118.5024,31.6449,2025-04-13T1400,65,154,0.5,14,6,108,89,102,颗粒物(PM10)
马鞍山市,濮塘,118.6245,31.7241,2025-04-13T1400,31,153,0.4,5,8,117,97,102,颗粒物(PM10)
马鞍山市,雨山,118.4918,31.6809,2025-04-13T1400,54,156,0.6,6,7,112,92,103,颗粒物(PM10)
马鞍山市,慈湖高新区,118.5274,31.72227,2025-04-13T1400,,160,0.4,17,,103,,105,颗粒物(PM10)
茂名市,电白南海,111.0286,21.4688,2025-04-13T1400,75,300,0.7,10,3,91,75,175,颗粒物(PM10)
茂名市,茂石化七小,110.9294,21.6533,2025-04-13T1400,78,305,0.8,13,13,83,64,178,颗粒物(PM10)
茂名市,健康路,110.9107,21.6687,2025-04-13T1400,83,295,0.7,10,11,89,68,173,颗粒物(PM10)
茂名市,高岭,110.8592,21.6828,2025-04-13T1400,83,344,0.5,12,19,80,58,197,颗粒物(PM10)
茂名市,电白水东,111.01,21.5165,2025-04-13T1400,75,317,0.5,15,4,90,73,184,颗粒物(PM10)
眉山市,黑龙滩水库,104.0308,30.0478,2025-04-13T1400,24,195,0.3,4,1,98,57,123,颗粒物(PM10)
眉山市,气象局,103.8416,30.0874,2025-04-13T1400,51,247,0.4,12,2,97,36,149,颗粒物(PM10)
眉山市,市委党校,103.8578,30.0744,2025-04-13T1400,53,212,0.6,10,6,99,37,131,颗粒物(PM10)
眉山市,区人社局,103.8291,30.0564,2025-04-13T1400,36,93,0.5,13,8,99,38,72,颗粒物(PM10)
梅州市,梅江月梅,116.1231,24.3284,2025-04-13T1400,28,123,0.3,6,4,110,88,87,颗粒物(PM10)
梅州市,梅县新城,116.0797,24.2719,2025-04-13T1400,38,115,0.4,6,5,112,98,83,颗粒物(PM10)
梅州市,环境监控中心,116.1248,24.2654,2025-04-13T1400,34,127,0.3,8,6,109,88,89,颗粒物(PM10)
梅州市,梅龙,116.1233,24.2991,2025-04-13T1400,28,119,0.3,4,6,107,88,85,颗粒物(PM10)
绵阳市,富乐山,104.7778,31.4741,2025-04-13T1400,86,290,0.3,11,8,108,57,170,颗粒物(PM10)
绵阳市,高新区自来水公司,104.6697,31.4668,2025-04-13T1400,51,164,0.4,9,3,113,58,107,颗粒物(PM10)
绵阳市,三水厂,104.7287,31.5075,2025-04-13T1400,80,286,0.5,9,6,109,55,168,颗粒物(PM10)
绵阳市,西科大附属小学,104.69,31.5322,2025-04-13T1400,59,198,0.5,10,7,119,58,124,颗粒物(PM10)
绵阳市,安州区旅游局,104.5648,31.5343,2025-04-13T1400,31,160,0.2,8,7,103,56,105,颗粒物(PM10)
绵阳市,绵阳市气象局,104.7651,31.4531,2025-04-13T1400,57,225,0.3,8,7,108,55,138,颗粒物(PM10)
牡丹江市,环保大楼,129.61,44.561,2025-04-13T1400,22,76,0.2,8,15,112,120,63,颗粒物(PM10)
牡丹江市,文化广场,129.6115,44.5782,2025-04-13T1400,21,53,0.4,9,11,110,120,52,颗粒物(PM10)
牡丹江市,第一医院,129.5904,44.5963,2025-04-13T1400,21,50,0.3,8,9,110,120,50,
牡丹江市,机车工厂,129.6364,44.6075,2025-04-13T1400,20,125,0.5,17,8,104,117,88,颗粒物(PM10)
牡丹江市,第一中学,129.6386,44.5462,2025-04-13T1400,12,32,0.5,3,7,118,123,37,
内江市,市监测站,105.0703,29.61,2025-04-13T1400,85,263,0.4,10,10,105,57,157,颗粒物(PM10)
内江市,东兴区政府,105.0717,29.5947,2025-04-13T1400,75,304,0.3,10,4,102,55,177,颗粒物(PM10)
内江市,内江二中,105.0653,29.5817,2025-04-13T1400,89,305,0.3,13,8,98,53,178,颗粒物(PM10)
内江市,内江日报社,105.0406,29.5822,2025-04-13T1400,84,301,0.2,6,5,106,59,176,颗粒物(PM10)
那曲市,那曲监测站,92.0657,31.4846,2025-04-13T1400,3,18,0.3,11,8,118,82,37,
那曲市,那曲市委宣传部,92.0515,31.4787,2025-04-13T1400,3,9,0.3,5,5,129,91,41,
南昌市,省外办,115.8931,28.6843,2025-04-13T1400,68,216,0.5,14,10,94,61,133,颗粒物(PM10)
南昌市,省林业公司,115.8886,28.7003,2025-04-13T1400,68,307,0.3,9,12,86,52,179,颗粒物(PM10)
南昌市,林科所,115.8126,28.7442,2025-04-13T1400,58,273,0.3,1,9,101,61,162,颗粒物(PM10)
南昌市,建工学校,115.8518,28.687,2025-04-13T1400,60,328,0.5,8,9,97,61,189,颗粒物(PM10)
南昌市,象湖,115.8921,28.6424,2025-04-13T1400,58,266,0.4,5,9,112,72,158,颗粒物(PM10)
南昌市,武术学校,115.7423,28.7996,2025-04-13T1400,25,242,0.5,4,12,105,62,146,颗粒物(PM10)
南昌市,机电学校,115.9084,28.6062,2025-04-13T1400,63,306,0.4,14,3,103,62,178,颗粒物(PM10)
南昌市,外国语学校,115.9721,28.7031,2025-04-13T1400,60,278,0,12,6,107,70,164,颗粒物(PM10)
南昌市,南京东路235号,115.9316,28.68677,2025-04-13T1400,62,341,0.3,12,9,108,72,196,颗粒物(PM10)
南充市,西山风景区,106.056,30.8064,2025-04-13T1400,118,362,0.4,6,5,104,65,218,颗粒物(PM10)
南充市,南充市委,106.0789,30.8023,2025-04-13T1400,131,506,0.4,9,5,109,70,406,颗粒物(PM10)
南充市,南充炼油厂,106.1031,30.8217,2025-04-13T1400,139,499,0.4,8,5,101,65,399,颗粒物(PM10)
南充市,梨树横街98号,106.1083,30.7884,2025-04-13T1400,79,493,0.2,7,7,105,69,392,颗粒物(PM10)
南充市,清泉寺北路188号,106.1172,30.843,2025-04-13T1400,110,478,0.2,10,5,104,66,373,颗粒物(PM10)
南充市,同庆路1号,106.067,30.7616,2025-04-13T1400,117,488,0.3,7,6,96,61,385,颗粒物(PM10)
南京市,迈皋桥,118.8086,32.1065,2025-04-13T1400,31,139,0.2,2,4,107,94,95,颗粒物(PM10)
南京市,草场门,118.7538,32.0551,2025-04-13T1400,31,166,0.5,14,4,110,94,108,颗粒物(PM10)
南京市,山西路,118.7794,32.0745,2025-04-13T1400,34,234,0.1,14,5,109,96,142,颗粒物(PM10)
南京市,中华门,118.7752,32.0023,2025-04-13T1400,22,134,0.3,13,7,96,81,92,颗粒物(PM10)
南京市,瑞金路,118.8109,32.0309,2025-04-13T1400,27,141,0.3,8,6,105,88,96,颗粒物(PM10)
南京市,玄武湖,118.7997,32.0754,2025-04-13T1400,21,141,0.3,7,5,97,84,96,颗粒物(PM10)
南京市,浦口,118.6414,32.0931,2025-04-13T1400,19,174,0.4,19,6,115,102,112,颗粒物(PM10)
南京市,奥体中心,118.7356,31.9996,2025-04-13T1400,24,140,0.2,12,6,105,87,95,颗粒物(PM10)
南京市,仙林大学城,118.9125,32.1028,2025-04-13T1400,24,173,0.6,8,9,105,93,112,颗粒物(PM10)
南京市,江宁彩虹桥,118.8436,31.9198,2025-04-13T1400,29,162,0.4,2,4,111,90,106,颗粒物(PM10)
南京市,六合雄州,118.8554,32.3578,2025-04-13T1400,20,149,0.2,2,4,102,82,100,颗粒物(PM10)
南京市,汶溪路181号,118.8708,31.3402,2025-04-13T1400,25,138,0.5,11,5,110,93,94,颗粒物(PM10)
南京市,中山西路1号,119.019,31.6512,2025-04-13T1400,56,132,0.4,11,4,112,92,91,颗粒物(PM10)
南宁市,二十一中,108.3103,22.7881,2025-04-13T1400,54,288,0.5,17,6,94,74,169,颗粒物(PM10)
南宁市,北湖,108.3141,22.8528,2025-04-13T1400,64,270,0.6,12,6,94,68,160,颗粒物(PM10)
南宁市,市监测站,108.3206,22.8225,2025-04-13T1400,54,293,0.2,16,6,87,67,172,颗粒物(PM10)
南宁市,大自然花园,108.3829,22.8037,2025-04-13T1400,50,276,0.4,10,6,98,78,163,颗粒物(PM10)
南宁市,仙葫,108.4394,22.7904,2025-04-13T1400,64,265,0.4,8,6,85,60,158,颗粒物(PM10)
南宁市,区农职院,108.2397,22.8467,2025-04-13T1400,73,314,0.6,11,6,90,69,182,颗粒物(PM10)
南宁市,英华嘉园,108.3275,22.735,2025-04-13T1400,51,268,0.3,13,7,98,77,159,颗粒物(PM10)
南宁市,红星社区,108.4834,22.7618,2025-04-13T1400,47,235,0.5,10,10,101,77,143,颗粒物(PM10)
南宁市,乐贤路16号,108.2177,22.7774,2025-04-13T1400,60,335,0.5,13,12,85,63,193,颗粒物(PM10)
南平市,茫荡山,118.0966,26.6761,2025-04-13T1400,,,,,,,,,
南平市,南平市监测站,118.1681,26.6369,2025-04-13T1400,24,125,0.4,4,4,105,70,88,颗粒物(PM10)
南平市,南平铝业有限公司,118.1825,26.6489,2025-04-13T1400,24,132,0.4,4,4,106,70,91,颗粒物(PM10)
南平市,南平七中,118.1756,26.6272,2025-04-13T1400,26,136,0.4,4,5,111,73,93,颗粒物(PM10)
南通市,狼山街道,120.9098,31.9663,2025-04-13T1400,13,127,0.5,17,8,107,90,89,颗粒物(PM10)
南通市,虹桥,120.86,32.0005,2025-04-13T1400,16,102,0.5,20,8,103,90,76,颗粒物(PM10)
南通市,城中,120.87,32.02,2025-04-13T1400,16,137,0.4,18,5,109,93,94,颗粒物(PM10)
南通市,星湖花园,120.94,31.93,2025-04-13T1400,14,117,0.5,15,7,104,83,84,颗粒物(PM10)
南通市,紫琅学院,120.81,32.0417,2025-04-13T1400,12,142,0.5,15,4,113,95,96,颗粒物(PM10)
南通市,通州监测站,121.067,32.062,2025-04-13T1400,12,144,0.2,12,6,109,91,97,颗粒物(PM10)
南通市,环境教育馆,120.9348,31.9883,2025-04-13T1400,21,153,0.6,13,9,114,96,102,颗粒物(PM10)
南阳市,瓦房庄,112.5224,33.0122,2025-04-13T1400,90,296,0.4,10,5,92,70,173,颗粒物(PM10)
南阳市,汉画馆,112.5003,32.9735,2025-04-13T1400,87,324,0.3,12,4,85,62,187,颗粒物(PM10)
南阳市,气象站,112.5573,33.027,2025-04-13T1400,92,397,0.4,10,4,91,69,268,颗粒物(PM10)
南阳市,理工学院,112.5481,32.9689,2025-04-13T1400,86,315,0.4,10,3,90,68,183,颗粒物(PM10)
南阳市,卧龙区政府,112.5234,32.9922,2025-04-13T1400,87,336,0.4,8,4,90,66,193,颗粒物(PM10)
宁波市,区环保大楼,121.8358,29.911,2025-04-13T1400,26,140,0.4,7,6,105,93,95,颗粒物(PM10)
宁波市,万里学院,121.56,29.82,2025-04-13T1400,23,112,0.3,2,5,105,94,81,颗粒物(PM10)
宁波市,龙赛医院,121.713,29.9572,2025-04-13T1400,22,128,0.5,4,7,108,95,89,颗粒物(PM10)
宁波市,钱湖水厂,121.633,29.7733,2025-04-13T1400,24,118,0.4,6,6,104,91,84,颗粒物(PM10)
宁波市,太古小学,121.5856,29.8635,2025-04-13T1400,17,121,0.2,7,8,112,99,86,颗粒物(PM10)
宁波市,市环境监测中心,121.524,29.8674,2025-04-13T1400,18,104,0.3,8,7,104,91,77,颗粒物(PM10)
宁波市,万里国际学校,121.6147,29.9017,2025-04-13T1400,21,123,0.2,2,7,106,94,87,颗粒物(PM10)
宁波市,白沙活动中心,121.5594,29.8975,2025-04-13T1400,22,115,0.4,2,6,107,94,83,颗粒物(PM10)
宁德市,金涵水库,119.5001,26.6946,2025-04-13T1400,,,,,,,,,
宁德市,宁德市监测站,119.5388,26.6612,2025-04-13T1400,38,154,0.4,11,5,108,84,102,颗粒物(PM10)
宁德市,宁德一中,119.5231,26.6562,2025-04-13T1400,37,130,0.1,8,6,107,84,90,颗粒物(PM10)
怒江傈僳族自治州,州监测站,98.8601,25.8567,2025-04-13T1400,3,31,0.4,7,7,62,25,31,
怒江傈僳族自治州,泸水一中,98.8546,25.8417,2025-04-13T1400,20,33,0.4,16,6,46,22,33,
攀枝花市,弄弄坪,101.6891,26.571,2025-04-13T1400,9,20,0.5,15,7,108,68,34,
攀枝花市,河门口,101.5769,26.5928,2025-04-13T1400,8,25,0.4,3,9,106,75,34,
攀枝花市,炳草岗,101.7169,26.585,2025-04-13T1400,6,17,0.3,6,10,112,69,35,
攀枝花市,仁和,101.7369,26.5008,2025-04-13T1400,12,28,1.0,14,16,132,76,42,
攀枝花市,四十中小,101.7227,26.567,2025-04-13T1400,19,33,0.8,8,10,113,72,36,
盘锦市,开发区,122.0303,41.1489,2025-04-13T1400,18,21,0.3,8,9,77,74,26,
盘锦市,兴隆台,122.0485,41.0883,2025-04-13T1400,18,25,0.4,14,8,73,70,26,
盘锦市,新生街道,121.8297,41.1028,2025-04-13T1400,14,26,0.3,11,16,78,76,26,
平顶山市,新华旅馆,113.3257,33.742,2025-04-13T1400,21,143,0.2,9,4,104,81,97,颗粒物(PM10)
平顶山市,规划设计院,113.2919,33.737,2025-04-13T1400,33,135,0.2,9,4,105,82,93,颗粒物(PM10)
平顶山市,平顶山工学院,113.182,33.774,2025-04-13T1400,14,291,0.3,5,6,109,87,171,颗粒物(PM10)
平顶山市,规划局,113.3025,33.73,2025-04-13T1400,21,144,0.8,8,4,105,81,97,颗粒物(PM10)
平顶山市,石龙区,112.8867,33.9116,2025-04-13T1400,48,156,0.3,8,4,105,84,103,颗粒物(PM10)
平凉市,聚贤嘉苑,106.6692,35.5461,2025-04-13T1400,29,203,0.6,8,7,116,93,127,颗粒物(PM10)
平凉市,博物馆,106.7021,35.5307,2025-04-13T1400,17,147,0.3,3,8,113,79,99,颗粒物(PM10)
萍乡市,武功山,114.0997,27.5002,2025-04-13T1400,48,254,0.7,4,11,90,64,152,颗粒物(PM10)
萍乡市,中医院,113.8385,27.6434,2025-04-13T1400,69,392,0.4,4,10,98,56,260,颗粒物(PM10)
萍乡市,市政府车库,113.8493,27.6253,2025-04-13T1400,79,331,0.2,6,5,99,64,191,颗粒物(PM10)
萍乡市,市环保局,113.8676,27.6435,2025-04-13T1400,118,386,0.4,2,4,97,62,252,颗粒物(PM10)
萍乡市,安源区政府,113.866,27.6198,2025-04-13T1400,79,378,0.2,4,9,94,58,240,颗粒物(PM10)
莆田市,荔城区仓后路,119.0141,25.4325,2025-04-13T1400,46,140,0.5,17,3,111,93,95,颗粒物(PM10)
莆田市,莆田市监测站,119.0015,25.4553,2025-04-13T1400,42,119,0.3,12,4,111,97,85,颗粒物(PM10)
莆田市,涵江区六中,119.1119,25.4561,2025-04-13T1400,53,174,0.4,11,3,118,97,112,颗粒物(PM10)
莆田市,秀屿区政府,119.1013,25.3215,2025-04-13T1400,52,174,0.5,13,4,117,99,112,颗粒物(PM10)
莆田市,东圳水库,118.981,25.4792,2025-04-13T1400,,,,,,,,,
濮阳市,环保局,115.0312,35.7636,2025-04-13T1400,23,118,1.0,10,8,102,73,84,颗粒物(PM10)
濮阳市,油田运输公司,115.0574,35.7609,2025-04-13T1400,28,114,0.5,11,6,112,78,82,颗粒物(PM10)
濮阳市,濮水河管理处,115,35.7668,2025-04-13T1400,23,121,0.6,7,6,107,71,86,颗粒物(PM10)
濮阳市,任丘路479号,115.0924,35.7686,2025-04-13T1400,39,120,0.5,9,7,116,83,85,颗粒物(PM10)
普洱市,市环保局,100.98,22.7633,2025-04-13T1400,20,55,0.4,7,2,77,69,53,颗粒物(PM10)
普洱市,普洱第二中学,100.9817,22.8322,2025-04-13T1400,33,43,0.3,7,6,85,79,48,
七台河市,新一中,131.0518,45.8751,2025-04-13T1400,9,42,0.6,9,12,116,115,42,
七台河市,中波台,131.0577,45.7879,2025-04-13T1400,9,66,0.4,12,6,98,97,58,颗粒物(PM10)
七台河市,人民广场,131.0176,45.7761,2025-04-13T1400,18,84,0.7,14,9,108,112,67,颗粒物(PM10)
七台河市,新建矿广场,130.8781,45.8222,2025-04-13T1400,21,163,0.5,12,8,108,107,107,颗粒物(PM10)
齐齐哈尔市,安居小区,123.9305,47.3636,2025-04-13T1400,7,20,0.3,10,2,75,72,24,
齐齐哈尔市,中心广场,123.9488,47.3386,2025-04-13T1400,,8,0.4,8,6,71,66,,
齐齐哈尔市,农牧车辆厂,123.9483,47.3227,2025-04-13T1400,14,14,0.1,7,5,76,71,24,
齐齐哈尔市,市环境监测站,123.945,47.2988,2025-04-13T1400,7,13,0.4,6,2,75,70,24,
齐齐哈尔市,富区青少年活动中心,123.6333,47.2075,2025-04-13T1400,9,,0.3,6,2,77,72,25,
黔东南苗族侗族自治州,市环境监测站,107.9783,26.5747,2025-04-13T1400,80,262,0.3,7,4,102,65,156,颗粒物(PM10)
黔东南苗族侗族自治州,凯里学院,107.8908,26.5311,2025-04-13T1400,70,271,0.3,4,2,105,57,161,颗粒物(PM10)
黔南布依族苗族自治州,小围寨,107.5228,26.2403,2025-04-13T1400,63,259,0.4,5,6,112,71,155,颗粒物(PM10)
黔南布依族苗族自治州,沙坝,107.5175,26.2978,2025-04-13T1400,63,285,0.3,8,5,108,72,168,颗粒物(PM10)
黔西南布依族苗族自治州,场坝街,104.9022,25.0925,2025-04-13T1400,65,162,0.2,7,8,112,76,106,颗粒物(PM10)
黔西南布依族苗族自治州,坪东大道,104.8811,25.0992,2025-04-13T1400,51,131,0.3,10,7,107,74,91,颗粒物(PM10)
钦州市,市环保站,108.6236,21.9667,2025-04-13T1400,39,195,0.5,13,10,93,78,123,颗粒物(PM10)
钦州市,沙埠小学,108.6549,21.9481,2025-04-13T1400,43,186,0.7,10,7,93,81,118,颗粒物(PM10)
钦州市,港区一小,108.5989,21.7431,2025-04-13T1400,53,207,0.5,16,8,93,74,129,颗粒物(PM10)
钦州市,北职校,108.5959,21.9633,2025-04-13T1400,47,174,0.8,14,8,92,79,112,颗粒物(PM10)
秦皇岛市,第一关,119.7493,40.0116,2025-04-13T1400,11,32,0.2,10,4,82,71,32,
秦皇岛市,监测站,119.5897,39.9499,2025-04-13T1400,3,44,0.3,2,3,89,82,44,
秦皇岛市,建设大厦,119.5251,39.9041,2025-04-13T1400,,,0.2,,2,84,78,,
秦皇岛市,文明里,119.610547,39.943889,2025-04-13T1400,7,38,0.3,2,3,84,77,38,
秦皇岛市,北戴河轮滑馆,119.5090,39.8253,2025-04-13T1400,7,49,0.3,2,4,83,77,49,
青岛市,仰口,120.6659,36.2403,2025-04-13T1400,13,38,0.5,3,5,112,,38,
青岛市,市南区东部子站,120.4134,36.0658,2025-04-13T1400,7,34,0.5,4,8,102,83,34,
青岛市,四方区子站,120.3664,36.1032,2025-04-13T1400,14,31,0.3,5,6,110,89,35,
青岛市,市南区西部子站,120.2994,36.054,2025-04-13T1400,3,29,0.5,7,7,99,80,31,
青岛市,崂山区子站,120.4581,36.0858,2025-04-13T1400,3,51,0.4,2,8,110,90,51,颗粒物(PM10)
青岛市,城阳区子站,120.3999,36.3083,2025-04-13T1400,7,53,0.6,6,9,114,90,52,颗粒物(PM10)
青岛市,黄岛区4号,120.0405,35.8735,2025-04-13T1400,3,29,0.5,6,8,103,84,33,
青岛市,即墨2号,120.5014,36.4034,2025-04-13T1400,10,55,0.4,4,8,106,84,53,颗粒物(PM10)
青岛市,市北区南部,120.3503,36.0736,2025-04-13T1400,3,34,0.4,5,7,98,79,34,
青岛市,李沧区北部,120.3948,36.1805,2025-04-13T1400,12,34,0.6,6,9,103,82,34,
青岛市,珠江路669号,120.1969,35.9546,2025-04-13T1400,7,22,0.5,4,6,104,87,33,
清远市,环保大楼,113.0426,23.691,2025-04-13T1400,67,243,0.6,13,9,98,81,147,颗粒物(PM10)
清远市,凤城街办,113.0208,23.7106,2025-04-13T1400,82,378,0.4,17,9,87,74,240,颗粒物(PM10)
清远市,技师学院,113.0477,23.6344,2025-04-13T1400,75,374,0.5,14,8,86,64,235,颗粒物(PM10)
清远市,清新太和,112.9903,23.7403,2025-04-13T1400,87,384,0.4,15,9,84,76,249,颗粒物(PM10)
清远市,清城东城,113.076,23.7198,2025-04-13T1400,78,384,0.6,12,9,90,73,249,颗粒物(PM10)
庆阳市,庆阳五中,107.6325,35.7357,2025-04-13T1400,21,280,0.2,2,1,107,84,165,颗粒物(PM10)
庆阳市,市环保局,107.6364,35.7067,2025-04-13T1400,22,233,0.2,2,3,111,88,142,颗粒物(PM10)
曲靖市,环境监测站,103.7897,25.5035,2025-04-13T1400,8,69,0.3,10,7,103,70,60,颗粒物(PM10)
曲靖市,烟厂办公区,103.8,25.5364,2025-04-13T1400,3,69,0.3,6,4,116,80,60,颗粒物(PM10)
曲靖市,南苑二区,103.7947,25.462,2025-04-13T1400,22,113,0.5,9,8,107,74,82,颗粒物(PM10)
曲靖市,曲靖师范学院,103.7444,25.5261,2025-04-13T1400,30,74,0.3,8,10,110,77,62,颗粒物(PM10)
衢州市,环保大楼,118.8692,28.9398,2025-04-13T1400,44,195,0.3,8,5,109,74,123,颗粒物(PM10)
衢州市,实验学校,118.8709,28.9666,2025-04-13T1400,53,176,0.3,10,7,103,63,113,颗粒物(PM10)
衢州市,衢州学院,118.8621,28.9808,2025-04-13T1400,44,188,0.3,14,7,98,60,119,颗粒物(PM10)
泉州市,涂山街,118.5819,24.9117,2025-04-13T1400,41,153,0.3,14,3,109,99,102,颗粒物(PM10)
泉州市,津头埔,118.5972,24.8978,2025-04-13T1400,44,183,0.1,18,3,111,98,117,颗粒物(PM10)
泉州市,万安,118.6663,24.9424,2025-04-13T1400,47,186,0.4,12,3,120,97,118,颗粒物(PM10)
泉州市,清源山,118.6117,24.9604,2025-04-13T1400,,,,,,,,,
泉州市,城华南路,118.6333,24.9264,2025-04-13T1400,47,159,0.4,14,3,108,95,105,颗粒物(PM10)
日喀则市,日喀则监测站,88.8876,29.2718,2025-04-13T1400,12,,0.2,4,13,125,115,40,
日喀则市,林业技术推广中心,88.8781,29.2426,2025-04-13T1400,3,11,0.3,3,6,120,110,38,
日照市,监测站,119.471,35.4209,2025-04-13T1400,15,80,0.5,9,7,100,81,65,颗粒物(PM10)
日照市,市政府广场,119.523,35.4216,2025-04-13T1400,16,70,0.6,6,5,100,82,60,颗粒物(PM10)
日照市,港务局,119.5587,35.4044,2025-04-13T1400,14,80,0.6,8,5,100,81,65,颗粒物(PM10)
日照市,职业技术学院,119.5328,35.4625,2025-04-13T1400,3,85,0.5,5,7,97,80,68,颗粒物(PM10)
日照市,岚山环保分局,119.3266,35.1044,2025-04-13T1400,23,97,0.9,14,15,99,82,74,颗粒物(PM10)
三门峡市,市政府,111.1922,34.7752,2025-04-13T1400,29,95,0.4,5,4,109,59,73,颗粒物(PM10)
三门峡市,开发区,111.1587,34.7942,2025-04-13T1400,30,132,0.4,8,4,108,64,91,颗粒物(PM10)
三门峡市,风景区,111.143,34.7955,2025-04-13T1400,38,136,0.5,5,6,112,68,93,颗粒物(PM10)
三门峡市,三门峡市第一小学,111.1911,34.7829,2025-04-13T1400,74,134,0.5,8,2,114,68,99,细颗粒物(PM2.5)
三门峡市,富达温泉假日酒店,111.1,34.7167,2025-04-13T1400,51,110,0.6,9,5,109,64,80,颗粒物(PM10)
三明市,三钢,117.6211,26.2625,2025-04-13T1400,29,102,0.5,7,6,108,69,76,颗粒物(PM10)
三明市,三明二中,117.635,26.2714,2025-04-13T1400,22,104,0.3,7,7,109,71,77,颗粒物(PM10)
三明市,三元区政府,117.6028,26.2378,2025-04-13T1400,28,108,0.3,5,3,116,72,79,颗粒物(PM10)
三明市,洋溪,117.7275,26.3108,2025-04-13T1400,,,,,,,,,
三亚市,河东子站,109.5078,18.2489,2025-04-13T1400,17,19,0.5,2,3,72,57,25,
三亚市,河西子站,109.4964,18.2681,2025-04-13T1400,7,18,0.4,4,2,65,55,21,
三亚市,君悦子站,109.7348,18.3443,2025-04-13T1400,29,47,0.4,6,4,73,56,47,
山南市,山南监测站,91.7608,29.2313,2025-04-13T1400,7,8,0.3,2,4,128,107,40,
山南市,山南人民医院,91.7706,29.2436,2025-04-13T1400,3,11,0.2,2,5,126,103,40,
汕头市,金平子站,116.6794,23.3667,2025-04-13T1400,47,175,0.4,17,6,104,80,113,颗粒物(PM10)
汕头市,龙湖子站,116.7244,23.3633,2025-04-13T1400,48,179,0.5,10,5,112,87,115,颗粒物(PM10)
汕头市,濠江子站,116.7258,23.2775,2025-04-13T1400,43,193,0.6,11,5,115,86,122,颗粒物(PM10)
汕头市,澄海子站,116.7519,23.4714,2025-04-13T1400,45,164,0.5,17,4,103,84,107,颗粒物(PM10)
汕头市,潮阳子站,116.6092,23.2539,2025-04-13T1400,46,154,0.4,13,8,112,88,102,颗粒物(PM10)
汕头市,潮南峡山,116.454,23.2684,2025-04-13T1400,41,160,0.5,5,5,105,86,105,颗粒物(PM10)
汕头市,潮南子站,116.4069,23.2533,2025-04-13T1400,46,208,0.5,12,4,107,80,129,颗粒物(PM10)
汕尾市,市环保局,115.3653,22.775,2025-04-13T1400,42,156,0.5,4,7,98,91,103,颗粒物(PM10)
汕尾市,市政府,115.3706,22.7898,2025-04-13T1400,34,146,0.4,6,5,92,87,98,颗粒物(PM10)
汕尾市,新城中学,115.3622,22.7925,2025-04-13T1400,40,161,0.5,3,9,95,91,106,颗粒物(PM10)
商洛市,监测站,109.9154,33.8715,2025-04-13T1400,29,93,0.2,3,3,117,77,72,颗粒物(PM10)
商洛市,商州区中学,109.9643,33.8471,2025-04-13T1400,36,143,0.4,2,2,115,63,97,颗粒物(PM10)
商丘市,环境监测站,115.6702,34.4285,2025-04-13T1400,31,155,0.2,8,3,115,86,103,颗粒物(PM10)
商丘市,粮食局,115.6458,34.4045,2025-04-13T1400,46,158,0.1,5,3,101,75,104,颗粒物(PM10)
商丘市,睢阳区环保局,115.6293,34.3948,2025-04-13T1400,28,169,0.2,3,2,105,74,110,颗粒物(PM10)
商丘市,梁园区档案局,115.6071,34.4465,2025-04-13T1400,29,163,0.1,8,3,107,79,107,颗粒物(PM10)
上海市,普陀,121.4,31.238,2025-04-13T1400,3,123,0.5,13,6,105,83,87,颗粒物(PM10)
上海市,十五厂,121.478,31.2036,2025-04-13T1400,19,110,0.5,12,8,108,88,80,颗粒物(PM10)
上海市,虹口,121.467,31.3008,2025-04-13T1400,23,96,0.2,7,10,103,83,73,颗粒物(PM10)
上海市,静安监测站,121.425,31.2261,2025-04-13T1400,15,107,0.5,14,9,106,84,79,颗粒物(PM10)
上海市,浦东川沙,121.703,31.1907,2025-04-13T1400,23,112,0.3,10,7,104,84,81,颗粒物(PM10)
上海市,浦东新区监测站,121.533,31.2284,2025-04-13T1400,18,97,0.4,2,7,103,83,74,颗粒物(PM10)
上海市,浦东张江,121.577,31.2071,2025-04-13T1400,25,117,0.4,9,6,103,83,84,颗粒物(PM10)
上海市,宝山庙行,121.4316,31.3322,2025-04-13T1400,21,115,0.4,11,10,107,89,83,颗粒物(PM10)
上海市,崇明上实东滩,121.8791,31.4662,2025-04-13T1400,20,111,0.3,16,5,113,97,81,颗粒物(PM10)
上海市,嘉定南翔,121.3162,31.2838,2025-04-13T1400,15,100,0.5,15,7,104,85,75,颗粒物(PM10)
上海市,金山新城,121.3359,30.7456,2025-04-13T1400,17,104,0.3,8,5,111,90,77,颗粒物(PM10)
上海市,闵行浦江,121.4996,31.0739,2025-04-13T1400,20,100,0.5,16,6,105,87,75,颗粒物(PM10)
上海市,青浦徐泾,121.2886,31.1663,2025-04-13T1400,18,106,0.4,11,6,107,86,78,颗粒物(PM10)
上海市,松江图书馆,121.2186,31.0378,2025-04-13T1400,20,111,0.5,12,8,111,91,81,颗粒物(PM10)
上海市,长宁仙霞,121.3902,31.2059,2025-04-13T1400,19,104,0.5,17,8,111,88,77,颗粒物(PM10)
上海市,浦东惠南,121.7965,31.0507,2025-04-13T1400,20,106,0.4,13,9,112,90,78,颗粒物(PM10)
上海市,奉贤南桥新城,121.4891,30.925,2025-04-13T1400,27,108,0.5,13,7,111,90,79,颗粒物(PM10)
上海市,冠生园路458号,121.4174,31.16637,2025-04-13T1400,16,94,0.5,14,7,107,85,72,颗粒物(PM10)
上海市,宁武路151号,121.5419,31.2683,2025-04-13T1400,,121,0.3,15,10,104,84,,
上饶市,百草园,118.005,28.4572,2025-04-13T1400,,,,,,,,,
上饶市,市监测站,117.9756,28.4436,2025-04-13T1400,37,186,0.3,5,11,119,73,118,颗粒物(PM10)
上饶市,凤凰光学,117.9519,28.4628,2025-04-13T1400,32,208,0.8,7,13,115,71,129,颗粒物(PM10)
上饶市,双创科技城,117.897,28.4315,2025-04-13T1400,42,193,0.3,9,15,117,68,122,颗粒物(PM10)
上饶市,裕丰大道,118.1904,28.4448,2025-04-13T1400,,,,5,5,110,70,,
韶关市,市八中,113.5824,24.7733,2025-04-13T1400,107,489,0.3,5,6,93,67,387,颗粒物(PM10)
韶关市,园林处,113.5917,24.7972,2025-04-13T1400,101,370,0.3,7,3,91,68,229,颗粒物(PM10)
韶关市,曲江监测站,113.5971,24.6863,2025-04-13T1400,95,417,0.4,9,9,97,62,296,颗粒物(PM10)
韶关市,大学路288号,113.6668,24.7756,2025-04-13T1400,116,427,0.4,6,5,93,60,309,颗粒物(PM10)
韶关市,碧湖山庄,113.5556,24.8082,2025-04-13T1400,109,476,0.3,7,5,92,58,370,颗粒物(PM10)
邵阳市,市水土所,111.5239,27.3033,2025-04-13T1400,,,,,,,,,
邵阳市,市化工厂,111.5283,27.2442,2025-04-13T1400,88,368,0.6,11,7,100,52,226,颗粒物(PM10)
邵阳市,市环保局,111.4328,27.2272,2025-04-13T1400,87,367,0.4,13,14,91,54,225,颗粒物(PM10)
邵阳市,北塔二期4-26地块,111.4460,27.2472,2025-04-13T1400,91,372,0.3,8,14,97,56,232,颗粒物(PM10)
邵阳市,邵水西路287号,111.4739,27.2282,2025-04-13T1400,95,361,0.3,9,9,93,50,216,颗粒物(PM10)
绍兴市,城东开发委,120.6053,29.9928,2025-04-13T1400,22,104,0.2,10,6,111,92,77,颗粒物(PM10)
绍兴市,树下王站,120.5483,30.0003,2025-04-13T1400,18,105,0.4,7,6,105,81,78,颗粒物(PM10)
绍兴市,绍兴中专,120.5683,29.9361,2025-04-13T1400,20,114,0.1,4,6,102,84,82,颗粒物(PM10)
绍兴市,柯桥区政府,120.4906,30.0861,2025-04-13T1400,23,125,0.2,9,6,115,98,88,颗粒物(PM10)
绍兴市,重华小学,120.8752,30.0249,2025-04-13T1400,26,105,0.4,3,7,105,86,78,颗粒物(PM10)
绍兴市,上虞中学,120.8369,30.0137,2025-04-13T1400,24,107,0.3,4,6,107,86,79,颗粒物(PM10)
绍兴市,柯桥妇保,120.4722,30.0415,2025-04-13T1400,20,123,0.2,8,6,109,92,87,颗粒物(PM10)
绍兴市,袍江中学,120.6153,30.0764,2025-04-13T1400,22,105,0.3,10,4,100,79,78,颗粒物(PM10)
深圳市,通心岭子站,114.1063,22.5545,2025-04-13T1400,80,273,0.4,7,6,102,93,162,颗粒物(PM10)
深圳市,洪湖,114.117,22.5625,2025-04-13T1400,65,297,0.4,5,6,103,94,174,颗粒物(PM10)
深圳市,华侨城,113.987,22.5417,2025-04-13T1400,81,321,0.4,11,,109,83,186,颗粒物(PM10)
深圳市,南海子站,113.9181,22.5171,2025-04-13T1400,80,309,0.5,8,6,113,93,180,颗粒物(PM10)
深圳市,盐田,114.2458,22.5689,2025-04-13T1400,82,309,0.4,10,7,91,85,180,颗粒物(PM10)
深圳市,龙岗,114.2283,22.7244,2025-04-13T1400,,,,,,,61,,
深圳市,南澳,114.494,22.5422,2025-04-13T1400,70,268,0.3,7,8,100,94,159,颗粒物(PM10)
深圳市,葵涌,114.41,22.6342,2025-04-13T1400,84,293,0.4,8,7,104,93,172,颗粒物(PM10)
深圳市,梅沙,114.297,22.5978,2025-04-13T1400,87,328,0.4,6,7,105,96,189,颗粒物(PM10)
深圳市,观澜,114.0678,22.738,2025-04-13T1400,81,347,0.5,14,6,94,88,199,颗粒物(PM10)
深圳市,莲花,114.0731,22.559,2025-04-13T1400,71,268,0.7,9,5,100,90,159,颗粒物(PM10)
深圳市,民治,114.0261,22.6198,2025-04-13T1400,88,319,0.3,6,6,102,86,185,颗粒物(PM10)
深圳市,横岗,114.1871,22.6451,2025-04-13T1400,68,309,0.4,8,7,96,86,180,颗粒物(PM10)
深圳市,坪山,114.3551,22.7151,2025-04-13T1400,80,322,0.3,12,7,97,90,186,颗粒物(PM10)
深圳市,西乡,113.8953,22.5861,2025-04-13T1400,71,364,0.5,13,8,116,98,220,颗粒物(PM10)
沈阳市,森林路,123.6836,41.9339,2025-04-13T1400,,,,,,,,,
沈阳市,浑南东路,123.505,41.7406,2025-04-13T1400,13,19,0.4,18,9,60,64,19,
沈阳市,新秀街,123.4231,41.6989,2025-04-13T1400,11,21,0.5,17,12,65,62,21,
沈阳市,东陵路,123.5903,41.8411,2025-04-13T1400,10,27,0.5,18,8,69,68,27,
沈阳市,陵东街,123.4264,41.8467,2025-04-13T1400,9,15,0.4,14,7,72,64,23,
沈阳市,文化路,123.4114,41.7653,2025-04-13T1400,10,20,0.5,14,7,69,66,22,
沈阳市,小河沿,123.4678,41.7867,2025-04-13T1400,10,16,0.4,15,7,69,67,22,
沈阳市,太原街,123.4017,41.7972,2025-04-13T1400,9,19,0.4,23,4,68,69,22,
沈阳市,京沈街,123.3783,41.9228,2025-04-13T1400,9,18,0.5,9,7,75,67,24,
沈阳市,沈辽西路,123.2444,41.7347,2025-04-13T1400,8,22,0.4,11,8,78,72,25,
沈阳市,裕农路,123.5953,41.9086,2025-04-13T1400,8,15,0.4,16,6,75,67,24,
十堰市,武当山,111.0419,32.395,2025-04-13T1400,44,162,0.5,2,8,119,114,106,颗粒物(PM10)
十堰市,滨河新村,110.78,32.6494,2025-04-13T1400,112,260,0.6,4,4,93,59,155,颗粒物(PM10)
十堰市,刘家沟,110.7258,32.6389,2025-04-13T1400,114,302,0.3,4,1,100,67,176,颗粒物(PM10)
十堰市,铁二处,110.8839,32.5714,2025-04-13T1400,58,227,0.7,3,5,102,58,139,颗粒物(PM10)
十堰市,郧阳区金沙路,110.8054,32.8401,2025-04-13T1400,67,227,0.3,2,5,99,70,139,颗粒物(PM10)
石河子市,艾青诗歌馆,86.0497,44.2967,2025-04-13T1400,18,70,0.5,7,8,138,91,60,颗粒物(PM10)
石河子市,南区管委会,86.047,44.2331,2025-04-13T1400,12,72,0.4,18,10,135,94,61,颗粒物(PM10)
石河子市,世纪广场,86.0791,44.3017,2025-04-13T1400,19,92,0.6,14,19,147,87,71,颗粒物(PM10)
石家庄市,职工医院,114.4422,38.0444,2025-04-13T1400,11,20,0.3,5,2,89,71,28,
石家庄市,高新区,114.6063,38.0266,2025-04-13T1400,8,39,0.4,20,3,90,70,39,
石家庄市,西北水源,114.4898,38.1328,2025-04-13T1400,12,28,0.3,2,1,82,70,28,
石家庄市,西南高教,114.4586,38.0058,2025-04-13T1400,17,26,0.3,6,3,91,72,29,
石家庄市,世纪公园,114.5331,38.0178,2025-04-13T1400,13,18,0.3,10,1,83,66,26,
石家庄市,人民会堂,114.509,38.0457,2025-04-13T1400,9,41,0.3,13,3,86,72,41,
石家庄市,封龙山,114.3524,37.8911,2025-04-13T1400,20,53,0.4,15,7,78,80,52,颗粒物(PM10)
石家庄市,22中南校区,114.5481,38.0378,2025-04-13T1400,28,30,0.3,11,1,86,69,40,
石家庄市,鹿泉一中,114.289,38.0906,2025-04-13T1400,28,52,0.4,6,1,89,74,51,颗粒物(PM10)
石家庄市,藁城区实验学校,114.8506765,38.0322033,2025-04-13T1400,61,148,0.2,5,3,90,70,99,颗粒物(PM10)
石家庄市,栾城区星河路,114.6549,37.9020,2025-04-13T1400,8,35,0.5,10,3,96,77,35,
石家庄市,矿区区委大楼,114.0494,38.059,2025-04-13T1400,9,90,0.4,12,9,92,85,70,颗粒物(PM10)
石嘴山市,沙湖旅游区,106.3394,38.817,2025-04-13T1400,,,,,,,,,
石嘴山市,大武口朝阳西街,106.3668,39.0145,2025-04-13T1400,18,39,0.5,3,7,102,96,39,
石嘴山市,惠农南大街,106.7704,39.2282,2025-04-13T1400,20,112,0.3,7,7,104,83,81,颗粒物(PM10)
石嘴山市,红果子镇惠新街,106.7099,39.1325,2025-04-13T1400,12,,0.5,4,,102,60,,
石嘴山市,妇女儿童医院,106.3495,38.9836,2025-04-13T1400,8,31,0.2,2,3,106,88,34,
石嘴山市,石大公路,106.7492,39.2069,2025-04-13T1400,30,74,0.0,5,3,105,102,62,颗粒物(PM10)
双鸭山市,双合村,131.1511,46.6937,2025-04-13T1400,70,112,0.3,18,10,115,100,94,细颗粒物(PM2.5)
双鸭山市,南小市,131.1652,46.6191,2025-04-13T1400,22,80,0.6,7,8,108,112,65,颗粒物(PM10)
双鸭山市,环保局,131.1524,46.6554,2025-04-13T1400,25,64,0.4,13,11,108,104,57,颗粒物(PM10)
双鸭山市,苗圃,131.12,46.5656,2025-04-13T1400,,,,,,,,,
朔州市,平朔,112.4397,39.3522,2025-04-13T1400,6,39,0.6,5,6,88,72,39,
朔州市,朔唯,112.4575,39.3617,2025-04-13T1400,10,44,0.5,3,6,85,69,44,
朔州市,区政府,112.4258,39.3197,2025-04-13T1400,3,45,0.5,4,5,83,67,45,
朔州市,市环保局,112.4072,39.3278,2025-04-13T1400,3,43,0.4,3,4,87,71,43,
朔州市,市二中,112.4272,39.3681,2025-04-13T1400,12,38,0.3,6,5,82,67,38,
朔州市,一水厂,112.2931,39.53,2025-04-13T1400,7,36,0.2,4,5,90,77,36,
四平市,一商场,124.4002,43.1713,2025-04-13T1400,10,11,0.4,11,2,67,65,21,
四平市,境园,124.388,43.193,2025-04-13T1400,9,12,0.8,10,10,68,67,22,
四平市,植物园,124.4036,43.1411,2025-04-13T1400,3,10,0.3,12,2,70,62,22,
四平市,世纪城,124.3419,43.1666,2025-04-13T1400,3,,0.3,,3,71,68,,
松原市,江南,124.8006,45.1214,2025-04-13T1400,19,30,0.4,11,4,100,66,32,
松原市,江北,124.7965,45.1722,2025-04-13T1400,20,24,0.4,12,2,98,68,31,
苏州市,上方山,120.561,31.2472,2025-04-13T1400,,,,,,,,,
苏州市,彩香,120.591,31.3019,2025-04-13T1400,26,127,0.4,8,5,101,89,89,颗粒物(PM10)
苏州市,轧钢厂,120.596,31.3264,2025-04-13T1400,30,151,0.2,7,5,103,90,101,颗粒物(PM10)
苏州市,吴中区,120.613,31.2703,2025-04-13T1400,25,121,0.5,11,4,102,93,86,颗粒物(PM10)
苏州市,苏州新区,120.543,31.2994,2025-04-13T1400,24,136,0.4,13,4,111,99,93,颗粒物(PM10)
苏州市,苏州工业园区,120.669,31.3097,2025-04-13T1400,27,135,0.3,14,8,100,86,93,颗粒物(PM10)
苏州市,相城区,120.641,31.3708,2025-04-13T1400,21,128,0.2,11,4,111,96,89,颗粒物(PM10)
苏州市,方洲路,120.743,31.3188,2025-04-13T1400,22,114,0.2,10,5,109,95,82,颗粒物(PM10)
苏州市,木渎中学,120.5031,31.2774,2025-04-13T1400,23,117,0.4,10,7,115,103,84,颗粒物(PM10)
苏州市,越秀幼儿园,120.624,31.1733,2025-04-13T1400,22,107,0.3,9,5,108,96,79,颗粒物(PM10)
苏州市,高铁新城,120.6505,31.416,2025-04-13T1400,29,170,0.3,14,5,102,84,110,颗粒物(PM10)
宿迁市,宿迁学院,118.293,33.9528,2025-04-13T1400,31,168,0.3,2,4,102,72,109,颗粒物(PM10)
宿迁市,宿迁中学,118.2442,33.9592,2025-04-13T1400,61,152,0.3,,2,103,73,101,颗粒物(PM10)
宿迁市,市供电局,118.283,33.965,2025-04-13T1400,40,152,0.2,5,4,102,75,101,颗粒物(PM10)
宿迁市,宿豫区政府,118.3225,33.9447,2025-04-13T1400,64,184,0.3,4,4,97,68,117,颗粒物(PM10)
宿州市,远航博物馆,116.9509,33.666,2025-04-13T1400,29,174,0.4,5,2,100,78,112,颗粒物(PM10)
宿州市,社会福利中心,116.9708,33.591,2025-04-13T1400,25,182,0.3,8,4,109,80,116,颗粒物(PM10)
宿州市,宿州学院,116.9884,33.6305,2025-04-13T1400,35,178,0.2,8,3,109,83,114,颗粒物(PM10)
宿州市,皖北煤电集团,116.9648,33.6252,2025-04-13T1400,27,159,0.3,7,3,106,79,105,颗粒物(PM10)
绥化市,人和东街,126.9785,46.6365,2025-04-13T1400,14,38,0.5,14,9,105,110,38,
绥化市,党政办公中心,126.964,46.6528,2025-04-13T1400,18,53,0.5,18,8,105,111,52,颗粒物(PM10)
随州市,市委党校,113.3583,31.7275,2025-04-13T1400,49,198,0.5,2,4,102,64,124,颗粒物(PM10)
随州市,市林业局,113.3833,31.6908,2025-04-13T1400,51,174,0.8,6,6,100,64,112,颗粒物(PM10)
随州市,市立交桥水厂,113.3983,31.7308,2025-04-13T1400,52,182,0.6,4,7,100,62,116,颗粒物(PM10)
遂宁市,石溪浩,105.5453,30.5678,2025-04-13T1400,84,392,0.3,10,2,98,56,260,颗粒物(PM10)
遂宁市,市监测站,105.5582,30.5232,2025-04-13T1400,96,424,0.3,12,7,99,64,305,颗粒物(PM10)
遂宁市,行政中心,105.5861,30.5366,2025-04-13T1400,110,408,0.3,11,8,102,65,283,颗粒物(PM10)
遂宁市,美宁食品公司,105.5918,30.4728,2025-04-13T1400,96,413,0.3,6,8,106,62,290,颗粒物(PM10)
塔城地区,东门外小游园,82.9994,46.7432,2025-04-13T1400,19,28,0.0,20,4,107,63,34,
台州市,黄岩环保大楼,121.273,28.6459,2025-04-13T1400,22,115,0.2,4,3,110,90,83,颗粒物(PM10)
台州市,台州环保大楼,121.419,28.6542,2025-04-13T1400,17,100,0.2,5,2,110,91,75,颗粒物(PM10)
台州市,路桥田洋王,121.377,28.5773,2025-04-13T1400,21,126,0.2,7,4,112,89,88,颗粒物(PM10)
台州市,台州科技职业学院,121.2568,28.6681,2025-04-13T1400,20,106,0.4,7,4,104,83,78,颗粒物(PM10)
太原市,尖草坪,112.522,37.8873,2025-04-13T1400,9,50,0.3,6,6,93,86,50,
太原市,上兰,112.434,38.0108,2025-04-13T1400,8,36,0.4,12,5,95,92,36,
太原市,晋源,112.469,37.7124,2025-04-13T1400,15,94,0.2,7,7,100,85,72,颗粒物(PM10)
太原市,小店,112.5583,37.7394,2025-04-13T1400,21,77,0.3,9,4,100,87,64,颗粒物(PM10)
太原市,桃园,112.5369,37.8692,2025-04-13T1400,10,46,0.6,4,7,98,93,46,
太原市,坞城,112.57,37.8195,2025-04-13T1400,,79,0.4,6,2,100,93,,
太原市,南寨,112.549,37.9854,2025-04-13T1400,10,69,0.3,7,5,97,90,60,颗粒物(PM10)
太原市,金胜,112.4719,37.7831,2025-04-13T1400,9,116,0.4,5,5,92,80,83,颗粒物(PM10)
太原市,育英中学,112.5608,37.8807,2025-04-13T1400,19,66,0.6,8,10,96,90,58,颗粒物(PM10)
泰安市,监测站,117.1437,36.1937,2025-04-13T1400,36,68,0.5,10,10,104,85,59,颗粒物(PM10)
泰安市,人口学校,117.0885,36.2017,2025-04-13T1400,19,70,0.2,7,9,90,75,60,颗粒物(PM10)
泰安市,电力学校,117.1089,36.1758,2025-04-13T1400,20,44,0.3,4,6,96,76,44,
泰安市,国网新校,117.1812,36.2275,2025-04-13T1400,3,39,0.5,4,4,103,86,39,
泰安市,交通技校,117.0313,36.2018,2025-04-13T1400,20,49,0.4,10,7,101,82,49,
泰安市,山东第一医科大学,117.0829,36.13,2025-04-13T1400,9,56,0.5,2,8,102,80,53,颗粒物(PM10)
泰州市,公园路,119.905,32.4878,2025-04-13T1400,17,114,0.4,9,6,109,89,82,颗粒物(PM10)
泰州市,莲花,119.9189,32.4625,2025-04-13T1400,17,139,0.8,11,8,111,90,95,颗粒物(PM10)
泰州市,留学生创业园,119.888,32.4639,2025-04-13T1400,,,,,,,95,,
泰州市,王营,119.8767,32.3289,2025-04-13T1400,17,135,0.3,14,10,102,81,93,颗粒物(PM10)
泰州市,姜堰区政府广场,120.1259,32.5099,2025-04-13T1400,22,113,0.3,6,9,107,87,82,颗粒物(PM10)
泰州市,周山河街区,119.9192,32.4322,2025-04-13T1400,19,108,0.3,8,7,109,89,79,颗粒物(PM10)
唐山市,物资局,118.1725,39.6334,2025-04-13T1400,16,69,0.3,2,3,89,83,60,颗粒物(PM10)
唐山市,十二中,118.1705,39.6506,2025-04-13T1400,12,76,0.2,2,3,86,80,63,颗粒物(PM10)
唐山市,小山,118.1869,39.622,2025-04-13T1400,13,76,0.2,2,1,88,82,63,颗粒物(PM10)
唐山市,冀东油田职工医院,118.4359,39.2762,2025-04-13T1400,,,0.3,,,88,80,,
唐山市,正泰大街热力站,118.09279,39.58089,2025-04-13T1400,19,61,0.6,2,2,83,76,56,颗粒物(PM10)
唐山市,丰润区政府,118.1562,39.8322,2025-04-13T1400,10,67,0.2,2,5,82,77,59,颗粒物(PM10)
唐山市,金山小学,118.43673,39.73809,2025-04-13T1400,9,56,0.4,2,2,88,81,53,颗粒物(PM10)
唐山市,政府服务中心,118.24498,39.66941,2025-04-13T1400,3,48,0.2,1,3,87,81,48,
唐山市,消防缸窑路中队,118.2059,39.6585,2025-04-13T1400,15,71,0.3,4,5,87,80,61,颗粒物(PM10)
唐山市,路南电大,118.1436,39.6202,2025-04-13T1400,13,65,0.2,5,2,88,82,58,颗粒物(PM10)
唐山市,友谊北路34号,118.1309,39.6360,2025-04-13T1400,19,53,0.3,5,2,88,81,52,颗粒物(PM10)
天津市,勤俭道,117.1444,39.1661,2025-04-13T1400,24,127,0.3,7,4,86,78,89,颗粒物(PM10)
天津市,前进道,117.202,39.0927,2025-04-13T1400,26,123,0.3,7,4,104,94,87,颗粒物(PM10)
天津市,淮河道,117.1837,39.2133,2025-04-13T1400,24,140,0.3,6,4,97,90,95,颗粒物(PM10)
天津市,跃进路,117.3083,39.0884,2025-04-13T1400,18,144,0.4,7,4,102,94,97,颗粒物(PM10)
天津市,第四大街,117.707,39.0343,2025-04-13T1400,14,64,0.4,4,4,93,87,57,颗粒物(PM10)
天津市,永明路,117.457,38.8394,2025-04-13T1400,,,,,,,79,,
天津市,汉北路,117.764,39.1587,2025-04-13T1400,17,120,0.1,6,4,95,89,85,颗粒物(PM10)
天津市,团泊洼,117.157,38.9194,2025-04-13T1400,,,,,,,,,
天津市,河西一经路,117.7918,39.2474,2025-04-13T1400,18,133,0.3,8,4,94,87,92,颗粒物(PM10)
天津市,津沽路,117.3747,38.9846,2025-04-13T1400,22,126,0.1,3,2,96,87,88,颗粒物(PM10)
天津市,宾水西道,117.1589,39.0845,2025-04-13T1400,15,118,0.3,5,3,96,91,84,颗粒物(PM10)
天津市,大理道,117.1941,39.1067,2025-04-13T1400,18,85,0.3,3,3,100,90,68,颗粒物(PM10)
天津市,中山北路,117.2101,39.1699,2025-04-13T1400,31,152,0.4,11,4,92,84,101,颗粒物(PM10)
天津市,西四道,117.3876,39.1488,2025-04-13T1400,20,107,0.3,6,5,94,86,79,颗粒物(PM10)
天津市,雍阳西道,117.0365,39.3828,2025-04-13T1400,38,162,0.4,8,3,83,81,106,颗粒物(PM10)
天津市,辛老路,117.0296,39.0605,2025-04-13T1400,12,100,0.8,4,4,95,82,75,颗粒物(PM10)
天津市,地纬路,116.9638,38.9375,2025-04-13T1400,11,73,0.2,4,6,97,85,62,颗粒物(PM10)
天津市,北环路,117.4067,40.0583,2025-04-13T1400,10,91,0.4,3,3,85,81,71,颗粒物(PM10)
天津市,建设路,117.3045,39.7169,2025-04-13T1400,17,103,0.2,6,4,88,84,77,颗粒物(PM10)
天津市,滨水东路,117.8199,39.3521,2025-04-13T1400,12,111,0.1,5,6,87,82,81,颗粒物(PM10)
天津市,光华路,117.2437,39.1029,2025-04-13T1400,29,121,0.6,2,4,113,103,86,颗粒物(PM10)
天水市,麦积山,106.0055,34.343,2025-04-13T1400,,,,,,,,,
天水市,公园小学,105.7205,34.5786,2025-04-13T1400,28,107,0.3,5,9,108,64,79,颗粒物(PM10)
天水市,麦积国土局,105.8945,34.5538,2025-04-13T1400,22,88,0.4,9,11,112,60,69,颗粒物(PM10)
铁岭市,汇工街西,123.8139,42.3022,2025-04-13T1400,10,26,0.3,3,7,77,69,26,
铁岭市,水上乐园,123.8649,42.2923,2025-04-13T1400,7,20,0.4,10,3,64,58,20,
铁岭市,银州路东段,123.8486,42.2867,2025-04-13T1400,10,20,0.3,10,5,70,62,22,
铁岭市,金沙江路北,123.7153,42.2217,2025-04-13T1400,14,24,0.4,11,,74,64,,
通化市,光明,125.9358,41.7173,2025-04-13T1400,3,6,0.7,9,8,78,79,25,
通化市,铁路,125.9446,41.7325,2025-04-13T1400,3,6,0.4,8,6,76,78,24,
通辽市,艺术职业学校,122.2532,43.6801,2025-04-13T1400,3,15,0.3,4,8,68,68,22,
通辽市,老干部活动中心,122.2584,43.6333,2025-04-13T1400,17,23,0.2,9,2,69,69,25,
通辽市,东方明珠社区,122.2922,43.6189,2025-04-13T1400,27,,0.3,7,6,67,65,39,
铜川市,党校,109.0656,35.0994,2025-04-13T1400,,,,,,,,,
铜川市,王益区政府,109.0697,35.0697,2025-04-13T1400,27,112,0.4,2,4,112,73,81,颗粒物(PM10)
铜川市,新区管委会,108.9344,34.9058,2025-04-13T1400,,,0.4,2,5,106,79,,
铜川市,大唐三路,108.9497,34.8705,2025-04-13T1400,29,102,0.4,2,3,110,83,76,颗粒物(PM10)
铜陵市,市第四中学,117.8177,30.9412,2025-04-13T1400,49,255,0.4,7,10,112,82,153,颗粒物(PM10)
铜陵市,市公路局,117.8059,30.9273,2025-04-13T1400,48,286,0.5,8,8,108,83,168,颗粒物(PM10)
铜陵市,市新民污水厂,117.7807,30.9413,2025-04-13T1400,41,198,0.6,12,11,110,81,124,颗粒物(PM10)
铜陵市,市第九中学,117.7439,30.8792,2025-04-13T1400,58,289,0.5,19,7,106,76,170,颗粒物(PM10)
铜陵市,车站新区,117.846,30.9413,2025-04-13T1400,45,256,0.5,10,9,99,74,153,颗粒物(PM10)
铜陵市,市职教基地,117.8483,30.97,2025-04-13T1400,42,216,0.5,11,9,108,81,133,颗粒物(PM10)
铜仁市,铜仁卫校,109.1839,27.7344,2025-04-13T1400,52,250,0.2,7,5,101,47,150,颗粒物(PM10)
铜仁市,铜仁七中,109.1753,27.6944,2025-04-13T1400,,,0.2,6,7,111,62,,
吐鲁番市,市环保局,89.1904,42.9418,2025-04-13T1400,18,63,0.5,15,8,99,78,57,颗粒物(PM10)
吐鲁番市,地区环保局,89.1673,42.9559,2025-04-13T1400,14,59,0.5,11,8,104,77,55,颗粒物(PM10)
威海市,华夏技校,122.1214,37.4236,2025-04-13T1400,9,75,0.1,6,4,94,83,63,颗粒物(PM10)
威海市,山大分校,122.0508,37.5236,2025-04-13T1400,10,44,0.2,2,7,104,92,44,
威海市,市监测站,122.1067,37.5072,2025-04-13T1400,20,,0.0,10,3,90,80,,
威海市,文登开发区,122.0693,37.2174,2025-04-13T1400,12,44,0.2,8,4,90,78,44,
威海市,临港区管委会,122.1379,37.3414,2025-04-13T1400,14,39,0.3,5,6,91,79,39,
潍坊市,环保局,119.1437,36.7023,2025-04-13T1400,7,66,0.1,6,9,105,86,58,颗粒物(PM10)
潍坊市,坊子邮政,119.1641,36.6523,2025-04-13T1400,17,100,0.5,9,8,97,84,75,颗粒物(PM10)
潍坊市,潍坊七中,119.0587,36.721,2025-04-13T1400,7,58,0.5,2,7,108,88,54,颗粒物(PM10)
潍坊市,高新实验学校,119.1977,36.6872,2025-04-13T1400,10,70,0.3,6,2,105,87,60,颗粒物(PM10)
潍坊市,潍坊学院,119.1755,36.7149,2025-04-13T1400,10,58,0.2,9,4,110,91,54,颗粒物(PM10)
潍坊市,寒亭区实验一小,119.2041,36.7699,2025-04-13T1400,19,88,0.4,4,3,105,86,69,颗粒物(PM10)
渭南市,农科所,109.5293,34.5101,2025-04-13T1400,,,,,,,,,
渭南市,体育馆,109.4636,34.493,2025-04-13T1400,29,202,0.6,12,4,109,63,126,颗粒物(PM10)
渭南市,高新一小,109.4259,34.5023,2025-04-13T1400,44,167,0.3,12,4,109,63,109,颗粒物(PM10)
渭南市,渭花路4号,109.5051,34.4921,2025-04-13T1400,66,166,0.3,12,3,108,70,108,颗粒物(PM10)
温州市,瓯海,120.634,28.0089,2025-04-13T1400,18,89,0.4,10,7,104,91,70,颗粒物(PM10)
温州市,南浦,120.6748,27.9939,2025-04-13T1400,18,85,0.1,7,6,112,102,68,颗粒物(PM10)
温州市,龙湾,120.76,27.9747,2025-04-13T1400,22,76,0.2,13,6,105,85,63,颗粒物(PM10)
温州市,市站,120.6709,28.0167,2025-04-13T1400,29,76,0.3,5,4,102,93,63,颗粒物(PM10)
温州市,茶山,120.6985,27.9251,2025-04-13T1400,25,94,0.2,9,6,113,92,72,颗粒物(PM10)
文山壮族苗族自治州,州水务局,104.2533,23.3594,2025-04-13T1400,55,176,0.3,8,7,100,78,113,颗粒物(PM10)
文山壮族苗族自治州,市便民服务中心,104.2319,23.3892,2025-04-13T1400,60,165,0.2,10,11,101,76,108,颗粒物(PM10)
乌海市,市林业局,106.8174,39.6973,2025-04-13T1400,14,41,0.3,3,8,112,89,41,
乌海市,中海勃湾学校,106.7907,39.6667,2025-04-13T1400,9,45,0.5,2,8,111,94,45,
乌海市,海北新区,106.813,39.7274,2025-04-13T1400,3,35,0.2,3,10,113,92,36,
乌海市,聚英学校,106.8288,39.6778,2025-04-13T1400,8,47,0.4,23,13,102,87,47,
乌兰察布市,集宁新区,113.1306,40.9923,2025-04-13T1400,18,43,0.2,3,6,85,85,43,
乌兰察布市,光明街小学,113.1076,41.0385,2025-04-13T1400,16,43,0.3,4,9,86,80,43,
乌兰察布市,北京八中,113.1376,40.9509,2025-04-13T1400,3,35,0.3,2,14,92,86,35,
乌兰察布市,市委党校,113.1775,40.9779,2025-04-13T1400,16,26,0.2,1,8,92,88,29,
乌鲁木齐市,监测站,87.5801,43.8303,2025-04-13T1400,3,63,0.2,12,2,109,108,57,颗粒物(PM10)
乌鲁木齐市,收费所,87.6046,43.768,2025-04-13T1400,6,44,0.2,8,2,103,104,44,
乌鲁木齐市,新疆农科院农场,87.4754,43.9469,2025-04-13T1400,33,,0.5,9,6,106,86,,
乌鲁木齐市,铁路局,87.5525,43.8711,2025-04-13T1400,16,85,0.1,13,1,115,115,68,颗粒物(PM10)
乌鲁木齐市,三十一中学,87.6432,43.831,2025-04-13T1400,16,120,0.3,1,8,107,110,85,颗粒物(PM10)
乌鲁木齐市,米东区环保局,87.7216,44.1747,2025-04-13T1400,14,75,0.3,9,6,78,37,63,颗粒物(PM10)
乌鲁木齐市,培训基地,87.4651,43.4569,2025-04-13T1400,14,88,0.4,5,3,108,101,69,颗粒物(PM10)
乌鲁木齐市,达坂城区环保局,88.3118,43.3658,2025-04-13T1400,9,36,0.3,4,8,104,86,36,
乌鲁木齐市,红光山片区,87.6162,43.8801,2025-04-13T1400,17,121,0.2,6,4,111,110,86,颗粒物(PM10)
乌鲁木齐市,新师大温泉校区,87.7024,43.8004,2025-04-13T1400,28,70,0.2,2,2,,117,,
乌鲁木齐市,大绿谷,87.4921,43.8411,2025-04-13T1400,11,68,0.2,13,2,111,111,59,颗粒物(PM10)
无锡市,雪浪,120.269,31.4867,2025-04-13T1400,19,136,0.7,5,8,114,96,93,颗粒物(PM10)
无锡市,黄巷,120.275,31.6219,2025-04-13T1400,22,161,0.5,11,8,113,89,106,颗粒物(PM10)
无锡市,曹张,120.294,31.56,2025-04-13T1400,17,119,0.7,12,7,108,87,85,颗粒物(PM10)
无锡市,漆塘,120.242,31.5031,2025-04-13T1400,53,141,0.2,10,7,115,98,96,颗粒物(PM10)
无锡市,东亭,120.3489,31.5863,2025-04-13T1400,17,180,0.5,11,7,116,96,115,颗粒物(PM10)
无锡市,旺庄,120.354,31.5475,2025-04-13T1400,22,134,1.2,9,4,112,93,92,颗粒物(PM10)
无锡市,荣巷,120.245,31.5631,2025-04-13T1400,31,158,0.5,9,6,110,92,104,颗粒物(PM10)
无锡市,堰桥,120.299,31.6817,2025-04-13T1400,41,173,0.8,7,7,113,89,112,颗粒物(PM10)
无锡市,华庄,120.3142,31.4753,2025-04-13T1400,27,130,0.4,11,7,111,94,90,颗粒物(PM10)
吴忠市,教育园区,106.1532,37.9648,2025-04-13T1400,20,163,0.2,2,3,101,80,107,颗粒物(PM10)
吴忠市,新区二泵站,106.1856,37.9956,2025-04-13T1400,24,120,0.2,4,5,103,86,85,颗粒物(PM10)
吴忠市,文卫南街,106.2112,37.9768,2025-04-13T1400,13,89,0.1,5,3,101,82,70,颗粒物(PM10)
芜湖市,监测站,118.3606,31.3519,2025-04-13T1400,52,209,0.6,15,8,107,87,130,颗粒物(PM10)
芜湖市,科创中心,118.3714,31.4134,2025-04-13T1400,40,431,0.4,12,9,114,96,314,颗粒物(PM10)
芜湖市,四水厂,118.3673,31.3131,2025-04-13T1400,39,164,0.4,13,5,109,91,107,颗粒物(PM10)
芜湖市,市气象局,118.4209,31.3707,2025-04-13T1400,44,173,0.6,6,8,110,91,112,颗粒物(PM10)
芜湖市,清苑社区,118.4781,31.3225,2025-04-13T1400,35,169,0.3,6,7,117,92,110,颗粒物(PM10)
芜湖市,扬子职业技术学院,118.2746,31.2326,2025-04-13T1400,31,163,0.4,4,7,111,92,107,颗粒物(PM10)
梧州市,市逸夫小学,111.3014,23.4832,2025-04-13T1400,84,390,0.1,16,9,83,56,258,颗粒物(PM10)
梧州市,市十一中,111.3239,23.4794,2025-04-13T1400,88,390,0.0,6,9,97,54,258,颗粒物(PM10)
梧州市,龙新,111.2711,23.4835,2025-04-13T1400,78,455,0,10,11,86,61,344,颗粒物(PM10)
梧州市,政贤路18号,111.2419,23.4154,2025-04-13T1400,91,431,0.2,16,8,82,68,314,颗粒物(PM10)
五家渠市,农水大厦,87.5475,44.1756,2025-04-13T1400,17,142,0.2,6,4,104,42,96,颗粒物(PM10)
五家渠市,经开区管委会,87.546,44.1912,2025-04-13T1400,40,119,0.3,18,8,84,37,85,颗粒物(PM10)
