area,positionname,longitude,latitude,timepoint,pm2_5,pm10,co,no2,so2,o3,o3_8h,aqi,primarypollutant
阿坝藏族羌族自治州,州农科所,102.1879,31.914,2025-05-19T1400,3,9,0.7,3,11,95,60,30,
阿坝藏族羌族自治州,马师校,102.2502,31.8896,2025-05-19T1400,3,9,0.4,6,5,99,54,31,
阿坝藏族羌族自治州,马尔康中学西区,102.2165,31.9024,2025-05-19T1400,3,11,0.9,2,5,102,60,32,
阿克苏地区,电视台,80.292,41.1694,2025-05-19T1400,30,45,0.2,12,8,130,126,45,
阿克苏地区,艺术中心,80.2613,41.1551,2025-05-19T1400,20,62,0.2,5,4,121,118,56,颗粒物(PM10)
阿拉善盟,西城区西花园,105.6467,38.8363,2025-05-19T1400,21,23,0.7,6,5,139,127,44,
阿拉善盟,蒙二幼,105.6985,38.8411,2025-05-19T1400,9,34,0.4,6,8,119,108,38,
阿拉善盟,环保局新楼,105.724,38.8516,2025-05-19T1400,28,,,3,8,124,114,,
阿勒泰地区,市站,88.1264,47.8517,2025-05-19T1400,3,28,0.2,1,1,103,112,33,
阿里地区,阿里监测站,80.1161,32.5,2025-05-19T1400,6,14,0.4,2,5,135,117,43,
阿里地区,阿里藏医院,80.0903,32.5028,2025-05-19T1400,8,25,0.4,1,6,141,114,45,
安康市,香溪洞,109.0318,32.6537,2025-05-19T1400,49,85,0.3,6,8,150,105,68,"颗粒物(PM10),细颗粒物(PM2.5)"
安康市,汉滨区检察院,109.0072,32.6975,2025-05-19T1400,40,80,0.5,6,10,160,103,65,颗粒物(PM10)
安康市,市邮政管理局,109.0325,32.6913,2025-05-19T1400,46,83,0.5,7,8,138,92,67,颗粒物(PM10)
安庆市,环科院,117.0809,30.5177,2025-05-19T1400,36,56,0.7,7,3,143,88,53,颗粒物(PM10)
安庆市,马山宾馆,117.0331,30.5119,2025-05-19T1400,28,48,0.8,8,5,143,81,48,
安庆市,安庆大学,116.9896,30.6145,2025-05-19T1400,24,40,0.3,8,5,142,90,45,
安庆市,市人大,117.0598,30.5351,2025-05-19T1400,30,49,0.5,6,8,155,98,49,
安顺市,伍家关,105.9606,26.2611,2025-05-19T1400,38,47,0.4,8,4,114,79,54,细颗粒物(PM2.5)
安顺市,凤凰山,105.9408,26.2431,2025-05-19T1400,45,58,0.7,8,8,116,76,63,细颗粒物(PM2.5)
安顺市,金钟山,105.9439,26.2564,2025-05-19T1400,45,58,0.5,6,6,114,80,63,细颗粒物(PM2.5)
安顺市,娄家坡,105.8983,26.2481,2025-05-19T1400,48,55,0.6,6,8,110,81,67,细颗粒物(PM2.5)
安阳市,棉研所,114.4839,36.0621,2025-05-19T1400,,,,,,,,,
安阳市,红庙街,114.3551,36.1017,2025-05-19T1400,80,152,0.6,2,6,189,141,107,细颗粒物(PM2.5)
安阳市,银杏小区,114.361,36.0681,2025-05-19T1400,99,207,,21,11,175,132,130,细颗粒物(PM2.5)
安阳市,信访局,114.3922,36.0878,2025-05-19T1400,46,199,0.5,13,6,191,131,125,颗粒物(PM10)
安阳市,左辅环卫站,114.4705,36.0637,2025-05-19T1400,60,170,0.6,12,7,196,135,110,颗粒物(PM10)
安阳市,安钢职工学校,114.2917,36.0949,2025-05-19T1400,34,156,0.4,3,8,170,128,103,颗粒物(PM10)
鞍山市,深沟寺,123.044,41.1196,2025-05-19T1400,31,54,0.8,12,10,146,111,52,颗粒物(PM10)
鞍山市,太阳城,123.011,41.0931,2025-05-19T1400,29,60,0.8,13,11,136,107,55,颗粒物(PM10)
鞍山市,太平,123.0485,41.1442,2025-05-19T1400,32,76,0.9,13,12,142,110,63,颗粒物(PM10)
鞍山市,铁西三道街,122.9642,41.0971,2025-05-19T1400,37,66,0.9,17,8,139,106,58,颗粒物(PM10)
鞍山市,明达新区,123.022,41.0821,2025-05-19T1400,35,54,0.7,10,10,137,108,52,颗粒物(PM10)
鞍山市,千山,123.1289,41.0228,2025-05-19T1400,,,,,,,74,,
鞍山市,兴盛南路290号,122.9446,41.0826,2025-05-19T1400,38,72,0.7,15,9,140,106,61,颗粒物(PM10)
巴彦淖尔市,附二中,107.4212,40.761,2025-05-19T1400,20,42,0.5,16,4,110,83,42,
巴彦淖尔市,市环保大楼,107.37,40.7372,2025-05-19T1400,17,53,0.1,26,5,108,86,52,颗粒物(PM10)
巴音郭楞蒙古自治州,孔雀公园,86.1472,41.7538,2025-05-19T1400,27,245,0.2,8,7,100,82,148,颗粒物(PM10)
巴音郭楞蒙古自治州,棉纺厂,86.1972,41.7166,2025-05-19T1400,14,113,0.2,8,3,100,93,82,颗粒物(PM10)
巴音郭楞蒙古自治州,经济开发区,86.2357,41.7173,2025-05-19T1400,14,97,0.3,7,9,103,104,74,颗粒物(PM10)
巴中市,苏山坪,106.7677,31.8794,2025-05-19T1400,58,84,0.6,8,4,165,128,79,细颗粒物(PM2.5)
巴中市,市五中,106.7768,31.8526,2025-05-19T1400,56,82,0.7,7,7,170,109,77,细颗粒物(PM2.5)
巴中市,圣泉水务公司,106.7418,31.8654,2025-05-19T1400,62,83,0.8,8,9,177,110,84,细颗粒物(PM2.5)
巴中市,市中心医院,106.7616,31.8344,2025-05-19T1400,66,83,0.7,7,6,165,103,89,细颗粒物(PM2.5)
白城市,洮北区环保局,122.7911,45.6077,2025-05-19T1400,9,23,0.3,7,3,86,78,27,
白城市,市环保局,122.8738,45.5725,2025-05-19T1400,12,,0.4,3,1,86,78,,
白山市,喜丰,126.4219,41.9171,2025-05-19T1400,7,21,0.7,8,6,97,99,31,
白山市,环保局,126.4077,41.9419,2025-05-19T1400,8,28,0.7,7,3,96,101,30,
白银市,第三小学,104.1724,36.5446,2025-05-19T1400,20,49,0.4,3,13,146,91,49,
白银市,动力公司,104.1465,36.5482,2025-05-19T1400,23,53,0.4,6,14,149,100,52,颗粒物(PM10)
百色市,市监测站,106.6103,23.9011,2025-05-19T1400,20,37,0.7,4,4,79,46,37,
百色市,市中心血站,106.6538,23.8859,2025-05-19T1400,22,43,0.6,6,4,89,53,43,
百色市,祈福高中,106.6085,23.8798,2025-05-19T1400,20,44,0.5,4,5,76,41,44,
蚌埠市,工人疗养院,117.396,32.939,2025-05-19T1400,32,97,0.3,5,4,168,138,74,颗粒物(PM10)
蚌埠市,百货大楼,117.3605,32.9427,2025-05-19T1400,32,93,0.3,9,7,177,140,72,"颗粒物(PM10),臭氧1小时"
蚌埠市,蚌埠学院,117.4185,32.8911,2025-05-19T1400,28,80,0.4,3,3,161,137,65,颗粒物(PM10)
蚌埠市,淮上区政府,117.3533,32.9673,2025-05-19T1400,41,92,0.5,8,6,192,152,90,臭氧1小时
蚌埠市,高新区,117.3145,32.8977,2025-05-19T1400,32,95,0.5,9,5,171,138,73,颗粒物(PM10)
蚌埠市,蚌埠田家炳中学,117.3092,32.9314,2025-05-19T1400,36,103,0.4,9,7,189,142,87,臭氧1小时
包头市,市环境监测站,109.8756,40.6532,2025-05-19T1400,24,62,1.1,18,33,138,83,56,颗粒物(PM10)
包头市,包头八中,109.9991,40.5842,2025-05-19T1400,32,45,0.7,11,14,124,66,46,
包头市,青山宾馆,109.8538,40.6821,2025-05-19T1400,42,68,1.8,27,37,146,91,59,"颗粒物(PM10),细颗粒物(PM2.5)"
包头市,惠龙物流,109.8642,40.6288,2025-05-19T1400,15,50,0.8,15,24,136,77,50,
包头市,东河鸿龙湾,110.0377,40.5546,2025-05-19T1400,23,54,0.5,7,8,120,70,52,颗粒物(PM10)
包头市,滨河大厦,109.9154,40.5685,2025-05-19T1400,21,48,0.5,7,10,132,75,48,
包头市,包头市委党校,109.9447,40.6261,2025-05-19T1400,16,118,0.8,,17,126,66,,
包头市,昆区政府,109.8331,40.6576,2025-05-19T1400,27,70,1.5,24,31,134,88,60,颗粒物(PM10)
宝鸡市,庙沟村,107.185,34.3063,2025-05-19T1400,46,63,0.4,7,8,158,136,64,细颗粒物(PM2.5)
宝鸡市,竹园沟,107.0708,34.3017,2025-05-19T1400,25,53,0.3,4,4,133,125,52,颗粒物(PM10)
宝鸡市,三陆医院,107.1906,34.3672,2025-05-19T1400,30,81,0.4,7,6,140,89,66,颗粒物(PM10)
宝鸡市,监测站,107.1431,34.3547,2025-05-19T1400,36,72,0.3,8,5,132,53,61,颗粒物(PM10)
宝鸡市,技工学校,107.1186,34.3739,2025-05-19T1400,28,88,0.5,4,5,136,104,69,颗粒物(PM10)
宝鸡市,陈仓区环保局家属楼,107.3906,34.3528,2025-05-19T1400,35,67,0.4,5,5,152,114,59,颗粒物(PM10)
宝鸡市,文理学院,107.2058,34.3497,2025-05-19T1400,43,154,0.4,5,7,145,98,102,颗粒物(PM10)
宝鸡市,三迪小学,107.2386,34.3622,2025-05-19T1400,37,81,0.4,7,6,142,,66,颗粒物(PM10)
保定市,游泳馆,115.493,38.8632,2025-05-19T1400,59,143,0.4,22,8,223,149,112,臭氧1小时
保定市,华电二区,115.5213,38.8959,2025-05-19T1400,49,88,0.5,13,6,221,140,111,臭氧1小时
保定市,接待中心,115.4713,38.9108,2025-05-19T1400,51,89,0.5,20,3,228,147,114,臭氧1小时
保定市,地表水厂,115.4612,38.8416,2025-05-19T1400,41,118,0.5,26,6,223,146,112,臭氧1小时
保定市,满城区生态环境分局,115.31981,38.95208,2025-05-19T1400,46,122,0.5,15,7,232,162,116,臭氧1小时
保定市,清苑区第二中学,115.47694,38.76408,2025-05-19T1400,42,119,0.4,8,6,211,140,106,臭氧1小时
保定市,徐水物探局,115.62909,39.02311,2025-05-19T1400,41,109,0.4,13,5,201,122,101,臭氧1小时
保定市,双鹰农机,115.4202,38.8656,2025-05-19T1400,36,109,0.4,16,5,236,153,118,臭氧1小时
保定市,植保所站,115.5150,38.8590,2025-05-19T1400,45,120,0.6,14,3,218,141,109,臭氧1小时
保山市,市环境监测站,99.1678,25.1081,2025-05-19T1400,19,40,0.4,5,7,105,83,40,
保山市,市环保局,99.1711,25.1328,2025-05-19T1400,17,42,0.3,4,7,113,90,42,
北海市,牛尾岭水库,109.2262,21.588,2025-05-19T1400,,,,,,,,,
北海市,海滩公园,109.1436,21.4086,2025-05-19T1400,17,24,0.9,4,5,58,36,25,
北海市,新市环保局,109.0981,21.4661,2025-05-19T1400,9,21,0.4,5,3,70,44,22,
北海市,北海工业园,109.1778,21.5233,2025-05-19T1400,15,24,0.4,4,7,71,42,24,
北海市,龙潭自来水厂,109.1911,21.4415,2025-05-19T1400,18,,0.3,3,3,64,39,26,
北京市,万寿西宫,116.3621,39.8784,2025-05-19T1400,21,40,0.7,18,5,197,107,97,臭氧1小时
北京市,定陵,116.2202,40.2915,2025-05-19T1400,,,,,,,,,
北京市,东四,116.4174,39.9289,2025-05-19T1400,22,43,0.4,17,4,199,104,99,臭氧1小时
北京市,天坛,116.4072,39.8863,2025-05-19T1400,18,51,0.5,16,3,192,102,90,臭氧1小时
北京市,农展馆,116.462,39.9365,2025-05-19T1400,26,52,0.6,17,5,184,96,80,臭氧1小时
北京市,官园,116.3392,39.9295,2025-05-19T1400,21,54,0.4,18,7,185,102,82,臭氧1小时
北京市,海淀万柳,116.2878,39.9611,2025-05-19T1400,24,50,0.5,20,6,184,96,80,臭氧1小时
北京市,顺义新城,116.6636,40.135,2025-05-19T1400,14,41,0.4,24,6,146,91,46,
北京市,怀柔镇,116.6275,40.3275,2025-05-19T1400,15,39,0.7,2,4,153,92,48,
北京市,昌平镇,116.2296,40.217,2025-05-19T1400,13,36,0.4,20,4,146,79,46,
北京市,奥体中心,116.3966,39.9821,2025-05-19T1400,19,43,0.3,19,4,164,94,55,臭氧1小时
北京市,延庆夏都,115.9718,40.4529,2025-05-19T1400,6,9,0.4,8,4,113,74,36,
北京市,密云新城,116.8336,40.4095,2025-05-19T1400,19,50,0.4,13,2,158,112,50,
北京市,门头沟三家店,116.088,39.9726,2025-05-19T1400,20,52,0.6,14,2,197,109,97,臭氧1小时
北京市,丰台云岗,116.1541,39.8204,2025-05-19T1400,23,48,0.4,14,5,200,129,100,臭氧1小时
北京市,通州东关,116.6804,39.9081,2025-05-19T1400,24,52,0.5,8,4,203,116,102,臭氧1小时
北京市,房山燕山,115.9577,39.7603,2025-05-19T1400,28,57,0.6,17,4,215,132,108,臭氧1小时
北京市,大兴旧宫,116.4672,39.7733,2025-05-19T1400,20,52,0.7,14,2,195,103,94,臭氧1小时
北京市,延庆石河营,115.986,40.4563,2025-05-19T1400,3,11,0.4,10,2,109,73,35,
北京市,怀柔新城,116.6151,40.3053,2025-05-19T1400,16,38,0.5,11,2,151,101,48,
北京市,丰台小屯,116.2545,39.8768,2025-05-19T1400,16,39,0.4,9,3,172,106,65,臭氧1小时
北京市,密云镇,116.84,40.3844,2025-05-19T1400,18,32,0.4,7,7,162,110,53,臭氧1小时
北京市,八角北路9号,116.1942,39.9158,2025-05-19T1400,22,50,0.4,16,3,180,111,75,臭氧1小时
北京市,洳河巡河路,117.0790,40.1518,2025-05-19T1400,19,56,0.4,7,18,168,115,60,臭氧1小时
本溪市,大峪,123.8275,41.3064,2025-05-19T1400,15,38,0.6,8,5,116,98,38,
本溪市,溪湖,123.7567,41.3325,2025-05-19T1400,20,34,0.8,9,4,97,93,34,
本溪市,彩屯,123.7169,41.3094,2025-05-19T1400,30,44,1.4,18,18,89,89,44,
本溪市,东明,123.7669,41.2864,2025-05-19T1400,25,35,0.6,9,7,99,104,36,
本溪市,新立屯,123.7992,41.2664,2025-05-19T1400,24,42,0.6,9,5,106,98,42,
本溪市,威宁,123.8142,41.3472,2025-05-19T1400,,,,,,,88,,
毕节市,八中,105.2864,27.3125,2025-05-19T1400,10,18,0.5,6,7,88,55,28,
毕节市,师专,105.31,27.2944,2025-05-19T1400,10,18,0.4,7,4,88,54,28,
毕节市,工业大道,105.3688,27.3598,2025-05-19T1400,8,16,0.6,9,8,96,54,30,
滨州市,第二水厂,118.0018,37.3617,2025-05-19T1400,,168,0.4,12,10,171,111,109,颗粒物(PM10)
滨州市,北中新校,117.9776,37.393,2025-05-19T1400,56,127,0.4,8,14,190,127,89,颗粒物(PM10)
滨州市,中海酒店,117.9378,37.3956,2025-05-19T1400,73,149,0.8,10,13,209,143,105,臭氧1小时
滨州市,开发区一中,117.9378,37.3553,2025-05-19T1400,51,168,0.7,15,13,182,120,109,颗粒物(PM10)
滨州市,金海六路,118.0917,37.694,2025-05-19T1400,41,139,0.4,11,13,201,140,101,臭氧1小时
滨州市,滨州市西街道办事处,117.9956,37.3753,2025-05-19T1400,73,163,0.4,10,9,212,146,107,颗粒物(PM10)
亳州市,污水处理厂,115.8072,33.8399,2025-05-19T1400,31,101,0.5,7,2,173,149,76,颗粒物(PM10)
亳州市,三国揽胜宫,115.7789,33.8518,2025-05-19T1400,42,108,0.4,9,5,182,156,79,颗粒物(PM10)
亳州市,亳州学院,115.7633,33.8034,2025-05-19T1400,38,90,0.3,8,3,180,149,75,臭氧1小时
博尔塔拉蒙古自治州,市党校,82.0485,44.8556,2025-05-19T1400,16,74,0.3,4,12,83,64,62,颗粒物(PM10)
博尔塔拉蒙古自治州,市环保局,82.0806,44.8969,2025-05-19T1400,21,64,0.5,9,9,86,63,57,颗粒物(PM10)
沧州市,沧县城建局,116.8842,38.2991,2025-05-19T1400,36,90,0.6,10,1,201,133,101,臭氧1小时
沧州市,电视转播站,116.8584,38.3254,2025-05-19T1400,48,104,0.5,14,6,183,121,79,臭氧1小时
沧州市,市环保局,116.8709,38.3228,2025-05-19T1400,38,102,0.5,12,4,196,135,95,臭氧1小时
沧州市,河北水利电力学院,116.8136,38.3004,2025-05-19T1400,34,129,0.4,18,12,210,138,105,臭氧1小时
昌都市,昌都监测站,97.1806,31.1273,2025-05-19T1400,3,8,0.2,3,3,104,61,33,
昌都市,昌都会议中心,97.1714,31.1406,2025-05-19T1400,3,6,0.1,2,4,109,59,35,
昌吉回族自治州,天山天池,88.1236,43.8886,2025-05-19T1400,3,33,0.5,5,7,89,88,33,
昌吉回族自治州,新区政务中心,87.2717,44.0297,2025-05-19T1400,7,34,0.3,2,7,122,102,39,
昌吉回族自治州,亚心广场,87.3095,44.0142,2025-05-19T1400,9,44,0.2,5,7,117,101,44,
长春市,食品厂,125.3325,43.9166,2025-05-19T1400,7,10,0.2,13,4,101,94,32,
长春市,客车厂,125.2863,43.9027,2025-05-19T1400,3,29,0.2,9,5,105,98,33,
长春市,邮电学院,125.2841,43.8463,2025-05-19T1400,16,27,0.4,6,6,112,104,35,
长春市,劳动公园,125.3716,43.8772,2025-05-19T1400,10,15,0.4,5,6,105,100,33,
长春市,园林处,125.3297,43.8805,2025-05-19T1400,10,24,0.3,5,7,108,102,34,
长春市,净月潭,125.4605,43.79,2025-05-19T1400,21,22,0.3,7,6,107,98,34,
长春市,甩湾子,125.7194,43.515,2025-05-19T1400,,,,,,,,,
长春市,经开区环卫处,125.3863,43.8447,2025-05-19T1400,10,36,0.2,8,6,108,99,36,
长春市,高新区管委会,125.245,43.7783,2025-05-19T1400,13,28,0.3,7,6,109,104,35,
长春市,岱山公园,125.1761,43.8325,2025-05-19T1400,14,24,0.3,10,5,112,104,35,
长沙市,经开区环保局,113.0833,28.2325,2025-05-19T1400,22,39,0.7,9,5,129,87,41,
长沙市,高开区环保局,112.8872,28.2189,2025-05-19T1400,,,,,,,54,,
长沙市,马坡岭,113.0792,28.2053,2025-05-19T1400,27,39,0.7,4,2,105,69,39,
长沙市,湖南师范大学,112.9394,28.19,2025-05-19T1400,22,45,0.8,6,4,132,88,45,
长沙市,雨花区环保局,113.0178,28.1322,2025-05-19T1400,26,51,0.7,4,5,123,83,51,颗粒物(PM10)
长沙市,伍家岭,112.9792,28.2597,2025-05-19T1400,22,47,1.0,6,4,137,89,47,
长沙市,火车新站,113.0014,28.1944,2025-05-19T1400,24,58,0.8,5,8,126,82,54,颗粒物(PM10)
长沙市,天心区环保局,112.9844,28.1178,2025-05-19T1400,23,42,0.8,9,4,133,92,42,
长沙市,湖南中医药大学,112.8908,28.1308,2025-05-19T1400,30,38,0.7,3,3,112,78,43,
长沙市,沙坪,112.9581,28.3611,2025-05-19T1400,8,21,0.8,5,3,135,87,43,
长治市,清华站,113.1147,36.1547,2025-05-19T1400,14,46,0.4,5,5,141,139,46,
长治市,审计局,113.0886,36.2125,2025-05-19T1400,17,46,0.2,7,7,145,140,46,
长治市,长治八中,113.0844,36.1856,2025-05-19T1400,36,58,0.3,7,8,138,133,54,颗粒物(PM10)
长治市,德盛苑,113.1569,36.1911,2025-05-19T1400,12,61,0.3,5,5,,134,,
长治市,向阳小学,113.06,36.0464,2025-05-19T1400,13,66,0.2,6,9,137,134,58,颗粒物(PM10)
长治市,屯留一中,112.8792,36.3144,2025-05-19T1400,12,30,0.4,4,9,136,119,43,
长治市,英华南巷50号,113.1131,36.19948,2025-05-19T1400,14,52,0.4,3,5,143,137,51,颗粒物(PM10)
长治市,学府街1号,113.2367,36.3344,2025-05-19T1400,24,61,0.3,5,2,158,148,56,颗粒物(PM10)
常德市,市二中,111.6975,28.9703,2025-05-19T1400,27,37,0.4,4,5,108,78,39,
常德市,白鹤山,111.7158,29.1456,2025-05-19T1400,,,,,,,,,
常德市,武陵区永安,111.7153,29.0289,2025-05-19T1400,21,44,0.3,2,6,115,88,44,
常德市,鼎城区玉霞,111.6892,28.9881,2025-05-19T1400,21,38,0.4,3,4,115,82,38,
常德市,武陵区长庚,111.6625,29.0531,2025-05-19T1400,20,43,0.6,3,8,125,91,43,
常州市,市监测站,119.9633,31.762,2025-05-19T1400,31,53,0.8,14,14,182,114,78,臭氧1小时
常州市,武进监测站,119.9468,31.7069,2025-05-19T1400,29,58,0.6,14,11,166,112,58,臭氧1小时
常州市,安家,119.9255,31.9087,2025-05-19T1400,28,54,0.4,14,15,139,95,52,颗粒物(PM10)
常州市,行政中心,119.9805,31.8174,2025-05-19T1400,33,44,0.5,12,11,182,110,78,臭氧1小时
常州市,经开区,120.0522,31.7748,2025-05-19T1400,34,62,0.5,16,7,197,124,97,臭氧1小时
常州市,钟楼,119.9025,31.7964,2025-05-19T1400,30,61,0.5,15,9,170,103,63,臭氧1小时
常州市,武进经发区,119.8598,31.7066,2025-05-19T1400,27,47,0.8,9,10,168,102,60,臭氧1小时
常州市,金坛城区,119.5826,31.7245,2025-05-19T1400,37,,0.6,10,12,196,118,95,臭氧1小时
朝阳市,西梁,120.4318,41.5881,2025-05-19T1400,6,33,0.4,13,8,115,86,36,
朝阳市,河畔小区,120.4521,41.5646,2025-05-19T1400,9,30,0.5,12,9,128,37,40,
朝阳市,八里堡,120.4176,41.5648,2025-05-19T1400,10,60,0.5,14,8,122,89,55,颗粒物(PM10)
朝阳市,农业园区,120.3806,41.5969,2025-05-19T1400,17,31,0.4,8,7,115,87,36,
潮州市,西园路,116.6367,23.6719,2025-05-19T1400,25,49,0.2,8,5,91,54,49,
潮州市,市政府,116.6183,23.6608,2025-05-19T1400,18,33,0.6,9,8,97,58,33,
潮州市,金山,116.6461,23.6761,2025-05-19T1400,21,46,0.7,6,9,102,60,46,
郴州市,马头岭,113.0073,25.9061,2025-05-19T1400,3,15,0.2,4,8,50,25,16,
郴州市,市职中,113.0116,25.8226,2025-05-19T1400,9,9,0.6,5,10,46,25,15,
郴州市,市审计局,113.0383,25.8071,2025-05-19T1400,3,8,0.4,3,4,47,27,15,
郴州市,市环保局,113.0348,25.7759,2025-05-19T1400,8,11,0.4,5,5,40,22,13,
郴州市,好美居路49号,113.0138,25.8011,2025-05-19T1400,10,12,0.5,4,14,45,27,15,
成都市,金泉两河,103.9728,30.7236,2025-05-19T1400,17,39,0.3,8,4,174,109,68,臭氧1小时
成都市,十里店,104.176,30.6872,2025-05-19T1400,17,63,0.7,7,4,182,104,78,臭氧1小时
成都市,三瓦窑,104.079,30.5706,2025-05-19T1400,39,66,0.9,10,7,189,100,87,臭氧1小时
成都市,沙河铺,104.1114,30.63,2025-05-19T1400,39,67,0.8,11,8,165,88,59,颗粒物(PM10)
成都市,君平街,104.0786,30.6531,2025-05-19T1400,30,56,0.4,15,9,162,90,53,"颗粒物(PM10),臭氧1小时"
成都市,灵岩寺,103.613,31.0283,2025-05-19T1400,,,,,,,,,
成都市,大石西路,104.0239,30.65639,2025-05-19T1400,24,50,0.6,14,7,169,96,62,臭氧1小时
成都市,龙泉驿区区政府,104.2725,30.5589,2025-05-19T1400,29,66,0.6,13,6,146,100,58,颗粒物(PM10)
成都市,金博路,104.0106,30.6931,2025-05-19T1400,31,48,0.4,13,11,180,89,75,臭氧1小时
成都市,华阳,104.0578,30.5225,2025-05-19T1400,48,75,0.5,10,8,166,89,67,细颗粒物(PM2.5)
成都市,青白江技师分院,104.3853,30.7453,2025-05-19T1400,46,72,0.6,10,5,186,117,83,臭氧1小时
成都市,科学城,104.0789,30.4072,2025-05-19T1400,36,49,0.7,5,5,160,95,52,细颗粒物(PM2.5)
成都市,光华大道三段,103.8506,30.6947,2025-05-19T1400,8,30,0.5,8,5,158,107,50,
成都市,鲸龙路1057号,104.2433,30.5353,2025-05-19T1400,38,59,0.7,11,7,169,103,62,臭氧1小时
承德市,铁路,117.9531,40.9081,2025-05-19T1400,3,18,0.4,9,10,129,93,41,
承德市,中国银行,117.9392,40.9763,2025-05-19T1400,6,18,0.6,6,14,134,94,42,
承德市,开发区,117.9503,40.928,2025-05-19T1400,20,28,0.5,9,10,132,95,42,
承德市,文化中心,117.8051,40.9655,2025-05-19T1400,3,19,0.9,10,20,121,98,38,
承德市,离宫,117.9268,41.0026,2025-05-19T1400,14,20,0.4,5,8,121,90,38,
池州市,池州学院,117.47,30.6618,2025-05-19T1400,19,36,0.5,5,6,136,94,43,
池州市,展览馆,117.4918,30.6617,2025-05-19T1400,22,34,0.5,4,6,136,94,43,
池州市,第八中学,117.5627,30.695,2025-05-19T1400,20,35,0.2,4,5,137,98,43,
池州市,第十二中学,117.5038,30.6243,2025-05-19T1400,18,41,0.6,5,4,127,88,41,
赤峰市,松山一中,118.9233,42.2816,2025-05-19T1400,3,30,0.3,11,9,105,69,33,
赤峰市,哈达街,118.9576,42.2728,2025-05-19T1400,10,18,0.3,13,7,99,67,31,
赤峰市,天义路,118.8788,42.2554,2025-05-19T1400,,,,,,,79,,
赤峰市,银河街,119.2658,42.0353,2025-05-19T1400,6,26,0.5,8,18,106,77,34,
赤峰市,桥北物流园区,118.9359,42.3147,2025-05-19T1400,11,15,0.4,5,8,93,68,30,
崇左市,市环保局江州分局,107.3476,22.4136,2025-05-19T1400,3,8,0.3,2,5,72,50,23,
崇左市,石景林东路7号,107.3750,22.3736,2025-05-19T1400,12,31,0.4,2,3,82,56,31,
滁州市,老年大学,118.3093,32.3153,2025-05-19T1400,44,67,0.4,7,16,166,123,62,细颗粒物(PM2.5)
滁州市,人大宾馆,118.3244,32.2786,2025-05-19T1400,30,74,0.4,9,10,164,109,62,颗粒物(PM10)
滁州市,市政府原办公楼,118.3118,32.3038,2025-05-19T1400,38,60,0.4,4,6,175,122,69,臭氧1小时
滁州市,图书馆,118.3267,32.2634,2025-05-19T1400,,70,0.5,4,10,160,108,,
楚雄彝族自治州,州环境监测站,101.5482,25.0441,2025-05-19T1400,18,35,0.4,8,10,111,82,35,
楚雄彝族自治州,市经济开发区,101.538,25.0492,2025-05-19T1400,18,,0.6,9,9,114,83,36,
达州市,达州职业技术学院,107.5277,31.2827,2025-05-19T1400,43,85,0.8,9,6,171,90,68,颗粒物(PM10)
达州市,市环境监测站,107.5086,31.2186,2025-05-19T1400,46,81,0.5,19,6,171,95,66,颗粒物(PM10)
达州市,凤凰小区,107.4988,31.2132,2025-05-19T1400,51,80,0.5,10,7,168,99,70,细颗粒物(PM2.5)
达州市,达县机关宾馆,107.5082,31.1986,2025-05-19T1400,40,83,0.4,15,6,173,95,67,"颗粒物(PM10),臭氧1小时"
达州市,市政中心,107.4644,31.2124,2025-05-19T1400,44,91,0.6,12,3,176,102,71,颗粒物(PM10)
大理白族自治州,大理市环境监测站,100.1542,25.7054,2025-05-19T1400,15,21,0.3,7,7,101,80,32,
大理白族自治州,大理古城,100.2171,25.5811,2025-05-19T1400,13,20,0.6,6,8,118,92,37,
大连市,甘井子,121.612,38.9741,2025-05-19T1400,31,54,0.5,44,2,89,95,52,颗粒物(PM10)
大连市,周水子,121.565,38.9511,2025-05-19T1400,27,52,0.4,31,8,81,85,51,颗粒物(PM10)
大连市,星海三站,121.5637,38.8845,2025-05-19T1400,29,53,0.5,11,2,134,99,52,颗粒物(PM10)
大连市,青泥洼桥,121.6302,38.9117,2025-05-19T1400,32,67,0.5,32,8,128,115,59,颗粒物(PM10)
大连市,傅家庄,121.6251,38.8638,2025-05-19T1400,30,54,0.3,19,8,118,107,52,颗粒物(PM10)
大连市,七贤岭,121.5213,38.8661,2025-05-19T1400,34,56,0.4,20,7,111,96,53,颗粒物(PM10)
大连市,旅顺,121.2529,38.8061,2025-05-19T1400,29,60,0.4,32,,99,97,,
大连市,金州,121.7485,39.1311,2025-05-19T1400,37,103,0.4,22,8,178,118,77,颗粒物(PM10)
大连市,开发区,121.7811,39.0496,2025-05-19T1400,30,48,0.4,44,7,102,96,48,
大连市,双D港,121.9762,39.0631,2025-05-19T1400,17,39,0.3,10,8,104,83,39,
大庆市,大同区,124.81117,46.03138,2025-05-19T1400,18,51,0.4,4,5,80,71,51,颗粒物(PM10)
大庆市,龙凤区,125.129,46.533,2025-05-19T1400,29,31,0.4,6,6,78,68,42,
大庆市,红岗区,124.902,46.408,2025-05-19T1400,23,38,0.3,2,6,87,76,38,
大庆市,萨尔图区,125.153,46.586,2025-05-19T1400,15,34,0.2,6,8,71,58,34,
大庆市,让胡路区,124.9042,46.6215,2025-05-19T1400,22,23,0.2,4,6,75,66,32,
大庆市,萨区政府监测点,125.141,46.634,2025-05-19T1400,7,37,0.3,1,6,85,72,37,
大同市,果树场,113.3819,40.1097,2025-05-19T1400,,,,,,,,,
大同市,云冈宾馆,113.2994,40.0758,2025-05-19T1400,3,18,0.3,4,4,117,85,37,
大同市,大同大学,113.3444,40.0917,2025-05-19T1400,10,23,0.3,6,10,118,81,37,
大同市,安家小村,113.2661,40.1269,2025-05-19T1400,,,,,,,93,,
大同市,教育学院,113.2711,40.0844,2025-05-19T1400,25,29,0.2,5,5,112,77,36,
大同市,大同市卫生学校,113.3397,40.0597,2025-05-19T1400,7,21,0.3,5,7,109,76,35,
大同市,云冈站,113.1367,40.1122,2025-05-19T1400,10,16,0.3,5,4,109,78,35,
大同市,图书馆,113.1186,40.2556,2025-05-19T1400,14,36,0.5,3,5,109,80,36,
大同市,区一中,113.5931,40.0461,2025-05-19T1400,10,58,0.4,6,12,119,82,54,颗粒物(PM10)
大同市,魏都大道141号,113.2798,40.0997,2025-05-19T1400,6,23,0.4,7,5,113,78,36,
大兴安岭地区,科技局,124.1069,50.4097,2025-05-19T1400,10,14,0.1,2,5,75,67,24,
大兴安岭地区,红旗社区,124.1164,50.4278,2025-05-19T1400,3,6,0.2,1,2,73,62,23,
丹东市,江湾东路,124.3303,40.0625,2025-05-19T1400,20,27,0.5,6,6,106,100,34,
丹东市,临江后街,124.4256,40.1503,2025-05-19T1400,16,34,0.6,9,12,102,92,34,
丹东市,元宝山,124.3933,40.1461,2025-05-19T1400,20,34,0.4,8,8,100,95,34,
丹东市,民主桥,124.3633,40.1092,2025-05-19T1400,16,32,0.5,7,9,102,98,32,
儋州市,第一中学子站,109.5726,19.5167,2025-05-19T1400,8,,0.5,1,5,43,36,14,
儋州市,东坡学校子站,109.5567,19.5187,2025-05-19T1400,7,14,0.4,2,3,42,36,14,
德宏傣族景颇族自治州,德宏州监测站,98.5842,24.428,2025-05-19T1400,24,37,0.5,6,6,97,51,37,
德宏傣族景颇族自治州,芒市人民政府综合楼,98.5881,24.4368,2025-05-19T1400,19,46,0.5,6,6,111,66,46,
德阳市,东山公园,104.4239,31.1208,2025-05-19T1400,42,74,0.8,9,5,157,115,62,颗粒物(PM10)
德阳市,西小区,104.3826,31.1317,2025-05-19T1400,35,88,0.8,13,3,186,110,83,臭氧1小时
德阳市,耐火材料厂,104.3553,31.1091,2025-05-19T1400,43,78,0.5,12,7,176,108,70,臭氧1小时
德阳市,市教育局,104.4019,31.1244,2025-05-19T1400,40,77,0.7,11,7,184,118,80,臭氧1小时
德州市,儿童乐园,116.3032,37.4674,2025-05-19T1400,44,156,0.7,7,11,207,140,104,臭氧1小时
德州市,监理站,116.2991,37.4451,2025-05-19T1400,53,141,0.4,7,12,217,147,109,臭氧1小时
德州市,九衢泉纯净水厂,116.2721,37.4379,2025-05-19T1400,61,134,0.7,11,9,202,129,101,臭氧1小时
德州市,开发区人民医院,116.3728,37.4403,2025-05-19T1400,48,171,0.7,7,10,221,145,111,"颗粒物(PM10),臭氧1小时"
德州市,太阳城中学,116.3572,37.4094,2025-05-19T1400,58,171,0.5,10,10,206,134,111,颗粒物(PM10)
德州市,陵城艺术中心,116.5652,37.3319,2025-05-19T1400,44,166,0.4,10,9,204,150,108,颗粒物(PM10)
迪庆藏族自治州,迪庆州站,99.7056,27.8317,2025-05-19T1400,8,20,0.2,13,5,133,115,42,
迪庆藏族自治州,质量技术监督局,99.7136,27.8094,2025-05-19T1400,3,20,0.3,8,3,131,116,41,
定西市,将台街,104.6092,35.5962,2025-05-19T1400,9,37,0.1,7,6,143,90,45,
定西市,正龙路62号,104.6159,35.5701,2025-05-19T1400,8,30,0.3,4,7,135,89,43,
东莞市,莞城梨川,113.7547,23.0494,2025-05-19T1400,10,11,0.5,5,7,93,48,30,
东莞市,东城石井,113.7944,23.0128,2025-05-19T1400,6,9,0.4,5,3,75,34,24,
东莞市,南城西平,113.7383,22.9658,2025-05-19T1400,5,,0.6,10,3,84,42,,
东莞市,万江金泰,113.7338,23.0381,2025-05-19T1400,7,12,0.8,6,6,79,38,25,
东莞市,南城元岭,113.7533,23.0202,2025-05-19T1400,8,11,0.6,7,4,86,40,27,
东莞市,东城主山,113.7875,23.0457,2025-05-19T1400,6,12,0.5,2,4,84,40,27,
东营市,市环保局,118.6614,37.4309,2025-05-19T1400,36,166,0.5,22,8,198,139,108,颗粒物(PM10)
东营市,开发区管委会,118.6904,37.4338,2025-05-19T1400,46,181,0.5,9,8,214,150,116,颗粒物(PM10)
东营市,垦利区民丰路,118.5719,37.565,2025-05-19T1400,41,153,0.9,17,9,213,158,107,臭氧1小时
东营市,河口城区,118.5055,37.8612,2025-05-19T1400,49,136,1.0,16,14,219,158,110,臭氧1小时
东营市,胜利站,118.4978,37.4623,2025-05-19T1400,73,151,0.8,16,12,206,142,103,臭氧1小时
东营市,理想之城,118.35,37.26,2025-05-19T1400,36,156,0.7,15,9,212,147,106,臭氧1小时
鄂尔多斯市,综合楼,110.0023,39.8129,2025-05-19T1400,19,48,0.1,6,8,121,86,48,
鄂尔多斯市,巴音孟克林场办事处,109.9486,39.8261,2025-05-19T1400,24,44,0.3,6,7,122,98,44,
鄂尔多斯市,康泽苑,109.7736,39.5986,2025-05-19T1400,19,51,0.2,4,10,120,93,51,颗粒物(PM10)
鄂尔多斯市,华泰汽车城,109.8119,39.5989,2025-05-19T1400,29,44,0.2,4,5,114,83,44,
鄂尔多斯市,奥林花园,109.9734,39.7884,2025-05-19T1400,19,46,0.4,9,6,122,96,46,
鄂州市,市政府,114.8938,30.3994,2025-05-19T1400,29,47,0.7,7,8,138,108,47,
鄂州市,赵家坝,114.8989,30.3714,2025-05-19T1400,19,60,0.7,8,6,152,117,55,颗粒物(PM10)
鄂州市,精准医疗中心,114.8094,30.4089,2025-05-19T1400,20,52,0.5,2,4,140,112,51,颗粒物(PM10)
恩施土家族苗族自治州,湖北民院,109.4978,30.2981,2025-05-19T1400,34,50,0.6,3,6,137,70,50,
恩施土家族苗族自治州,州电力总公司,109.4707,30.2798,2025-05-19T1400,22,56,0.3,3,7,113,49,53,颗粒物(PM10)
恩施土家族苗族自治州,龙凤新区,109.5061,30.3772,2025-05-19T1400,36,39,0.3,6,6,138,81,52,细颗粒物(PM2.5)
防城港市,沙万,108.3411,21.6158,2025-05-19T1400,11,34,0.5,6,1,38,30,34,
防城港市,防城档案局,108.3514,21.7731,2025-05-19T1400,11,24,0.4,4,1,33,27,24,
防城港市,大海花园,108.3506,21.6414,2025-05-19T1400,8,23,0.4,,2,54,39,,
佛山市,湾梁,113.1294,23.0067,2025-05-19T1400,18,19,0.4,10,7,73,27,26,
佛山市,华材职中,113.1083,23.0478,2025-05-19T1400,12,29,0.3,10,5,84,38,29,
佛山市,南海气象局,113.144,23.0453,2025-05-19T1400,15,31,0.5,9,1,82,34,31,
佛山市,顺德苏岗,113.2881,22.8094,2025-05-19T1400,7,14,0.4,6,6,63,40,20,
佛山市,高明孔堂,112.8383,22.8678,2025-05-19T1400,13,20,0.5,3,5,52,32,20,
佛山市,三水监测站,112.8836,23.1588,2025-05-19T1400,18,,0.4,16,2,47,21,26,
佛山市,三水云东海,112.867,23.185,2025-05-19T1400,9,24,0.4,11,1,66,31,24,
佛山市,容桂街道办,113.2544,22.7642,2025-05-19T1400,7,24,0.6,8,5,54,32,24,
福州市,鼓山,119.3903,26.0543,2025-05-19T1400,,,,,,,68,,
福州市,师大,119.2681,26.0504,2025-05-19T1400,21,35,0.5,22,3,56,70,35,
福州市,五四北路,119.2984,26.1028,2025-05-19T1400,25,34,0.6,23,3,67,62,36,
福州市,杨桥西路,119.2648,26.0768,2025-05-19T1400,28,35,0.4,20,3,65,69,40,
福州市,紫阳,119.317,26.0746,2025-05-19T1400,20,29,0.2,21,4,73,68,29,
福州市,九龙,119.5799,26.0936,2025-05-19T1400,26,33,0.5,10,4,85,66,38,
福州市,吴航,119.5189,25.9664,2025-05-19T1400,28,37,0.6,9,4,80,75,40,
抚顺市,望花区,123.7977,41.8491,2025-05-19T1400,34,42,0.6,15,6,125,105,49,
抚顺市,顺城区,123.9161,41.8822,2025-05-19T1400,29,55,0.7,16,8,118,101,53,颗粒物(PM10)
抚顺市,东洲区,124.0436,41.8611,2025-05-19T1400,26,48,0.5,11,6,111,101,48,
抚顺市,新抚区,123.9247,41.8642,2025-05-19T1400,21,50,0.6,10,7,109,95,50,
抚顺市,大伙房水库,124.0972,41.8961,2025-05-19T1400,24,34,0.8,10,8,121,109,38,
抚顺市,沈抚新城,123.7086,41.8391,2025-05-19T1400,30,46,0.7,14,7,124,105,46,
抚州市,桐源党溪,116.2127,28.0814,2025-05-19T1400,8,18,0.5,2,3,63,47,20,
抚州市,市站,116.3544,27.9831,2025-05-19T1400,8,17,0.7,3,1,56,45,18,
抚州市,血防站,116.3565,27.963,2025-05-19T1400,8,21,0.5,2,2,54,41,21,
抚州市,采茶剧团,116.3564,28.0007,2025-05-19T1400,3,20,0.2,2,2,50,37,20,
抚州市,医学分院,116.385,27.9647,2025-05-19T1400,3,12,0.6,2,4,56,44,18,
阜新市,工业园区,121.6094,41.998,2025-05-19T1400,22,48,0.6,11,30,170,137,63,臭氧1小时
阜新市,长青街,121.6697,42.0279,2025-05-19T1400,17,54,0.6,13,26,157,127,52,颗粒物(PM10)
阜新市,农业园区,121.6673,42.0705,2025-05-19T1400,,,,,,,,,
阜新市,东苑,121.6717,42.0224,2025-05-19T1400,22,48,0.6,13,27,164,137,55,臭氧1小时
阜新市,玉龙新城,121.6506,42.0498,2025-05-19T1400,18,43,0.5,12,22,152,122,48,
阜阳市,市监测站,115.8277,32.8929,2025-05-19T1400,33,74,0.4,8,8,158,139,62,颗粒物(PM10)
阜阳市,开发区,115.8554,32.8605,2025-05-19T1400,31,84,0.2,6,6,167,141,67,颗粒物(PM10)
阜阳市,阜阳职业技术学院,115.784,32.8892,2025-05-19T1400,27,66,0.5,18,6,,144,,
阜阳市,市规划展馆,115.7901,32.8613,2025-05-19T1400,34,88,0.4,7,7,164,142,69,颗粒物(PM10)
阜阳市,枣园社区,115.836,32.9183,2025-05-19T1400,32,84,0.3,6,4,160,140,67,颗粒物(PM10)
甘南藏族自治州,州政府,102.9099,34.9841,2025-05-19T1400,10,23,0.3,2,7,109,63,35,
甘南藏族自治州,甘肃民族师范学院,102.8914,34.9617,2025-05-19T1400,9,120,0.3,2,7,123,62,85,颗粒物(PM10)
甘孜藏族自治州,水桥子,101.9603,30.0475,2025-05-19T1400,3,10,0.4,12,6,96,66,30,
甘孜藏族自治州,州环保局,101.9533,29.9972,2025-05-19T1400,13,,0.3,4,1,112,72,35,
赣江新区,桑海产业园,115.8347,28.932,2025-05-19T1400,19,34,0.3,13,7,135,94,43,
赣州市,通天岩,114.9017,25.9149,2025-05-19T1400,3,18,0.6,5,4,63,47,20,
赣州市,地委,114.9367,25.8664,2025-05-19T1400,9,17,0.6,6,4,65,39,21,
赣州市,气象台,114.9461,25.8481,2025-05-19T1400,8,24,0.4,8,8,63,43,24,
赣州市,市图书馆,114.9322,25.8333,2025-05-19T1400,9,20,0.6,5,4,50,34,20,
赣州市,华坚鞋城,114.8905,25.8471,2025-05-19T1400,8,16,0.2,5,4,66,43,21,
赣州市,赣县区卫计委,115.0093,25.8613,2025-05-19T1400,11,13,0.3,5,3,42,25,16,
固原市,马园,106.2319,36.1417,2025-05-19T1400,15,50,0.1,3,5,138,111,50,
固原市,监测站,106.2792,36.0022,2025-05-19T1400,12,26,0.2,5,6,130,121,41,
固原市,新区,106.2375,36.0211,2025-05-19T1400,16,38,0.1,5,7,125,120,40,
固原市,原州区十五小,106.2177,35.9959,2025-05-19T1400,40,42,0.3,3,7,128,122,57,细颗粒物(PM2.5)
广安市,小平旧居,106.6308,30.5278,2025-05-19T1400,,,,,,,,,
广安市,市委,106.6303,30.4576,2025-05-19T1400,44,78,0.6,7,8,174,119,68,臭氧1小时
广安市,友谊中学,106.6271,30.4663,2025-05-19T1400,40,60,0.7,10,5,181,120,77,臭氧1小时
广安市,广电花园,106.6388,30.4551,2025-05-19T1400,12,77,0.6,29,7,172,122,65,臭氧1小时
广安市,北辰小学,106.6351,30.4865,2025-05-19T1400,39,77,0.7,9,8,176,116,70,臭氧1小时
广元市,黑石坡,105.8945,32.4535,2025-05-19T1400,58,109,0.6,14,7,175,117,80,颗粒物(PM10)
广元市,老城,105.821,32.4444,2025-05-19T1400,54,106,1.3,8,5,189,109,87,臭氧1小时
广元市,监测站,105.8628,32.4287,2025-05-19T1400,52,70,0.6,9,5,195,119,94,臭氧1小时
广元市,经开区,105.8047,32.4166,2025-05-19T1400,59,88,0.9,9,6,181,116,80,细颗粒物(PM2.5)
广州市,广雅中学,113.2347,23.1423,2025-05-19T1400,10,22,0.2,24,4,7,3,22,
广州市,市五中,113.2612,23.105,2025-05-19T1400,14,28,0.1,11,3,112,46,35,
广州市,广东商学院,113.3478,23.0916,2025-05-19T1400,21,21,0.4,10,4,109,58,35,
广州市,市八十六中,113.4332,23.1047,2025-05-19T1400,11,22,0.3,16,3,114,46,36,
广州市,番禺中学,113.3505,22.9483,2025-05-19T1400,16,27,0.4,10,,93,47,,
广州市,花都师范,113.2146,23.3916,2025-05-19T1400,20,29,0.4,8,4,107,40,34,
广州市,市监测站,113.2597,23.1331,2025-05-19T1400,11,24,0.4,10,4,103,45,33,
广州市,九龙镇镇龙,113.5618,23.312,2025-05-19T1400,26,38,0.4,17,6,114,37,38,
广州市,麓湖,113.2765,23.1544,2025-05-19T1400,13,24,0.5,7,4,104,43,33,
广州市,帽峰山森林公园,113.443,23.3035,2025-05-19T1400,13,18,0.5,11,6,109,49,35,
广州市,体育西,113.3221,23.1322,2025-05-19T1400,18,26,0.3,12,5,116,50,37,
广州市,从化街口,113.5717,23.5491,2025-05-19T1400,6,17,0.3,12,6,68,21,22,
广州市,白云竹料,113.3472,23.3692,2025-05-19T1400,12,19,0.4,10,2,113,45,36,
广州市,白云嘉禾,113.2981,23.237,2025-05-19T1400,17,25,0.9,15,6,110,43,35,
广州市,黄埔科学城,113.4256,23.1716,2025-05-19T1400,13,21,0.5,9,6,111,45,35,
广州市,番禺大学城,113.3942,23.0483,2025-05-19T1400,11,30,0.3,10,5,119,51,38,
广州市,南沙黄阁,113.4922,22.8168,2025-05-19T1400,12,38,0.3,4,4,75,40,38,
广州市,南沙街,113.5342,22.7896,2025-05-19T1400,9,24,0.4,2,3,71,37,24,
广州市,花都梯面,113.2902,23.5544,2025-05-19T1400,29,37,0.7,29,4,73,31,42,
广州市,从化良口,113.7858,23.7478,2025-05-19T1400,6,8,0.6,3,6,52,25,17,
广州市,增城荔城,113.8051,23.2614,2025-05-19T1400,22,32,1.1,13,8,123,40,39,
贵港市,德智高中,109.568,23.1478,2025-05-19T1400,,,,,,,,,
贵港市,江南子站,109.6047,23.0666,2025-05-19T1400,12,12,0.6,3,3,68,30,22,
贵港市,荷城子站,109.5669,23.1065,2025-05-19T1400,9,,0.1,7,5,62,33,20,
贵港市,新世纪学校,109.5886,23.1172,2025-05-19T1400,13,14,0.8,5,3,57,22,19,
贵港市,中山路155-3号,109.5933,23.0951,2025-05-19T1400,10,24,0.4,6,4,66,37,24,
贵阳市,马鞍山,106.6899,26.5998,2025-05-19T1400,44,61,0.7,10,14,117,49,62,细颗粒物(PM2.5)
贵阳市,鉴湖路,106.6243,26.6266,2025-05-19T1400,56,80,0.5,20,15,109,60,77,细颗粒物(PM2.5)
贵阳市,燕子冲,106.7487,26.6343,2025-05-19T1400,58,78,0.5,18,16,135,56,79,细颗粒物(PM2.5)
贵阳市,碧云窝,106.6555,26.4365,2025-05-19T1400,36,63,0.4,16,11,122,62,57,颗粒物(PM10)
贵阳市,红边门,106.7109,26.6027,2025-05-19T1400,56,70,0.4,12,15,123,54,77,细颗粒物(PM2.5)
贵阳市,新华路,106.7164,26.5699,2025-05-19T1400,46,66,0.6,12,30,126,64,64,细颗粒物(PM2.5)
贵阳市,太慈桥,106.674,26.5424,2025-05-19T1400,46,66,0.3,16,13,120,57,64,细颗粒物(PM2.5)
贵阳市,桐木岭,106.805,26.3003,2025-05-19T1400,36,63,0.9,3,2,123,94,57,颗粒物(PM10)
贵阳市,花果园大街66号,106.6882,26.5695,2025-05-19T1400,46,61,0.4,12,11,129,58,64,细颗粒物(PM2.5)
贵阳市,漓江路57号,106.6873,26.5169,2025-05-19T1400,48,68,0.4,11,10,119,59,67,细颗粒物(PM2.5)
桂林市,电子科大尧山校区,110.4144,25.3167,2025-05-19T1400,,,,,,,,,
桂林市,龙隐路小学,110.3089,25.2708,2025-05-19T1400,3,26,0.5,3,8,50,33,26,
桂林市,八中,110.2869,25.2178,2025-05-19T1400,,16,0.5,8,1,44,29,,
桂林市,旅游学院,110.296,25.1253,2025-05-19T1400,3,6,0.2,3,2,40,26,13,
桂林市,环湖路276号,110.1835,25.2444,2025-05-19T1400,3,9,0.3,3,2,39,28,13,
桂林市,信义路13号,110.2803,25.2773,2025-05-19T1400,13,,0.4,6,3,50,32,19,
果洛藏族自治州,玛沁县大武镇,100.2561,34.4714,2025-05-19T1400,12,,0.4,1,23,116,85,37,
哈尔滨市,岭北,126.5422,45.755,2025-05-19T1400,7,17,0.5,6,7,95,90,30,
哈尔滨市,松北商大,126.561,45.8167,2025-05-19T1400,8,42,0.5,4,5,89,81,42,
哈尔滨市,阿城会宁,126.979,45.5419,2025-05-19T1400,8,15,0.5,8,10,90,83,29,
哈尔滨市,南岗学府路,126.599,45.7222,2025-05-19T1400,9,16,0.3,5,5,86,68,27,
哈尔滨市,太平宏伟公园,126.689,45.7733,2025-05-19T1400,12,22,0.4,6,4,93,85,30,
哈尔滨市,道外承德广场,126.635,45.7667,2025-05-19T1400,17,,0.6,7,5,86,77,27,
哈尔滨市,香坊红旗大街,126.685,45.7319,2025-05-19T1400,13,27,0.6,6,4,92,82,29,
哈尔滨市,动力和平路,126.6411,45.7258,2025-05-19T1400,14,,0.4,10,4,76,74,24,
哈尔滨市,道里建国路,126.593,45.7478,2025-05-19T1400,11,11,0.5,7,2,87,80,28,
哈尔滨市,平房东轻厂,126.615,45.61,2025-05-19T1400,11,15,0.3,7,7,96,89,30,
哈尔滨市,呼兰师专,126.595,45.9855,2025-05-19T1400,18,20,0.4,9,4,81,76,26,
哈尔滨市,省农科院,126.6206,45.6842,2025-05-19T1400,18,46,0.5,8,6,82,76,46,
哈密市,地区监测站,93.5128,42.8172,2025-05-19T1400,31,110,0.0,7,3,108,94,80,颗粒物(PM10)
哈密市,哈密师范学校,93.4961,42.8328,2025-05-19T1400,35,87,0.4,3,4,103,83,69,颗粒物(PM10)
海北藏族自治州,海晏县西海镇,100.9048,36.9639,2025-05-19T1400,6,14,0.3,1,11,124,93,39,
海东市,平安区公安北苑,102.0738,36.5056,2025-05-19T1400,19,26,0.6,2,8,136,82,43,
海口市,东寨港,110.576,19.9507,2025-05-19T1400,6,22,0.1,3,2,52,31,22,
海口市,海南大学,110.3232,20.0574,2025-05-19T1400,9,14,0.3,7,4,71,48,23,
海口市,秀英海南医院,110.283,20.0053,2025-05-19T1400,8,21,0.2,10,4,68,46,22,
海口市,海南师范大学,110.338,19.9969,2025-05-19T1400,9,19,0.4,7,4,89,48,28,
海口市,龙华路环保局宿舍,110.33,20.0356,2025-05-19T1400,9,22,0.2,7,5,82,50,26,
海口市,桂林洋子站,110.5111,19.9736,2025-05-19T1400,8,12,0.1,4,4,56,41,18,
海南藏族自治州,共和县恰卜恰镇,100.6188,36.2866,2025-05-19T1400,10,22,0.3,2,9,144,102,45,
海西蒙古族藏族自治州,德令哈市,97.3731,37.3753,2025-05-19T1400,8,25,,2,9,127,106,,
邯郸市,东污水处理厂,114.5302,36.6116,2025-05-19T1400,39,99,0.5,12,7,175,116,75,颗粒物(PM10)
邯郸市,矿院,114.4918,36.5713,2025-05-19T1400,48,88,0.4,10,8,168,114,69,颗粒物(PM10)
邯郸市,丛台公园,114.484,36.6133,2025-05-19T1400,43,86,0.4,10,7,147,107,68,颗粒物(PM10)
邯郸市,香泉濮院小区,114.7895,36.5593,2025-05-19T1400,52,169,0.5,8,7,177,121,110,颗粒物(PM10)
邯郸市,永年区实验高中,114.50634,36.77178,2025-05-19T1400,17,54,0.2,3,4,81,97,52,颗粒物(PM10)
邯郸市,峰峰矿区临水派出所,114.20016,36.44293,2025-05-19T1400,,,,,,,132,,
汉中市,汉川机床厂子校,106.9893,33.1842,2025-05-19T1400,54,80,0.7,8,10,182,128,78,臭氧1小时
汉中市,市监测站,107.0154,33.0706,2025-05-19T1400,52,99,0.9,6,6,180,122,75,"颗粒物(PM10),臭氧1小时"
汉中市,鑫源开发区,107.0089,33.1138,2025-05-19T1400,48,102,0.7,7,6,166,117,76,颗粒物(PM10)
汉中市,南郑大河坎水厂,107.007,33.0323,2025-05-19T1400,54,90,0.7,8,7,178,110,74,细颗粒物(PM2.5)
杭州市,滨江,120.2072,30.2111,2025-05-19T1400,15,28,0.5,19,6,158,87,50,
杭州市,西溪,120.0633,30.2747,2025-05-19T1400,14,23,0.4,5,4,127,84,40,
杭州市,下沙,120.3417,30.3150,2025-05-19T1400,16,,0.4,16,6,166,95,,
杭州市,卧龙桥,120.1269,30.2456,2025-05-19T1400,9,20,0.3,11,6,132,76,42,
杭州市,浙江农大,120.1903,30.2692,2025-05-19T1400,9,15,0.5,11,8,127,76,40,
杭州市,和睦小学,120.1197,30.3119,2025-05-19T1400,17,17,0.5,6,7,138,87,44,
杭州市,临平镇,120.3019,30.4183,2025-05-19T1400,12,23,0.5,10,6,149,85,47,
杭州市,城厢镇,120.2753,30.1839,2025-05-19T1400,19,37,0.5,20,7,167,85,59,臭氧1小时
杭州市,云栖,120.0883,30.1808,2025-05-19T1400,,,,,,,84,,
杭州市,镇二中,119.9464,30.0494,2025-05-19T1400,7,11,0.5,13,4,110,69,35,
杭州市,市府大楼,119.7183,30.2367,2025-05-19T1400,13,29,0.7,15,8,125,90,40,
杭州市,消防大队,120.1556,30.2864,2025-05-19T1400,6,26,0.8,10,4,126,78,40,
合肥市,明珠广场,117.1959,31.7848,2025-05-19T1400,27,56,0.5,11,5,168,137,60,臭氧1小时
合肥市,三里街,117.3072,31.8764,2025-05-19T1400,19,68,0.6,10,5,131,106,59,颗粒物(PM10)
合肥市,琥珀山庄,117.2588,31.8707,2025-05-19T1400,28,63,0.6,9,4,151,126,57,颗粒物(PM10)
合肥市,董铺水库,117.1604,31.9052,2025-05-19T1400,39,90,0.4,6,1,164,149,70,颗粒物(PM10)
合肥市,长江中路,117.25,31.8571,2025-05-19T1400,27,63,0.6,7,6,148,129,57,颗粒物(PM10)
合肥市,庐阳区,117.266,31.9436,2025-05-19T1400,29,66,0.3,6,6,151,133,58,颗粒物(PM10)
合肥市,瑶海区,117.3453,31.8616,2025-05-19T1400,27,56,0.6,10,6,131,106,53,颗粒物(PM10)
合肥市,包河区,117.3027,31.7964,2025-05-19T1400,36,68,0.6,3,7,149,123,59,颗粒物(PM10)
合肥市,滨湖新区,117.2776,31.7385,2025-05-19T1400,36,46,0.5,7,11,140,115,52,细颗粒物(PM2.5)
合肥市,高新区,117.1318,31.8403,2025-05-19T1400,30,70,0.5,12,6,165,149,60,颗粒物(PM10)
合肥市,高教基地,117.3803,31.9147,2025-05-19T1400,20,51,0.5,6,6,145,116,51,颗粒物(PM10)
和田地区,地区环保局,79.924,37.0877,2025-05-19T1400,91,666,0.4,6,1,86,74,500,颗粒物(PM10)
和田地区,市环保局,79.9131,37.113,2025-05-19T1400,67,523,0.1,2,1,84,63,423,颗粒物(PM10)
河池市,东仁乐园,108.2011,24.715,2025-05-19T1400,,,,,,,,,
河池市,市环保站,108.0497,24.6947,2025-05-19T1400,11,30,0.6,3,6,84,56,30,
河池市,市疾控中心,108.0983,24.6989,2025-05-19T1400,12,16,0.7,6,3,84,49,27,
河源市,源西,114.6778,23.7569,2025-05-19T1400,17,,0.6,9,3,46,39,25,
河源市,东埔,114.6944,23.7586,2025-05-19T1400,11,,0.5,14,4,42,32,16,
河源市,老城,114.6892,23.7233,2025-05-19T1400,20,,0.4,16,4,38,28,29,
菏泽市,气象局,115.4208,35.2464,2025-05-19T1400,53,183,0.4,11,4,203,150,117,颗粒物(PM10)
菏泽市,定陶老年大学,115.5564,35.0891,2025-05-19T1400,34,141,0.7,11,4,170,133,96,颗粒物(PM10)
菏泽市,永昌路1号,115.4797,35.24401,2025-05-19T1400,75,157,0.3,11,11,195,148,104,颗粒物(PM10)
菏泽市,长城路999号,115.4715,35.2800,2025-05-19T1400,75,160,0.2,12,7,,142,105,颗粒物(PM10)
贺州市,环保小区,111.5264,24.4172,2025-05-19T1400,13,13,1.0,17,6,26,18,19,
贺州市,政协大楼,111.5608,24.4078,2025-05-19T1400,7,11,0.8,12,8,32,24,11,
贺州市,西湾,111.4744,24.4553,2025-05-19T1400,13,18,0.6,13,6,25,18,19,
鹤壁市,市监测站,114.17,35.9019,2025-05-19T1400,82,84,0.5,7,2,161,144,109,细颗粒物(PM2.5)
鹤壁市,市交警支队,114.2956,35.7511,2025-05-19T1400,37,117,0.6,12,4,205,155,103,臭氧1小时
鹤壁市,迎宾馆,114.2878,35.7306,2025-05-19T1400,47,158,0.4,16,4,210,156,105,臭氧1小时
鹤壁市,大新区,114.2617,35.6822,2025-05-19T1400,50,210,0.5,12,13,210,157,130,颗粒物(PM10)
鹤壁市,南山宾馆,114.1572,35.9603,2025-05-19T1400,32,104,0.4,1,5,157,145,77,颗粒物(PM10)
鹤岗市,哈啤分公司,130.2537,47.3416,2025-05-19T1400,23,,0.2,4,14,81,71,33,
鹤岗市,斯达机电,130.2684,47.3086,2025-05-19T1400,15,28,0.3,7,12,81,69,28,
鹤岗市,东山纸板厂,130.3114,47.3388,2025-05-19T1400,19,35,0.4,7,14,80,66,35,
鹤岗市,五号水库,130.1097,47.3382,2025-05-19T1400,,,,,,,,,
黑河市,交通局,127.4833,50.2524,2025-05-19T1400,3,12,0.2,4,7,68,59,22,
黑河市,环保局,127.5144,50.2341,2025-05-19T1400,7,13,0.2,5,4,78,67,25,
黑河市,大黑河岛,127.5291,50.2472,2025-05-19T1400,3,6,0.2,4,2,59,63,19,
衡水市,电机北厂,115.6838,37.7541,2025-05-19T1400,37,139,0.6,11,11,222,142,111,臭氧1小时
衡水市,市监测站,115.6303,37.7316,2025-05-19T1400,42,119,0.5,7,3,204,90,102,臭氧1小时
衡水市,市城管局,115.6683,37.7217,2025-05-19T1400,33,134,0.7,11,8,243,145,122,臭氧1小时
衡水市,地表水厂,115.5989,37.5491,2025-05-19T1400,47,160,0.9,16,18,246,158,123,臭氧1小时
衡阳市,原169医院,112.5003,26.9167,2025-05-19T1400,16,28,0.5,1,2,79,58,28,
衡阳市,衡阳化工总厂,112.6194,26.9258,2025-05-19T1400,11,32,0.4,1,9,82,56,32,
衡阳市,珠晖区环保局,112.6211,26.8956,2025-05-19T1400,,30,0.6,1,10,85,58,,
衡阳市,市委党校,112.6197,26.8733,2025-05-19T1400,,37,0.5,2,7,73,52,,
衡阳市,市监测站,112.6006,26.8919,2025-05-19T1400,17,28,0.4,3,12,78,55,28,
衡阳市,真空机电公司,112.5664,26.9056,2025-05-19T1400,17,24,0.5,2,5,79,48,25,
衡阳市,师范学院,112.6703,26.882,2025-05-19T1400,19,24,0.6,4,7,70,50,28,
红河哈尼族彝族自治州,污水处理厂,103.3772,23.3993,2025-05-19T1400,8,24,0.4,3,6,59,50,24,
红河哈尼族彝族自治州,监测站,103.3861,23.35,2025-05-19T1400,12,12,0.1,3,9,56,36,18,
红河哈尼族彝族自治州,州图书馆,103.3758,23.368,2025-05-19T1400,12,,0.2,2,3,61,44,20,
呼和浩特市,呼市一监,111.6507,40.7517,2025-05-19T1400,46,70,0.4,7,12,105,72,64,细颗粒物(PM2.5)
呼和浩特市,小召,111.6572,40.8033,2025-05-19T1400,26,66,0.6,18,11,127,86,58,颗粒物(PM10)
呼和浩特市,如意水处理厂,111.7516,40.8369,2025-05-19T1400,25,60,0.4,11,10,120,77,55,颗粒物(PM10)
呼和浩特市,二十九中,111.7276,40.8062,2025-05-19T1400,35,67,0.6,9,9,120,76,59,颗粒物(PM10)
呼和浩特市,工大金川校区,111.5512,40.7866,2025-05-19T1400,33,69,0.5,12,8,138,81,60,颗粒物(PM10)
呼和浩特市,化肥厂生活区,111.717,40.7612,2025-05-19T1400,28,68,0.3,12,8,127,82,59,颗粒物(PM10)
呼和浩特市,红旗小学,111.5968,40.8178,2025-05-19T1400,62,78,0.5,15,6,144,80,84,细颗粒物(PM2.5)
呼和浩特市,海东办,111.6518,40.8389,2025-05-19T1400,31,70,0.4,12,10,122,77,60,颗粒物(PM10)
呼伦贝尔市,区环保局,119.7594,49.2261,2025-05-19T1400,32,35,0.2,6,5,97,88,46,
呼伦贝尔市,国华电力东,119.7512,49.1577,2025-05-19T1400,25,41,0.3,5,3,96,84,41,
湖州市,城西水厂,120.0751,30.8669,2025-05-19T1400,18,35,0.5,14,6,180,107,75,臭氧1小时
湖州市,仁皇山新区,120.0830,30.8929,2025-05-19T1400,15,32,0.7,15,5,118,77,37,
湖州市,吴兴区站,120.1844,30.8596,2025-05-19T1400,24,46,0.5,12,6,181,96,77,臭氧1小时
湖州市,南浔区站,120.4148,30.8538,2025-05-19T1400,25,42,0.6,12,5,177,102,72,臭氧1小时
葫芦岛市,龙港区,120.9049,40.7211,2025-05-19T1400,23,46,0.7,8,9,124,100,46,
葫芦岛市,化工街,120.8392,40.7514,2025-05-19T1400,31,73,0.8,13,15,150,99,62,颗粒物(PM10)
葫芦岛市,新区,120.8341,40.7073,2025-05-19T1400,30,33,0.7,9,8,121,90,43,
葫芦岛市,东城区,120.8695,40.7677,2025-05-19T1400,41,75,0.9,14,9,147,100,63,颗粒物(PM10)
怀化市,林科所,109.5981,27.5721,2025-05-19T1400,17,33,0.4,6,4,101,61,33,
怀化市,河西地税局,109.9453,27.5444,2025-05-19T1400,29,,0.5,4,1,93,48,42,
怀化市,市四医院,109.9781,27.5342,2025-05-19T1400,34,53,0.9,5,4,100,58,52,颗粒物(PM10)
怀化市,监测楼,109.9972,27.5578,2025-05-19T1400,24,42,0.3,8,4,104,62,42,
怀化市,市委党校,110.0394,27.583,2025-05-19T1400,21,29,0.6,3,1,99,63,31,
淮安市,钵池山,119.036,33.5981,2025-05-19T1400,39,102,1.3,6,10,173,132,76,颗粒物(PM10)
淮安市,北京南路,119.007,33.575,2025-05-19T1400,37,100,1.1,6,14,176,128,75,颗粒物(PM10)
淮安市,市监测站,118.989,33.6067,2025-05-19T1400,44,97,0.7,7,9,173,126,74,颗粒物(PM10)
淮安市,楚州区监测站,119.135,33.5039,2025-05-19T1400,40,134,0.5,6,8,184,122,92,颗粒物(PM10)
淮安市,新华书店,118.8755,33.2894,2025-05-19T1400,43,105,0.7,9,9,185,126,82,臭氧1小时
淮安市,承德北路606号,119.0288,33.6319,2025-05-19T1400,42,102,0.5,7,8,171,131,76,颗粒物(PM10)
淮北市,监测站,116.8004,33.975,2025-05-19T1400,42,110,0.6,10,6,178,146,80,颗粒物(PM10)
淮北市,烈山区政府,116.8091,33.9007,2025-05-19T1400,54,85,0.7,11,5,155,122,74,细颗粒物(PM2.5)
淮北市,杜集区检察院,116.8873,33.9836,2025-05-19T1400,43,107,0.8,9,8,175,142,79,颗粒物(PM10)
淮北市,市博物馆,116.7923,33.9535,2025-05-19T1400,43,85,0.7,8,6,177,144,72,臭氧1小时
淮南市,潘集区政府,116.8305,32.7727,2025-05-19T1400,36,82,0.4,8,6,146,121,66,颗粒物(PM10)
淮南市,谢家集区政府,116.8569,32.5951,2025-05-19T1400,34,51,0.3,10,5,155,121,51,颗粒物(PM10)
淮南市,八公山区政府,116.8281,32.633,2025-05-19T1400,32,85,0.3,7,4,147,122,68,颗粒物(PM10)
淮南市,焦岗湖风景区管理处,116.6325,32.6201,2025-05-19T1400,,,,,,,,,
淮南市,经济技术开发区消防队,117.0566,32.6531,2025-05-19T1400,36,82,0.3,4,5,145,117,66,颗粒物(PM10)
淮南市,山南新区,117.0108,32.5893,2025-05-19T1400,37,100,0.3,8,8,151,128,75,颗粒物(PM10)
淮南市,国庆中路369号,117.0031,32.6445,2025-05-19T1400,22,68,0.2,8,10,150,120,59,颗粒物(PM10)
黄冈市,职工中心,114.9028,30.4742,2025-05-19T1400,,,,,,,,,
黄冈市,红卫路,114.8858,30.4519,2025-05-19T1400,33,50,0.6,3,7,166,124,58,臭氧1小时
黄冈市,市林业局,114.9136,30.4445,2025-05-19T1400,28,44,0.9,3,9,152,112,48,
黄南藏族自治州,同仁县隆务镇,102.0199,35.5102,2025-05-19T1400,12,25,0.1,1,4,115,87,36,
黄山市,延安路89号,118.2903,29.6963,2025-05-19T1400,6,19,0.4,3,5,92,68,29,
黄山市,黄山区政府5号楼,118.1371,30.2756,2025-05-19T1400,6,15,0.3,3,4,101,71,32,
黄山市,滨江东路7-2号,118.3354,29.7203,2025-05-19T1400,12,28,0.2,3,4,102,78,32,
黄石市,沈家营,115.0601,30.2313,2025-05-19T1400,40,88,1.0,7,6,192,114,90,臭氧1小时
黄石市,铁山,114.8988,30.2019,2025-05-19T1400,38,66,0.7,4,4,169,125,62,臭氧1小时
黄石市,团城山,115.0307,30.2092,2025-05-19T1400,31,76,0.8,13,8,164,106,63,颗粒物(PM10)
黄石市,笔架山北路,115.0235,30.1578,2025-05-19T1400,33,53,1.3,,,183,133,,
黄石市,磁湖东路29号,115.0780,30.21118,2025-05-19T1400,44,87,1.2,14,10,199,116,99,臭氧1小时
惠州市,河南岸金山湖子站,114.4183,23.0528,2025-05-19T1400,19,19,0.3,14,6,68,25,28,
惠州市,下埔横江三路子站,114.4053,23.0822,2025-05-19T1400,26,38,0.3,18,5,63,27,38,
惠州市,江北云山西路子站,114.4103,23.1142,2025-05-19T1400,21,31,0.6,15,7,76,33,31,
惠州市,惠阳区承修路船湖子站,114.4645,22.7833,2025-05-19T1400,11,17,,9,7,67,39,,
惠州市,大亚湾管委会子站,114.5317,22.7422,2025-05-19T1400,12,14,0.4,5,7,63,38,20,
惠州市,惠阳秋长,114.4338,22.8134,2025-05-19T1400,9,19,0.4,6,12,81,32,26,
惠州市,大亚湾霞涌,114.6517,22.775,2025-05-19T1400,11,,0.5,6,6,62,36,20,
鸡西市,环保局,130.9762,45.3001,2025-05-19T1400,10,11,0.4,7,6,103,92,33,
鸡西市,第一中学,130.9429,45.3039,2025-05-19T1400,12,18,,3,6,98,85,,
鸡西市,欧美日汽修厂,131.0207,45.3073,2025-05-19T1400,3,6,0.2,4,4,97,86,31,
鸡西市,市政设施管理处,130.9967,45.3106,2025-05-19T1400,8,18,0.4,3,4,98,88,31,
吉安市,红声器材厂,114.9754,27.0803,2025-05-19T1400,3,13,0.4,3,10,68,48,22,
吉安市,市森林工业局,114.9658,27.0999,2025-05-19T1400,9,17,0.3,2,8,73,53,23,
吉安市,市环境监测站,114.99,27.1312,2025-05-19T1400,3,16,0.5,2,9,75,55,24,
吉安市,青原区法院,115.0093,27.0968,2025-05-19T1400,6,10,0.3,2,11,66,46,21,
吉林市,哈达湾,126.54,43.8622,2025-05-19T1400,6,8,0.2,6,6,87,92,28,
吉林市,东局子,126.5844,43.8358,2025-05-19T1400,3,10,0.4,10,5,97,102,31,
吉林市,电力学院,126.5052,43.8245,2025-05-19T1400,10,13,0.3,5,4,99,101,31,
吉林市,江北,126.6133,43.8972,2025-05-19T1400,6,12,0.2,9,6,100,100,32,
吉林市,江南公园,126.555,43.8306,2025-05-19T1400,9,10,0.2,5,5,98,102,31,
吉林市,丰满,126.7061,43.7133,2025-05-19T1400,,,,,,,,,
吉林市,九站,126.4739,43.953,2025-05-19T1400,3,7,0.2,4,6,103,105,33,
济南市,科干所,116.9862,36.6114,2025-05-19T1400,46,129,0.4,10,7,199,165,99,臭氧1小时
济南市,农科所,116.9376,36.665,2025-05-19T1400,44,137,0.3,13,9,191,158,94,颗粒物(PM10)
济南市,开发区,117.1265,36.6734,2025-05-19T1400,54,132,0.7,15,10,194,163,93,臭氧1小时
济南市,省种子仓库,117.0624,36.6868,2025-05-19T1400,46,168,0.4,14,7,198,164,109,颗粒物(PM10)
济南市,机床二厂,116.9489,36.6447,2025-05-19T1400,66,168,0.5,16,11,185,146,109,颗粒物(PM10)
济南市,市监测站,117.0495,36.663,2025-05-19T1400,44,137,0.5,14,10,189,158,94,颗粒物(PM10)
济南市,长清党校,116.7675,36.5484,2025-05-19T1400,59,154,0.9,11,9,200,154,102,颗粒物(PM10)
济南市,技术学院,117.6795,36.229,2025-05-19T1400,51,139,0.5,13,12,194,152,95,颗粒物(PM10)
济南市,东山小学,117.532,36.6868,2025-05-19T1400,37,129,0.3,4,6,168,153,90,颗粒物(PM10)
济南市,泰兴公司,117.7161,36.2049,2025-05-19T1400,51,134,0.4,15,9,192,137,92,颗粒物(PM10)
济南市,莱芜战役纪念馆,117.6867,36.2171,2025-05-19T1400,36,129,0.2,20,13,192,148,90,"颗粒物(PM10),臭氧1小时"
济南市,济阳区政府,117.1673,36.9782,2025-05-19T1400,49,161,0.5,20,8,211,166,106,"颗粒物(PM10),臭氧1小时"
济南市,锦屏中学,117.1171,36.63,2025-05-19T1400,39,120,0.3,14,11,189,160,87,臭氧1小时
济南市,济南四建,116.9814,36.6819,2025-05-19T1400,66,197,0.5,24,9,200,164,124,颗粒物(PM10)
济宁市,火炬城,116.6251,35.4302,2025-05-19T1400,73,116,0.5,5,7,170,131,98,细颗粒物(PM2.5)
济宁市,电化厂,116.5491,35.4042,2025-05-19T1400,53,126,0.5,,2,169,132,,
济宁市,北湖一中,116.5814,35.3707,2025-05-19T1400,98,140,0.5,9,7,171,123,129,细颗粒物(PM2.5)
济宁市,服务中心,116.8249,35.5593,2025-05-19T1400,47,126,0.5,11,3,182,129,88,颗粒物(PM10)
济宁市,市第七中学,116.5907,35.4054,2025-05-19T1400,75,182,0.4,4,8,164,125,116,颗粒物(PM10)
佳木斯市,佳纺,130.2751,46.8028,2025-05-19T1400,3,6,0.2,4,2,87,74,28,
佳木斯市,发电厂,130.3995,46.8307,2025-05-19T1400,7,8,0.1,6,4,86,73,27,
佳木斯市,环保局,130.3258,46.7975,2025-05-19T1400,9,13,0.2,5,4,85,72,27,
佳木斯市,十一中,130.3648,46.8032,2025-05-19T1400,7,10,0.3,7,2,85,70,27,
佳木斯市,四丰,130.3794,46.7588,2025-05-19T1400,6,,0.3,4,1,,,,
嘉兴市,清河小学,120.7436,30.778,2025-05-19T1400,15,31,0.6,13,7,172,104,65,臭氧1小时
嘉兴市,嘉兴学院,120.726,30.7478,2025-05-19T1400,16,40,0.3,11,8,172,103,65,臭氧1小时
嘉兴市,南湖区残联,120.7846,30.7525,2025-05-19T1400,13,22,0.6,8,7,181,112,77,臭氧1小时
嘉兴市,秀洲住建,120.6916,30.7739,2025-05-19T1400,16,41,0.7,7,9,191,111,89,臭氧1小时
嘉峪关市,气象局,98.2908,39.7711,2025-05-19T1400,24,29,0.5,4,14,146,116,46,
嘉峪关市,酒钢宾馆,98.2672,39.7978,2025-05-19T1400,14,31,1.1,9,28,132,108,42,
嘉峪关市,雄关区,98.2643,39.7724,2025-05-19T1400,11,28,0.5,7,13,136,110,43,
江门市,北街,113.1064,22.6058,2025-05-19T1400,10,30,0.2,3,3,55,32,30,
江门市,西区,113.0731,22.5835,2025-05-19T1400,12,,0.3,6,6,54,33,,
江门市,圭峰西,113.0219,22.5311,2025-05-19T1400,3,24,0.3,2,4,47,33,24,
江门市,东湖,113.0828,22.5947,2025-05-19T1400,14,17,0.4,6,7,49,34,20,
江门市,江海富民,113.1075,22.5647,2025-05-19T1400,7,,0.3,5,6,54,38,,
江门市,新会银湖,113.05,22.4667,2025-05-19T1400,9,14,0.3,7,3,37,24,14,
焦作市,影视城,113.1992,35.2590,2025-05-19T1400,,,,,,,,,
焦作市,太极体育中心,113.2725,35.2067,2025-05-19T1400,60,97,0.1,,6,,133,,
焦作市,马村街道办,113.3137,35.2641,2025-05-19T1400,86,111,0.6,14,13,224,156,114,细颗粒物(PM2.5)
焦作市,焦作技师学院,113.2465,35.2373,2025-05-19T1400,34,108,0.8,13,9,220,155,110,臭氧1小时
焦作市,中站许衡医院,113.1656,35.2539,2025-05-19T1400,24,75,0.6,21,13,215,152,108,臭氧1小时
焦作市,原李万街道办,113.2449,35.1803,2025-05-19T1400,53,104,0.4,12,15,213,148,107,臭氧1小时
焦作市,新安路1731号,113.2340,35.2190,2025-05-19T1400,68,106,0.6,13,8,205,142,103,臭氧1小时
揭阳市,新兴,116.3701,23.5345,2025-05-19T1400,18,47,0.4,2,5,71,52,47,
揭阳市,西马,116.3264,23.5443,2025-05-19T1400,15,25,0.4,4,6,65,48,25,
揭阳市,东兴,116.3611,23.5626,2025-05-19T1400,10,42,0.4,2,3,74,56,42,
揭阳市,渔湖,116.4151,23.5294,2025-05-19T1400,11,38,0.4,10,4,75,56,38,
揭阳市,曲溪,116.403,23.5699,2025-05-19T1400,12,15,0.3,4,4,81,60,26,
金昌市,天庆家园,102.1692,38.5167,2025-05-19T1400,9,24,0.6,2,8,140,103,44,
金昌市,金川区人防中心,102.1647,38.5371,2025-05-19T1400,9,27,0.4,4,6,145,104,46,
金昌市,长春路96号,102.1930,38.5319,2025-05-19T1400,6,24,0.0,1,31,139,107,44,
金华市,十五中,119.647,29.077,2025-05-19T1400,11,25,0.4,11,1,148,82,47,
金华市,监测站,119.686,29.1029,2025-05-19T1400,11,21,0.5,10,2,142,74,45,
金华市,气象局,119.656,29.1131,2025-05-19T1400,8,23,0.5,13,2,138,70,44,
锦州市,南山,121.1115,41.0879,2025-05-19T1400,37,47,0.8,13,8,133,93,53,细颗粒物(PM2.5)
锦州市,开发区,121.0604,40.8428,2025-05-19T1400,37,52,0.8,14,7,126,86,53,细颗粒物(PM2.5)
锦州市,百股街道,121.1836,41.1119,2025-05-19T1400,27,51,0.7,16,9,130,103,51,颗粒物(PM10)
锦州市,天安街道,121.1178,41.1222,2025-05-19T1400,43,53,0.8,14,7,132,96,60,细颗粒物(PM2.5)
锦州市,北湖公园,121.1303,41.1386,2025-05-19T1400,37,68,0.7,15,7,135,99,59,颗粒物(PM10)
晋城市,自来水公司,112.85,35.5051,2025-05-19T1400,17,64,0.0,7,6,152,115,57,颗粒物(PM10)
晋城市,白云商贸,112.8318,35.4936,2025-05-19T1400,12,76,0.5,11,6,149,116,63,颗粒物(PM10)
晋城市,市环保局,112.8508,35.4887,2025-05-19T1400,17,62,0.2,6,5,143,103,56,颗粒物(PM10)
晋城市,技术学院,112.8676,35.4897,2025-05-19T1400,12,46,0.5,9,8,139,97,46,
晋城市,白马寺,112.8453,35.546,2025-05-19T1400,18,40,0.3,3,4,160,142,50,
晋城市,泽州一中,112.8271,35.4828,2025-05-19T1400,17,75,0.3,8,9,154,118,63,颗粒物(PM10)
晋中市,南都小区,112.7249,37.7067,2025-05-19T1400,15,58,0.3,8,8,142,112,54,颗粒物(PM10)
晋中市,榆次区政府,112.6991,37.6982,2025-05-19T1400,9,68,0.2,5,9,141,112,59,颗粒物(PM10)
晋中市,榆次三中,112.7195,37.6828,2025-05-19T1400,24,92,0.3,4,7,143,116,71,颗粒物(PM10)
晋中市,迎宾街26号,112.7478,37.6954,2025-05-19T1400,70,70,0.5,5,8,143,115,94,细颗粒物(PM2.5)
荆门市,竹园小学,112.2014,31.0481,2025-05-19T1400,43,101,0.4,6,6,171,121,76,颗粒物(PM10)
荆门市,掇刀,112.1969,30.9891,2025-05-19T1400,54,84,0.4,4,4,179,130,74,"细颗粒物(PM2.5),臭氧1小时"
荆门市,石化一小,112.2213,31.0386,2025-05-19T1400,51,91,0.3,10,5,167,115,71,颗粒物(PM10)
荆门市,西山林语,112.1849,31.0362,2025-05-19T1400,39,97,0.3,4,9,153,110,74,颗粒物(PM10)
荆门市,龙泉中学南校,112.1632,31.0138,2025-05-19T1400,45,91,0.6,6,5,151,109,71,颗粒物(PM10)
荆州市,市图书馆,112.2494,30.3197,2025-05-19T1400,34,,0.3,8,4,129,97,49,
荆州市,市委党校,112.2008,30.3544,2025-05-19T1400,42,55,0.3,7,7,119,85,59,细颗粒物(PM2.5)
荆州市,管委会,112.2747,30.3122,2025-05-19T1400,40,46,0.6,6,9,135,94,57,细颗粒物(PM2.5)
荆州市,学苑路85号,112.1722,30.3366,2025-05-19T1400,28,34,0.6,1,3,133,92,42,
景德镇市,王港中学,117.3102,29.3867,2025-05-19T1400,,,,,,,,,
景德镇市,老干部活动中心,117.2117,29.2933,2025-05-19T1400,11,26,0.5,10,15,90,71,29,
景德镇市,兽医站,117.1894,29.2789,2025-05-19T1400,3,21,0.5,6,4,77,62,25,
景德镇市,台达陶瓷,117.1547,29.2617,2025-05-19T1400,21,38,0.2,16,35,86,62,38,
景德镇市,陶研所,117.2461,29.2956,2025-05-19T1400,13,16,0.3,5,5,86,68,27,
九江市,十里,115.9872,29.6815,2025-05-19T1400,20,65,0.5,2,3,121,84,58,颗粒物(PM10)
九江市,茅山头,115.9584,29.7046,2025-05-19T1400,22,49,0.6,3,3,135,91,49,
九江市,西园,115.9877,29.7295,2025-05-19T1400,29,,0.8,17,5,130,93,,
九江市,综合工业园,115.9114,29.6038,2025-05-19T1400,27,51,0.8,9,6,120,87,51,颗粒物(PM10)
九江市,石化总厂,116.0721,29.7535,2025-05-19T1400,14,30,0.6,5,6,105,82,33,
九江市,庐山气象台,115.9773,29.5698,2025-05-19T1400,18,34,0.6,5,6,98,98,34,
九江市,外国语学校,116.0254,29.6994,2025-05-19T1400,13,27,0.8,6,5,94,68,30,
九江市,莲花大道8号,116.0102,29.6594,2025-05-19T1400,23,,0.6,2,5,93,73,33,
酒泉市,玉门东路5号,98.4958,39.7339,2025-05-19T1400,9,39,0.3,1,14,162,121,53,臭氧1小时
酒泉市,北大街108号,98.5099,39.7506,2025-05-19T1400,15,27,0.4,3,16,139,105,44,
喀什地区,巡警大队,76.0072,39.4467,2025-05-19T1400,23,135,0.2,10,4,114,114,93,颗粒物(PM10)
喀什地区,吾办,75.9755,39.4694,2025-05-19T1400,50,144,0.4,9,19,116,116,97,颗粒物(PM10)
喀什地区,老干局,75.9483,39.4689,2025-05-19T1400,14,121,0.4,4,5,116,113,86,颗粒物(PM10)
开封市,肿瘤医院,114.3389,34.7781,2025-05-19T1400,56,167,0.6,11,9,225,163,113,臭氧1小时
开封市,世纪星幼儿园,114.2885,34.7965,2025-05-19T1400,53,176,0.6,16,10,237,162,119,臭氧1小时
开封市,龙亭公园,114.3438,34.8106,2025-05-19T1400,87,185,0.7,10,5,233,168,118,颗粒物(PM10)
开封市,汴京公园,114.3644,34.7964,2025-05-19T1400,71,186,0.6,11,6,215,158,118,颗粒物(PM10)
开封市,技师学院,114.2485,34.8306,2025-05-19T1400,38,180,0.3,12,6,226,167,115,颗粒物(PM10)
开封市,祥符区生态环境局,114.4644,34.7556,2025-05-19T1400,98,174,0.6,17,10,221,165,129,细颗粒物(PM2.5)
克拉玛依市,长征新村,84.895,45.6094,2025-05-19T1400,15,29,0.1,5,6,88,104,29,
克拉玛依市,南林小区,84.8988,45.5893,2025-05-19T1400,3,29,0.2,2,5,99,109,31,
克拉玛依市,独山子区,84.905,44.3396,2025-05-19T1400,17,39,0.3,6,5,103,99,39,
克拉玛依市,乌尔禾区商贸楼,85.6979,46.098,2025-05-19T1400,7,44,0.4,2,10,105,103,44,
克拉玛依市,白碱滩区新站,85.1045,45.6899,2025-05-19T1400,33,42,0.2,2,12,109,114,48,
克孜勒苏柯尔克孜自治州,市人民政府,76.1454,39.7142,2025-05-19T1400,36,224,0.2,3,4,127,126,137,颗粒物(PM10)
克孜勒苏柯尔克孜自治州,克州文化中心,76.1658,39.7157,2025-05-19T1400,28,158,0.2,1,7,131,130,104,颗粒物(PM10)
昆明市,呈贡新区,102.8204,24.8886,2025-05-19T1400,18,33,0.6,8,3,109,51,35,
昆明市,西山森林公园,102.6251,24.9608,2025-05-19T1400,,,,,,,,,
昆明市,龙泉镇,102.7252,25.0902,2025-05-19T1400,19,,0.4,11,1,80,54,28,
昆明市,东风东路,102.7266,25.0375,2025-05-19T1400,20,35,0.6,18,,94,58,,
昆明市,金鼎山,102.6742,25.0669,2025-05-19T1400,16,31,0.4,14,2,84,57,31,
昆明市,碧鸡广场,102.6644,25.0401,2025-05-19T1400,6,22,0.7,16,6,84,58,27,
昆明市,官渡区博物馆,102.7494,25.0119,2025-05-19T1400,12,37,0.6,20,6,98,50,37,
昆明市,青年创业园,102.8017,24.8336,2025-05-19T1400,21,24,0.4,6,7,107,58,34,
昆明市,昆明学院,102.7997,24.9786,2025-05-19T1400,28,35,0.5,21,5,106,58,40,
昆明市,晋宁区生态环境分局,102.5967,24.6736,2025-05-19T1400,12,22,0.5,9,5,98,63,31,
昆明市,云天化总部,102.6678,24.9856,2025-05-19T1400,18,25,0.9,16,3,92,56,29,
拉萨市,八廓街,91.1319,29.6514,2025-05-19T1400,6,8,0.3,7,6,140,99,44,
拉萨市,市环保局,91.1221,29.6747,2025-05-19T1400,3,9,0.2,7,4,128,85,40,
拉萨市,区监测站,91.0874,29.6475,2025-05-19T1400,6,8,0.2,10,6,132,93,42,
拉萨市,西藏大学,91.1774,29.6541,2025-05-19T1400,7,10,0.3,9,12,136,97,43,
拉萨市,区辐射站,90.9798,29.6588,2025-05-19T1400,6,14,0.3,6,5,137,91,43,
拉萨市,拉萨火车站,91.0834,29.6292,2025-05-19T1400,7,10,0.2,8,3,136,98,43,
来宾市,来宾技工学校,109.2203,23.7256,2025-05-19T1400,19,32,0.7,8,7,66,29,32,
来宾市,兴宾区政府,109.1781,23.7297,2025-05-19T1400,12,20,0.6,6,4,64,30,20,
来宾市,中南小学,109.2416,23.7461,2025-05-19T1400,10,28,0.6,8,7,64,31,28,
兰州市,榆中兰大校区,104.1373,35.9454,2025-05-19T1400,,,,,,,,,
兰州市,铁路设计院,103.831,36.0464,2025-05-19T1400,26,38,0.5,20,14,159,66,50,
兰州市,百合公园,103.7439,36.0842,2025-05-19T1400,12,56,0.4,21,21,162,76,53,"颗粒物(PM10),臭氧1小时"
兰州市,和平,103.9611,35.998,2025-05-19T1400,14,46,0.4,4,13,148,,47,
兰州市,庄浪东路808号,103.6293,36.0938,2025-05-19T1400,32,60,0.4,16,21,166,93,58,臭氧1小时
兰州市,安宁西路88号,103.7251,36.1043,2025-05-19T1400,31,59,0.5,15,20,187,94,84,臭氧1小时
兰州市,北滨河东路1号,103.8470,36.0676,2025-05-19T1400,20,40,0.6,13,13,165,74,57,臭氧1小时
兰州新区,新区管委会,103.6633,36.533,2025-05-19T1400,17,38,0.3,4,7,154,104,49,
兰州新区,舟曲中学,103.6975,36.4789,2025-05-19T1400,12,30,0.3,5,9,149,107,47,
廊坊市,药材公司,116.6708,39.5111,2025-05-19T1400,39,106,0.5,9,8,203,136,102,臭氧1小时
廊坊市,开发区,116.7214,39.5589,2025-05-19T1400,42,128,0.4,13,7,212,137,106,臭氧1小时
廊坊市,北华航天学院,116.7244,39.5269,2025-05-19T1400,49,134,0.5,13,9,213,136,107,臭氧1小时
廊坊市,河北工业大学,116.7022,39.5453,2025-05-19T1400,40,155,0.5,10,9,209,136,105,臭氧1小时
乐山市,花湖湾,103.7723,29.5462,2025-05-19T1400,26,35,0.4,5,4,158,90,50,
乐山市,牛耳桥,103.7627,29.5844,2025-05-19T1400,26,44,0.6,9,9,150,80,47,
乐山市,市第三水厂,103.7508,29.6006,2025-05-19T1400,34,46,0.7,10,7,158,82,50,
乐山市,市监测站,103.7571,29.5664,2025-05-19T1400,33,50,0.9,8,8,146,77,50,
乐山市,理工大学,103.7311,29.5628,2025-05-19T1400,34,46,0.8,7,6,160,78,50,
丽江市,西南郊,100.2143,26.8576,2025-05-19T1400,16,26,0.9,147,5,128,,74,二氧化氮
丽江市,丽江古城,100.2497,26.8802,2025-05-19T1400,21,,0.5,11,9,114,88,36,
丽江市,市中心,100.2203,26.8906,2025-05-19T1400,9,17,0.5,8,8,121,88,38,
丽水市,监测站大楼,119.914,28.4514,2025-05-19T1400,6,14,0.6,12,2,72,52,23,
丽水市,莲都小学,119.93,28.4586,2025-05-19T1400,3,10,0.4,9,3,73,54,23,
丽水市,余庄前,119.879,28.4231,2025-05-19T1400,16,23,0.6,10,3,84,45,27,
连云港市,市环境监测站,119.176,34.5885,2025-05-19T1400,39,95,0.5,12,7,171,133,73,颗粒物(PM10)
连云港市,德源药业,119.3581,34.6972,2025-05-19T1400,36,112,0.5,7,10,168,134,81,颗粒物(PM10)
连云港市,新城一中,119.178,34.844,2025-05-19T1400,51,94,0.8,9,9,186,131,83,臭氧1小时
连云港市,胡沟管理处,119.3608,34.7519,2025-05-19T1400,34,88,0.9,13,10,183,151,79,臭氧1小时
连云港市,矿山设计院,119.1478,34.5911,2025-05-19T1400,36,105,0.7,9,8,170,129,78,颗粒物(PM10)
连云港市,工贸学校,119.2413,34.6539,2025-05-19T1400,36,80,0.8,2,10,181,143,77,臭氧1小时
连云港市,连云街道,119.4172,34.7341,2025-05-19T1400,30,63,0.5,11,9,178,157,73,臭氧1小时
凉山彝族自治州,青龙寺,102.3431,27.8099,2025-05-19T1400,10,25,0.7,5,9,122,58,39,
凉山彝族自治州,邛海宾馆,102.2721,27.8415,2025-05-19T1400,28,48,0.8,28,17,93,47,48,
凉山彝族自治州,西昌市政府,102.2625,27.898,2025-05-19T1400,29,,0.6,13,16,110,53,42,
凉山彝族自治州,凉山州政府,102.2685,27.8851,2025-05-19T1400,20,34,0.8,15,12,104,49,34,
凉山彝族自治州,凯乐南路30号,102.2342,27.8859,2025-05-19T1400,30,52,0.5,26,10,96,50,51,颗粒物(PM10)
辽阳市,宏伟区,123.2,41.1953,2025-05-19T1400,20,40,0.5,6,7,113,102,40,
辽阳市,新华园,123.1683,41.2495,2025-05-19T1400,24,47,0.5,7,8,102,89,47,
辽阳市,滨河路,123.2354,41.2639,2025-05-19T1400,11,39,0.4,12,7,105,94,39,
辽阳市,铁西工业园,123.149,41.2991,2025-05-19T1400,16,56,0.5,11,7,113,93,53,颗粒物(PM10)
辽源市,环保局,125.1358,42.8845,2025-05-19T1400,20,35,0.5,10,7,133,121,42,
辽源市,银鹰制药,125.0764,42.9078,2025-05-19T1400,17,26,0.4,7,3,148,130,47,
聊城市,区政府,115.9848,36.4372,2025-05-19T1400,47,167,0.7,8,7,187,147,109,颗粒物(PM10)
聊城市,聊大东校,116.0072,36.4343,2025-05-19T1400,58,193,0.5,15,12,185,137,122,颗粒物(PM10)
聊城市,监控中心,115.9819,36.4978,2025-05-19T1400,46,202,0.7,8,8,187,141,126,颗粒物(PM10)
聊城市,九州社区,116.0445,36.4361,2025-05-19T1400,36,146,0.5,10,2,196,145,98,颗粒物(PM10)
聊城市,星美广场,116.0567,36.4608,2025-05-19T1400,39,156,0.8,6,8,185,138,103,颗粒物(PM10)
林芝市,林芝监测站,94.3681,29.6376,2025-05-19T1400,3,6,0.3,4,5,108,73,34,
林芝市,林芝人民医院,94.3616,29.6616,2025-05-19T1400,3,6,0.3,2,6,111,70,35,
临沧市,市环保局,100.0781,23.8982,2025-05-19T1400,29,38,0.7,6,8,110,62,42,
临沧市,市气象局,100.0894,23.8822,2025-05-19T1400,16,37,0.5,8,8,113,63,37,
临汾市,临钢医院,111.5531,36.0783,2025-05-19T1400,48,128,0.9,12,8,192,119,90,臭氧1小时
临汾市,技工学校,111.5028,36.0714,2025-05-19T1400,40,143,0.7,9,12,214,125,107,臭氧1小时
临汾市,市委,111.5018,36.0855,2025-05-19T1400,42,136,1.0,14,13,217,126,109,臭氧1小时
临汾市,唐尧大酒店,111.505,36.1014,2025-05-19T1400,51,136,0.9,12,12,210,119,105,臭氧1小时
临汾市,启星学校,111.4879,36.0530,2025-05-19T1400,39,135,0.8,12,11,209,118,105,臭氧1小时
临夏回族自治州,滨河东路1号,103.2464,35.6123,2025-05-19T1400,15,48,0.2,2,8,134,79,48,
临夏回族自治州,新华街21号,103.2093,35.5995,2025-05-19T1400,12,23,0.2,7,6,130,81,41,
临沂市,沂河小区,118.3429,35.0532,2025-05-19T1400,37,141,0.5,8,9,178,132,96,颗粒物(PM10)
临沂市,鲁南制药厂,118.295,35.0583,2025-05-19T1400,47,173,0.4,17,8,190,148,112,颗粒物(PM10)
临沂市,新光毛纺厂,118.2794,34.9976,2025-05-19T1400,44,112,0.4,13,9,186,139,83,臭氧1小时
临沂市,河东保险公司,118.3956,35.0888,2025-05-19T1400,54,129,0.5,6,9,196,144,95,臭氧1小时
临沂市,十里堡居委,118.3564,35.0215,2025-05-19T1400,58,136,0.7,22,10,213,148,107,臭氧1小时
临沂市,南坊新区,118.3604,35.1084,2025-05-19T1400,39,173,0.4,9,9,180,133,112,颗粒物(PM10)
临沂市,皇山花园小区,118.3920,35.0300,2025-05-19T1400,48,136,0.9,18,12,206,139,103,臭氧1小时
柳州市,柳东小学,109.4856,24.3895,2025-05-19T1400,9,,0.4,6,10,46,34,15,
柳州市,环保监测站,109.4157,24.3277,2025-05-19T1400,16,16,0.9,10,3,49,32,23,
柳州市,河西水厂,109.389,24.341,2025-05-19T1400,6,17,0.6,9,4,55,33,18,
柳州市,市四中,109.4311,24.2921,2025-05-19T1400,3,25,0.4,12,7,41,27,25,
柳州市,市九中,109.4006,24.3631,2025-05-19T1400,3,18,0.6,7,8,58,34,19,
柳州市,古亭山,109.4958,24.3134,2025-05-19T1400,10,12,0.9,6,5,38,22,15,
柳州市,市二中,109.5422,24.3996,2025-05-19T1400,12,14,0.7,8,10,42,30,18,
六安市,监测大楼,116.5079,31.737,2025-05-19T1400,23,60,0.3,3,4,137,98,55,颗粒物(PM10)
六安市,皖西学院,116.4738,31.7643,2025-05-19T1400,29,59,0.3,4,5,149,123,55,颗粒物(PM10)
六安市,朝阳厂,116.4996,31.7905,2025-05-19T1400,23,50,0.2,10,5,116,97,50,
六安市,开发区,116.5567,31.7886,2025-05-19T1400,30,72,0.4,7,,145,119,,
六盘水市,窑上,104.8,26.5892,2025-05-19T1400,29,30,0.4,7,6,67,46,42,
六盘水市,黄土坡,104.83,26.5917,2025-05-19T1400,28,,0.5,9,11,79,54,40,
六盘水市,水钢,104.89,26.5939,2025-05-19T1400,15,24,0.5,6,11,86,59,27,
六盘水市,民中,104.8475,26.5894,2025-05-19T1400,19,39,0.5,12,10,73,55,39,
六盘水市,双水,104.9544,26.5506,2025-05-19T1400,12,24,0.2,10,10,79,47,25,
龙岩市,龙岩师专,117.0189,25.1181,2025-05-19T1400,,,,,,,,,
龙岩市,龙岩市监测站,117.0217,25.1033,2025-05-19T1400,8,20,0.4,6,3,60,43,20,
龙岩市,闽西职业技术学院,117.0258,25.0661,2025-05-19T1400,6,8,0.2,4,3,53,39,17,
龙岩市,龙岩学院,117.0196,25.0306,2025-05-19T1400,6,10,0.4,2,6,56,44,18,
陇南市,汉王镇固水子,105.0822,33.3261,2025-05-19T1400,,,,,,,,,
陇南市,滨江中学,104.9339,33.3826,2025-05-19T1400,30,66,0.4,3,8,139,105,58,颗粒物(PM10)
陇南市,市总工会,104.955,33.371,2025-05-19T1400,37,51,0.5,3,7,135,109,53,细颗粒物(PM2.5)
娄底市,电视发射台,111.9589,27.8901,2025-05-19T1400,20,51,0.4,4,6,92,59,51,颗粒物(PM10)
娄底市,市监测站,111.9975,27.725,2025-05-19T1400,29,48,0.7,8,10,86,60,48,
娄底市,市委党校,112.0194,27.7314,2025-05-19T1400,31,42,0.5,3,4,86,57,45,
娄底市,涟钢,111.9561,27.7569,2025-05-19T1400,31,44,0.8,17,15,84,53,45,
娄底市,市政府,111.9892,27.7044,2025-05-19T1400,34,,0.5,7,4,95,59,49,
泸州市,九狮山,105.4324,28.9634,2025-05-19T1400,28,50,0.5,14,5,145,77,50,
泸州市,小市上码头,105.4427,28.9063,2025-05-19T1400,21,30,0.4,9,8,149,80,47,
泸州市,兰田宪桥,105.4241,28.8573,2025-05-19T1400,26,32,0.4,6,11,160,74,50,
泸州市,市环监站,105.4379,28.8833,2025-05-19T1400,23,36,0.2,7,15,158,73,50,
泸州市,纳溪中医医院,105.3689,28.7783,2025-05-19T1400,29,49,0.6,12,8,164,68,55,臭氧1小时
吕梁市,环保局,111.1406,37.5211,2025-05-19T1400,13,,0.2,6,5,133,32,,
吕梁市,自来水公司,111.1297,37.5136,2025-05-19T1400,14,67,0.3,19,3,121,74,59,颗粒物(PM10)
吕梁市,马茂庄小学,111.1283,37.51,2025-05-19T1400,35,81,0.5,12,4,128,78,66,颗粒物(PM10)
洛阳市,市委党校,112.3931,34.6516,2025-05-19T1400,40,69,0.3,2,4,139,115,60,颗粒物(PM10)
洛阳市,河南林校,112.494,34.6886,2025-05-19T1400,36,75,0,4,7,141,116,63,颗粒物(PM10)
洛阳市,开发区管委会,112.3844,34.623,2025-05-19T1400,29,70,,4,6,139,113,,
洛阳市,市委新办公区,112.4267,34.6258,2025-05-19T1400,32,79,0.0,5,7,152,123,65,颗粒物(PM10)
洛阳市,伊滨,112.6005,34.6326,2025-05-19T1400,71,105,0.5,6,6,156,128,95,细颗粒物(PM2.5)
洛阳市,中移产业园,112.4951,34.6332,2025-05-19T1400,24,84,0.3,8,9,157,129,67,颗粒物(PM10)
洛阳市,吉利监测站,112.5736,34.8993,2025-05-19T1400,62,111,0.1,7,9,188,140,85,臭氧1小时
洛阳市,河科大西苑校区,112.3677,34.662,2025-05-19T1400,30,70,0.2,4,6,143,114,60,颗粒物(PM10)
洛阳市,英才小学,112.4388,34.6781,2025-05-19T1400,34,77,0.3,3,5,146,116,64,颗粒物(PM10)
洛阳市,春都路1号院,112.4600,34.6949,2025-05-19T1400,32,87,0.3,9,3,152,120,69,颗粒物(PM10)
漯河市,三五一五工厂,114.051,33.5699,2025-05-19T1400,45,117,0.6,6,4,175,142,84,颗粒物(PM10)
漯河市,漯河大学,114.0055,33.5698,2025-05-19T1400,46,140,0.4,5,3,185,145,95,颗粒物(PM10)
漯河市,市水利局,114.0138,33.5828,2025-05-19T1400,70,139,0.6,7,4,179,144,95,颗粒物(PM10)
漯河市,市广电局,114.0261,33.5698,2025-05-19T1400,63,122,0.5,9,4,173,144,86,颗粒物(PM10)
漯河市,市图书馆,113.9749,33.5664,2025-05-19T1400,80,137,0.6,9,4,183,148,107,细颗粒物(PM2.5)
漯河市,韶山路11号,114.0892,33.5882,2025-05-19T1400,64,142,0.8,7,4,176,141,96,颗粒物(PM10)
马鞍山市,湖东路四小,118.5092,31.6837,2025-05-19T1400,16,91,0.8,11,8,211,125,106,臭氧1小时
马鞍山市,开发区,118.5024,31.6449,2025-05-19T1400,26,67,0.7,18,9,204,122,102,臭氧1小时
马鞍山市,濮塘,118.6245,31.7241,2025-05-19T1400,33,71,0.8,5,9,193,127,92,臭氧1小时
马鞍山市,雨山,118.4918,31.6809,2025-05-19T1400,30,54,0.9,9,11,208,122,104,臭氧1小时
马鞍山市,慈湖高新区,118.5274,31.72227,2025-05-19T1400,28,50,0.8,16,11,204,118,102,臭氧1小时
茂名市,电白南海,111.0286,21.4688,2025-05-19T1400,14,27,0.6,7,2,46,39,27,
茂名市,茂石化七小,110.9294,21.6533,2025-05-19T1400,12,19,0.5,11,3,25,16,19,
茂名市,健康路,110.9107,21.6687,2025-05-19T1400,3,14,0.5,10,3,28,17,14,
茂名市,高岭,110.8592,21.6828,2025-05-19T1400,9,29,0.4,12,11,26,16,29,
茂名市,电白水东,111.01,21.5165,2025-05-19T1400,3,12,0.5,9,3,42,36,14,
眉山市,黑龙滩水库,104.0308,30.0478,2025-05-19T1400,12,23,0.4,2,2,169,92,62,臭氧1小时
眉山市,气象局,103.8416,30.0874,2025-05-19T1400,34,67,0.4,10,1,186,86,83,臭氧1小时
眉山市,市委党校,103.8578,30.0744,2025-05-19T1400,29,61,0.5,9,10,166,79,58,臭氧1小时
眉山市,区人社局,103.8291,30.0564,2025-05-19T1400,27,51,0.4,12,13,166,74,58,臭氧1小时
梅州市,梅江月梅,116.1231,24.3284,2025-05-19T1400,15,27,0.6,5,5,50,29,27,
梅州市,梅县新城,116.0797,24.2719,2025-05-19T1400,13,,0.7,6,6,60,31,19,
梅州市,环境监控中心,116.1248,24.2654,2025-05-19T1400,11,30,0.6,14,7,45,32,30,
梅州市,梅龙,116.1233,24.2991,2025-05-19T1400,12,14,0.5,,5,57,38,,
绵阳市,富乐山,104.7778,31.4741,2025-05-19T1400,91,119,0.8,11,10,177,118,120,细颗粒物(PM2.5)
绵阳市,高新区自来水公司,104.6697,31.4668,2025-05-19T1400,51,75,0.7,9,6,173,106,70,细颗粒物(PM2.5)
绵阳市,三水厂,104.7287,31.5075,2025-05-19T1400,89,126,0.9,13,9,185,110,118,细颗粒物(PM2.5)
绵阳市,西科大附属小学,104.69,31.5322,2025-05-19T1400,57,86,0.7,10,9,187,117,84,臭氧1小时
绵阳市,安州区旅游局,104.5648,31.5343,2025-05-19T1400,56,107,0.8,12,6,199,121,99,臭氧1小时
绵阳市,绵阳市气象局,104.7651,31.4531,2025-05-19T1400,68,89,1.0,9,8,170,112,92,细颗粒物(PM2.5)
牡丹江市,环保大楼,129.61,44.561,2025-05-19T1400,22,,0.3,8,6,96,92,32,
牡丹江市,文化广场,129.6115,44.5782,2025-05-19T1400,21,25,0.3,13,10,94,91,30,
牡丹江市,第一医院,129.5904,44.5963,2025-05-19T1400,23,,0.4,10,5,92,88,33,
牡丹江市,机车工厂,129.6364,44.6075,2025-05-19T1400,15,18,0.3,9,5,92,88,29,
牡丹江市,第一中学,129.6386,44.5462,2025-05-19T1400,19,22,0.2,7,3,102,98,32,
内江市,市监测站,105.0703,29.61,2025-05-19T1400,34,46,0.9,11,5,162,99,53,臭氧1小时
内江市,东兴区政府,105.0717,29.5947,2025-05-19T1400,25,36,0.6,9,12,164,94,55,臭氧1小时
内江市,内江二中,105.0653,29.5817,2025-05-19T1400,22,41,0.4,12,8,154,97,49,
内江市,内江日报社,105.0406,29.5822,2025-05-19T1400,28,32,0.6,6,14,157,90,50,
那曲市,那曲监测站,92.0657,31.4846,2025-05-19T1400,7,18,0.3,8,7,125,84,40,
那曲市,那曲市委宣传部,92.0515,31.4787,2025-05-19T1400,3,7,0.3,3,4,132,86,42,
南昌市,省外办,115.8931,28.6843,2025-05-19T1400,19,26,0.6,12,3,109,77,35,
南昌市,省林业公司,115.8886,28.7003,2025-05-19T1400,12,14,0.7,6,8,114,82,36,
南昌市,林科所,115.8126,28.7442,2025-05-19T1400,,,0.6,,4,116,83,,
南昌市,建工学校,115.8518,28.687,2025-05-19T1400,19,32,0.5,8,5,122,86,39,
南昌市,象湖,115.8921,28.6424,2025-05-19T1400,12,20,0.6,8,8,114,82,36,
南昌市,武术学校,115.7423,28.7996,2025-05-19T1400,8,17,0.7,4,5,98,61,31,
南昌市,机电学校,115.9084,28.6062,2025-05-19T1400,22,37,0.4,8,6,128,86,40,
南昌市,外国语学校,115.9721,28.7031,2025-05-19T1400,18,22,0.3,5,9,122,88,39,
南昌市,南京东路235号,115.9316,28.68677,2025-05-19T1400,14,34,0.7,4,4,120,86,38,
南充市,西山风景区,106.056,30.8064,2025-05-19T1400,,,,,,,,,
南充市,南充市委,106.0789,30.8023,2025-05-19T1400,48,64,0.5,9,6,185,131,82,臭氧1小时
南充市,南充炼油厂,106.1031,30.8217,2025-05-19T1400,48,68,0.5,8,6,178,121,73,臭氧1小时
南充市,梨树横街98号,106.1083,30.7884,2025-05-19T1400,49,59,0.4,9,6,179,123,74,臭氧1小时
南充市,清泉寺北路188号,106.1172,30.843,2025-05-19T1400,39,66,0.4,10,6,181,116,77,臭氧1小时
南充市,同庆路1号,106.067,30.7616,2025-05-19T1400,41,73,0.3,7,5,155,113,62,颗粒物(PM10)
南京市,迈皋桥,118.8086,32.1065,2025-05-19T1400,39,71,1.4,18,6,219,128,110,臭氧1小时
南京市,草场门,118.7538,32.0551,2025-05-19T1400,46,83,1.3,22,13,216,125,108,臭氧1小时
南京市,山西路,118.7794,32.0745,2025-05-19T1400,44,92,1.1,26,17,230,133,115,臭氧1小时
南京市,中华门,118.7752,32.0023,2025-05-19T1400,41,70,0.9,17,4,184,110,80,臭氧1小时
南京市,瑞金路,118.8109,32.0309,2025-05-19T1400,34,66,0.4,22,7,194,113,93,臭氧1小时
南京市,玄武湖,118.7997,32.0754,2025-05-19T1400,30,83,1.0,10,5,206,120,103,臭氧1小时
南京市,浦口,118.6414,32.0931,2025-05-19T1400,27,69,0.6,15,5,171,109,64,臭氧1小时
南京市,奥体中心,118.7356,31.9996,2025-05-19T1400,39,71,1.2,22,14,199,127,99,臭氧1小时
南京市,仙林大学城,118.9125,32.1028,2025-05-19T1400,27,51,0.7,,15,181,127,,
南京市,江宁彩虹桥,118.8436,31.9198,2025-05-19T1400,36,69,0.6,15,4,178,117,73,臭氧1小时
南京市,六合雄州,118.8554,32.3578,2025-05-19T1400,23,57,1.4,26,13,203,125,102,臭氧1小时
南京市,汶溪路181号,118.8708,31.3402,2025-05-19T1400,40,,0.9,11,3,166,108,58,臭氧1小时
南京市,中山西路1号,119.019,31.6512,2025-05-19T1400,28,36,0.5,8,8,122,92,40,
南宁市,二十一中,108.3103,22.7881,2025-05-19T1400,13,,0.6,10,1,69,27,22,
南宁市,北湖,108.3141,22.8528,2025-05-19T1400,9,32,0.5,13,4,70,40,32,
南宁市,市监测站,108.3206,22.8225,2025-05-19T1400,15,,0.5,9,1,64,28,,
南宁市,大自然花园,108.3829,22.8037,2025-05-19T1400,14,16,0.6,5,4,70,37,22,
南宁市,仙葫,108.4394,22.7904,2025-05-19T1400,16,,0.6,9,3,64,34,23,
南宁市,区农职院,108.2397,22.8467,2025-05-19T1400,11,20,0.3,9,3,77,39,25,
南宁市,英华嘉园,108.3275,22.735,2025-05-19T1400,15,18,0.4,10,6,67,35,22,
南宁市,红星社区,108.4834,22.7618,2025-05-19T1400,14,24,0.4,4,8,68,37,24,
南宁市,乐贤路16号,108.2177,22.7774,2025-05-19T1400,11,14,0.5,8,3,70,31,22,
南平市,茫荡山,118.0966,26.6761,2025-05-19T1400,,,,,,,,,
南平市,南平市监测站,118.1681,26.6369,2025-05-19T1400,8,13,,,4,64,41,,
南平市,南平铝业有限公司,118.1825,26.6489,2025-05-19T1400,7,14,0.6,3,3,61,41,20,
南平市,南平七中,118.1756,26.6272,2025-05-19T1400,11,19,0.6,3,4,63,35,20,
南通市,狼山街道,120.9098,31.9663,2025-05-19T1400,35,49,1.0,20,6,205,117,103,臭氧1小时
南通市,虹桥,120.86,32.0005,2025-05-19T1400,35,64,0.8,18,4,202,110,101,臭氧1小时
南通市,城中,120.87,32.02,2025-05-19T1400,29,55,0.6,16,6,201,114,101,臭氧1小时
南通市,星湖花园,120.94,31.93,2025-05-19T1400,22,39,0.5,14,5,173,109,67,臭氧1小时
南通市,紫琅学院,120.81,32.0417,2025-05-19T1400,21,53,0.6,41,6,160,98,52,颗粒物(PM10)
南通市,通州监测站,121.067,32.062,2025-05-19T1400,24,53,1.0,18,9,195,119,94,臭氧1小时
南通市,环境教育馆,120.9348,31.9883,2025-05-19T1400,24,46,0.6,17,5,180,112,75,臭氧1小时
南阳市,瓦房庄,112.5224,33.0122,2025-05-19T1400,66,118,0.4,8,6,184,156,89,细颗粒物(PM2.5)
南阳市,汉画馆,112.5003,32.9735,2025-05-19T1400,51,118,0.5,11,7,187,154,84,"颗粒物(PM10),臭氧1小时"
南阳市,气象站,112.5573,33.027,2025-05-19T1400,53,,,6,6,189,163,,
南阳市,理工学院,112.5481,32.9689,2025-05-19T1400,52,118,0.4,6,6,186,150,84,颗粒物(PM10)
南阳市,卧龙区政府,112.5234,32.9922,2025-05-19T1400,51,123,0.5,9,6,183,153,87,颗粒物(PM10)
宁波市,区环保大楼,121.8358,29.911,2025-05-19T1400,9,11,0.4,8,8,95,82,30,
宁波市,万里学院,121.56,29.82,2025-05-19T1400,3,16,0.4,5,4,109,90,35,
宁波市,龙赛医院,121.713,29.9572,2025-05-19T1400,12,,,3,8,115,94,,
宁波市,钱湖水厂,121.633,29.7733,2025-05-19T1400,6,9,0.6,5,8,104,85,33,
宁波市,太古小学,121.5856,29.8635,2025-05-19T1400,9,10,0.6,4,6,112,89,35,
宁波市,市环境监测中心,121.524,29.8674,2025-05-19T1400,3,8,0.4,8,10,109,89,35,
宁波市,万里国际学校,121.6147,29.9017,2025-05-19T1400,8,9,0.7,7,6,115,94,36,
宁波市,白沙活动中心,121.5594,29.8975,2025-05-19T1400,3,6,0.4,5,,114,68,,
宁德市,金涵水库,119.5001,26.6946,2025-05-19T1400,,,,,,,,,
宁德市,宁德市监测站,119.5388,26.6612,2025-05-19T1400,17,32,,16,6,104,75,,
宁德市,宁德一中,119.5231,26.6562,2025-05-19T1400,14,29,,,5,98,74,,
怒江傈僳族自治州,州监测站,98.8601,25.8567,2025-05-19T1400,12,33,0.4,5,6,105,62,33,
怒江傈僳族自治州,泸水一中,98.8546,25.8417,2025-05-19T1400,23,46,0.4,8,7,85,44,46,
攀枝花市,弄弄坪,101.6891,26.571,2025-05-19T1400,19,37,0.7,9,8,119,69,38,
攀枝花市,河门口,101.5769,26.5928,2025-05-19T1400,24,38,1.6,15,21,127,74,40,
攀枝花市,炳草岗,101.7169,26.585,2025-05-19T1400,17,19,0.7,8,11,118,67,37,
攀枝花市,仁和,101.7369,26.5008,2025-05-19T1400,29,44,0.6,8,14,118,73,44,
攀枝花市,四十中小,101.7227,26.567,2025-05-19T1400,20,34,0.8,8,11,126,78,40,
盘锦市,开发区,122.0303,41.1489,2025-05-19T1400,40,58,0.7,12,11,164,111,57,细颗粒物(PM2.5)
盘锦市,兴隆台,122.0485,41.0883,2025-05-19T1400,38,44,0.7,14,10,129,106,54,细颗粒物(PM2.5)
盘锦市,新生街道,121.8297,41.1028,2025-05-19T1400,32,42,0.6,16,10,154,110,49,
平顶山市,新华旅馆,113.3257,33.742,2025-05-19T1400,33,121,0.6,10,6,191,161,89,臭氧1小时
平顶山市,规划设计院,113.2919,33.737,2025-05-19T1400,67,146,0.4,11,6,189,161,98,颗粒物(PM10)
平顶山市,平顶山工学院,113.182,33.774,2025-05-19T1400,48,109,0.3,6,3,175,158,80,颗粒物(PM10)
平顶山市,规划局,113.3025,33.73,2025-05-19T1400,49,144,0.4,6,7,185,158,97,颗粒物(PM10)
平顶山市,石龙区,112.8867,33.9116,2025-05-19T1400,76,121,0.3,8,8,171,150,102,细颗粒物(PM2.5)
平凉市,聚贤嘉苑,106.6692,35.5461,2025-05-19T1400,32,69,0.6,4,5,128,99,60,颗粒物(PM10)
平凉市,博物馆,106.7021,35.5307,2025-05-19T1400,13,46,0.4,4,12,130,87,46,
萍乡市,武功山,114.0997,27.5002,2025-05-19T1400,6,,0.6,3,10,63,42,20,
萍乡市,中医院,113.8385,27.6434,2025-05-19T1400,11,36,0.7,2,9,77,43,36,
萍乡市,市政府车库,113.8493,27.6253,2025-05-19T1400,22,,0.4,2,5,69,41,32,
萍乡市,市环保局,113.8676,27.6435,2025-05-19T1400,16,32,0.7,3,6,89,54,32,
萍乡市,安源区政府,113.866,27.6198,2025-05-19T1400,9,20,0.5,5,5,67,42,21,
莆田市,荔城区仓后路,119.0141,25.4325,2025-05-19T1400,53,82,0.7,21,4,108,67,73,细颗粒物(PM2.5)
莆田市,莆田市监测站,119.0015,25.4553,2025-05-19T1400,56,94,0.8,16,5,109,63,77,细颗粒物(PM2.5)
莆田市,涵江区六中,119.1119,25.4561,2025-05-19T1400,56,79,0.6,18,1,103,55,77,细颗粒物(PM2.5)
莆田市,秀屿区政府,119.1013,25.3215,2025-05-19T1400,28,43,0.4,8,4,77,76,43,
莆田市,东圳水库,118.981,25.4792,2025-05-19T1400,,,,,,,,,
濮阳市,环保局,115.0312,35.7636,2025-05-19T1400,41,149,0.7,10,9,189,143,100,颗粒物(PM10)
濮阳市,油田运输公司,115.0574,35.7609,2025-05-19T1400,45,143,0.7,10,8,187,140,97,颗粒物(PM10)
濮阳市,濮水河管理处,115,35.7668,2025-05-19T1400,47,151,0.6,12,9,194,137,101,颗粒物(PM10)
濮阳市,任丘路479号,115.0924,35.7686,2025-05-19T1400,41,141,0.8,16,9,188,143,96,颗粒物(PM10)
普洱市,市环保局,100.98,22.7633,2025-05-19T1400,16,42,0.4,1,7,81,52,42,
普洱市,普洱第二中学,100.9817,22.8322,2025-05-19T1400,11,28,0.4,5,5,90,54,29,
七台河市,新一中,131.0518,45.8751,2025-05-19T1400,,0,0.7,6,10,,,,
七台河市,中波台,131.0577,45.7879,2025-05-19T1400,9,,0.3,10,6,75,72,24,
七台河市,人民广场,131.0176,45.7761,2025-05-19T1400,11,15,0.5,12,11,84,86,27,
七台河市,新建矿广场,130.8781,45.8222,2025-05-19T1400,13,102,0.6,10,,80,81,,
齐齐哈尔市,安居小区,123.9305,47.3636,2025-05-19T1400,21,32,0.4,8,5,91,74,32,
齐齐哈尔市,中心广场,123.9488,47.3386,2025-05-19T1400,27,38,0.3,5,1,93,76,39,
齐齐哈尔市,农牧车辆厂,123.9483,47.3227,2025-05-19T1400,24,39,0.3,4,3,86,71,39,
齐齐哈尔市,市环境监测站,123.945,47.2988,2025-05-19T1400,26,28,0.2,5,3,89,74,38,
齐齐哈尔市,富区青少年活动中心,123.6333,47.2075,2025-05-19T1400,31,45,0.3,6,2,69,63,45,
黔东南苗族侗族自治州,市环境监测站,107.9783,26.5747,2025-05-19T1400,31,45,0.5,6,4,119,64,45,
黔东南苗族侗族自治州,凯里学院,107.8908,26.5311,2025-05-19T1400,32,41,0.4,3,3,124,64,46,
黔南布依族苗族自治州,小围寨,107.5228,26.2403,2025-05-19T1400,24,34,0.4,5,3,111,54,35,
黔南布依族苗族自治州,沙坝,107.5175,26.2978,2025-05-19T1400,24,41,0.7,5,4,111,57,41,
黔西南布依族苗族自治州,场坝街,104.9022,25.0925,2025-05-19T1400,3,12,0.3,4,2,86,74,27,
黔西南布依族苗族自治州,坪东大道,104.8811,25.0992,2025-05-19T1400,9,18,0.4,,2,80,62,,
钦州市,市环保站,108.6236,21.9667,2025-05-19T1400,7,9,0.6,5,3,48,27,15,
钦州市,沙埠小学,108.6549,21.9481,2025-05-19T1400,8,26,0.4,6,5,53,26,26,
钦州市,港区一小,108.5989,21.7431,2025-05-19T1400,12,42,0.4,10,8,48,28,42,
钦州市,北职校,108.5959,21.9633,2025-05-19T1400,6,18,0.4,3,6,37,22,18,
秦皇岛市,第一关,119.7493,40.0116,2025-05-19T1400,37,104,0.7,16,12,189,111,87,臭氧1小时
秦皇岛市,监测站,119.5897,39.9499,2025-05-19T1400,28,77,0.8,18,10,187,125,84,臭氧1小时
秦皇岛市,建设大厦,119.5251,39.9041,2025-05-19T1400,18,90,0.9,17,13,195,129,94,臭氧1小时
秦皇岛市,文明里,119.610547,39.943889,2025-05-19T1400,25,114,0.6,18,9,172,117,82,颗粒物(PM10)
秦皇岛市,北戴河轮滑馆,119.5090,39.8253,2025-05-19T1400,40,72,0.5,18,7,152,90,61,颗粒物(PM10)
青岛市,仰口,120.6659,36.2403,2025-05-19T1400,44,123,0.5,8,10,204,146,102,臭氧1小时
青岛市,市南区东部子站,120.4134,36.0658,2025-05-19T1400,48,124,0.7,14,12,184,116,87,颗粒物(PM10)
青岛市,四方区子站,120.3664,36.1032,2025-05-19T1400,53,114,1.1,21,12,212,132,106,臭氧1小时
青岛市,市南区西部子站,120.2994,36.054,2025-05-19T1400,49,107,1.1,22,9,192,113,90,臭氧1小时
青岛市,崂山区子站,120.4581,36.0858,2025-05-19T1400,56,112,0.7,16,12,174,122,81,颗粒物(PM10)
青岛市,城阳区子站,120.3999,36.3083,2025-05-19T1400,42,127,,,10,209,98,105,臭氧1小时
青岛市,黄岛区4号,120.0405,35.8735,2025-05-19T1400,41,119,1.1,24,14,216,113,108,臭氧1小时
青岛市,即墨2号,120.5014,36.4034,2025-05-19T1400,46,143,1.0,25,13,213,140,107,臭氧1小时
青岛市,市北区南部,120.3503,36.0736,2025-05-19T1400,58,93,0.8,17,10,182,116,79,细颗粒物(PM2.5)
青岛市,李沧区北部,120.3948,36.1805,2025-05-19T1400,56,141,1.0,29,14,170,108,96,颗粒物(PM10)
青岛市,珠江路669号,120.1969,35.9546,2025-05-19T1400,63,124,1.0,14,12,207,116,104,臭氧1小时
清远市,环保大楼,113.0426,23.691,2025-05-19T1400,50,109,0.7,14,11,104,47,80,颗粒物(PM10)
清远市,凤城街办,113.0208,23.7106,2025-05-19T1400,36,64,0.5,16,9,92,42,57,颗粒物(PM10)
清远市,技师学院,113.0477,23.6344,2025-05-19T1400,32,48,0.2,18,10,88,40,48,
清远市,清新太和,112.9903,23.7403,2025-05-19T1400,44,54,0.5,10,13,84,44,62,细颗粒物(PM2.5)
清远市,清城东城,113.076,23.7198,2025-05-19T1400,47,71,0.7,12,11,102,46,65,细颗粒物(PM2.5)
庆阳市,庆阳五中,107.6325,35.7357,2025-05-19T1400,20,54,0.4,4,4,127,108,52,颗粒物(PM10)
庆阳市,市环保局,107.6364,35.7067,2025-05-19T1400,15,54,0.5,3,7,130,120,52,颗粒物(PM10)
曲靖市,环境监测站,103.7897,25.5035,2025-05-19T1400,14,33,0.6,10,1,80,56,33,
曲靖市,烟厂办公区,103.8,25.5364,2025-05-19T1400,18,38,0.7,11,4,82,57,38,
曲靖市,南苑二区,103.7947,25.462,2025-05-19T1400,17,19,0.4,8,5,89,68,28,
曲靖市,曲靖师范学院,103.7444,25.5261,2025-05-19T1400,17,27,0.5,7,7,93,62,30,
衢州市,环保大楼,118.8692,28.9398,2025-05-19T1400,14,27,0.4,6,3,111,76,35,
衢州市,实验学校,118.8709,28.9666,2025-05-19T1400,,28,0.3,9,2,123,73,,
衢州市,衢州学院,118.8621,28.9808,2025-05-19T1400,14,20,0.4,13,4,113,69,36,
泉州市,涂山街,118.5819,24.9117,2025-05-19T1400,19,39,0.5,14,4,129,74,41,
泉州市,津头埔,118.5972,24.8978,2025-05-19T1400,18,36,0.6,13,2,122,69,39,
泉州市,万安,118.6663,24.9424,2025-05-19T1400,17,36,0.5,7,5,111,66,36,
泉州市,清源山,118.6117,24.9604,2025-05-19T1400,,,,,,,,,
泉州市,城华南路,118.6333,24.9264,2025-05-19T1400,19,32,0.4,13,3,119,63,38,
日喀则市,日喀则监测站,88.8876,29.2718,2025-05-19T1400,3,8,0.3,6,4,155,141,49,
日喀则市,林业技术推广中心,88.8781,29.2426,2025-05-19T1400,3,8,0.2,4,8,153,139,48,
日照市,监测站,119.471,35.4209,2025-05-19T1400,56,146,0.7,18,10,215,139,108,臭氧1小时
日照市,市政府广场,119.523,35.4216,2025-05-19T1400,51,134,0.8,12,10,196,124,95,臭氧1小时
日照市,港务局,119.5587,35.4044,2025-05-19T1400,44,161,0.8,20,12,210,134,106,颗粒物(PM10)
日照市,职业技术学院,119.5328,35.4625,2025-05-19T1400,46,144,0.8,18,10,210,140,105,臭氧1小时
日照市,岚山环保分局,119.3266,35.1044,2025-05-19T1400,43,132,0.9,14,10,204,127,102,臭氧1小时
三门峡市,市政府,111.1922,34.7752,2025-05-19T1400,24,102,0.2,,6,,135,,
三门峡市,开发区,111.1587,34.7942,2025-05-19T1400,42,78,0.2,7,6,140,121,64,颗粒物(PM10)
三门峡市,风景区,111.143,34.7955,2025-05-19T1400,30,90,0.4,5,8,154,127,70,颗粒物(PM10)
三门峡市,三门峡市第一小学,111.1911,34.7829,2025-05-19T1400,37,93,0.4,8,8,159,139,72,颗粒物(PM10)
三门峡市,富达温泉假日酒店,111.1,34.7167,2025-05-19T1400,27,72,0.4,10,16,152,,61,颗粒物(PM10)
三明市,三钢,117.6211,26.2625,2025-05-19T1400,14,30,6.1,12,14,75,38,61,一氧化碳
三明市,三明二中,117.635,26.2714,2025-05-19T1400,8,19,0.8,6,6,79,40,25,
三明市,三元区政府,117.6028,26.2378,2025-05-19T1400,11,19,0.5,5,3,79,41,25,
三明市,洋溪,117.7275,26.3108,2025-05-19T1400,,,,,,,,,
三亚市,河东子站,109.5078,18.2489,2025-05-19T1400,3,18,0.4,2,3,42,36,18,
三亚市,河西子站,109.4964,18.2681,2025-05-19T1400,3,19,0.1,2,1,43,35,19,
三亚市,君悦子站,109.7348,18.3443,2025-05-19T1400,3,10,0.2,2,3,48,40,15,
山南市,山南监测站,91.7608,29.2313,2025-05-19T1400,3,6,0.4,8,3,128,100,40,
山南市,山南人民医院,91.7706,29.2436,2025-05-19T1400,7,19,0.5,4,5,130,101,41,
汕头市,金平子站,116.6794,23.3667,2025-05-19T1400,13,26,0.6,6,4,69,57,26,
汕头市,龙湖子站,116.7244,23.3633,2025-05-19T1400,10,32,0.4,3,5,58,53,32,
汕头市,濠江子站,116.7258,23.2775,2025-05-19T1400,10,17,0.5,6,4,57,46,18,
汕头市,澄海子站,116.7519,23.4714,2025-05-19T1400,15,28,0.6,8,2,74,60,28,
汕头市,潮阳子站,116.6092,23.2539,2025-05-19T1400,9,26,0.3,2,7,62,55,26,
汕头市,潮南峡山,116.454,23.2684,2025-05-19T1400,11,16,0.5,2,6,68,52,22,
汕头市,潮南子站,116.4069,23.2533,2025-05-19T1400,8,21,0.4,1,4,64,51,21,
汕尾市,市环保局,115.3653,22.775,2025-05-19T1400,8,14,0.6,2,6,67,50,21,
汕尾市,市政府,115.3706,22.7898,2025-05-19T1400,14,,0.4,2,4,64,50,20,
汕尾市,新城中学,115.3622,22.7925,2025-05-19T1400,9,20,0.4,2,2,69,53,22,
商洛市,监测站,109.9154,33.8715,2025-05-19T1400,30,65,0.4,7,8,144,108,58,颗粒物(PM10)
商洛市,商州区中学,109.9643,33.8471,2025-05-19T1400,30,93,0.4,6,5,137,98,72,颗粒物(PM10)
商丘市,环境监测站,115.6702,34.4285,2025-05-19T1400,50,120,0.4,6,4,176,146,85,颗粒物(PM10)
商丘市,粮食局,115.6458,34.4045,2025-05-19T1400,55,130,0.6,6,5,184,151,90,颗粒物(PM10)
商丘市,睢阳区环保局,115.6293,34.3948,2025-05-19T1400,60,143,0.4,7,5,179,145,97,颗粒物(PM10)
商丘市,梁园区档案局,115.6071,34.4465,2025-05-19T1400,64,145,0.5,9,3,182,137,98,颗粒物(PM10)
上海市,普陀,121.4,31.238,2025-05-19T1400,20,,0.5,18,6,170,110,63,臭氧1小时
上海市,十五厂,121.478,31.2036,2025-05-19T1400,24,,0.6,21,11,162,108,53,臭氧1小时
上海市,虹口,121.467,31.3008,2025-05-19T1400,26,28,0.9,16,11,180,106,75,臭氧1小时
上海市,静安监测站,121.425,31.2261,2025-05-19T1400,21,21,0.7,27,10,174,112,68,臭氧1小时
上海市,浦东川沙,121.703,31.1907,2025-05-19T1400,14,,0.7,7,6,134,105,42,
上海市,浦东新区监测站,121.533,31.2284,2025-05-19T1400,14,16,0.7,11,8,155,114,49,
上海市,浦东张江,121.577,31.2071,2025-05-19T1400,14,15,0.9,9,6,153,117,48,
上海市,宝山庙行,121.4316,31.3322,2025-05-19T1400,25,25,0.5,17,8,207,123,104,臭氧1小时
上海市,崇明上实东滩,121.8791,31.4662,2025-05-19T1400,12,22,0.4,,1,,90,,
上海市,嘉定南翔,121.3162,31.2838,2025-05-19T1400,20,,0.6,19,7,168,100,60,臭氧1小时
上海市,金山新城,121.3359,30.7456,2025-05-19T1400,21,28,0.5,16,4,178,112,73,臭氧1小时
上海市,闵行浦江,121.4996,31.0739,2025-05-19T1400,15,,0.7,12,4,132,103,42,
上海市,青浦徐泾,121.2886,31.1663,2025-05-19T1400,22,,0.6,16,6,177,118,72,臭氧1小时
上海市,松江图书馆,121.2186,31.0378,2025-05-19T1400,14,14,0.5,13,8,147,108,46,
上海市,长宁仙霞,121.3902,31.2059,2025-05-19T1400,19,,0.6,18,8,155,103,49,
上海市,浦东惠南,121.7965,31.0507,2025-05-19T1400,12,13,0.7,6,7,153,109,48,
上海市,奉贤南桥新城,121.4891,30.925,2025-05-19T1400,15,,0.6,20,3,150,102,47,
上海市,冠生园路458号,121.4174,31.16637,2025-05-19T1400,24,,0.7,16,4,167,108,59,臭氧1小时
上海市,宁武路151号,121.5419,31.2683,2025-05-19T1400,19,24,0.6,25,5,146,104,46,
上饶市,百草园,118.005,28.4572,2025-05-19T1400,,,,,,,,,
上饶市,市监测站,117.9756,28.4436,2025-05-19T1400,11,22,0.5,7,3,96,68,30,
上饶市,凤凰光学,117.9519,28.4628,2025-05-19T1400,13,26,0.8,8,8,104,66,33,
上饶市,双创科技城,117.897,28.4315,2025-05-19T1400,10,32,0.7,10,7,110,70,35,
上饶市,裕丰大道,118.1904,28.4448,2025-05-19T1400,12,26,0.5,5,5,92,58,29,
韶关市,市八中,113.5824,24.7733,2025-05-19T1400,18,30,0.7,15,16,68,36,30,
韶关市,园林处,113.5917,24.7972,2025-05-19T1400,13,23,0.5,8,9,63,31,23,
韶关市,曲江监测站,113.5971,24.6863,2025-05-19T1400,27,46,0.8,17,10,62,33,46,
韶关市,大学路288号,113.6668,24.7756,2025-05-19T1400,24,42,0.5,10,10,67,28,42,
韶关市,碧湖山庄,113.5556,24.8082,2025-05-19T1400,16,28,0.4,10,7,63,31,28,
邵阳市,市水土所,111.5239,27.3033,2025-05-19T1400,,,,,,,,,
邵阳市,市化工厂,111.5283,27.2442,2025-05-19T1400,24,47,0.6,8,7,92,48,47,
邵阳市,市环保局,111.4328,27.2272,2025-05-19T1400,19,44,0.7,7,8,99,49,44,
邵阳市,北塔二期4-26地块,111.4460,27.2472,2025-05-19T1400,21,34,0.4,5,5,97,49,34,
邵阳市,邵水西路287号,111.4739,27.2282,2025-05-19T1400,20,40,0.5,8,4,94,49,40,
绍兴市,城东开发委,120.6053,29.9928,2025-05-19T1400,7,9,0.3,4,3,112,82,35,
绍兴市,树下王站,120.5483,30.0003,2025-05-19T1400,3,13,0.4,5,6,111,81,35,
绍兴市,绍兴中专,120.5683,29.9361,2025-05-19T1400,6,6,0.6,3,4,99,74,31,
绍兴市,柯桥区政府,120.4906,30.0861,2025-05-19T1400,9,16,0.5,4,6,118,85,37,
绍兴市,重华小学,120.8752,30.0249,2025-05-19T1400,6,8,,,8,100,81,,
绍兴市,上虞中学,120.8369,30.0137,2025-05-19T1400,3,,0.4,2,6,116,86,37,
绍兴市,柯桥妇保,120.4722,30.0415,2025-05-19T1400,7,12,0.5,8,5,119,83,38,
绍兴市,袍江中学,120.6153,30.0764,2025-05-19T1400,10,17,0.6,6,6,122,82,39,
深圳市,通心岭子站,114.1063,22.5545,2025-05-19T1400,10,20,0.4,5,7,66,38,21,
深圳市,洪湖,114.117,22.5625,2025-05-19T1400,14,18,0.4,4,6,68,39,22,
深圳市,华侨城,113.987,22.5417,2025-05-19T1400,23,,0.5,11,8,54,32,33,
深圳市,南海子站,113.9181,22.5171,2025-05-19T1400,6,15,0.6,10,8,55,34,18,
深圳市,盐田,114.2458,22.5689,2025-05-19T1400,11,16,0.4,18,6,42,22,16,
深圳市,龙岗,114.2283,22.7244,2025-05-19T1400,8,19,0.5,4,6,70,32,22,
深圳市,南澳,114.494,22.5422,2025-05-19T1400,3,8,0.3,1,8,58,41,19,
深圳市,葵涌,114.41,22.6342,2025-05-19T1400,3,10,0.5,4,8,60,34,19,
深圳市,梅沙,114.297,22.5978,2025-05-19T1400,11,18,0.5,3,6,66,37,21,
深圳市,观澜,114.0678,22.738,2025-05-19T1400,8,24,0.4,8,5,49,27,24,
深圳市,莲花,114.0731,22.559,2025-05-19T1400,12,14,0.8,11,6,43,23,18,
深圳市,民治,114.0261,22.6198,2025-05-19T1400,16,21,0.4,13,7,46,29,23,
深圳市,横岗,114.1871,22.6451,2025-05-19T1400,11,17,0.4,5,8,68,34,22,
深圳市,坪山,114.3551,22.7151,2025-05-19T1400,11,19,0.5,7,7,67,36,21,
深圳市,西乡,113.8953,22.5861,2025-05-19T1400,17,32,0.7,10,9,54,37,32,
沈阳市,森林路,123.6836,41.9339,2025-05-19T1400,,,,,,,,,
沈阳市,浑南东路,123.505,41.7406,2025-05-19T1400,25,48,0.6,12,14,132,100,48,
沈阳市,新秀街,123.4231,41.6989,2025-05-19T1400,28,49,0.6,14,10,130,101,49,
沈阳市,东陵路,123.5903,41.8411,2025-05-19T1400,27,50,0.6,12,9,128,97,50,
沈阳市,陵东街,123.4264,41.8467,2025-05-19T1400,,41,0.5,17,8,133,98,,
沈阳市,文化路,123.4114,41.7653,2025-05-19T1400,34,67,0.7,18,10,144,110,59,颗粒物(PM10)
沈阳市,小河沿,123.4678,41.7867,2025-05-19T1400,30,45,0.7,10,11,132,100,45,
沈阳市,太原街,123.4017,41.7972,2025-05-19T1400,34,52,0.8,15,,149,107,,
沈阳市,京沈街,123.3783,41.9228,2025-05-19T1400,35,64,0.8,14,8,140,103,57,颗粒物(PM10)
沈阳市,沈辽西路,123.2444,41.7347,2025-05-19T1400,34,68,0.8,,11,154,95,,
沈阳市,裕农路,123.5953,41.9086,2025-05-19T1400,27,41,0.7,10,9,131,101,41,
十堰市,武当山,111.0419,32.395,2025-05-19T1400,25,51,0.6,6,9,124,102,51,颗粒物(PM10)
十堰市,滨河新村,110.78,32.6494,2025-05-19T1400,46,58,0.3,5,6,149,107,64,细颗粒物(PM2.5)
十堰市,刘家沟,110.7258,32.6389,2025-05-19T1400,39,86,0.5,6,6,130,92,68,颗粒物(PM10)
十堰市,铁二处,110.8839,32.5714,2025-05-19T1400,40,79,0.6,7,6,152,109,65,颗粒物(PM10)
十堰市,郧阳区金沙路,110.8054,32.8401,2025-05-19T1400,164,,0.3,2,5,123,91,214,细颗粒物(PM2.5)
石河子市,艾青诗歌馆,86.0497,44.2967,2025-05-19T1400,22,38,0.5,3,8,116,86,38,
石河子市,南区管委会,86.047,44.2331,2025-05-19T1400,15,56,0.3,3,9,123,96,53,颗粒物(PM10)
石河子市,世纪广场,86.0791,44.3017,2025-05-19T1400,24,41,0.5,1,8,112,83,41,
石家庄市,职工医院,114.4422,38.0444,2025-05-19T1400,35,110,0.6,13,7,240,161,120,臭氧1小时
石家庄市,高新区,114.6063,38.0266,2025-05-19T1400,36,119,0.6,26,5,212,142,106,臭氧1小时
石家庄市,西北水源,114.4898,38.1328,2025-05-19T1400,61,138,0.6,24,9,242,151,121,臭氧1小时
石家庄市,西南高教,114.4586,38.0058,2025-05-19T1400,51,108,0.4,14,5,229,153,115,臭氧1小时
石家庄市,世纪公园,114.5331,38.0178,2025-05-19T1400,37,91,0.6,15,6,215,139,108,臭氧1小时
石家庄市,人民会堂,114.509,38.0457,2025-05-19T1400,44,101,0.6,15,5,239,152,120,臭氧1小时
石家庄市,封龙山,114.3524,37.8911,2025-05-19T1400,25,53,0.6,13,17,190,140,88,臭氧1小时
石家庄市,22中南校区,114.5481,38.0378,2025-05-19T1400,37,104,0.4,18,6,234,149,117,臭氧1小时
石家庄市,鹿泉一中,114.289,38.0906,2025-05-19T1400,40,115,0.6,15,6,240,158,120,臭氧1小时
石家庄市,藁城区实验学校,114.8506765,38.0322033,2025-05-19T1400,35,122,0.5,9,3,206,132,103,臭氧1小时
石家庄市,栾城区星河路,114.6549,37.9020,2025-05-19T1400,39,116,0.3,21,6,215,148,108,臭氧1小时
石家庄市,矿区区委大楼,114.0494,38.059,2025-05-19T1400,35,152,0.6,15,11,248,129,124,臭氧1小时
石嘴山市,沙湖旅游区,106.3394,38.817,2025-05-19T1400,,,,,,,,,
石嘴山市,大武口朝阳西街,106.3668,39.0145,2025-05-19T1400,20,70,0.6,8,11,145,75,60,颗粒物(PM10)
石嘴山市,惠农南大街,106.7704,39.2282,2025-05-19T1400,26,74,0.3,13,11,134,71,62,颗粒物(PM10)
石嘴山市,红果子镇惠新街,106.7099,39.1325,2025-05-19T1400,14,82,0.4,8,7,140,72,66,颗粒物(PM10)
石嘴山市,妇女儿童医院,106.3495,38.9836,2025-05-19T1400,22,53,0.4,10,9,151,78,52,颗粒物(PM10)
石嘴山市,石大公路,106.7492,39.2069,2025-05-19T1400,43,69,0.4,10,7,141,77,60,"颗粒物(PM10),细颗粒物(PM2.5)"
双鸭山市,双合村,131.1511,46.6937,2025-05-19T1400,3,6,0.1,5,5,81,75,26,
双鸭山市,南小市,131.1652,46.6191,2025-05-19T1400,3,6,0.5,8,6,76,71,24,
双鸭山市,环保局,131.1524,46.6554,2025-05-19T1400,6,23,0.6,10,11,70,69,23,
双鸭山市,苗圃,131.12,46.5656,2025-05-19T1400,,,,,,,,,
朔州市,平朔,112.4397,39.3522,2025-05-19T1400,15,64,0.2,2,4,118,84,57,颗粒物(PM10)
朔州市,朔唯,112.4575,39.3617,2025-05-19T1400,19,76,0.3,3,5,113,73,63,颗粒物(PM10)
朔州市,区政府,112.4258,39.3197,2025-05-19T1400,14,58,0.5,4,4,114,100,54,颗粒物(PM10)
朔州市,市环保局,112.4072,39.3278,2025-05-19T1400,14,67,0.3,3,5,105,88,59,颗粒物(PM10)
朔州市,市二中,112.4272,39.3681,2025-05-19T1400,22,72,0.2,7,6,114,82,61,颗粒物(PM10)
朔州市,一水厂,112.2931,39.53,2025-05-19T1400,24,92,0.3,5,7,124,105,71,颗粒物(PM10)
四平市,一商场,124.4002,43.1713,2025-05-19T1400,27,48,0.4,14,8,121,104,48,
四平市,境园,124.388,43.193,2025-05-19T1400,29,41,0.4,14,7,114,98,42,
四平市,植物园,124.4036,43.1411,2025-05-19T1400,23,49,0.5,16,10,127,101,49,
四平市,世纪城,124.3419,43.1666,2025-05-19T1400,27,36,0.5,15,7,123,108,39,
松原市,江南,124.8006,45.1214,2025-05-19T1400,7,24,0.5,5,5,86,76,27,
松原市,江北,124.7965,45.1722,2025-05-19T1400,8,13,0.3,4,8,86,77,27,
苏州市,上方山,120.561,31.2472,2025-05-19T1400,,,,,,,,,
苏州市,彩香,120.591,31.3019,2025-05-19T1400,19,40,0.6,18,6,187,107,84,臭氧1小时
苏州市,轧钢厂,120.596,31.3264,2025-05-19T1400,18,25,0.6,14,8,205,115,103,臭氧1小时
苏州市,吴中区,120.613,31.2703,2025-05-19T1400,13,26,0.5,18,7,178,102,73,臭氧1小时
苏州市,苏州新区,120.543,31.2994,2025-05-19T1400,27,44,0.4,17,3,204,126,102,臭氧1小时
苏州市,苏州工业园区,120.669,31.3097,2025-05-19T1400,9,20,0.5,12,6,164,102,55,臭氧1小时
苏州市,相城区,120.641,31.3708,2025-05-19T1400,15,44,0.4,19,6,179,105,74,臭氧1小时
苏州市,方洲路,120.743,31.3188,2025-05-19T1400,12,29,0.4,14,7,190,114,88,臭氧1小时
苏州市,木渎中学,120.5031,31.2774,2025-05-19T1400,31,43,0.6,14,4,212,125,106,臭氧1小时
苏州市,越秀幼儿园,120.624,31.1733,2025-05-19T1400,15,35,0.6,14,8,190,113,88,臭氧1小时
苏州市,高铁新城,120.6505,31.416,2025-05-19T1400,17,36,0.5,18,6,176,105,70,臭氧1小时
宿迁市,宿迁学院,118.293,33.9528,2025-05-19T1400,30,88,0.6,5,1,170,130,69,颗粒物(PM10)
宿迁市,宿迁中学,118.2442,33.9592,2025-05-19T1400,30,84,0.4,8,6,170,134,67,颗粒物(PM10)
宿迁市,市供电局,118.283,33.965,2025-05-19T1400,30,76,0.8,4,4,168,134,63,颗粒物(PM10)
宿迁市,宿豫区政府,118.3225,33.9447,2025-05-19T1400,40,132,0.5,2,6,169,133,91,颗粒物(PM10)
宿州市,远航博物馆,116.9509,33.666,2025-05-19T1400,34,91,0.6,6,3,179,145,74,臭氧1小时
宿州市,社会福利中心,116.9708,33.591,2025-05-19T1400,31,93,0.4,7,5,178,136,73,臭氧1小时
宿州市,宿州学院,116.9884,33.6305,2025-05-19T1400,,,0.4,,6,180,144,,
宿州市,皖北煤电集团,116.9648,33.6252,2025-05-19T1400,36,94,0.5,4,4,178,139,73,臭氧1小时
绥化市,人和东街,126.9785,46.6365,2025-05-19T1400,12,17,0.4,6,2,92,82,29,
绥化市,党政办公中心,126.964,46.6528,2025-05-19T1400,10,15,0.3,5,2,86,76,27,
随州市,市委党校,113.3583,31.7275,2025-05-19T1400,44,76,0.9,9,8,158,130,63,颗粒物(PM10)
随州市,市林业局,113.3833,31.6908,2025-05-19T1400,97,,1.0,6,6,149,106,128,细颗粒物(PM2.5)
随州市,市立交桥水厂,113.3983,31.7308,2025-05-19T1400,46,68,0.9,2,9,153,114,64,细颗粒物(PM2.5)
遂宁市,石溪浩,105.5453,30.5678,2025-05-19T1400,38,107,0.3,15,10,171,99,79,颗粒物(PM10)
遂宁市,市监测站,105.5582,30.5232,2025-05-19T1400,38,55,0.6,15,6,178,118,73,臭氧1小时
遂宁市,行政中心,105.5861,30.5366,2025-05-19T1400,24,44,,20,12,183,121,,
遂宁市,美宁食品公司,105.5918,30.4728,2025-05-19T1400,36,54,0.3,9,10,181,129,77,臭氧1小时
塔城地区,东门外小游园,82.9994,46.7432,2025-05-19T1400,6,65,0.1,4,4,87,74,58,颗粒物(PM10)
台州市,黄岩环保大楼,121.273,28.6459,2025-05-19T1400,21,33,0.5,20,4,72,75,33,
台州市,台州环保大楼,121.419,28.6542,2025-05-19T1400,31,,0.4,19,3,83,84,45,
台州市,路桥田洋王,121.377,28.5773,2025-05-19T1400,9,25,0.4,20,6,78,80,25,
台州市,台州科技职业学院,121.2568,28.6681,2025-05-19T1400,17,22,0.8,20,2,74,72,25,
太原市,尖草坪,112.522,37.8873,2025-05-19T1400,16,63,0.4,5,3,127,86,57,颗粒物(PM10)
太原市,上兰,112.434,38.0108,2025-05-19T1400,26,54,0.2,12,5,125,98,52,颗粒物(PM10)
太原市,晋源,112.469,37.7124,2025-05-19T1400,37,115,0.2,5,8,118,90,83,颗粒物(PM10)
太原市,小店,112.5583,37.7394,2025-05-19T1400,18,49,0.2,7,5,123,101,49,
太原市,桃园,112.5369,37.8692,2025-05-19T1400,30,54,0.2,5,10,122,86,52,颗粒物(PM10)
太原市,坞城,112.57,37.8195,2025-05-19T1400,17,57,0.6,6,4,124,103,54,颗粒物(PM10)
太原市,南寨,112.549,37.9854,2025-05-19T1400,27,74,0.4,8,8,125,59,62,颗粒物(PM10)
太原市,金胜,112.4719,37.7831,2025-05-19T1400,33,65,0.2,3,4,122,90,58,颗粒物(PM10)
太原市,育英中学,112.5608,37.8807,2025-05-19T1400,19,64,0.4,7,2,128,95,57,颗粒物(PM10)
泰安市,监测站,117.1437,36.1937,2025-05-19T1400,43,158,0.5,9,8,211,162,106,臭氧1小时
泰安市,人口学校,117.0885,36.2017,2025-05-19T1400,47,144,0.5,13,10,199,157,99,臭氧1小时
泰安市,电力学校,117.1089,36.1758,2025-05-19T1400,43,146,0.3,7,9,206,160,103,臭氧1小时
泰安市,国网新校,117.1812,36.2275,2025-05-19T1400,39,149,0.5,13,5,210,166,105,臭氧1小时
泰安市,交通技校,117.0313,36.2018,2025-05-19T1400,60,129,0.6,10,4,201,158,101,臭氧1小时
泰安市,山东第一医科大学,117.0829,36.13,2025-05-19T1400,57,166,0,10,6,203,154,108,颗粒物(PM10)
泰州市,公园路,119.905,32.4878,2025-05-19T1400,36,61,0.8,13,10,198,116,98,臭氧1小时
泰州市,莲花,119.9189,32.4625,2025-05-19T1400,39,71,0.7,14,16,219,136,110,臭氧1小时
泰州市,留学生创业园,119.888,32.4639,2025-05-19T1400,54,59,0.6,17,8,206,119,103,臭氧1小时
泰州市,王营,119.8767,32.3289,2025-05-19T1400,34,52,0.6,16,11,197,108,97,臭氧1小时
泰州市,姜堰区政府广场,120.1259,32.5099,2025-05-19T1400,40,65,0.6,11,12,193,121,92,臭氧1小时
泰州市,周山河街区,119.9192,32.4322,2025-05-19T1400,27,57,0.6,18,10,223,128,112,臭氧1小时
唐山市,物资局,118.1725,39.6334,2025-05-19T1400,53,112,0.6,10,7,209,139,105,臭氧1小时
唐山市,十二中,118.1705,39.6506,2025-05-19T1400,42,115,0.6,20,7,196,129,95,臭氧1小时
唐山市,小山,118.1869,39.622,2025-05-19T1400,35,122,0.6,16,7,215,140,108,臭氧1小时
唐山市,冀东油田职工医院,118.4359,39.2762,2025-05-19T1400,43,150,0.6,21,14,214,154,107,臭氧1小时
唐山市,正泰大街热力站,118.09279,39.58089,2025-05-19T1400,38,134,0.7,14,7,202,128,101,臭氧1小时
唐山市,丰润区政府,118.1562,39.8322,2025-05-19T1400,37,108,0.6,14,8,191,131,89,臭氧1小时
唐山市,金山小学,118.43673,39.73809,2025-05-19T1400,58,126,0.7,19,17,224,141,112,臭氧1小时
唐山市,政府服务中心,118.24498,39.66941,2025-05-19T1400,33,100,0.6,16,11,207,134,104,臭氧1小时
唐山市,消防缸窑路中队,118.2059,39.6585,2025-05-19T1400,41,121,0.5,11,13,215,138,108,臭氧1小时
唐山市,路南电大,118.1436,39.6202,2025-05-19T1400,46,121,0.6,14,6,208,140,104,臭氧1小时
唐山市,友谊北路34号,118.1309,39.6360,2025-05-19T1400,45,118,0.5,12,7,204,141,102,臭氧1小时
天津市,勤俭道,117.1444,39.1661,2025-05-19T1400,46,90,0.8,17,11,233,131,117,臭氧1小时
天津市,前进道,117.202,39.0927,2025-05-19T1400,45,123,0.7,22,10,230,148,115,臭氧1小时
天津市,淮河道,117.1837,39.2133,2025-05-19T1400,34,98,0.8,17,13,236,135,118,臭氧1小时
天津市,跃进路,117.3083,39.0884,2025-05-19T1400,69,156,0.6,24,12,229,150,115,臭氧1小时
天津市,第四大街,117.707,39.0343,2025-05-19T1400,51,140,0.9,44,12,180,124,95,颗粒物(PM10)
天津市,永明路,117.457,38.8394,2025-05-19T1400,44,115,0.6,18,11,210,142,105,臭氧1小时
天津市,汉北路,117.764,39.1587,2025-05-19T1400,33,93,0.6,17,11,226,117,113,臭氧1小时
天津市,团泊洼,117.157,38.9194,2025-05-19T1400,,,,,,,,,
天津市,河西一经路,117.7918,39.2474,2025-05-19T1400,46,134,0.7,17,12,220,129,110,臭氧1小时
天津市,津沽路,117.3747,38.9846,2025-05-19T1400,40,141,0.5,21,10,231,153,116,臭氧1小时
天津市,宾水西道,117.1589,39.0845,2025-05-19T1400,51,126,0.8,21,11,229,146,115,臭氧1小时
天津市,大理道,117.1941,39.1067,2025-05-19T1400,52,123,0.8,19,9,232,150,116,臭氧1小时
天津市,中山北路,117.2101,39.1699,2025-05-19T1400,56,129,1.0,19,10,232,128,116,臭氧1小时
天津市,西四道,117.3876,39.1488,2025-05-19T1400,45,118,0.9,24,12,233,122,117,臭氧1小时
天津市,雍阳西道,117.0365,39.3828,2025-05-19T1400,25,71,0.6,17,10,201,131,101,臭氧1小时
天津市,辛老路,117.0296,39.0605,2025-05-19T1400,57,151,0.8,20,10,248,162,124,臭氧1小时
天津市,地纬路,116.9638,38.9375,2025-05-19T1400,58,148,0.9,18,13,236,142,118,臭氧1小时
天津市,北环路,117.4067,40.0583,2025-05-19T1400,25,57,0.6,12,9,173,122,67,臭氧1小时
天津市,建设路,117.3045,39.7169,2025-05-19T1400,20,74,0.5,14,8,182,128,78,臭氧1小时
天津市,滨水东路,117.8199,39.3521,2025-05-19T1400,49,119,0.7,17,10,209,123,105,臭氧1小时
天津市,光华路,117.2437,39.1029,2025-05-19T1400,53,143,0.8,19,13,233,153,117,臭氧1小时
天水市,麦积山,106.0055,34.343,2025-05-19T1400,,,,,,,,,
天水市,公园小学,105.7205,34.5786,2025-05-19T1400,17,48,0.2,9,8,156,112,49,
天水市,麦积国土局,105.8945,34.5538,2025-05-19T1400,17,51,0.3,9,9,138,91,51,颗粒物(PM10)
铁岭市,汇工街西,123.8139,42.3022,2025-05-19T1400,40,57,0.3,16,9,138,113,57,细颗粒物(PM2.5)
铁岭市,水上乐园,123.8649,42.2923,2025-05-19T1400,29,50,0.3,15,6,108,90,50,
铁岭市,银州路东段,123.8486,42.2867,2025-05-19T1400,30,66,0.3,16,10,124,104,58,颗粒物(PM10)
铁岭市,金沙江路北,123.7153,42.2217,2025-05-19T1400,38,56,0.6,18,3,130,104,54,细颗粒物(PM2.5)
通化市,光明,125.9358,41.7173,2025-05-19T1400,12,20,0.5,6,7,104,115,33,
通化市,铁路,125.9446,41.7325,2025-05-19T1400,10,19,0.3,8,6,102,110,32,
通辽市,艺术职业学校,122.2532,43.6801,2025-05-19T1400,8,23,0.1,6,8,114,94,36,
通辽市,老干部活动中心,122.2584,43.6333,2025-05-19T1400,16,24,0.0,8,6,102,84,32,
通辽市,东方明珠社区,122.2922,43.6189,2025-05-19T1400,21,33,0.3,7,5,102,83,33,
铜川市,党校,109.0656,35.0994,2025-05-19T1400,,,,,,,,,
铜川市,王益区政府,109.0697,35.0697,2025-05-19T1400,43,88,0.3,10,7,155,101,69,颗粒物(PM10)
铜川市,新区管委会,108.9344,34.9058,2025-05-19T1400,29,79,0.3,6,5,147,117,65,颗粒物(PM10)
铜川市,大唐三路,108.9497,34.8705,2025-05-19T1400,29,64,0.4,6,6,150,124,57,颗粒物(PM10)
铜陵市,市第四中学,117.8177,30.9412,2025-05-19T1400,15,41,0.3,6,9,142,98,45,
铜陵市,市公路局,117.8059,30.9273,2025-05-19T1400,8,39,0.3,9,9,137,97,43,
铜陵市,市新民污水厂,117.7807,30.9413,2025-05-19T1400,17,42,0.5,12,10,142,93,45,
铜陵市,市第九中学,117.7439,30.8792,2025-05-19T1400,17,49,0.5,17,6,130,89,49,
铜陵市,车站新区,117.846,30.9413,2025-05-19T1400,16,53,0.3,8,7,143,99,52,颗粒物(PM10)
铜陵市,市职教基地,117.8483,30.97,2025-05-19T1400,9,29,0.6,9,6,141,100,45,
铜仁市,铜仁卫校,109.1839,27.7344,2025-05-19T1400,3,11,0.2,6,2,105,53,33,
铜仁市,铜仁七中,109.1753,27.6944,2025-05-19T1400,14,,0.3,3,4,110,57,35,
吐鲁番市,市环保局,89.1904,42.9418,2025-05-19T1400,152,478,0.7,9,5,94,102,373,颗粒物(PM10)
吐鲁番市,地区环保局,89.1673,42.9559,2025-05-19T1400,169,514,0.6,31,7,65,98,414,颗粒物(PM10)
威海市,华夏技校,122.1214,37.4236,2025-05-19T1400,32,88,0.4,14,6,146,113,69,颗粒物(PM10)
威海市,山大分校,122.0508,37.5236,2025-05-19T1400,27,76,0.5,7,10,173,136,67,臭氧1小时
威海市,市监测站,122.1067,37.5072,2025-05-19T1400,34,117,0.4,9,2,171,132,84,颗粒物(PM10)
威海市,文登开发区,122.0693,37.2174,2025-05-19T1400,31,84,0.8,15,7,126,102,67,颗粒物(PM10)
威海市,临港区管委会,122.1379,37.3414,2025-05-19T1400,29,90,0.5,8,4,146,115,70,颗粒物(PM10)
潍坊市,环保局,119.1437,36.7023,2025-05-19T1400,29,156,0.4,16,12,204,141,103,颗粒物(PM10)
潍坊市,坊子邮政,119.1641,36.6523,2025-05-19T1400,39,144,0.4,15,10,189,131,97,颗粒物(PM10)
潍坊市,潍坊七中,119.0587,36.721,2025-05-19T1400,36,144,0.4,31,10,188,137,97,颗粒物(PM10)
潍坊市,高新实验学校,119.1977,36.6872,2025-05-19T1400,49,158,0.3,15,9,198,136,104,颗粒物(PM10)
潍坊市,潍坊学院,119.1755,36.7149,2025-05-19T1400,41,139,0.5,10,9,200,140,100,臭氧1小时
潍坊市,寒亭区实验一小,119.2041,36.7699,2025-05-19T1400,,,,,,,103,,
渭南市,农科所,109.5293,34.5101,2025-05-19T1400,,,,,,,,,
渭南市,体育馆,109.4636,34.493,2025-05-19T1400,34,95,0.6,14,6,205,106,103,臭氧1小时
渭南市,高新一小,109.4259,34.5023,2025-05-19T1400,48,114,0.5,12,6,208,110,104,臭氧1小时
渭南市,渭花路4号,109.5051,34.4921,2025-05-19T1400,42,92,0.5,9,6,194,111,93,臭氧1小时
温州市,瓯海,120.634,28.0089,2025-05-19T1400,26,29,0.6,30,3,79,64,38,
温州市,南浦,120.6748,27.9939,2025-05-19T1400,23,26,0.5,19,6,96,70,33,
温州市,龙湾,120.76,27.9747,2025-05-19T1400,18,42,0.6,37,2,80,59,42,
温州市,市站,120.6709,28.0167,2025-05-19T1400,35,43,0.5,35,4,89,73,50,
温州市,茶山,120.6985,27.9251,2025-05-19T1400,25,39,0.6,50,2,50,78,39,
文山壮族苗族自治州,州水务局,104.2533,23.3594,2025-05-19T1400,3,32,0.3,6,15,60,57,32,
文山壮族苗族自治州,市便民服务中心,104.2319,23.3892,2025-05-19T1400,6,15,0.3,8,10,59,59,19,
乌海市,市林业局,106.8174,39.6973,2025-05-19T1400,16,43,0.8,10,14,139,67,44,
乌海市,中海勃湾学校,106.7907,39.6667,2025-05-19T1400,22,42,0.8,11,20,152,77,48,
乌海市,海北新区,106.813,39.7274,2025-05-19T1400,3,57,0.5,8,20,147,93,54,颗粒物(PM10)
乌海市,聚英学校,106.8288,39.6778,2025-05-19T1400,3,53,0.6,9,22,142,67,52,颗粒物(PM10)
乌兰察布市,集宁新区,113.1306,40.9923,2025-05-19T1400,14,24,0.0,4,8,115,106,36,
乌兰察布市,光明街小学,113.1076,41.0385,2025-05-19T1400,23,27,0.3,5,10,105,97,33,
乌兰察布市,北京八中,113.1376,40.9509,2025-05-19T1400,8,25,0.2,9,11,105,93,33,
乌兰察布市,市委党校,113.1775,40.9779,2025-05-19T1400,15,34,0.1,1,7,122,106,39,
乌鲁木齐市,监测站,87.5801,43.8303,2025-05-19T1400,20,43,0.2,7,8,122,101,43,
乌鲁木齐市,收费所,87.6046,43.768,2025-05-19T1400,16,46,0.3,10,7,119,96,46,
乌鲁木齐市,新疆农科院农场,87.4754,43.9469,2025-05-19T1400,129,,0.5,9,13,113,92,170,细颗粒物(PM2.5)
乌鲁木齐市,铁路局,87.5525,43.8711,2025-05-19T1400,28,54,0.3,8,6,117,92,52,颗粒物(PM10)
乌鲁木齐市,三十一中学,87.6432,43.831,2025-05-19T1400,16,47,0.3,2,7,112,95,47,
乌鲁木齐市,米东区环保局,87.7216,44.1747,2025-05-19T1400,13,44,0.2,2,9,112,93,44,
乌鲁木齐市,培训基地,87.4651,43.4569,2025-05-19T1400,3,39,0.4,5,4,120,110,39,
乌鲁木齐市,达坂城区环保局,88.3118,43.3658,2025-05-19T1400,12,81,0.1,2,8,113,108,66,颗粒物(PM10)
乌鲁木齐市,红光山片区,87.6162,43.8801,2025-05-19T1400,41,43,0.3,7,7,100,83,58,细颗粒物(PM2.5)
乌鲁木齐市,新师大温泉校区,87.7024,43.8004,2025-05-19T1400,14,48,0.2,2,3,124,107,48,
乌鲁木齐市,大绿谷,87.4921,43.8411,2025-05-19T1400,9,42,0.3,6,8,117,100,42,
无锡市,雪浪,120.269,31.4867,2025-05-19T1400,29,46,0.6,9,4,185,117,82,臭氧1小时
无锡市,黄巷,120.275,31.6219,2025-05-19T1400,36,57,0.9,16,6,142,92,54,颗粒物(PM10)
无锡市,曹张,120.294,31.56,2025-05-19T1400,34,53,0.7,23,3,164,103,55,臭氧1小时
无锡市,漆塘,120.242,31.5031,2025-05-19T1400,34,48,0.5,12,5,162,104,53,臭氧1小时
无锡市,东亭,120.3489,31.5863,2025-05-19T1400,27,56,0.8,9,7,176,114,70,臭氧1小时
无锡市,旺庄,120.354,31.5475,2025-05-19T1400,36,53,0.6,13,4,182,114,78,臭氧1小时
无锡市,荣巷,120.245,31.5631,2025-05-19T1400,41,56,0.6,10,5,191,119,89,臭氧1小时
无锡市,堰桥,120.299,31.6817,2025-05-19T1400,27,58,0.7,19,3,186,112,83,臭氧1小时
无锡市,华庄,120.3142,31.4753,2025-05-19T1400,24,45,0.6,18,2,176,115,70,臭氧1小时
吴忠市,教育园区,106.1532,37.9648,2025-05-19T1400,20,42,0.2,4,6,138,83,44,
吴忠市,新区二泵站,106.1856,37.9956,2025-05-19T1400,12,36,0.2,6,6,136,88,43,
吴忠市,文卫南街,106.2112,37.9768,2025-05-19T1400,20,56,0.3,1,7,141,94,53,颗粒物(PM10)
芜湖市,监测站,118.3606,31.3519,2025-05-19T1400,26,69,0.6,17,8,158,117,60,颗粒物(PM10)
芜湖市,科创中心,118.3714,31.4134,2025-05-19T1400,23,47,0.6,11,7,162,110,53,臭氧1小时
芜湖市,四水厂,118.3673,31.3131,2025-05-19T1400,23,54,0.7,7,4,160,115,52,颗粒物(PM10)
芜湖市,市气象局,118.4209,31.3707,2025-05-19T1400,22,51,0.6,6,7,154,112,51,颗粒物(PM10)
芜湖市,清苑社区,118.4781,31.3225,2025-05-19T1400,24,73,0.5,6,10,156,110,62,颗粒物(PM10)
芜湖市,扬子职业技术学院,118.2746,31.2326,2025-05-19T1400,23,44,0.7,6,6,152,106,48,
梧州市,市逸夫小学,111.3014,23.4832,2025-05-19T1400,20,26,0.7,7,11,39,23,29,
梧州市,市十一中,111.3239,23.4794,2025-05-19T1400,10,16,0.2,9,8,31,15,16,
梧州市,龙新,111.2711,23.4835,2025-05-19T1400,14,23,0.5,24,11,26,11,23,
梧州市,政贤路18号,111.2419,23.4154,2025-05-19T1400,9,,0.7,9,9,28,18,13,
五家渠市,农水大厦,87.5475,44.1756,2025-05-19T1400,21,44,0.1,2,5,112,101,44,
五家渠市,经开区管委会,87.546,44.1912,2025-05-19T1400,9,45,0.4,4,4,106,99,45,
武汉市,东湖梨园,114.3677,30.5584,2025-05-19T1400,27,48,0.6,2,5,115,90,48,
武汉市,汉阳月湖,114.2529,30.558,2025-05-19T1400,31,55,0.5,12,6,148,109,53,颗粒物(PM10)
武汉市,汉口花桥,114.282,30.6189,2025-05-19T1400,32,54,0.5,8,12,152,121,52,颗粒物(PM10)
武汉市,武昌紫阳,114.3025,30.5332,2025-05-19T1400,36,48,0.7,8,9,126,87,52,细颗粒物(PM2.5)
武汉市,青山钢花,114.3646,30.6217,2025-05-19T1400,31,,0.7,11,6,152,108,48,
武汉市,沌口新区,114.1566,30.4825,2025-05-19T1400,28,62,0.5,14,7,142,105,56,颗粒物(PM10)
武汉市,汉口江滩,114.3014,30.5944,2025-05-19T1400,33,48,0.6,18,7,144,96,48,
武汉市,吴家山,114.135,30.6319,2025-05-19T1400,,,,,,,117,,
武汉市,沉湖七壕,113.8454,30.2917,2025-05-19T1400,43,,,7,5,110,74,,
武汉市,民族大道182号,114.3877,30.4908,2025-05-19T1400,49,61,0.7,4,6,159,108,68,细颗粒物(PM2.5)
武威市,监测站,102.6201,37.9251,2025-05-19T1400,10,18,0.2,7,11,133,91,42,
武威市,钟楼街149号,102.6447,37.9293,2025-05-19T1400,11,21,0.2,6,7,129,87,41,
西安市,兴庆小区,108.993,34.2629,2025-05-19T1400,36,85,0.6,11,4,198,118,98,臭氧1小时
西安市,纺织城,109.06,34.2572,2025-05-19T1400,29,81,0.4,12,8,203,115,102,臭氧1小时
西安市,小寨,108.9356,34.2173,2025-05-19T1400,61,104,0.6,14,7,192,114,90,臭氧1小时
西安市,市人民体育场,108.954,34.2713,2025-05-19T1400,50,94,0.6,10,4,188,118,85,臭氧1小时
西安市,高新西区,108.8922,34.2322,2025-05-19T1400,34,81,0.4,12,6,189,119,87,臭氧1小时
西安市,经开区,108.935,34.3474,2025-05-19T1400,45,116,0.5,12,5,206,121,103,臭氧1小时
西安市,长安区,108.906,34.1546,2025-05-19T1400,109,,0.4,,8,226,130,143,细颗粒物(PM2.5)
西安市,临潼区,109.2186,34.3731,2025-05-19T1400,60,102,0.3,11,8,230,122,115,臭氧1小时
西安市,草滩,108.869,34.378,2025-05-19T1400,35,78,0.3,9,3,185,111,82,臭氧1小时
西安市,曲江文化产业集团,108.985,34.1978,2025-05-19T1400,,88,0.4,9,7,196,126,,
西安市,广运潭,109.051,34.3213,2025-05-19T1400,45,84,0.7,17,7,204,122,102,臭氧1小时
西安市,无线电监控中心,109.09,34.5236,2025-05-19T1400,124,,0.3,,6,212,108,163,细颗粒物(PM2.5)
西安市,行知小学,108.8869,34.2662,2025-05-19T1400,46,85,0.5,13,5,178,103,73,臭氧1小时
西安市,西苑北路977号,108.5962,34.1188,2025-05-19T1400,86,100,0.4,7,6,172,110,114,细颗粒物(PM2.5)
西宁市,第五水厂,101.524,36.6867,2025-05-19T1400,,,,,,,,,
西宁市,城北区政府,101.7775,36.6428,2025-05-19T1400,31,35,0.4,14,10,138,80,45,
西宁市,世纪职校,101.8305,36.5786,2025-05-19T1400,43,,0.5,5,18,140,76,60,细颗粒物(PM2.5)
西宁市,师大城西校区,101.7413,36.6397,2025-05-19T1400,16,34,0.4,10,11,133,78,42,
西双版纳傣族自治州,景洪市江南,100.8018,21.9995,2025-05-19T1400,3,24,0.6,4,4,50,24,24,
西双版纳傣族自治州,景洪市江北,100.8017,22.0225,2025-05-19T1400,3,11,0.4,3,7,61,28,20,
西咸新区,北杜,108.7108,34.46,2025-05-19T1400,56,100,0.3,9,7,160,103,77,细颗粒物(PM2.5)
西咸新区,同德佳苑,108.7096,34.2956,2025-05-19T1400,46,86,0.4,7,5,168,107,68,颗粒物(PM10)
西咸新区,崇文塔,108.8558,34.4978,2025-05-19T1400,65,121,0.4,14,8,201,110,101,臭氧1小时
锡林郭勒盟,市环保监测站,116.1042,43.9317,2025-05-19T1400,3,20,0.3,7,4,96,82,30,
锡林郭勒盟,市政府,116.0781,43.9311,2025-05-19T1400,3,16,0.2,4,2,99,84,31,
厦门市,溪东,118.1608,24.8169,2025-05-19T1400,,,,,,,,,
厦门市,洪文,118.1514,24.4767,2025-05-19T1400,7,24,0.3,12,2,79,52,25,
厦门市,鼓浪屿,118.0661,24.4444,2025-05-19T1400,26,34,0.5,39,13,64,41,38,
厦门市,湖里中学,118.0936,24.5058,2025-05-19T1400,23,38,0.4,13,2,63,33,38,
厦门市,集美中学,118.0958,24.5688,2025-05-19T1400,23,37,0.5,24,3,110,57,37,
厦门市,同安二实小,118.1493,24.7245,2025-05-19T1400,18,18,0.4,15,2,120,62,38,
咸宁市,森林公园,114.3175,29.8142,2025-05-19T1400,25,27,0.6,3,5,120,96,38,
咸宁市,长江产业园,114.3375,29.8683,2025-05-19T1400,24,37,0.9,1,1,129,92,41,
咸宁市,双鹤路18号,114.3182,29.8447,2025-05-19T1400,36,44,0.6,3,4,130,97,52,细颗粒物(PM2.5)
咸宁市,碧桂路,114.284,29.8595,2025-05-19T1400,31,47,0.5,5,2,130,93,47,
咸阳市,气象站,108.7197,34.3956,2025-05-19T1400,,,,,,,,,
咸阳市,实验中学,108.673,34.3155,2025-05-19T1400,42,106,0.7,12,9,186,116,83,臭氧1小时
咸阳市,师范学院,108.7233,34.3617,2025-05-19T1400,38,86,0.6,6,3,167,113,68,颗粒物(PM10)
咸阳市,两寺渡,108.6594,34.2969,2025-05-19T1400,45,86,0.7,4,8,189,116,87,臭氧1小时
咸阳市,奥体中心,108.6396,34.4078,2025-05-19T1400,50,74,0.5,3,5,146,100,69,细颗粒物(PM2.5)
湘潭市,板塘,112.9433,27.8614,2025-05-19T1400,14,39,0.7,7,6,100,69,39,
湘潭市,市监测站,112.9118,27.8403,2025-05-19T1400,26,,0.8,3,4,99,68,38,
湘潭市,江麓,112.8937,27.8728,2025-05-19T1400,14,39,1.1,3,8,109,83,39,
湘潭市,岳塘,112.9227,27.8159,2025-05-19T1400,20,,1.2,1,4,109,74,,
湘潭市,科大,112.9074,27.9119,2025-05-19T1400,23,36,1.1,4,7,92,59,36,
湘潭市,昭山,113.0048,27.9153,2025-05-19T1400,19,34,0.9,2,7,96,66,34,
湘潭市,韶山,112.4876,27.9164,2025-05-19T1400,18,49,0.6,2,15,105,76,49,
湘西土家族苗族自治州,跃进水库,109.6414,28.2558,2025-05-19T1400,23,32,0.7,2,6,106,57,34,
