area,positionname,longitude,latitude,timepoint,pm2_5,pm10,co,no2,so2,o3,o3_8h,aqi,primarypollutant
阿坝藏族羌族自治州,州农科所,102.1879,31.914,2025-04-04T2100,11,35,0.4,6,11,63,77,35,
阿坝藏族羌族自治州,马师校,102.2502,31.8896,2025-04-04T2100,25,28,0.4,10,5,77,90,36,
阿坝藏族羌族自治州,马尔康中学西区,102.2165,31.9024,2025-04-04T2100,17,26,0.3,7,3,82,96,26,
阿克苏地区,电视台,80.292,41.1694,2025-04-04T2100,116,426,0.3,12,6,85,94,308,颗粒物(PM10)
阿克苏地区,艺术中心,80.2613,41.1551,2025-04-04T2100,117,457,0.5,11,4,83,93,347,颗粒物(PM10)
阿拉善盟,西城区西花园,105.6467,38.8363,2025-04-04T2100,7,21,0.6,,12,98,108,,
阿拉善盟,蒙二幼,105.6985,38.8411,2025-04-04T2100,10,19,0.4,9,5,88,99,28,
阿拉善盟,环保局新楼,105.724,38.8516,2025-04-04T2100,3,16,0.5,3,8,97,106,31,
阿勒泰地区,市站,88.1264,47.8517,2025-04-04T2100,3,12,0.4,8,2,90,94,29,
阿里地区,阿里监测站,80.1161,32.5,2025-04-04T2100,6,22,0.5,2,7,115,112,36,
阿里地区,阿里藏医院,80.0903,32.5028,2025-04-04T2100,3,17,0.5,1,6,113,114,36,
安康市,香溪洞,109.0318,32.6537,2025-04-04T2100,31,40,0.6,10,8,65,61,45,
安康市,汉滨区检察院,109.0072,32.6975,2025-04-04T2100,32,67,0.5,23,8,36,60,59,颗粒物(PM10)
安康市,市邮政管理局,109.0325,32.6913,2025-04-04T2100,39,90,0.9,35,7,26,55,70,颗粒物(PM10)
安庆市,环科院,117.0809,30.5177,2025-04-04T2100,51,78,0.7,51,11,69,109,70,细颗粒物(PM2.5)
安庆市,马山宾馆,117.0331,30.5119,2025-04-04T2100,54,65,0.8,48,9,70,97,74,细颗粒物(PM2.5)
安庆市,安庆大学,116.9896,30.6145,2025-04-04T2100,40,77,0.6,22,13,130,138,64,颗粒物(PM10)
安庆市,市人大,117.0598,30.5351,2025-04-04T2100,51,81,0.8,31,16,92,117,70,细颗粒物(PM2.5)
安顺市,伍家关,105.9606,26.2611,2025-04-04T2100,54,79,0.8,8,10,124,128,74,细颗粒物(PM2.5)
安顺市,凤凰山,105.9408,26.2431,2025-04-04T2100,63,83,0.6,15,16,120,141,85,细颗粒物(PM2.5)
安顺市,金钟山,105.9439,26.2564,2025-04-04T2100,59,75,0.7,12,12,135,146,80,细颗粒物(PM2.5)
安顺市,娄家坡,105.8983,26.2481,2025-04-04T2100,65,85,0.9,14,16,130,142,88,细颗粒物(PM2.5)
安阳市,棉研所,114.4839,36.0621,2025-04-04T2100,,,,,,,,,
安阳市,红庙街,114.3551,36.1017,2025-04-04T2100,93,159,1.1,35,13,50,66,123,细颗粒物(PM2.5)
安阳市,银杏小区,114.361,36.0681,2025-04-04T2100,100,158,1.1,37,14,53,50,132,细颗粒物(PM2.5)
安阳市,信访局,114.3922,36.0878,2025-04-04T2100,105,167,1.1,42,10,53,76,138,细颗粒物(PM2.5)
安阳市,左辅环卫站,114.4705,36.0637,2025-04-04T2100,98,171,0.8,24,8,52,65,129,细颗粒物(PM2.5)
安阳市,安钢职工学校,114.2917,36.0949,2025-04-04T2100,102,190,1.5,51,16,47,57,134,细颗粒物(PM2.5)
鞍山市,深沟寺,123.044,41.1196,2025-04-04T2100,48,65,0.5,10,8,94,122,67,细颗粒物(PM2.5)
鞍山市,太阳城,123.011,41.0931,2025-04-04T2100,49,70,0.6,11,2,85,119,68,细颗粒物(PM2.5)
鞍山市,太平,123.0485,41.1442,2025-04-04T2100,44,68,0.5,10,7,98,119,62,细颗粒物(PM2.5)
鞍山市,铁西三道街,122.9642,41.0971,2025-04-04T2100,50,74,0.6,23,4,87,117,69,细颗粒物(PM2.5)
鞍山市,明达新区,123.022,41.0821,2025-04-04T2100,56,74,,,,,121,,
鞍山市,千山,123.1289,41.0228,2025-04-04T2100,,,,,,,90,,
鞍山市,兴盛南路290号,122.9446,41.0826,2025-04-04T2100,48,74,0.7,25,8,83,118,67,细颗粒物(PM2.5)
巴彦淖尔市,附二中,107.4212,40.761,2025-04-04T2100,20,38,0.3,16,11,74,99,38,
巴彦淖尔市,市环保大楼,107.37,40.7372,2025-04-04T2100,19,28,0.3,16,5,74,93,28,
巴音郭楞蒙古自治州,孔雀公园,86.1472,41.7538,2025-04-04T2100,100,509,0.3,13,6,84,103,409,颗粒物(PM10)
巴音郭楞蒙古自治州,棉纺厂,86.1972,41.7166,2025-04-04T2100,132,737,0.3,14,2,87,102,500,颗粒物(PM10)
巴音郭楞蒙古自治州,经济开发区,86.2357,41.7173,2025-04-04T2100,117,640,0.2,11,4,90,107,500,颗粒物(PM10)
巴中市,苏山坪,106.7677,31.8794,2025-04-04T2100,33,54,0.5,12,5,98,92,52,颗粒物(PM10)
巴中市,市五中,106.7768,31.8526,2025-04-04T2100,42,72,0.6,25,5,46,76,61,颗粒物(PM10)
巴中市,圣泉水务公司,106.7418,31.8654,2025-04-04T2100,48,75,0.6,50,3,29,86,67,细颗粒物(PM2.5)
巴中市,市中心医院,106.7616,31.8344,2025-04-04T2100,38,75,0.9,51,6,21,72,63,颗粒物(PM10)
白城市,洮北区环保局,122.7911,45.6077,2025-04-04T2100,61,171,0.7,16,6,92,122,111,颗粒物(PM10)
白城市,市环保局,122.8738,45.5725,2025-04-04T2100,48,200,0.5,18,8,86,116,125,颗粒物(PM10)
白山市,喜丰,126.4219,41.9171,2025-04-04T2100,21,45,0.9,12,6,117,128,45,
白山市,环保局,126.4077,41.9419,2025-04-04T2100,32,55,0.9,16,7,112,129,53,颗粒物(PM10)
白银市,第三小学,104.1724,36.5446,2025-04-04T2100,23,88,0.3,13,24,100,113,69,颗粒物(PM10)
白银市,动力公司,104.1465,36.5482,2025-04-04T2100,31,76,0.4,15,18,95,110,63,颗粒物(PM10)
百色市,市监测站,106.6103,23.9011,2025-04-04T2100,61,98,1.0,16,21,114,145,83,细颗粒物(PM2.5)
百色市,市中心血站,106.6538,23.8859,2025-04-04T2100,71,92,1.0,15,21,112,144,95,细颗粒物(PM2.5)
百色市,祈福高中,106.6085,23.8798,2025-04-04T2100,48,85,0.9,13,8,112,139,68,颗粒物(PM10)
蚌埠市,工人疗养院,117.396,32.939,2025-04-04T2100,53,116,1.0,29,11,122,157,83,颗粒物(PM10)
蚌埠市,百货大楼,117.3605,32.9427,2025-04-04T2100,60,119,0.7,35,10,114,143,85,颗粒物(PM10)
蚌埠市,蚌埠学院,117.4185,32.8911,2025-04-04T2100,48,102,0.8,23,11,124,155,76,颗粒物(PM10)
蚌埠市,淮上区政府,117.3533,32.9673,2025-04-04T2100,54,102,0.6,26,10,125,152,76,颗粒物(PM10)
蚌埠市,高新区,117.3145,32.8977,2025-04-04T2100,71,124,0.9,32,11,111,145,95,细颗粒物(PM2.5)
蚌埠市,蚌埠田家炳中学,117.3092,32.9314,2025-04-04T2100,73,133,0.7,37,17,111,150,98,细颗粒物(PM2.5)
包头市,市环境监测站,109.8756,40.6532,2025-04-04T2100,10,26,0.5,14,9,81,96,26,
包头市,包头八中,109.9991,40.5842,2025-04-04T2100,9,35,0.3,12,6,83,96,35,
包头市,青山宾馆,109.8538,40.6821,2025-04-04T2100,10,25,0.5,24,7,62,95,25,
包头市,惠龙物流,109.8642,40.6288,2025-04-04T2100,10,29,0.4,12,6,86,99,29,
包头市,东河鸿龙湾,110.0377,40.5546,2025-04-04T2100,3,19,0.4,11,6,85,95,27,
包头市,滨河大厦,109.9154,40.5685,2025-04-04T2100,3,12,0.5,9,7,84,97,27,
包头市,包头市委党校,109.9447,40.6261,2025-04-04T2100,6,18,0.3,7,5,87,88,28,
包头市,昆区政府,109.8331,40.6576,2025-04-04T2100,13,21,0.4,13,6,81,96,26,
宝鸡市,庙沟村,107.185,34.3063,2025-04-04T2100,49,170,0.3,9,7,101,112,110,颗粒物(PM10)
宝鸡市,竹园沟,107.0708,34.3017,2025-04-04T2100,58,172,0.4,16,6,79,114,111,颗粒物(PM10)
宝鸡市,三陆医院,107.1906,34.3672,2025-04-04T2100,62,179,0.6,34,4,54,107,115,颗粒物(PM10)
宝鸡市,监测站,107.1431,34.3547,2025-04-04T2100,68,206,0.5,21,7,72,105,128,颗粒物(PM10)
宝鸡市,技工学校,107.1186,34.3739,2025-04-04T2100,63,197,0.5,21,6,72,105,124,颗粒物(PM10)
宝鸡市,陈仓区环保局家属楼,107.3906,34.3528,2025-04-04T2100,70,192,0.7,78,6,18,106,121,颗粒物(PM10)
宝鸡市,文理学院,107.2058,34.3497,2025-04-04T2100,65,192,0.5,35,5,59,108,121,颗粒物(PM10)
宝鸡市,三迪小学,107.2386,34.3622,2025-04-04T2100,68,196,0.7,58,8,41,108,123,颗粒物(PM10)
保定市,游泳馆,115.493,38.8632,2025-04-04T2100,6,72,0.3,5,6,88,102,61,颗粒物(PM10)
保定市,华电二区,115.5213,38.8959,2025-04-04T2100,23,136,0,2,3,90,101,93,颗粒物(PM10)
保定市,接待中心,115.4713,38.9108,2025-04-04T2100,12,72,0.0,3,3,86,101,61,颗粒物(PM10)
保定市,地表水厂,115.4612,38.8416,2025-04-04T2100,9,104,0.2,10,3,91,106,77,颗粒物(PM10)
保定市,满城区生态环境分局,115.31981,38.95208,2025-04-04T2100,44,70,0.2,6,3,94,107,62,细颗粒物(PM2.5)
保定市,清苑区第二中学,115.47694,38.76408,2025-04-04T2100,12,105,0.2,12,2,88,103,78,颗粒物(PM10)
保定市,徐水物探局,115.62909,39.02311,2025-04-04T2100,3,61,0.0,6,6,86,98,56,颗粒物(PM10)
保定市,双鹰农机,115.4202,38.8656,2025-04-04T2100,29,117,0.0,11,1,88,103,84,颗粒物(PM10)
保定市,植保所站,115.5150,38.8590,2025-04-04T2100,48,251,0.1,2,3,86,93,151,颗粒物(PM10)
保山市,市环境监测站,99.1678,25.1081,2025-04-04T2100,36,64,0.5,8,5,138,153,57,颗粒物(PM10)
保山市,市环保局,99.1711,25.1328,2025-04-04T2100,46,62,0.6,10,6,129,161,64,细颗粒物(PM2.5)
北海市,牛尾岭水库,109.2262,21.588,2025-04-04T2100,13,28,0.5,,6,89,118,,
北海市,海滩公园,109.1436,21.4086,2025-04-04T2100,17,32,0.5,13,7,138,142,44,
北海市,新市环保局,109.0981,21.4661,2025-04-04T2100,14,34,0.2,15,4,140,142,44,
北海市,北海工业园,109.1778,21.5233,2025-04-04T2100,24,47,0.4,14,7,117,136,47,
北海市,龙潭自来水厂,109.1911,21.4415,2025-04-04T2100,17,34,0.5,16,6,104,138,34,
北京市,万寿西宫,116.3621,39.8784,2025-04-04T2100,7,34,0.3,11,5,90,109,34,
北京市,定陵,116.2202,40.2915,2025-04-04T2100,,,,,,,,,
北京市,东四,116.4174,39.9289,2025-04-04T2100,12,33,0.3,5,5,83,104,33,
北京市,天坛,116.4072,39.8863,2025-04-04T2100,3,32,0.5,9,1,81,98,32,
北京市,农展馆,116.462,39.9365,2025-04-04T2100,3,25,0.3,8,6,80,101,25,
北京市,官园,116.3392,39.9295,2025-04-04T2100,3,40,0.3,7,6,77,95,40,
北京市,海淀万柳,116.2878,39.9611,2025-04-04T2100,3,32,0.5,9,3,74,85,32,
北京市,顺义新城,116.6636,40.135,2025-04-04T2100,3,27,0.3,5,5,86,110,27,
北京市,怀柔镇,116.6275,40.3275,2025-04-04T2100,3,16,0.2,4,2,80,99,25,
北京市,昌平镇,116.2296,40.217,2025-04-04T2100,6,34,0.3,6,1,83,98,34,
北京市,奥体中心,116.3966,39.9821,2025-04-04T2100,3,27,0.4,10,2,80,99,27,
北京市,延庆夏都,115.9718,40.4529,2025-04-04T2100,7,26,0.3,6,5,85,96,27,
北京市,密云新城,116.8336,40.4095,2025-04-04T2100,3,12,0.3,6,4,80,106,25,
北京市,门头沟三家店,116.088,39.9726,2025-04-04T2100,12,65,0.3,6,4,75,82,58,颗粒物(PM10)
北京市,丰台云岗,116.1541,39.8204,2025-04-04T2100,6,33,0.3,10,4,83,101,33,
北京市,通州东关,116.6804,39.9081,2025-04-04T2100,3,40,0.2,8,4,75,94,40,
北京市,房山燕山,115.9577,39.7603,2025-04-04T2100,3,34,0.2,7,4,80,105,34,
北京市,大兴旧宫,116.4672,39.7733,2025-04-04T2100,8,38,0.1,5,3,77,91,38,
北京市,延庆石河营,115.986,40.4563,2025-04-04T2100,6,27,0.4,5,4,86,96,27,
北京市,怀柔新城,116.6151,40.3053,2025-04-04T2100,3,13,0.4,7,5,80,98,25,
北京市,丰台小屯,116.2545,39.8768,2025-04-04T2100,7,39,0.2,7,1,78,92,39,
北京市,密云镇,116.84,40.3844,2025-04-04T2100,3,16,0.3,4,4,85,114,27,
北京市,八角北路9号,116.1942,39.9158,2025-04-04T2100,17,42,0.0,3,2,90,104,42,
北京市,洳河巡河路,117.0790,40.1518,2025-04-04T2100,3,8,0.3,4,1,82,113,26,
本溪市,大峪,123.8275,41.3064,2025-04-04T2100,32,43,0.3,11,8,116,130,46,
本溪市,溪湖,123.7567,41.3325,2025-04-04T2100,40,54,1.0,16,8,109,125,57,细颗粒物(PM2.5)
本溪市,彩屯,123.7169,41.3094,2025-04-04T2100,44,68,1.8,21,11,106,118,62,细颗粒物(PM2.5)
本溪市,东明,123.7669,41.2864,2025-04-04T2100,31,36,0.7,15,14,106,122,45,
本溪市,新立屯,123.7992,41.2664,2025-04-04T2100,36,37,0.6,16,6,112,124,52,细颗粒物(PM2.5)
本溪市,威宁,123.8142,41.3472,2025-04-04T2100,27,41,0.5,4,4,106,125,41,
毕节市,八中,105.2864,27.3125,2025-04-04T2100,52,84,0.6,10,14,98,113,72,细颗粒物(PM2.5)
毕节市,师专,105.31,27.2944,2025-04-04T2100,52,90,0.7,10,6,102,122,72,细颗粒物(PM2.5)
毕节市,工业大道,105.3688,27.3598,2025-04-04T2100,44,84,0.6,13,8,102,116,67,颗粒物(PM10)
滨州市,第二水厂,118.0018,37.3617,2025-04-04T2100,73,153,1.2,27,23,70,111,102,颗粒物(PM10)
滨州市,北中新校,117.9776,37.393,2025-04-04T2100,73,132,0.7,37,18,69,118,98,细颗粒物(PM2.5)
滨州市,中海酒店,117.9378,37.3956,2025-04-04T2100,80,124,0.8,40,13,66,117,107,细颗粒物(PM2.5)
滨州市,开发区一中,117.9378,37.3553,2025-04-04T2100,66,144,0.6,39,17,73,113,97,颗粒物(PM10)
滨州市,金海六路,118.0917,37.694,2025-04-04T2100,73,129,0.8,50,11,43,104,98,细颗粒物(PM2.5)
滨州市,滨州市西街道办事处,117.9956,37.3753,2025-04-04T2100,83,144,0.9,31,14,75,120,110,细颗粒物(PM2.5)
亳州市,污水处理厂,115.8072,33.8399,2025-04-04T2100,39,90,0.6,11,7,127,123,70,颗粒物(PM10)
亳州市,三国揽胜宫,115.7789,33.8518,2025-04-04T2100,46,94,0.6,10,8,130,134,72,颗粒物(PM10)
亳州市,亳州学院,115.7633,33.8034,2025-04-04T2100,39,90,0.7,12,9,122,124,70,颗粒物(PM10)
博尔塔拉蒙古自治州,市党校,82.0485,44.8556,2025-04-04T2100,24,62,0.3,29,3,112,108,56,颗粒物(PM10)
博尔塔拉蒙古自治州,市环保局,82.0806,44.8969,2025-04-04T2100,13,57,0.3,14,4,125,128,54,颗粒物(PM10)
沧州市,沧县城建局,116.8842,38.2991,2025-04-04T2100,56,153,0.6,30,3,70,97,102,颗粒物(PM10)
沧州市,电视转播站,116.8584,38.3254,2025-04-04T2100,53,137,0.4,26,6,80,109,94,颗粒物(PM10)
沧州市,市环保局,116.8709,38.3228,2025-04-04T2100,57,147,0.4,24,6,77,106,99,颗粒物(PM10)
沧州市,河北水利电力学院,116.8136,38.3004,2025-04-04T2100,52,190,0.3,20,5,84,94,120,颗粒物(PM10)
昌都市,昌都监测站,97.1806,31.1273,2025-04-04T2100,16,,0.2,12,8,97,125,31,
昌都市,昌都会议中心,97.1714,31.1406,2025-04-04T2100,11,12,0.1,8,3,98,90,31,
昌吉回族自治州,天山天池,88.1236,43.8886,2025-04-04T2100,,15,0.5,8,4,72,100,,
昌吉回族自治州,新区政务中心,87.2717,44.0297,2025-04-04T2100,14,25,,12,,104,124,,
昌吉回族自治州,亚心广场,87.3095,44.0142,2025-04-04T2100,3,34,0.4,9,6,104,122,34,
长春市,食品厂,125.3325,43.9166,2025-04-04T2100,69,94,0.6,21,9,106,141,93,细颗粒物(PM2.5)
长春市,客车厂,125.2863,43.9027,2025-04-04T2100,68,85,0.6,22,7,104,136,92,细颗粒物(PM2.5)
长春市,邮电学院,125.2841,43.8463,2025-04-04T2100,70,90,0.5,17,7,111,144,94,细颗粒物(PM2.5)
长春市,劳动公园,125.3716,43.8772,2025-04-04T2100,63,86,0.5,14,7,113,145,85,细颗粒物(PM2.5)
长春市,园林处,125.3297,43.8805,2025-04-04T2100,65,80,0.6,17,8,111,146,88,细颗粒物(PM2.5)
长春市,净月潭,125.4605,43.79,2025-04-04T2100,69,85,0.6,14,7,104,138,93,细颗粒物(PM2.5)
长春市,甩湾子,125.7194,43.515,2025-04-04T2100,,,,,,,,,
长春市,经开区环卫处,125.3863,43.8447,2025-04-04T2100,65,91,0.6,16,7,105,132,88,细颗粒物(PM2.5)
长春市,高新区管委会,125.245,43.7783,2025-04-04T2100,71,77,0.6,17,8,106,135,95,细颗粒物(PM2.5)
长春市,岱山公园,125.1761,43.8325,2025-04-04T2100,68,,0.6,19,6,108,145,92,细颗粒物(PM2.5)
长沙市,经开区环保局,113.0833,28.2325,2025-04-04T2100,56,79,0.8,45,8,46,67,77,细颗粒物(PM2.5)
长沙市,高开区环保局,112.8872,28.2189,2025-04-04T2100,66,103,0.9,64,10,40,125,89,细颗粒物(PM2.5)
长沙市,马坡岭,113.0792,28.2053,2025-04-04T2100,49,80,0.8,34,8,49,80,68,细颗粒物(PM2.5)
长沙市,湖南师范大学,112.9394,28.19,2025-04-04T2100,57,86,0.9,32,8,43,109,78,细颗粒物(PM2.5)
长沙市,雨花区环保局,113.0178,28.1322,2025-04-04T2100,70,97,0.8,54,12,28,123,94,细颗粒物(PM2.5)
长沙市,伍家岭,112.9792,28.2597,2025-04-04T2100,60,116,1.1,58,5,24,69,83,颗粒物(PM10)
长沙市,火车新站,113.0014,28.1944,2025-04-04T2100,61,102,1.0,51,10,38,104,83,细颗粒物(PM2.5)
长沙市,天心区环保局,112.9844,28.1178,2025-04-04T2100,60,101,1.3,44,11,43,128,82,细颗粒物(PM2.5)
长沙市,湖南中医药大学,112.8908,28.1308,2025-04-04T2100,74,97,1.0,56,5,10,55,99,细颗粒物(PM2.5)
长沙市,沙坪,112.9581,28.3611,2025-04-04T2100,40,54,0.9,19,7,47,112,57,细颗粒物(PM2.5)
长治市,清华站,113.1147,36.1547,2025-04-04T2100,17,74,0.5,12,9,88,101,62,颗粒物(PM10)
长治市,审计局,113.0886,36.2125,2025-04-04T2100,22,68,0.2,17,8,87,104,59,颗粒物(PM10)
长治市,长治八中,113.0844,36.1856,2025-04-04T2100,31,81,0.4,16,12,88,105,66,颗粒物(PM10)
长治市,德盛苑,113.1569,36.1911,2025-04-04T2100,27,83,0.6,14,7,84,117,67,颗粒物(PM10)
长治市,向阳小学,113.06,36.0464,2025-04-04T2100,36,103,0.4,12,9,,102,,
长治市,屯留一中,112.8792,36.3144,2025-04-04T2100,15,63,0.4,20,6,87,108,57,颗粒物(PM10)
长治市,英华南巷50号,113.1131,36.19948,2025-04-04T2100,,82,0.2,15,5,91,106,,
长治市,学府街1号,113.2367,36.3344,2025-04-04T2100,22,91,0.4,11,6,89,106,71,颗粒物(PM10)
常德市,市二中,111.6975,28.9703,2025-04-04T2100,70,82,0.9,27,7,42,72,94,细颗粒物(PM2.5)
常德市,白鹤山,111.7158,29.1456,2025-04-04T2100,,,,,,,,,
常德市,武陵区永安,111.7153,29.0289,2025-04-04T2100,65,103,0.9,34,10,45,95,88,细颗粒物(PM2.5)
常德市,鼎城区玉霞,111.6892,28.9881,2025-04-04T2100,54,81,0.8,30,6,44,80,74,细颗粒物(PM2.5)
常德市,武陵区长庚,111.6625,29.0531,2025-04-04T2100,63,90,0.9,36,11,,101,,
常州市,市监测站,119.9633,31.762,2025-04-04T2100,48,87,0.9,53,8,112,155,69,颗粒物(PM10)
常州市,武进监测站,119.9468,31.7069,2025-04-04T2100,33,69,0.5,30,12,122,156,60,颗粒物(PM10)
常州市,安家,119.9255,31.9087,2025-04-04T2100,41,81,0.5,30,10,124,148,66,颗粒物(PM10)
常州市,行政中心,119.9805,31.8174,2025-04-04T2100,38,66,0.6,34,14,120,154,58,颗粒物(PM10)
常州市,经开区,120.0522,31.7748,2025-04-04T2100,37,78,0.6,41,10,114,154,64,颗粒物(PM10)
常州市,钟楼,119.9025,31.7964,2025-04-04T2100,46,74,0.9,25,8,134,165,64,细颗粒物(PM2.5)
常州市,武进经发区,119.8598,31.7066,2025-04-04T2100,36,67,0.9,30,9,127,158,59,颗粒物(PM10)
常州市,金坛城区,119.5826,31.7245,2025-04-04T2100,37,88,0.7,24,10,122,158,69,颗粒物(PM10)
朝阳市,西梁,120.4318,41.5881,2025-04-04T2100,50,52,1.1,31,16,76,113,69,细颗粒物(PM2.5)
朝阳市,河畔小区,120.4521,41.5646,2025-04-04T2100,48,52,0.7,26,9,73,115,67,细颗粒物(PM2.5)
朝阳市,八里堡,120.4176,41.5648,2025-04-04T2100,47,49,0.9,29,11,69,108,65,细颗粒物(PM2.5)
朝阳市,农业园区,120.3806,41.5969,2025-04-04T2100,70,,1.0,58,12,37,113,94,细颗粒物(PM2.5)
潮州市,西园路,116.6367,23.6719,2025-04-04T2100,,,,,,,,,
潮州市,市政府,116.6183,23.6608,2025-04-04T2100,40,52,0.6,16,3,108,133,57,细颗粒物(PM2.5)
潮州市,金山,116.6461,23.6761,2025-04-04T2100,38,41,0.5,11,6,114,140,54,细颗粒物(PM2.5)
郴州市,马头岭,113.0073,25.9061,2025-04-04T2100,33,92,1.0,58,8,30,51,71,颗粒物(PM10)
郴州市,市职中,113.0116,25.8226,2025-04-04T2100,69,118,1.0,56,10,2,13,93,细颗粒物(PM2.5)
郴州市,市审计局,113.0383,25.8071,2025-04-04T2100,56,90,0.8,45,12,25,29,77,细颗粒物(PM2.5)
郴州市,市环保局,113.0348,25.7759,2025-04-04T2100,54,99,0.8,66,13,15,51,75,颗粒物(PM10)
郴州市,好美居路49号,113.0138,25.8011,2025-04-04T2100,70,124,1.3,65,11,3,23,94,细颗粒物(PM2.5)
成都市,金泉两河,103.9728,30.7236,2025-04-04T2100,69,97,1.2,43,2,46,128,93,细颗粒物(PM2.5)
成都市,十里店,104.176,30.6872,2025-04-04T2100,70,95,0.9,41,3,94,141,94,细颗粒物(PM2.5)
成都市,三瓦窑,104.079,30.5706,2025-04-04T2100,66,125,0.8,69,4,71,140,89,细颗粒物(PM2.5)
成都市,沙河铺,104.1114,30.63,2025-04-04T2100,68,109,0.9,35,5,70,122,92,细颗粒物(PM2.5)
成都市,君平街,104.0786,30.6531,2025-04-04T2100,72,114,1.0,46,6,74,139,97,细颗粒物(PM2.5)
成都市,灵岩寺,103.613,31.0283,2025-04-04T2100,,,,,,,,,
成都市,大石西路,104.0239,30.65639,2025-04-04T2100,68,117,1.1,63,4,48,130,92,细颗粒物(PM2.5)
成都市,龙泉驿区区政府,104.2725,30.5589,2025-04-04T2100,36,90,1.0,27,4,74,122,70,颗粒物(PM10)
成都市,金博路,104.0106,30.6931,2025-04-04T2100,54,84,0.7,58,6,44,124,74,细颗粒物(PM2.5)
成都市,华阳,104.0578,30.5225,2025-04-04T2100,66,90,1.0,52,5,62,133,89,细颗粒物(PM2.5)
成都市,青白江技师分院,104.3853,30.7453,2025-04-04T2100,49,85,0.7,40,8,88,140,68,"颗粒物(PM10),细颗粒物(PM2.5)"
成都市,科学城,104.0789,30.4072,2025-04-04T2100,39,89,0.7,34,4,86,132,70,颗粒物(PM10)
成都市,光华大道三段,103.8506,30.6947,2025-04-04T2100,69,114,1.0,54,1,48,142,93,细颗粒物(PM2.5)
成都市,鲸龙路1057号,104.2433,30.5353,2025-04-04T2100,39,75,0.9,24,4,96,133,63,颗粒物(PM10)
承德市,铁路,117.9531,40.9081,2025-04-04T2100,13,42,0.2,6,5,77,102,42,
承德市,中国银行,117.9392,40.9763,2025-04-04T2100,8,41,0.3,6,2,76,103,41,
承德市,开发区,117.9503,40.928,2025-04-04T2100,12,50,0.2,5,5,79,105,50,
承德市,文化中心,117.8051,40.9655,2025-04-04T2100,3,39,0.2,6,2,77,101,39,
承德市,离宫,117.9268,41.0026,2025-04-04T2100,22,32,0.2,4,22,60,74,32,
池州市,池州学院,117.47,30.6618,2025-04-04T2100,59,90,0.6,22,19,98,118,80,细颗粒物(PM2.5)
池州市,展览馆,117.4918,30.6617,2025-04-04T2100,55,97,0.7,21,20,104,117,75,细颗粒物(PM2.5)
池州市,第八中学,117.5627,30.695,2025-04-04T2100,48,95,0.6,19,10,109,122,73,颗粒物(PM10)
池州市,第十二中学,117.5038,30.6243,2025-04-04T2100,58,96,0.7,33,10,88,109,79,细颗粒物(PM2.5)
赤峰市,松山一中,118.9233,42.2816,2025-04-04T2100,3,22,0.4,11,7,64,102,22,
赤峰市,哈达街,118.9576,42.2728,2025-04-04T2100,7,26,0.4,8,7,69,110,26,
赤峰市,天义路,118.8788,42.2554,2025-04-04T2100,15,20,0.3,14,7,63,113,22,
赤峰市,银河街,119.2658,42.0353,2025-04-04T2100,13,17,0.2,7,12,61,86,20,
赤峰市,桥北物流园区,118.9359,42.3147,2025-04-04T2100,3,21,0.5,12,7,62,106,21,
崇左市,市环保局江州分局,107.3476,22.4136,2025-04-04T2100,38,54,0.6,8,5,103,120,54,细颗粒物(PM2.5)
崇左市,石景林东路7号,107.3750,22.3736,2025-04-04T2100,39,,0.6,9,4,105,124,55,细颗粒物(PM2.5)
滁州市,老年大学,118.3093,32.3153,2025-04-04T2100,55,107,1.4,31,9,92,145,79,颗粒物(PM10)
滁州市,人大宾馆,118.3244,32.2786,2025-04-04T2100,50,101,1.0,42,16,104,143,76,颗粒物(PM10)
滁州市,市政府原办公楼,118.3118,32.3038,2025-04-04T2100,59,93,1.2,40,13,94,144,80,细颗粒物(PM2.5)
滁州市,图书馆,118.3267,32.2634,2025-04-04T2100,52,89,0.8,37,14,98,140,72,细颗粒物(PM2.5)
楚雄彝族自治州,州环境监测站,101.5482,25.0441,2025-04-04T2100,41,51,0.6,9,7,130,144,58,细颗粒物(PM2.5)
楚雄彝族自治州,市经济开发区,101.538,25.0492,2025-04-04T2100,43,79,0.7,14,7,125,145,65,颗粒物(PM10)
达州市,达州职业技术学院,107.5277,31.2827,2025-04-04T2100,28,64,0.2,59,6,4,73,57,颗粒物(PM10)
达州市,市环境监测站,107.5086,31.2186,2025-04-04T2100,53,101,1.2,82,6,6,78,76,颗粒物(PM10)
达州市,凤凰小区,107.4988,31.2132,2025-04-04T2100,53,85,0.8,83,8,8,80,73,细颗粒物(PM2.5)
达州市,达县机关宾馆,107.5082,31.1986,2025-04-04T2100,41,85,0.6,67,5,2,74,68,颗粒物(PM10)
达州市,市政中心,107.4644,31.2124,2025-04-04T2100,51,110,1.2,86,4,3,73,80,颗粒物(PM10)
大理白族自治州,大理市环境监测站,100.1542,25.7054,2025-04-04T2100,37,50,0.9,7,8,132,146,53,细颗粒物(PM2.5)
大理白族自治州,大理古城,100.2171,25.5811,2025-04-04T2100,39,46,0.5,6,8,119,140,55,细颗粒物(PM2.5)
大连市,甘井子,121.612,38.9741,2025-04-04T2100,28,48,0.8,21,6,127,119,48,
大连市,周水子,121.565,38.9511,2025-04-04T2100,36,52,0.5,25,8,106,104,52,细颗粒物(PM2.5)
大连市,星海三站,121.5637,38.8845,2025-04-04T2100,32,46,0.6,8,7,132,112,46,
大连市,青泥洼桥,121.6302,38.9117,2025-04-04T2100,29,47,0.5,14,9,138,124,47,
大连市,傅家庄,121.6251,38.8638,2025-04-04T2100,27,51,0.2,16,5,126,110,51,颗粒物(PM10)
大连市,七贤岭,121.5213,38.8661,2025-04-04T2100,30,48,0.4,12,5,131,109,48,
大连市,旅顺,121.2529,38.8061,2025-04-04T2100,27,37,0.5,26,7,102,104,39,
大连市,金州,121.7485,39.1311,2025-04-04T2100,23,47,0.7,18,9,118,119,47,
大连市,开发区,121.7811,39.0496,2025-04-04T2100,20,43,0.8,15,6,108,105,43,
大连市,双D港,121.9762,39.0631,2025-04-04T2100,23,55,0.4,17,7,108,117,53,颗粒物(PM10)
大庆市,大同区,124.81117,46.03138,2025-04-04T2100,84,269,0.8,26,8,91,132,160,颗粒物(PM10)
大庆市,龙凤区,125.129,46.533,2025-04-04T2100,77,141,0.8,25,10,122,136,103,细颗粒物(PM2.5)
大庆市,红岗区,124.902,46.408,2025-04-04T2100,110,138,0.8,18,8,122,151,144,细颗粒物(PM2.5)
大庆市,萨尔图区,125.153,46.586,2025-04-04T2100,101,153,0.7,29,12,117,132,133,细颗粒物(PM2.5)
大庆市,让胡路区,124.9042,46.6215,2025-04-04T2100,91,136,0.6,20,26,120,136,120,细颗粒物(PM2.5)
大庆市,萨区政府监测点,125.141,46.634,2025-04-04T2100,90,146,0.7,27,12,118,148,119,细颗粒物(PM2.5)
大同市,果树场,113.3819,40.1097,2025-04-04T2100,10,29,0.3,6,7,78,94,29,
大同市,云冈宾馆,113.2994,40.0758,2025-04-04T2100,14,41,0.4,8,7,90,104,41,
大同市,大同大学,113.3444,40.0917,2025-04-04T2100,21,43,0.5,8,16,79,100,43,
大同市,安家小村,113.2661,40.1269,2025-04-04T2100,3,32,0.3,2,8,86,94,32,
大同市,教育学院,113.2711,40.0844,2025-04-04T2100,36,72,0.5,15,10,84,100,61,颗粒物(PM10)
大同市,大同市卫生学校,113.3397,40.0597,2025-04-04T2100,9,40,0.3,8,6,84,98,40,
大同市,云冈站,113.1367,40.1122,2025-04-04T2100,3,47,0.2,9,10,78,97,47,
大同市,图书馆,113.1186,40.2556,2025-04-04T2100,9,44,0.5,8,12,69,91,44,
大同市,区一中,113.5931,40.0461,2025-04-04T2100,7,35,0.3,3,12,88,98,35,
大同市,魏都大道141号,113.2798,40.0997,2025-04-04T2100,33,49,0.4,8,11,90,104,49,
大兴安岭地区,科技局,124.1069,50.4097,2025-04-04T2100,78,130,0.9,26,11,80,111,104,细颗粒物(PM2.5)
大兴安岭地区,红旗社区,124.1164,50.4278,2025-04-04T2100,58,83,0.9,35,8,64,116,79,细颗粒物(PM2.5)
丹东市,江湾东路,124.3303,40.0625,2025-04-04T2100,37,70,0.5,8,8,106,126,60,颗粒物(PM10)
丹东市,临江后街,124.4256,40.1503,2025-04-04T2100,35,54,0.7,11,10,96,118,52,颗粒物(PM10)
丹东市,元宝山,124.3933,40.1461,2025-04-04T2100,40,47,0.6,14,7,94,116,57,细颗粒物(PM2.5)
丹东市,民主桥,124.3633,40.1092,2025-04-04T2100,35,54,0.6,9,8,97,122,52,颗粒物(PM10)
儋州市,第一中学子站,109.5726,19.5167,2025-04-04T2100,26,41,0.6,10,5,91,100,41,
儋州市,东坡学校子站,109.5567,19.5187,2025-04-04T2100,24,28,0.6,9,6,105,115,35,
德宏傣族景颇族自治州,德宏州监测站,98.5842,24.428,2025-04-04T2100,53,81,0.7,33,14,107,166,73,细颗粒物(PM2.5)
德宏傣族景颇族自治州,芒市人民政府综合楼,98.5881,24.4368,2025-04-04T2100,41,90,0.6,20,12,115,168,70,颗粒物(PM10)
德阳市,东山公园,104.4239,31.1208,2025-04-04T2100,35,64,0.7,16,4,101,125,57,颗粒物(PM10)
德阳市,西小区,104.3826,31.1317,2025-04-04T2100,53,87,0.7,49,4,56,119,73,细颗粒物(PM2.5)
德阳市,耐火材料厂,104.3553,31.1091,2025-04-04T2100,82,114,0.6,43,7,63,126,109,细颗粒物(PM2.5)
德阳市,市教育局,104.4019,31.1244,2025-04-04T2100,43,68,0.7,35,5,80,123,60,细颗粒物(PM2.5)
德州市,儿童乐园,116.3032,37.4674,2025-04-04T2100,105,217,1.2,41,19,60,97,138,细颗粒物(PM2.5)
德州市,监理站,116.2991,37.4451,2025-04-04T2100,97,195,0.7,36,18,60,97,128,细颗粒物(PM2.5)
德州市,九衢泉纯净水厂,116.2721,37.4379,2025-04-04T2100,83,175,0.9,58,12,39,94,113,颗粒物(PM10)
德州市,开发区人民医院,116.3728,37.4403,2025-04-04T2100,80,195,0.9,28,11,70,103,123,颗粒物(PM10)
德州市,太阳城中学,116.3572,37.4094,2025-04-04T2100,92,188,0.4,33,9,61,97,122,细颗粒物(PM2.5)
德州市,陵城艺术中心,116.5652,37.3319,2025-04-04T2100,92,171,0.9,37,12,63,101,122,细颗粒物(PM2.5)
迪庆藏族自治州,迪庆州站,99.7056,27.8317,2025-04-04T2100,27,52,0.6,12,8,117,118,51,颗粒物(PM10)
迪庆藏族自治州,质量技术监督局,99.7136,27.8094,2025-04-04T2100,28,41,0.5,11,10,126,137,41,
定西市,将台街,104.6092,35.5962,2025-04-04T2100,42,124,0.2,19,8,91,108,87,颗粒物(PM10)
定西市,正龙路62号,104.6159,35.5701,2025-04-04T2100,43,149,0.3,11,11,102,117,100,颗粒物(PM10)
东莞市,莞城梨川,113.7547,23.0494,2025-04-04T2100,25,58,0.5,19,4,89,128,54,颗粒物(PM10)
东莞市,东城石井,113.7944,23.0128,2025-04-04T2100,22,51,0.6,16,6,91,129,51,颗粒物(PM10)
东莞市,南城西平,113.7383,22.9658,2025-04-04T2100,21,54,0.5,22,7,87,118,52,颗粒物(PM10)
东莞市,万江金泰,113.7338,23.0381,2025-04-04T2100,23,50,0.6,13,5,101,136,50,
东莞市,南城元岭,113.7533,23.0202,2025-04-04T2100,24,54,0.7,15,5,89,122,52,颗粒物(PM10)
东莞市,东城主山,113.7875,23.0457,2025-04-04T2100,18,52,0.6,20,4,92,128,51,颗粒物(PM10)
东营市,市环保局,118.6614,37.4309,2025-04-04T2100,66,132,0.7,41,11,72,109,91,颗粒物(PM10)
东营市,开发区管委会,118.6904,37.4338,2025-04-04T2100,63,131,1.0,46,10,75,108,91,颗粒物(PM10)
东营市,垦利区民丰路,118.5719,37.565,2025-04-04T2100,61,127,1.2,35,20,66,116,89,颗粒物(PM10)
东营市,河口城区,118.5055,37.8612,2025-04-04T2100,61,146,1.2,32,11,74,120,98,颗粒物(PM10)
东营市,胜利站,118.4978,37.4623,2025-04-04T2100,70,136,1.1,42,12,67,106,94,细颗粒物(PM2.5)
东营市,理想之城,118.35,37.26,2025-04-04T2100,63,139,0.9,43,11,66,121,95,颗粒物(PM10)
鄂尔多斯市,综合楼,110.0023,39.8129,2025-04-04T2100,19,107,0.3,30,6,62,93,79,颗粒物(PM10)
鄂尔多斯市,巴音孟克林场办事处,109.9486,39.8261,2025-04-04T2100,24,95,0.3,21,7,73,96,73,颗粒物(PM10)
鄂尔多斯市,康泽苑,109.7736,39.5986,2025-04-04T2100,9,61,0.3,10,3,79,94,56,颗粒物(PM10)
鄂尔多斯市,华泰汽车城,109.8119,39.5989,2025-04-04T2100,12,63,0.3,9,3,82,92,57,颗粒物(PM10)
鄂尔多斯市,奥林花园,109.9734,39.7884,2025-04-04T2100,14,90,0.3,12,4,83,97,70,颗粒物(PM10)
鄂州市,市政府,114.8938,30.3994,2025-04-04T2100,86,124,1.3,56,10,34,101,114,细颗粒物(PM2.5)
鄂州市,赵家坝,114.8989,30.3714,2025-04-04T2100,77,123,1.1,56,9,41,81,103,细颗粒物(PM2.5)
鄂州市,精准医疗中心,114.8094,30.4089,2025-04-04T2100,76,133,0.8,73,9,37,112,102,细颗粒物(PM2.5)
恩施土家族苗族自治州,湖北民院,109.4978,30.2981,2025-04-04T2100,43,62,0.2,43,1,38,94,60,细颗粒物(PM2.5)
恩施土家族苗族自治州,州电力总公司,109.4707,30.2798,2025-04-04T2100,48,77,0.4,41,5,30,70,67,细颗粒物(PM2.5)
恩施土家族苗族自治州,龙凤新区,109.5061,30.3772,2025-04-04T2100,35,54,0.5,17,6,30,73,52,颗粒物(PM10)
防城港市,沙万,108.3411,21.6158,2025-04-04T2100,22,45,0.3,47,2,77,114,45,
防城港市,防城档案局,108.3514,21.7731,2025-04-04T2100,21,40,0.4,13,2,106,119,40,
防城港市,大海花园,108.3506,21.6414,2025-04-04T2100,16,60,0.6,25,4,107,125,55,颗粒物(PM10)
佛山市,湾梁,113.1294,23.0067,2025-04-04T2100,23,41,0.5,25,6,84,117,41,
佛山市,华材职中,113.1083,23.0478,2025-04-04T2100,22,36,0.5,21,6,95,130,36,
佛山市,南海气象局,113.144,23.0453,2025-04-04T2100,36,68,0.5,16,5,79,114,59,颗粒物(PM10)
佛山市,顺德苏岗,113.2881,22.8094,2025-04-04T2100,17,40,0.6,18,5,78,110,40,
佛山市,高明孔堂,112.8383,22.8678,2025-04-04T2100,28,60,0.6,12,5,92,119,55,颗粒物(PM10)
佛山市,三水监测站,112.8836,23.1588,2025-04-04T2100,30,56,0.6,30,1,84,111,53,颗粒物(PM10)
佛山市,三水云东海,112.867,23.185,2025-04-04T2100,33,51,0.7,,1,94,132,,
佛山市,容桂街道办,113.2544,22.7642,2025-04-04T2100,22,41,0.6,28,7,75,104,41,
福州市,鼓山,119.3903,26.0543,2025-04-04T2100,,,,,,,125,,
福州市,师大,119.2681,26.0504,2025-04-04T2100,35,55,0.3,14,5,130,151,53,颗粒物(PM10)
福州市,五四北路,119.2984,26.1028,2025-04-04T2100,27,46,0.5,13,6,131,145,46,
福州市,杨桥西路,119.2648,26.0768,2025-04-04T2100,38,59,0.5,18,5,123,149,55,颗粒物(PM10)
福州市,紫阳,119.317,26.0746,2025-04-04T2100,39,66,0.4,28,5,102,138,58,颗粒物(PM10)
福州市,九龙,119.5799,26.0936,2025-04-04T2100,22,41,0.3,13,5,110,140,41,
福州市,吴航,119.5189,25.9664,2025-04-04T2100,17,38,0.3,7,5,143,155,45,
抚顺市,望花区,123.7977,41.8491,2025-04-04T2100,48,,0.7,12,13,120,130,67,细颗粒物(PM2.5)
抚顺市,顺城区,123.9161,41.8822,2025-04-04T2100,32,39,0.5,11,7,120,137,46,
抚顺市,东洲区,124.0436,41.8611,2025-04-04T2100,31,35,0.7,12,6,119,133,45,
抚顺市,新抚区,123.9247,41.8642,2025-04-04T2100,21,31,0.7,10,5,112,129,35,
抚顺市,大伙房水库,124.0972,41.8961,2025-04-04T2100,28,30,0.4,6,6,125,137,40,
抚顺市,沈抚新城,123.7086,41.8391,2025-04-04T2100,30,38,0.7,13,8,117,133,43,
抚州市,桐源党溪,116.2127,28.0814,2025-04-04T2100,63,74,0.5,5,9,49,88,85,细颗粒物(PM2.5)
抚州市,市站,116.3544,27.9831,2025-04-04T2100,58,99,1.1,35,11,42,81,79,细颗粒物(PM2.5)
抚州市,血防站,116.3565,27.963,2025-04-04T2100,53,94,0.8,31,6,40,84,73,细颗粒物(PM2.5)
抚州市,采茶剧团,116.3564,28.0007,2025-04-04T2100,62,85,1.6,22,3,39,76,84,细颗粒物(PM2.5)
抚州市,医学分院,116.385,27.9647,2025-04-04T2100,44,81,1.4,20,5,44,71,66,颗粒物(PM10)
阜新市,工业园区,121.6094,41.998,2025-04-04T2100,30,48,0.8,31,10,68,101,48,
阜新市,长青街,121.6697,42.0279,2025-04-04T2100,51,,0.7,20,8,83,100,70,细颗粒物(PM2.5)
阜新市,农业园区,121.6673,42.0705,2025-04-04T2100,39,,0.6,15,8,85,99,55,细颗粒物(PM2.5)
阜新市,东苑,121.6717,42.0224,2025-04-04T2100,49,,0.7,26,10,81,97,68,细颗粒物(PM2.5)
阜新市,玉龙新城,121.6506,42.0498,2025-04-04T2100,54,,0.9,33,10,57,98,74,细颗粒物(PM2.5)
阜阳市,市监测站,115.8277,32.8929,2025-04-04T2100,63,102,0.8,16,10,127,113,85,细颗粒物(PM2.5)
阜阳市,开发区,115.8554,32.8605,2025-04-04T2100,53,102,0.6,15,10,132,119,76,颗粒物(PM10)
阜阳市,阜阳职业技术学院,115.784,32.8892,2025-04-04T2100,69,111,0.5,19,10,118,115,93,细颗粒物(PM2.5)
阜阳市,市规划展馆,115.7901,32.8613,2025-04-04T2100,67,101,0.6,15,11,134,126,90,细颗粒物(PM2.5)
阜阳市,枣园社区,115.836,32.9183,2025-04-04T2100,69,108,0.7,16,9,137,128,93,细颗粒物(PM2.5)
甘南藏族自治州,州政府,102.9099,34.9841,2025-04-04T2100,55,160,0.3,3,8,97,107,105,颗粒物(PM10)
甘南藏族自治州,甘肃民族师范学院,102.8914,34.9617,2025-04-04T2100,52,117,0.5,10,14,90,95,84,颗粒物(PM10)
甘孜藏族自治州,水桥子,101.9603,30.0475,2025-04-04T2100,7,11,0.2,8,3,77,69,25,
甘孜藏族自治州,州环保局,101.9533,29.9972,2025-04-04T2100,7,9,0.3,10,4,,76,,
赣江新区,桑海产业园,115.8347,28.932,2025-04-04T2100,62,107,0.8,33,12,48,85,84,细颗粒物(PM2.5)
赣州市,通天岩,114.9017,25.9149,2025-04-04T2100,11,50,0.9,6,12,64,127,50,
赣州市,地委,114.9367,25.8664,2025-04-04T2100,42,76,1.2,31,16,27,60,63,颗粒物(PM10)
赣州市,气象台,114.9461,25.8481,2025-04-04T2100,42,90,0.7,47,8,23,69,70,颗粒物(PM10)
赣州市,市图书馆,114.9322,25.8333,2025-04-04T2100,49,100,1.1,55,8,18,62,75,颗粒物(PM10)
赣州市,华坚鞋城,114.8905,25.8471,2025-04-04T2100,43,91,0.8,54,13,28,71,71,颗粒物(PM10)
赣州市,赣县区卫计委,115.0093,25.8613,2025-04-04T2100,44,71,0.7,32,7,33,64,62,细颗粒物(PM2.5)
固原市,马园,106.2319,36.1417,2025-04-04T2100,39,136,0.4,18,5,80,98,93,颗粒物(PM10)
固原市,监测站,106.2792,36.0022,2025-04-04T2100,32,122,0.3,14,5,91,105,86,颗粒物(PM10)
固原市,新区,106.2375,36.0211,2025-04-04T2100,40,121,0.4,23,6,78,104,86,颗粒物(PM10)
固原市,原州区十五小,106.2177,35.9959,2025-04-04T2100,66,236,0.4,47,8,51,107,143,颗粒物(PM10)
广安市,小平旧居,106.6308,30.5278,2025-04-04T2100,,,,,,,,,
广安市,市委,106.6303,30.4576,2025-04-04T2100,63,87,0.6,23,5,85,99,85,细颗粒物(PM2.5)
广安市,友谊中学,106.6271,30.4663,2025-04-04T2100,54,80,0.7,20,5,99,104,74,细颗粒物(PM2.5)
广安市,广电花园,106.6388,30.4551,2025-04-04T2100,59,77,0.6,24,8,81,95,80,细颗粒物(PM2.5)
广安市,北辰小学,106.6351,30.4865,2025-04-04T2100,57,72,0.8,19,8,102,105,78,细颗粒物(PM2.5)
广元市,黑石坡,105.8945,32.4535,2025-04-04T2100,46,63,0.3,7,2,100,107,64,细颗粒物(PM2.5)
广元市,老城,105.821,32.4444,2025-04-04T2100,43,84,1.0,70,3,25,110,67,颗粒物(PM10)
广元市,监测站,105.8628,32.4287,2025-04-04T2100,34,54,0.5,18,6,83,116,52,颗粒物(PM10)
广元市,经开区,105.8047,32.4166,2025-04-04T2100,46,80,0.8,35,4,59,100,65,颗粒物(PM10)
广州市,广雅中学,113.2347,23.1423,2025-04-04T2100,25,45,0.5,30,3,76,115,45,
广州市,市五中,113.2612,23.105,2025-04-04T2100,25,45,0.9,26,2,76,119,45,
广州市,广东商学院,113.3478,23.0916,2025-04-04T2100,33,55,,30,,76,129,,
广州市,市八十六中,113.4332,23.1047,2025-04-04T2100,21,59,0.8,45,4,55,90,55,颗粒物(PM10)
广州市,番禺中学,113.3505,22.9483,2025-04-04T2100,33,50,0.5,24,3,89,118,50,
广州市,花都师范,113.2146,23.3916,2025-04-04T2100,36,81,0.6,35,6,94,129,66,颗粒物(PM10)
广州市,市监测站,113.2597,23.1331,2025-04-04T2100,27,50,0.6,32,4,70,112,50,
广州市,九龙镇镇龙,113.5618,23.312,2025-04-04T2100,53,90,0.6,29,7,82,125,73,细颗粒物(PM2.5)
广州市,麓湖,113.2765,23.1544,2025-04-04T2100,26,49,0.6,24,3,80,129,49,
广州市,帽峰山森林公园,113.443,23.3035,2025-04-04T2100,19,65,0.5,23,7,97,122,58,颗粒物(PM10)
广州市,体育西,113.3221,23.1322,2025-04-04T2100,33,62,0.6,27,4,80,124,56,颗粒物(PM10)
广州市,从化街口,113.5717,23.5491,2025-04-04T2100,67,115,0.9,26,11,89,132,90,细颗粒物(PM2.5)
广州市,白云竹料,113.3472,23.3692,2025-04-04T2100,54,112,0.6,33,9,110,139,81,颗粒物(PM10)
广州市,白云嘉禾,113.2981,23.237,2025-04-04T2100,42,84,0.6,40,4,78,126,67,颗粒物(PM10)
广州市,黄埔科学城,113.4256,23.1716,2025-04-04T2100,33,74,0.5,47,8,64,128,62,颗粒物(PM10)
广州市,番禺大学城,113.3942,23.0483,2025-04-04T2100,33,87,0.4,32,9,81,133,69,颗粒物(PM10)
广州市,南沙黄阁,113.4922,22.8168,2025-04-04T2100,29,60,0.6,30,5,,112,,
广州市,南沙街,113.5342,22.7896,2025-04-04T2100,27,51,0.5,32,4,70,114,51,颗粒物(PM10)
广州市,花都梯面,113.2902,23.5544,2025-04-04T2100,38,70,0.7,37,6,67,137,60,颗粒物(PM10)
广州市,从化良口,113.7858,23.7478,2025-04-04T2100,27,47,0.5,20,7,96,130,47,
广州市,增城荔城,113.8051,23.2614,2025-04-04T2100,33,61,0.4,18,7,90,131,56,颗粒物(PM10)
贵港市,德智高中,109.568,23.1478,2025-04-04T2100,,,,,,,,,
贵港市,江南子站,109.6047,23.0666,2025-04-04T2100,208,222,1.2,35,20,95,136,258,细颗粒物(PM2.5)
贵港市,荷城子站,109.5669,23.1065,2025-04-04T2100,163,200,1.0,37,24,84,116,213,细颗粒物(PM2.5)
贵港市,新世纪学校,109.5886,23.1172,2025-04-04T2100,167,217,1.3,35,20,86,127,217,细颗粒物(PM2.5)
贵港市,中山路155-3号,109.5933,23.0951,2025-04-04T2100,172,182,1.1,36,25,88,128,222,细颗粒物(PM2.5)
贵阳市,马鞍山,106.6899,26.5998,2025-04-04T2100,41,80,0.6,10,9,136,152,65,颗粒物(PM10)
贵阳市,鉴湖路,106.6243,26.6266,2025-04-04T2100,46,90,0.5,10,13,137,149,70,颗粒物(PM10)
贵阳市,燕子冲,106.7487,26.6343,2025-04-04T2100,53,92,0.5,14,7,146,166,73,细颗粒物(PM2.5)
贵阳市,碧云窝,106.6555,26.4365,2025-04-04T2100,56,114,0.5,16,13,145,161,82,颗粒物(PM10)
贵阳市,红边门,106.7109,26.6027,2025-04-04T2100,48,95,0.6,13,10,144,160,73,颗粒物(PM10)
贵阳市,新华路,106.7164,26.5699,2025-04-04T2100,51,90,0.5,13,17,138,158,70,"颗粒物(PM10),细颗粒物(PM2.5)"
贵阳市,太慈桥,106.674,26.5424,2025-04-04T2100,48,92,0.6,18,14,147,160,71,颗粒物(PM10)
贵阳市,桐木岭,106.805,26.3003,2025-04-04T2100,58,83,0.7,13,14,121,148,79,细颗粒物(PM2.5)
贵阳市,花果园大街66号,106.6882,26.5695,2025-04-04T2100,53,90,0.6,18,10,134,148,73,细颗粒物(PM2.5)
贵阳市,漓江路57号,106.6873,26.5169,2025-04-04T2100,53,95,0.3,16,16,142,155,73,"颗粒物(PM10),细颗粒物(PM2.5)"
桂林市,电子科大尧山校区,110.4144,25.3167,2025-04-04T2100,,,,,,,,,
桂林市,龙隐路小学,110.3089,25.2708,2025-04-04T2100,139,150,1.3,27,60,80,83,185,细颗粒物(PM2.5)
桂林市,八中,110.2869,25.2178,2025-04-04T2100,139,201,1.1,51,69,51,72,185,细颗粒物(PM2.5)
桂林市,旅游学院,110.296,25.1253,2025-04-04T2100,158,197,1.0,,39,58,95,208,细颗粒物(PM2.5)
桂林市,环湖路276号,110.1835,25.2444,2025-04-04T2100,158,200,1.1,41,54,35,38,208,细颗粒物(PM2.5)
桂林市,信义路13号,110.2803,25.2773,2025-04-04T2100,142,173,1.3,41,54,63,70,189,细颗粒物(PM2.5)
果洛藏族自治州,玛沁县大武镇,100.2561,34.4714,2025-04-04T2100,28,65,0.4,1,14,96,110,58,颗粒物(PM10)
哈尔滨市,岭北,126.5422,45.755,2025-04-04T2100,40,48,0.8,20,11,108,149,57,细颗粒物(PM2.5)
哈尔滨市,松北商大,126.561,45.8167,2025-04-04T2100,40,49,0.6,17,8,106,146,57,细颗粒物(PM2.5)
哈尔滨市,阿城会宁,126.979,45.5419,2025-04-04T2100,33,56,0.5,25,17,93,154,53,颗粒物(PM10)
哈尔滨市,南岗学府路,126.599,45.7222,2025-04-04T2100,41,84,0.7,26,10,94,144,67,颗粒物(PM10)
哈尔滨市,太平宏伟公园,126.689,45.7733,2025-04-04T2100,39,71,0.7,23,8,101,145,61,颗粒物(PM10)
哈尔滨市,道外承德广场,126.635,45.7667,2025-04-04T2100,44,,0.4,22,9,100,137,,
哈尔滨市,香坊红旗大街,126.685,45.7319,2025-04-04T2100,45,61,0.6,24,12,95,136,63,细颗粒物(PM2.5)
哈尔滨市,动力和平路,126.6411,45.7258,2025-04-04T2100,45,67,0.5,19,10,98,135,63,细颗粒物(PM2.5)
哈尔滨市,道里建国路,126.593,45.7478,2025-04-04T2100,50,60,1.2,32,16,89,141,69,细颗粒物(PM2.5)
哈尔滨市,平房东轻厂,126.615,45.61,2025-04-04T2100,44,60,0.7,14,11,97,137,62,细颗粒物(PM2.5)
哈尔滨市,呼兰师专,126.595,45.9855,2025-04-04T2100,70,92,0.8,38,9,86,134,94,细颗粒物(PM2.5)
哈尔滨市,省农科院,126.6206,45.6842,2025-04-04T2100,50,80,0.7,39,10,72,135,69,细颗粒物(PM2.5)
哈密市,地区监测站,93.5128,42.8172,2025-04-04T2100,17,71,0.4,24,9,77,101,61,颗粒物(PM10)
哈密市,哈密师范学校,93.4961,42.8328,2025-04-04T2100,,,0.0,,4,96,110,,
海北藏族自治州,海晏县西海镇,100.9048,36.9639,2025-04-04T2100,30,90,0.5,4,9,109,116,70,颗粒物(PM10)
海东市,平安区公安北苑,102.0738,36.5056,2025-04-04T2100,84,228,0.5,9,11,99,109,139,颗粒物(PM10)
海口市,东寨港,110.576,19.9507,2025-04-04T2100,21,31,0.5,5,3,29,36,31,
海口市,海南大学,110.3232,20.0574,2025-04-04T2100,17,43,0.4,12,2,97,124,43,
海口市,秀英海南医院,110.283,20.0053,2025-04-04T2100,20,42,0.3,8,4,103,127,42,
海口市,海南师范大学,110.338,19.9969,2025-04-04T2100,15,39,0.4,5,4,107,131,39,
海口市,龙华路环保局宿舍,110.33,20.0356,2025-04-04T2100,18,43,0.4,7,4,99,128,43,
海口市,桂林洋子站,110.5111,19.9736,2025-04-04T2100,14,34,0.3,6,4,103,129,34,
海南藏族自治州,共和县恰卜恰镇,100.6188,36.2866,2025-04-04T2100,17,59,0.4,18,13,101,121,55,颗粒物(PM10)
海西蒙古族藏族自治州,德令哈市,97.3731,37.3753,2025-04-04T2100,17,67,0.5,9,10,95,113,59,颗粒物(PM10)
邯郸市,东污水处理厂,114.5302,36.6116,2025-04-04T2100,66,156,1.3,47,12,55,60,103,颗粒物(PM10)
邯郸市,矿院,114.4918,36.5713,2025-04-04T2100,46,102,1.0,27,10,59,53,76,颗粒物(PM10)
邯郸市,丛台公园,114.484,36.6133,2025-04-04T2100,48,131,0.9,30,11,66,62,91,颗粒物(PM10)
邯郸市,香泉濮院小区,114.7895,36.5593,2025-04-04T2100,76,191,1.0,41,12,42,87,121,颗粒物(PM10)
邯郸市,永年区实验高中,114.50634,36.77178,2025-04-04T2100,38,147,0.7,17,5,68,64,99,颗粒物(PM10)
邯郸市,峰峰矿区临水派出所,114.20016,36.44293,2025-04-04T2100,69,221,0.9,16,20,102,94,136,颗粒物(PM10)
汉中市,汉川机床厂子校,106.9893,33.1842,2025-04-04T2100,31,75,0.5,4,7,99,122,63,颗粒物(PM10)
汉中市,市监测站,107.0154,33.0706,2025-04-04T2100,46,110,1.3,56,6,32,114,80,颗粒物(PM10)
汉中市,鑫源开发区,107.0089,33.1138,2025-04-04T2100,40,80,0.5,24,6,77,115,65,颗粒物(PM10)
汉中市,南郑大河坎水厂,107.007,33.0323,2025-04-04T2100,46,99,1.0,71,6,15,110,75,颗粒物(PM10)
杭州市,滨江,120.2072,30.2111,2025-04-04T2100,24,77,0.4,75,9,46,128,64,颗粒物(PM10)
杭州市,西溪,120.0633,30.2747,2025-04-04T2100,42,86,0.5,52,7,60,143,68,颗粒物(PM10)
杭州市,下沙,120.3417,30.3150,2025-04-04T2100,33,69,0.5,69,7,42,122,60,颗粒物(PM10)
杭州市,卧龙桥,120.1269,30.2456,2025-04-04T2100,40,72,0.6,58,6,35,134,61,颗粒物(PM10)
杭州市,浙江农大,120.1903,30.2692,2025-04-04T2100,27,70,0.5,61,6,44,123,60,颗粒物(PM10)
杭州市,和睦小学,120.1197,30.3119,2025-04-04T2100,32,73,0.7,54,8,58,134,62,颗粒物(PM10)
杭州市,临平镇,120.3019,30.4183,2025-04-04T2100,33,66,0.6,52,6,50,134,58,颗粒物(PM10)
杭州市,城厢镇,120.2753,30.1839,2025-04-04T2100,49,96,0.8,114,12,15,138,73,颗粒物(PM10)
杭州市,云栖,120.0883,30.1808,2025-04-04T2100,40,74,0.8,80,9,14,149,62,颗粒物(PM10)
杭州市,镇二中,119.9464,30.0494,2025-04-04T2100,62,98,0.9,59,8,71,145,84,细颗粒物(PM2.5)
杭州市,市府大楼,119.7183,30.2367,2025-04-04T2100,63,114,0.6,40,10,108,137,85,细颗粒物(PM2.5)
杭州市,消防大队,120.1556,30.2864,2025-04-04T2100,39,76,0.8,69,4,47,143,63,颗粒物(PM10)
合肥市,明珠广场,117.1959,31.7848,2025-04-04T2100,56,70,0.6,28,7,109,127,77,细颗粒物(PM2.5)
合肥市,三里街,117.3072,31.8764,2025-04-04T2100,63,97,1.0,47,8,80,119,85,细颗粒物(PM2.5)
合肥市,琥珀山庄,117.2588,31.8707,2025-04-04T2100,56,100,1.0,41,4,92,136,77,细颗粒物(PM2.5)
合肥市,董铺水库,117.1604,31.9052,2025-04-04T2100,39,83,0.5,9,4,120,143,67,颗粒物(PM10)
合肥市,长江中路,117.25,31.8571,2025-04-04T2100,48,85,0.8,28,11,113,134,68,颗粒物(PM10)
合肥市,庐阳区,117.266,31.9436,2025-04-04T2100,44,88,0.6,34,7,104,136,69,颗粒物(PM10)
合肥市,瑶海区,117.3453,31.8616,2025-04-04T2100,44,83,0.7,40,8,96,122,67,颗粒物(PM10)
合肥市,包河区,117.3027,31.7964,2025-04-04T2100,39,68,0.5,21,8,123,136,59,颗粒物(PM10)
合肥市,滨湖新区,117.2776,31.7385,2025-04-04T2100,44,75,0.6,22,7,114,127,63,颗粒物(PM10)
合肥市,高新区,117.1318,31.8403,2025-04-04T2100,38,78,0.5,30,4,109,128,64,颗粒物(PM10)
合肥市,高教基地,117.3803,31.9147,2025-04-04T2100,33,74,0.5,19,7,124,140,62,颗粒物(PM10)
和田地区,地区环保局,79.924,37.0877,2025-04-04T2100,92,378,0.3,16,1,68,72,240,颗粒物(PM10)
和田地区,市环保局,79.9131,37.113,2025-04-04T2100,76,415,0.1,6,1,69,73,293,颗粒物(PM10)
河池市,东仁乐园,108.2011,24.715,2025-04-04T2100,31,,0.8,12,10,112,125,45,
河池市,市环保站,108.0497,24.6947,2025-04-04T2100,27,29,0.5,10,8,108,123,39,
河池市,市疾控中心,108.0983,24.6989,2025-04-04T2100,31,36,0.6,13,11,114,128,45,
河源市,源西,114.6778,23.7569,2025-04-04T2100,27,58,0.6,18,4,86,124,54,颗粒物(PM10)
河源市,东埔,114.6944,23.7586,2025-04-04T2100,30,83,0.6,18,5,102,118,67,颗粒物(PM10)
河源市,老城,114.6892,23.7233,2025-04-04T2100,30,56,0.4,13,5,102,116,53,颗粒物(PM10)
菏泽市,气象局,115.4208,35.2464,2025-04-04T2100,95,173,0.7,28,6,81,114,125,细颗粒物(PM2.5)
菏泽市,定陶老年大学,115.5564,35.0891,2025-04-04T2100,63,122,0.6,21,6,103,115,86,颗粒物(PM10)
菏泽市,永昌路1号,115.4797,35.24401,2025-04-04T2100,99,,0.5,29,6,74,109,130,细颗粒物(PM2.5)
菏泽市,长城路999号,115.4715,35.2800,2025-04-04T2100,105,182,0.7,38,15,74,115,138,细颗粒物(PM2.5)
贺州市,环保小区,111.5264,24.4172,2025-04-04T2100,108,154,1.0,35,17,69,124,142,细颗粒物(PM2.5)
贺州市,政协大楼,111.5608,24.4078,2025-04-04T2100,133,160,0.9,31,16,61,123,176,细颗粒物(PM2.5)
贺州市,西湾,111.4744,24.4553,2025-04-04T2100,101,148,0.9,33,13,68,124,133,细颗粒物(PM2.5)
鹤壁市,市监测站,114.17,35.9019,2025-04-04T2100,95,178,1.4,49,14,43,92,125,细颗粒物(PM2.5)
鹤壁市,市交警支队,114.2956,35.7511,2025-04-04T2100,104,197,1.4,49,13,38,84,137,细颗粒物(PM2.5)
鹤壁市,迎宾馆,114.2878,35.7306,2025-04-04T2100,87,189,1.0,48,9,43,86,120,颗粒物(PM10)
鹤壁市,大新区,114.2617,35.6822,2025-04-04T2100,101,175,1.0,38,10,58,82,133,细颗粒物(PM2.5)
鹤壁市,南山宾馆,114.1572,35.9603,2025-04-04T2100,95,200,1.7,41,16,62,82,125,"颗粒物(PM10),细颗粒物(PM2.5)"
鹤岗市,哈啤分公司,130.2537,47.3416,2025-04-04T2100,35,42,0.4,19,15,62,86,50,
鹤岗市,斯达机电,130.2684,47.3086,2025-04-04T2100,30,35,0.4,9,15,80,94,43,
鹤岗市,东山纸板厂,130.3114,47.3388,2025-04-04T2100,25,45,0.7,20,13,56,72,45,
鹤岗市,五号水库,130.1097,47.3382,2025-04-04T2100,,,,,,,,,
黑河市,交通局,127.4833,50.2524,2025-04-04T2100,29,55,0.5,14,6,67,85,53,颗粒物(PM10)
黑河市,环保局,127.5144,50.2341,2025-04-04T2100,21,31,0.5,7,4,78,91,31,
黑河市,大黑河岛,127.5291,50.2472,2025-04-04T2100,12,43,0.4,7,3,72,98,43,
衡水市,电机北厂,115.6838,37.7541,2025-04-04T2100,25,120,0.2,10,4,94,95,85,颗粒物(PM10)
衡水市,市监测站,115.6303,37.7316,2025-04-04T2100,13,111,0.3,7,7,95,97,81,颗粒物(PM10)
衡水市,市城管局,115.6683,37.7217,2025-04-04T2100,33,115,0.2,11,9,95,94,83,颗粒物(PM10)
衡水市,地表水厂,115.5989,37.5491,2025-04-04T2100,86,196,0.7,29,14,73,95,123,颗粒物(PM10)
衡阳市,原169医院,112.5003,26.9167,2025-04-04T2100,146,200,1.5,58,13,9,41,195,细颗粒物(PM2.5)
衡阳市,衡阳化工总厂,112.6194,26.9258,2025-04-04T2100,104,140,1.3,44,12,14,54,137,细颗粒物(PM2.5)
衡阳市,珠晖区环保局,112.6211,26.8956,2025-04-04T2100,106,132,1.5,58,11,14,54,139,细颗粒物(PM2.5)
衡阳市,市委党校,112.6197,26.8733,2025-04-04T2100,108,163,1.1,37,9,24,56,142,细颗粒物(PM2.5)
衡阳市,市监测站,112.6006,26.8919,2025-04-04T2100,115,172,1.4,48,11,14,58,150,细颗粒物(PM2.5)
衡阳市,真空机电公司,112.5664,26.9056,2025-04-04T2100,138,180,1.6,51,9,12,58,183,细颗粒物(PM2.5)
衡阳市,师范学院,112.6703,26.882,2025-04-04T2100,106,157,1.1,29,12,27,59,139,细颗粒物(PM2.5)
红河哈尼族彝族自治州,污水处理厂,103.3772,23.3993,2025-04-04T2100,94,110,0.7,12,9,122,148,124,细颗粒物(PM2.5)
红河哈尼族彝族自治州,监测站,103.3861,23.35,2025-04-04T2100,85,111,0.5,12,17,123,136,113,细颗粒物(PM2.5)
红河哈尼族彝族自治州,州图书馆,103.3758,23.368,2025-04-04T2100,88,106,0.6,15,7,116,141,117,细颗粒物(PM2.5)
呼和浩特市,呼市一监,111.6507,40.7517,2025-04-04T2100,3,19,0.4,2,7,92,96,29,
呼和浩特市,小召,111.6572,40.8033,2025-04-04T2100,3,17,0.4,9,4,88,93,28,
呼和浩特市,如意水处理厂,111.7516,40.8369,2025-04-04T2100,3,14,0.3,2,5,91,93,29,
呼和浩特市,二十九中,111.7276,40.8062,2025-04-04T2100,6,18,0.4,3,2,92,96,29,
呼和浩特市,工大金川校区,111.5512,40.7866,2025-04-04T2100,3,18,0.4,5,5,91,98,29,
呼和浩特市,化肥厂生活区,111.717,40.7612,2025-04-04T2100,3,16,0.3,6,6,91,96,29,
呼和浩特市,红旗小学,111.5968,40.8178,2025-04-04T2100,3,14,0.3,7,4,90,99,29,
呼和浩特市,海东办,111.6518,40.8389,2025-04-04T2100,3,14,0.5,1,6,90,94,29,
呼伦贝尔市,区环保局,119.7594,49.2261,2025-04-04T2100,26,32,0.3,6,5,69,83,38,
呼伦贝尔市,国华电力东,119.7512,49.1577,2025-04-04T2100,16,34,0.3,4,4,70,84,34,
湖州市,城西水厂,120.0751,30.8669,2025-04-04T2100,27,58,0.4,34,8,94,138,54,颗粒物(PM10)
湖州市,仁皇山新区,120.0830,30.8929,2025-04-04T2100,33,62,0.6,40,6,90,139,56,颗粒物(PM10)
湖州市,吴兴区站,120.1844,30.8596,2025-04-04T2100,25,59,0.5,41,8,73,140,55,颗粒物(PM10)
湖州市,南浔区站,120.4148,30.8538,2025-04-04T2100,20,41,0.4,34,6,78,136,41,
葫芦岛市,龙港区,120.9049,40.7211,2025-04-04T2100,40,48,0.5,25,8,72,91,57,细颗粒物(PM2.5)
葫芦岛市,化工街,120.8392,40.7514,2025-04-04T2100,46,68,0.7,52,14,49,90,64,细颗粒物(PM2.5)
葫芦岛市,新区,120.8341,40.7073,2025-04-04T2100,57,65,0.8,37,9,59,99,78,细颗粒物(PM2.5)
葫芦岛市,东城区,120.8695,40.7677,2025-04-04T2100,57,,0.9,43,9,65,98,78,细颗粒物(PM2.5)
怀化市,林科所,109.5981,27.5721,2025-04-04T2100,45,84,0.2,27,5,63,76,67,颗粒物(PM10)
怀化市,河西地税局,109.9453,27.5444,2025-04-04T2100,62,88,0.5,25,11,51,71,84,细颗粒物(PM2.5)
怀化市,市四医院,109.9781,27.5342,2025-04-04T2100,62,100,0.7,15,13,62,68,84,细颗粒物(PM2.5)
怀化市,监测楼,109.9972,27.5578,2025-04-04T2100,60,90,0.6,15,9,55,73,82,细颗粒物(PM2.5)
怀化市,市委党校,110.0394,27.583,2025-04-04T2100,58,81,1.1,39,18,38,71,79,细颗粒物(PM2.5)
淮安市,钵池山,119.036,33.5981,2025-04-04T2100,66,95,0.9,23,12,138,153,89,细颗粒物(PM2.5)
淮安市,北京南路,119.007,33.575,2025-04-04T2100,64,95,0.7,31,12,132,155,87,细颗粒物(PM2.5)
淮安市,市监测站,118.989,33.6067,2025-04-04T2100,68,92,0.7,29,14,131,149,92,细颗粒物(PM2.5)
淮安市,楚州区监测站,119.135,33.5039,2025-04-04T2100,64,107,0.8,36,10,111,139,87,细颗粒物(PM2.5)
淮安市,新华书店,118.8755,33.2894,2025-04-04T2100,60,94,0.6,25,10,124,143,82,细颗粒物(PM2.5)
淮安市,承德北路606号,119.0288,33.6319,2025-04-04T2100,64,114,0.7,28,10,137,152,87,细颗粒物(PM2.5)
淮北市,监测站,116.8004,33.975,2025-04-04T2100,63,112,,39,9,80,128,,
淮北市,烈山区政府,116.8091,33.9007,2025-04-04T2100,51,103,0.9,41,8,79,128,77,颗粒物(PM10)
淮北市,杜集区检察院,116.8873,33.9836,2025-04-04T2100,51,96,1.0,31,9,89,131,73,颗粒物(PM10)
淮北市,市博物馆,116.7923,33.9535,2025-04-04T2100,53,109,1.0,33,9,83,130,80,颗粒物(PM10)
淮南市,潘集区政府,116.8305,32.7727,2025-04-04T2100,58,123,0.6,28,8,104,128,87,颗粒物(PM10)
淮南市,谢家集区政府,116.8569,32.5951,2025-04-04T2100,48,97,0.6,27,9,103,126,74,颗粒物(PM10)
淮南市,八公山区政府,116.8281,32.633,2025-04-04T2100,46,102,0.5,14,8,121,126,76,颗粒物(PM10)
淮南市,焦岗湖风景区管理处,116.6325,32.6201,2025-04-04T2100,37,82,0.8,18,9,80,84,66,颗粒物(PM10)
淮南市,经济技术开发区消防队,117.0566,32.6531,2025-04-04T2100,48,82,0.5,21,8,121,145,67,细颗粒物(PM2.5)
淮南市,山南新区,117.0108,32.5893,2025-04-04T2100,56,112,0.6,23,10,111,142,81,颗粒物(PM10)
淮南市,国庆中路369号,117.0031,32.6445,2025-04-04T2100,41,109,0.6,31,13,109,140,80,颗粒物(PM10)
黄冈市,职工中心,114.9028,30.4742,2025-04-04T2100,72,102,1.1,50,12,61,116,97,细颗粒物(PM2.5)
黄冈市,红卫路,114.8858,30.4519,2025-04-04T2100,69,115,1.1,51,13,60,115,93,细颗粒物(PM2.5)
黄冈市,市林业局,114.9136,30.4445,2025-04-04T2100,66,114,1.2,64,14,49,123,89,细颗粒物(PM2.5)
黄南藏族自治州,同仁县隆务镇,102.0199,35.5102,2025-04-04T2100,55,197,0.3,7,24,98,105,124,颗粒物(PM10)
黄山市,延安路89号,118.2903,29.6963,2025-04-04T2100,37,65,0.6,14,6,73,129,58,颗粒物(PM10)
黄山市,黄山区政府5号楼,118.1371,30.2756,2025-04-04T2100,26,55,0.5,4,10,127,120,53,颗粒物(PM10)
黄山市,滨江东路7-2号,118.3354,29.7203,2025-04-04T2100,54,71,0.8,22,5,53,133,74,细颗粒物(PM2.5)
黄石市,沈家营,115.0601,30.2313,2025-04-04T2100,57,92,0.7,20,8,104,122,78,细颗粒物(PM2.5)
黄石市,铁山,114.8988,30.2019,2025-04-04T2100,53,87,0.5,41,14,58,120,73,细颗粒物(PM2.5)
黄石市,团城山,115.0307,30.2092,2025-04-04T2100,56,105,0.7,32,10,83,126,78,颗粒物(PM10)
黄石市,笔架山北路,115.0235,30.1578,2025-04-04T2100,55,88,0.9,25,12,88,123,75,细颗粒物(PM2.5)
黄石市,磁湖东路29号,115.0780,30.21118,2025-04-04T2100,71,104,0.9,24,8,83,135,95,细颗粒物(PM2.5)
惠州市,河南岸金山湖子站,114.4183,23.0528,2025-04-04T2100,30,59,0.5,22,9,94,110,55,颗粒物(PM10)
惠州市,下埔横江三路子站,114.4053,23.0822,2025-04-04T2100,28,65,0.5,17,9,110,118,58,颗粒物(PM10)
惠州市,江北云山西路子站,114.4103,23.1142,2025-04-04T2100,27,60,0.5,13,10,121,127,55,颗粒物(PM10)
惠州市,惠阳区承修路船湖子站,114.4645,22.7833,2025-04-04T2100,31,69,0.5,15,9,116,115,60,颗粒物(PM10)
惠州市,大亚湾管委会子站,114.5317,22.7422,2025-04-04T2100,30,67,0.5,11,8,129,128,59,颗粒物(PM10)
惠州市,惠阳秋长,114.4338,22.8134,2025-04-04T2100,30,63,0.7,13,13,121,123,57,颗粒物(PM10)
惠州市,大亚湾霞涌,114.6517,22.775,2025-04-04T2100,31,63,0.4,14,8,122,128,57,颗粒物(PM10)
鸡西市,环保局,130.9762,45.3001,2025-04-04T2100,41,52,0.7,16,7,69,104,58,细颗粒物(PM2.5)
鸡西市,第一中学,130.9429,45.3039,2025-04-04T2100,38,54,0.7,17,9,72,107,54,细颗粒物(PM2.5)
鸡西市,欧美日汽修厂,131.0207,45.3073,2025-04-04T2100,48,59,0.6,12,7,80,121,67,细颗粒物(PM2.5)
鸡西市,市政设施管理处,130.9967,45.3106,2025-04-04T2100,49,70,0.7,17,7,58,99,68,细颗粒物(PM2.5)
吉安市,红声器材厂,114.9754,27.0803,2025-04-04T2100,57,93,0.7,60,14,11,52,78,细颗粒物(PM2.5)
吉安市,市森林工业局,114.9658,27.0999,2025-04-04T2100,58,98,0.9,63,11,16,50,79,细颗粒物(PM2.5)
吉安市,市环境监测站,114.99,27.1312,2025-04-04T2100,39,66,0.5,40,16,24,60,58,颗粒物(PM10)
吉安市,青原区法院,115.0093,27.0968,2025-04-04T2100,66,97,0.8,52,14,20,57,89,细颗粒物(PM2.5)
吉林市,哈达湾,126.54,43.8622,2025-04-04T2100,39,58,0.7,12,7,132,137,55,细颗粒物(PM2.5)
吉林市,东局子,126.5844,43.8358,2025-04-04T2100,41,51,0.7,11,7,136,142,58,细颗粒物(PM2.5)
吉林市,电力学院,126.5052,43.8245,2025-04-04T2100,36,49,0.6,12,6,130,135,52,细颗粒物(PM2.5)
吉林市,江北,126.6133,43.8972,2025-04-04T2100,43,63,0.5,13,6,128,136,60,细颗粒物(PM2.5)
吉林市,江南公园,126.555,43.8306,2025-04-04T2100,42,57,0.4,11,6,130,136,59,细颗粒物(PM2.5)
吉林市,丰满,126.7061,43.7133,2025-04-04T2100,30,45,0.7,10,5,160,161,50,
吉林市,九站,126.4739,43.953,2025-04-04T2100,37,55,0.6,10,12,133,138,53,"颗粒物(PM10),细颗粒物(PM2.5)"
济南市,科干所,116.9862,36.6114,2025-04-04T2100,88,161,1.0,49,10,64,141,117,细颗粒物(PM2.5)
济南市,农科所,116.9376,36.665,2025-04-04T2100,90,176,0.7,42,11,65,128,119,细颗粒物(PM2.5)
济南市,开发区,117.1265,36.6734,2025-04-04T2100,83,161,1.0,46,11,71,142,110,细颗粒物(PM2.5)
济南市,省种子仓库,117.0624,36.6868,2025-04-04T2100,97,178,1.1,40,9,68,139,128,细颗粒物(PM2.5)
济南市,机床二厂,116.9489,36.6447,2025-04-04T2100,105,173,0.8,44,12,69,137,138,细颗粒物(PM2.5)
济南市,市监测站,117.0495,36.663,2025-04-04T2100,93,181,0.8,47,12,62,134,123,细颗粒物(PM2.5)
济南市,长清党校,116.7675,36.5484,2025-04-04T2100,95,190,1.1,51,8,71,134,125,细颗粒物(PM2.5)
济南市,技术学院,117.6795,36.229,2025-04-04T2100,75,136,0.9,34,15,93,134,100,细颗粒物(PM2.5)
济南市,东山小学,117.532,36.6868,2025-04-04T2100,68,164,0.6,52,9,58,135,107,颗粒物(PM10)
济南市,泰兴公司,117.7161,36.2049,2025-04-04T2100,80,132,1.3,34,16,96,135,107,细颗粒物(PM2.5)
济南市,莱芜战役纪念馆,117.6867,36.2171,2025-04-04T2100,70,129,1.0,32,10,96,135,94,细颗粒物(PM2.5)
济南市,济阳区政府,117.1673,36.9782,2025-04-04T2100,88,164,0.9,30,18,72,123,117,细颗粒物(PM2.5)
济南市,锦屏中学,117.1171,36.63,2025-04-04T2100,76,151,0.7,37,11,74,136,102,细颗粒物(PM2.5)
济南市,济南四建,116.9814,36.6819,2025-04-04T2100,93,168,0.8,60,9,63,137,123,细颗粒物(PM2.5)
济宁市,火炬城,116.6251,35.4302,2025-04-04T2100,68,106,,17,7,62,108,,
济宁市,电化厂,116.5491,35.4042,2025-04-04T2100,75,137,0.6,34,5,73,97,100,细颗粒物(PM2.5)
济宁市,北湖一中,116.5814,35.3707,2025-04-04T2100,63,92,0.6,24,12,97,99,85,细颗粒物(PM2.5)
济宁市,服务中心,116.8249,35.5593,2025-04-04T2100,64,126,1.1,41,9,72,110,88,颗粒物(PM10)
济宁市,市第七中学,116.5907,35.4054,2025-04-04T2100,66,98,0.7,27,6,62,96,89,细颗粒物(PM2.5)
佳木斯市,佳纺,130.2751,46.8028,2025-04-04T2100,40,92,0.6,33,7,49,88,71,颗粒物(PM10)
佳木斯市,发电厂,130.3995,46.8307,2025-04-04T2100,26,43,0.5,26,3,55,99,43,
佳木斯市,环保局,130.3258,46.7975,2025-04-04T2100,31,57,0.6,43,7,52,85,54,颗粒物(PM10)
佳木斯市,十一中,130.3648,46.8032,2025-04-04T2100,32,56,0.7,42,8,38,88,53,颗粒物(PM10)
佳木斯市,四丰,130.3794,46.7588,2025-04-04T2100,15,41,1.1,6,1,72,87,41,
嘉兴市,清河小学,120.7436,30.778,2025-04-04T2100,17,47,0.9,33,10,76,121,47,
嘉兴市,嘉兴学院,120.726,30.7478,2025-04-04T2100,15,42,1.0,33,10,79,129,42,
嘉兴市,南湖区残联,120.7846,30.7525,2025-04-04T2100,16,40,0.8,31,9,88,136,40,
嘉兴市,秀洲住建,120.6916,30.7739,2025-04-04T2100,12,42,0.6,33,8,84,140,42,
嘉峪关市,气象局,98.2908,39.7711,2025-04-04T2100,34,119,0.5,19,6,90,116,85,颗粒物(PM10)
嘉峪关市,酒钢宾馆,98.2672,39.7978,2025-04-04T2100,34,119,0.3,17,3,92,115,85,颗粒物(PM10)
嘉峪关市,雄关区,98.2643,39.7724,2025-04-04T2100,26,109,0.4,21,3,92,114,80,颗粒物(PM10)
江门市,北街,113.1064,22.6058,2025-04-04T2100,24,33,0.6,16,2,71,109,35,
江门市,西区,113.0731,22.5835,2025-04-04T2100,36,48,0.5,20,7,90,114,52,细颗粒物(PM2.5)
江门市,圭峰西,113.0219,22.5311,2025-04-04T2100,26,34,0.4,18,5,83,105,38,
江门市,东湖,113.0828,22.5947,2025-04-04T2100,24,56,0.4,17,8,82,117,53,颗粒物(PM10)
江门市,江海富民,113.1075,22.5647,2025-04-04T2100,25,72,0.5,19,6,84,113,61,颗粒物(PM10)
江门市,新会银湖,113.05,22.4667,2025-04-04T2100,30,44,0.2,28,3,53,104,44,
焦作市,影视城,113.1992,35.2590,2025-04-04T2100,,,,,,,,,
焦作市,太极体育中心,113.2725,35.2067,2025-04-04T2100,25,102,0.3,12,8,100,114,76,颗粒物(PM10)
焦作市,马村街道办,113.3137,35.2641,2025-04-04T2100,22,85,0.4,9,7,93,102,68,颗粒物(PM10)
焦作市,焦作技师学院,113.2465,35.2373,2025-04-04T2100,22,96,0.5,13,7,94,109,73,颗粒物(PM10)
焦作市,中站许衡医院,113.1656,35.2539,2025-04-04T2100,34,92,0.5,19,6,93,109,71,颗粒物(PM10)
焦作市,原李万街道办,113.2449,35.1803,2025-04-04T2100,31,86,0.4,16,14,97,112,68,颗粒物(PM10)
焦作市,新安路1731号,113.2340,35.2190,2025-04-04T2100,25,88,0.4,15,8,91,106,69,颗粒物(PM10)
揭阳市,新兴,116.3701,23.5345,2025-04-04T2100,40,41,0.6,14,6,122,138,57,细颗粒物(PM2.5)
揭阳市,西马,116.3264,23.5443,2025-04-04T2100,44,46,0.6,11,8,113,143,62,细颗粒物(PM2.5)
揭阳市,东兴,116.3611,23.5626,2025-04-04T2100,34,55,0.7,12,6,118,139,53,颗粒物(PM10)
揭阳市,渔湖,116.4151,23.5294,2025-04-04T2100,23,43,0.7,15,13,117,141,43,
揭阳市,曲溪,116.403,23.5699,2025-04-04T2100,36,54,0.6,18,1,118,150,52,"颗粒物(PM10),细颗粒物(PM2.5)"
金昌市,天庆家园,102.1692,38.5167,2025-04-04T2100,27,37,0.9,12,19,96,111,39,
金昌市,金川区人防中心,102.1647,38.5371,2025-04-04T2100,43,55,0.7,22,13,83,107,60,细颗粒物(PM2.5)
金昌市,长春路96号,102.1930,38.5319,2025-04-04T2100,44,120,0.8,12,17,89,103,85,颗粒物(PM10)
金华市,十五中,119.647,29.077,2025-04-04T2100,76,139,1.3,99,7,33,149,102,细颗粒物(PM2.5)
金华市,监测站,119.686,29.1029,2025-04-04T2100,43,81,0.5,69,6,64,144,66,颗粒物(PM10)
金华市,气象局,119.656,29.1131,2025-04-04T2100,56,123,0.9,126,8,9,141,87,颗粒物(PM10)
锦州市,南山,121.1115,41.0879,2025-04-04T2100,60,,0.8,32,7,66,91,82,细颗粒物(PM2.5)
锦州市,开发区,121.0604,40.8428,2025-04-04T2100,60,,0.7,21,9,97,99,82,细颗粒物(PM2.5)
锦州市,百股街道,121.1836,41.1119,2025-04-04T2100,36,44,0.7,35,7,67,97,52,细颗粒物(PM2.5)
锦州市,天安街道,121.1178,41.1222,2025-04-04T2100,67,,0.8,30,9,78,95,90,细颗粒物(PM2.5)
锦州市,北湖公园,121.1303,41.1386,2025-04-04T2100,56,58,0.8,30,8,68,90,77,细颗粒物(PM2.5)
晋城市,自来水公司,112.85,35.5051,2025-04-04T2100,14,97,0.3,17,6,92,110,74,颗粒物(PM10)
晋城市,白云商贸,112.8318,35.4936,2025-04-04T2100,19,105,0.4,20,6,90,113,78,颗粒物(PM10)
晋城市,市环保局,112.8508,35.4887,2025-04-04T2100,22,88,0.2,16,3,90,111,69,颗粒物(PM10)
晋城市,技术学院,112.8676,35.4897,2025-04-04T2100,24,102,0.4,18,5,88,107,76,颗粒物(PM10)
晋城市,白马寺,112.8453,35.546,2025-04-04T2100,19,71,0.3,7,6,103,118,61,颗粒物(PM10)
晋城市,泽州一中,112.8271,35.4828,2025-04-04T2100,19,77,0.4,10,5,94,108,64,颗粒物(PM10)
晋中市,南都小区,112.7249,37.7067,2025-04-04T2100,18,244,,,3,92,101,147,颗粒物(PM10)
晋中市,榆次区政府,112.6991,37.6982,2025-04-04T2100,19,237,0.1,7,3,101,104,144,颗粒物(PM10)
晋中市,榆次三中,112.7195,37.6828,2025-04-04T2100,19,268,0.2,6,2,97,103,159,颗粒物(PM10)
晋中市,迎宾街26号,112.7478,37.6954,2025-04-04T2100,17,219,0.2,8,2,96,103,135,颗粒物(PM10)
荆门市,竹园小学,112.2014,31.0481,2025-04-04T2100,68,105,0.8,29,6,,137,,
荆门市,掇刀,112.1969,30.9891,2025-04-04T2100,53,87,0.5,30,11,101,138,73,细颗粒物(PM2.5)
荆门市,石化一小,112.2213,31.0386,2025-04-04T2100,70,115,0.6,56,13,42,129,94,细颗粒物(PM2.5)
荆门市,西山林语,112.1849,31.0362,2025-04-04T2100,53,92,0.2,18,6,91,128,73,细颗粒物(PM2.5)
荆门市,龙泉中学南校,112.1632,31.0138,2025-04-04T2100,47,90,0.5,32,10,75,119,70,颗粒物(PM10)
荆州市,市图书馆,112.2494,30.3197,2025-04-04T2100,46,77,0.7,29,8,89,132,64,"颗粒物(PM10),细颗粒物(PM2.5)"
荆州市,市委党校,112.2008,30.3544,2025-04-04T2100,52,84,0.8,35,9,75,127,72,细颗粒物(PM2.5)
荆州市,管委会,112.2747,30.3122,2025-04-04T2100,43,70,0.7,23,11,88,133,60,"颗粒物(PM10),细颗粒物(PM2.5)"
荆州市,学苑路85号,112.1722,30.3366,2025-04-04T2100,58,72,0.7,,,56,134,,
景德镇市,王港中学,117.3102,29.3867,2025-04-04T2100,,,,,,,,,
景德镇市,老干部活动中心,117.2117,29.2933,2025-04-04T2100,44,81,0.6,30,24,81,120,66,颗粒物(PM10)
景德镇市,兽医站,117.1894,29.2789,2025-04-04T2100,45,87,0.8,31,26,77,110,69,颗粒物(PM10)
景德镇市,台达陶瓷,117.1547,29.2617,2025-04-04T2100,41,87,0.7,37,26,82,109,69,颗粒物(PM10)
景德镇市,陶研所,117.2461,29.2956,2025-04-04T2100,42,56,0.6,23,7,70,115,59,细颗粒物(PM2.5)
九江市,十里,115.9872,29.6815,2025-04-04T2100,64,95,1.0,51,6,48,104,87,细颗粒物(PM2.5)
九江市,茅山头,115.9584,29.7046,2025-04-04T2100,54,98,0.6,53,9,48,94,74,"颗粒物(PM10),细颗粒物(PM2.5)"
九江市,西园,115.9877,29.7295,2025-04-04T2100,60,85,1.0,96,16,27,88,82,细颗粒物(PM2.5)
九江市,综合工业园,115.9114,29.6038,2025-04-04T2100,56,104,0.8,45,13,74,114,77,"颗粒物(PM10),细颗粒物(PM2.5)"
九江市,石化总厂,116.0721,29.7535,2025-04-04T2100,94,,1.0,36,25,77,117,124,细颗粒物(PM2.5)
九江市,庐山气象台,115.9773,29.5698,2025-04-04T2100,23,54,0.8,8,6,116,146,52,颗粒物(PM10)
九江市,外国语学校,116.0254,29.6994,2025-04-04T2100,71,88,1.3,74,13,31,97,95,细颗粒物(PM2.5)
九江市,莲花大道8号,116.0102,29.6594,2025-04-04T2100,46,73,0.7,11,6,79,104,64,细颗粒物(PM2.5)
酒泉市,玉门东路5号,98.4958,39.7339,2025-04-04T2100,49,134,0.6,16,8,76,109,92,颗粒物(PM10)
酒泉市,北大街108号,98.5099,39.7506,2025-04-04T2100,35,127,0.6,22,20,72,99,89,颗粒物(PM10)
喀什地区,巡警大队,76.0072,39.4467,2025-04-04T2100,122,475,0.5,14,3,90,91,369,颗粒物(PM10)
喀什地区,吾办,75.9755,39.4694,2025-04-04T2100,140,482,0.4,14,4,88,88,378,颗粒物(PM10)
喀什地区,老干局,75.9483,39.4689,2025-04-04T2100,110,483,0.0,12,2,93,95,379,颗粒物(PM10)
开封市,肿瘤医院,114.3389,34.7781,2025-04-04T2100,48,135,0.7,21,9,83,125,93,颗粒物(PM10)
开封市,世纪星幼儿园,114.2885,34.7965,2025-04-04T2100,18,124,0.5,21,7,86,124,87,颗粒物(PM10)
开封市,龙亭公园,114.3438,34.8106,2025-04-04T2100,57,213,0.6,26,7,79,129,132,颗粒物(PM10)
开封市,汴京公园,114.3644,34.7964,2025-04-04T2100,42,170,0.4,25,6,85,132,110,颗粒物(PM10)
开封市,技师学院,114.2485,34.8306,2025-04-04T2100,24,123,0.7,25,3,76,116,87,颗粒物(PM10)
开封市,祥符区生态环境局,114.4644,34.7556,2025-04-04T2100,59,158,0.7,31,9,69,124,104,颗粒物(PM10)
克拉玛依市,长征新村,84.895,45.6094,2025-04-04T2100,9,23,0.2,10,8,96,102,30,
克拉玛依市,南林小区,84.8988,45.5893,2025-04-04T2100,9,23,0.5,4,3,97,106,31,
克拉玛依市,独山子区,84.905,44.3396,2025-04-04T2100,32,63,0.4,14,10,121,127,57,颗粒物(PM10)
克拉玛依市,乌尔禾区商贸楼,85.6979,46.098,2025-04-04T2100,12,38,0.2,7,6,96,104,38,
克拉玛依市,白碱滩区新站,85.1045,45.6899,2025-04-04T2100,3,19,0.3,10,10,95,102,30,
克孜勒苏柯尔克孜自治州,市人民政府,76.1454,39.7142,2025-04-04T2100,117,397,0.3,2,5,106,103,268,颗粒物(PM10)
克孜勒苏柯尔克孜自治州,克州文化中心,76.1658,39.7157,2025-04-04T2100,106,375,0.3,3,5,104,100,236,颗粒物(PM10)
昆明市,呈贡新区,102.8204,24.8886,2025-04-04T2100,54,75,0.6,14,7,145,158,74,细颗粒物(PM2.5)
昆明市,西山森林公园,102.6251,24.9608,2025-04-04T2100,,,,,,,,,
昆明市,龙泉镇,102.7252,25.0902,2025-04-04T2100,49,87,0.7,15,9,129,144,69,颗粒物(PM10)
昆明市,东风东路,102.7266,25.0375,2025-04-04T2100,50,72,0.6,14,10,137,148,69,细颗粒物(PM2.5)
昆明市,金鼎山,102.6742,25.0669,2025-04-04T2100,50,78,0.8,31,6,111,143,69,细颗粒物(PM2.5)
昆明市,碧鸡广场,102.6644,25.0401,2025-04-04T2100,48,72,0.7,32,8,115,148,67,细颗粒物(PM2.5)
昆明市,官渡区博物馆,102.7494,25.0119,2025-04-04T2100,46,74,0.4,16,8,132,150,64,细颗粒物(PM2.5)
昆明市,青年创业园,102.8017,24.8336,2025-04-04T2100,51,70,0.6,11,11,132,144,70,细颗粒物(PM2.5)
昆明市,昆明学院,102.7997,24.9786,2025-04-04T2100,51,77,0.6,12,6,134,148,70,细颗粒物(PM2.5)
昆明市,晋宁区生态环境分局,102.5967,24.6736,2025-04-04T2100,53,68,0.9,10,9,138,145,73,细颗粒物(PM2.5)
昆明市,云天化总部,102.6678,24.9856,2025-04-04T2100,36,62,0.4,11,8,144,151,56,颗粒物(PM10)
拉萨市,八廓街,91.1319,29.6514,2025-04-04T2100,17,36,0.5,7,5,136,148,43,
拉萨市,市环保局,91.1221,29.6747,2025-04-04T2100,18,28,0.3,12,3,127,142,40,
拉萨市,区监测站,91.0874,29.6475,2025-04-04T2100,15,31,0.5,8,6,133,142,42,
拉萨市,西藏大学,91.1774,29.6541,2025-04-04T2100,16,30,0.3,8,5,129,139,41,
拉萨市,区辐射站,90.9798,29.6588,2025-04-04T2100,17,42,0.4,17,7,123,139,42,
拉萨市,拉萨火车站,91.0834,29.6292,2025-04-04T2100,14,27,0.6,3,3,132,141,42,
来宾市,来宾技工学校,109.2203,23.7256,2025-04-04T2100,71,87,0.9,22,25,109,120,95,细颗粒物(PM2.5)
来宾市,兴宾区政府,109.1781,23.7297,2025-04-04T2100,61,93,0.9,15,16,112,116,83,细颗粒物(PM2.5)
来宾市,中南小学,109.2416,23.7461,2025-04-04T2100,55,108,0.9,20,14,106,114,79,颗粒物(PM10)
兰州市,榆中兰大校区,104.1373,35.9454,2025-04-04T2100,,,,,,,,,
兰州市,铁路设计院,103.831,36.0464,2025-04-04T2100,39,128,0.5,35,8,82,105,89,颗粒物(PM10)
兰州市,百合公园,103.7439,36.0842,2025-04-04T2100,35,117,0.2,11,4,97,108,84,颗粒物(PM10)
兰州市,和平,103.9611,35.998,2025-04-04T2100,47,149,0.4,25,11,80,111,100,颗粒物(PM10)
兰州市,庄浪东路808号,103.6293,36.0938,2025-04-04T2100,45,134,0.4,39,12,77,113,92,颗粒物(PM10)
兰州市,安宁西路88号,103.7251,36.1043,2025-04-04T2100,45,138,0.2,3,6,115,120,94,颗粒物(PM10)
兰州市,北滨河东路1号,103.8470,36.0676,2025-04-04T2100,45,126,0.4,19,9,101,118,88,颗粒物(PM10)
兰州新区,新区管委会,103.6633,36.533,2025-04-04T2100,28,83,0.1,10,6,103,115,67,颗粒物(PM10)
兰州新区,舟曲中学,103.6975,36.4789,2025-04-04T2100,47,143,0.2,26,2,87,113,97,颗粒物(PM10)
廊坊市,药材公司,116.6708,39.5111,2025-04-04T2100,8,82,0.3,6,1,83,112,66,颗粒物(PM10)
廊坊市,开发区,116.7214,39.5589,2025-04-04T2100,13,86,0.2,3,1,83,110,68,颗粒物(PM10)
廊坊市,北华航天学院,116.7244,39.5269,2025-04-04T2100,3,94,0.2,4,3,80,105,72,颗粒物(PM10)
廊坊市,河北工业大学,116.7022,39.5453,2025-04-04T2100,11,67,0.2,6,4,83,111,59,颗粒物(PM10)
乐山市,花湖湾,103.7723,29.5462,2025-04-04T2100,43,69,0.5,27,6,108,143,60,"颗粒物(PM10),细颗粒物(PM2.5)"
乐山市,牛耳桥,103.7627,29.5844,2025-04-04T2100,50,90,0.6,40,9,98,134,70,颗粒物(PM10)
乐山市,市第三水厂,103.7508,29.6006,2025-04-04T2100,43,80,0.6,32,6,96,136,65,颗粒物(PM10)
乐山市,市监测站,103.7571,29.5664,2025-04-04T2100,50,71,0.5,24,5,105,133,69,细颗粒物(PM2.5)
乐山市,理工大学,103.7311,29.5628,2025-04-04T2100,43,81,0.6,25,6,113,144,66,颗粒物(PM10)
丽江市,西南郊,100.2143,26.8576,2025-04-04T2100,24,32,0.6,4,5,130,136,41,
丽江市,丽江古城,100.2497,26.8802,2025-04-04T2100,22,39,0.5,10,8,120,128,39,
丽江市,市中心,100.2203,26.8906,2025-04-04T2100,22,,0.9,13,8,120,125,38,
丽水市,监测站大楼,119.914,28.4514,2025-04-04T2100,29,48,0.4,19,4,118,129,48,
丽水市,莲都小学,119.93,28.4586,2025-04-04T2100,25,49,0.4,19,5,120,129,49,
丽水市,余庄前,119.879,28.4231,2025-04-04T2100,25,46,0.4,13,4,117,131,46,
连云港市,市环境监测站,119.176,34.5885,2025-04-04T2100,68,107,0.7,31,13,107,115,92,细颗粒物(PM2.5)
连云港市,德源药业,119.3581,34.6972,2025-04-04T2100,58,90,0.6,22,11,127,122,79,细颗粒物(PM2.5)
连云港市,新城一中,119.178,34.844,2025-04-04T2100,80,102,0.8,70,10,47,114,107,细颗粒物(PM2.5)
连云港市,胡沟管理处,119.3608,34.7519,2025-04-04T2100,56,73,0.6,27,9,117,132,77,细颗粒物(PM2.5)
连云港市,矿山设计院,119.1478,34.5911,2025-04-04T2100,68,117,0.7,27,12,130,120,92,细颗粒物(PM2.5)
连云港市,工贸学校,119.2413,34.6539,2025-04-04T2100,73,96,0.8,25,13,131,133,98,细颗粒物(PM2.5)
连云港市,连云街道,119.4172,34.7341,2025-04-04T2100,69,136,0.7,45,10,117,132,93,"颗粒物(PM10),细颗粒物(PM2.5)"
凉山彝族自治州,青龙寺,102.3431,27.8099,2025-04-04T2100,12,50,0.7,5,6,103,146,50,
凉山彝族自治州,邛海宾馆,102.2721,27.8415,2025-04-04T2100,23,55,0.4,7,10,96,133,53,颗粒物(PM10)
凉山彝族自治州,西昌市政府,102.2625,27.898,2025-04-04T2100,38,64,0.5,5,6,95,136,57,颗粒物(PM10)
凉山彝族自治州,凉山州政府,102.2685,27.8851,2025-04-04T2100,29,52,0.7,8,4,97,141,51,颗粒物(PM10)
凉山彝族自治州,凯乐南路30号,102.2342,27.8859,2025-04-04T2100,21,51,0.6,5,6,90,126,51,颗粒物(PM10)
辽阳市,宏伟区,123.2,41.1953,2025-04-04T2100,40,,0.9,6,9,109,122,57,细颗粒物(PM2.5)
辽阳市,新华园,123.1683,41.2495,2025-04-04T2100,45,,0.4,12,8,114,128,63,细颗粒物(PM2.5)
辽阳市,滨河路,123.2354,41.2639,2025-04-04T2100,43,,0.6,9,7,104,110,60,细颗粒物(PM2.5)
辽阳市,铁西工业园,123.149,41.2991,2025-04-04T2100,46,,0.5,11,9,110,128,64,细颗粒物(PM2.5)
辽源市,环保局,125.1358,42.8845,2025-04-04T2100,20,42,0.5,12,5,115,138,42,
辽源市,银鹰制药,125.0764,42.9078,2025-04-04T2100,33,40,0.5,10,6,125,143,48,
聊城市,区政府,115.9848,36.4372,2025-04-04T2100,,,,,,,,,
聊城市,聊大东校,116.0072,36.4343,2025-04-04T2100,,,,,,,,,
聊城市,监控中心,115.9819,36.4978,2025-04-04T2100,107,174,1.0,57,15,40,101,140,细颗粒物(PM2.5)
聊城市,九州社区,116.0445,36.4361,2025-04-04T2100,78,169,0.7,37,10,70,99,110,颗粒物(PM10)
聊城市,星美广场,116.0567,36.4608,2025-04-04T2100,91,179,0.9,38,12,57,97,120,细颗粒物(PM2.5)
林芝市,林芝监测站,94.3681,29.6376,2025-04-04T2100,9,13,0.5,5,5,138,132,44,
林芝市,林芝人民医院,94.3616,29.6616,2025-04-04T2100,8,18,0.6,2,8,128,122,40,
临沧市,市环保局,100.0781,23.8982,2025-04-04T2100,80,88,0.7,16,12,130,157,107,细颗粒物(PM2.5)
临沧市,市气象局,100.0894,23.8822,2025-04-04T2100,60,74,0.7,18,8,136,161,82,细颗粒物(PM2.5)
临汾市,临钢医院,111.5531,36.0783,2025-04-04T2100,12,83,0.4,16,3,83,102,67,颗粒物(PM10)
临汾市,技工学校,111.5028,36.0714,2025-04-04T2100,16,78,0.4,7,5,96,105,64,颗粒物(PM10)
临汾市,市委,111.5018,36.0855,2025-04-04T2100,3,83,0.2,7,4,100,107,67,颗粒物(PM10)
临汾市,唐尧大酒店,111.505,36.1014,2025-04-04T2100,14,87,0.3,3,5,101,108,69,颗粒物(PM10)
临汾市,启星学校,111.4879,36.0530,2025-04-04T2100,24,83,0.4,4,2,97,105,67,颗粒物(PM10)
临夏回族自治州,滨河东路1号,103.2464,35.6123,2025-04-04T2100,68,217,0.3,14,6,88,107,134,颗粒物(PM10)
临夏回族自治州,新华街21号,103.2093,35.5995,2025-04-04T2100,68,214,0.4,19,12,84,101,132,颗粒物(PM10)
临沂市,沂河小区,118.3429,35.0532,2025-04-04T2100,65,100,0.7,16,10,123,108,88,细颗粒物(PM2.5)
临沂市,鲁南制药厂,118.295,35.0583,2025-04-04T2100,55,95,0.7,25,10,131,119,75,细颗粒物(PM2.5)
临沂市,新光毛纺厂,118.2794,34.9976,2025-04-04T2100,60,97,0.9,40,9,116,110,82,细颗粒物(PM2.5)
临沂市,河东保险公司,118.3956,35.0888,2025-04-04T2100,60,83,0.5,27,6,129,116,82,细颗粒物(PM2.5)
临沂市,十里堡居委,118.3564,35.0215,2025-04-04T2100,56,100,0.9,23,7,126,111,77,细颗粒物(PM2.5)
临沂市,南坊新区,118.3604,35.1084,2025-04-04T2100,53,83,0.8,21,7,117,102,73,细颗粒物(PM2.5)
临沂市,皇山花园小区,118.3920,35.0300,2025-04-04T2100,41,88,0.7,21,9,128,112,69,颗粒物(PM10)
柳州市,柳东小学,109.4856,24.3895,2025-04-04T2100,64,100,0.8,22,20,65,84,87,细颗粒物(PM2.5)
柳州市,环保监测站,109.4157,24.3277,2025-04-04T2100,50,91,0.8,27,18,64,95,71,颗粒物(PM10)
柳州市,河西水厂,109.389,24.341,2025-04-04T2100,58,94,0.8,24,18,67,95,79,细颗粒物(PM2.5)
柳州市,市四中,109.4311,24.2921,2025-04-04T2100,55,87,0.9,24,16,62,93,75,细颗粒物(PM2.5)
柳州市,市九中,109.4006,24.3631,2025-04-04T2100,53,109,1.0,18,17,69,98,80,颗粒物(PM10)
柳州市,古亭山,109.4958,24.3134,2025-04-04T2100,50,70,0.8,16,18,75,103,69,细颗粒物(PM2.5)
柳州市,市二中,109.5422,24.3996,2025-04-04T2100,86,105,0.7,21,28,64,94,114,细颗粒物(PM2.5)
六安市,监测大楼,116.5079,31.737,2025-04-04T2100,43,66,0.8,16,8,124,120,60,细颗粒物(PM2.5)
六安市,皖西学院,116.4738,31.7643,2025-04-04T2100,46,84,0.6,15,7,117,124,67,颗粒物(PM10)
六安市,朝阳厂,116.4996,31.7905,2025-04-04T2100,48,75,0.7,22,7,114,110,67,细颗粒物(PM2.5)
六安市,开发区,116.5567,31.7886,2025-04-04T2100,43,89,0.7,30,7,110,120,70,颗粒物(PM10)
六盘水市,窑上,104.8,26.5892,2025-04-04T2100,39,80,0.8,9,6,76,99,65,颗粒物(PM10)
六盘水市,黄土坡,104.83,26.5917,2025-04-04T2100,61,102,0.7,20,15,102,100,83,细颗粒物(PM2.5)
六盘水市,水钢,104.89,26.5939,2025-04-04T2100,56,103,0.5,31,14,95,112,77,"颗粒物(PM10),细颗粒物(PM2.5)"
六盘水市,民中,104.8475,26.5894,2025-04-04T2100,56,87,0.7,23,13,96,98,77,细颗粒物(PM2.5)
六盘水市,双水,104.9544,26.5506,2025-04-04T2100,56,105,0.6,22,12,104,118,78,颗粒物(PM10)
龙岩市,龙岩师专,117.0189,25.1181,2025-04-04T2100,,,,,,,,,
龙岩市,龙岩市监测站,117.0217,25.1033,2025-04-04T2100,26,56,0.4,20,11,143,143,53,颗粒物(PM10)
龙岩市,闽西职业技术学院,117.0258,25.0661,2025-04-04T2100,29,58,0.5,22,15,124,139,54,颗粒物(PM10)
龙岩市,龙岩学院,117.0196,25.0306,2025-04-04T2100,28,53,0.4,14,5,123,143,52,颗粒物(PM10)
陇南市,汉王镇固水子,105.0822,33.3261,2025-04-04T2100,,,,,,,,,
陇南市,滨江中学,104.9339,33.3826,2025-04-04T2100,52,199,0.5,7,8,95,94,125,颗粒物(PM10)
陇南市,市总工会,104.955,33.371,2025-04-04T2100,53,169,0.6,4,8,106,103,110,颗粒物(PM10)
娄底市,电视发射台,111.9589,27.8901,2025-04-04T2100,33,67,0.8,10,10,63,94,59,颗粒物(PM10)
娄底市,市监测站,111.9975,27.725,2025-04-04T2100,82,128,1.0,40,19,41,93,109,细颗粒物(PM2.5)
娄底市,市委党校,112.0194,27.7314,2025-04-04T2100,91,139,0.8,36,6,50,89,120,细颗粒物(PM2.5)
娄底市,涟钢,111.9561,27.7569,2025-04-04T2100,77,122,0.9,28,2,36,79,103,细颗粒物(PM2.5)
娄底市,市政府,111.9892,27.7044,2025-04-04T2100,86,99,0.9,33,4,31,76,114,细颗粒物(PM2.5)
泸州市,九狮山,105.4324,28.9634,2025-04-04T2100,,,,,,,,,
泸州市,小市上码头,105.4427,28.9063,2025-04-04T2100,34,64,0.3,18,7,111,124,57,颗粒物(PM10)
泸州市,兰田宪桥,105.4241,28.8573,2025-04-04T2100,46,49,0.6,21,5,81,116,64,细颗粒物(PM2.5)
泸州市,市环监站,105.4379,28.8833,2025-04-04T2100,,,,,,,,,
泸州市,纳溪中医医院,105.3689,28.7783,2025-04-04T2100,46,68,0.7,27,7,88,118,64,细颗粒物(PM2.5)
吕梁市,环保局,111.1406,37.5211,2025-04-04T2100,23,109,0.2,3,2,94,99,80,颗粒物(PM10)
吕梁市,自来水公司,111.1297,37.5136,2025-04-04T2100,12,113,0.2,5,2,97,103,82,颗粒物(PM10)
吕梁市,马茂庄小学,111.1283,37.51,2025-04-04T2100,19,106,0.2,4,3,98,104,78,颗粒物(PM10)
洛阳市,市委党校,112.3931,34.6516,2025-04-04T2100,39,120,0.6,35,4,65,104,85,颗粒物(PM10)
洛阳市,河南林校,112.494,34.6886,2025-04-04T2100,35,127,0.5,18,3,88,106,89,颗粒物(PM10)
洛阳市,开发区管委会,112.3844,34.623,2025-04-04T2100,39,105,0.2,24,6,75,110,78,颗粒物(PM10)
洛阳市,市委新办公区,112.4267,34.6258,2025-04-04T2100,28,109,0.1,18,4,92,114,80,颗粒物(PM10)
洛阳市,伊滨,112.6005,34.6326,2025-04-04T2100,31,81,0.3,11,4,99,112,66,颗粒物(PM10)
洛阳市,中移产业园,112.4951,34.6332,2025-04-04T2100,30,144,0.2,14,5,89,102,97,颗粒物(PM10)
洛阳市,吉利监测站,112.5736,34.8993,2025-04-04T2100,25,83,0.4,20,7,83,110,67,颗粒物(PM10)
洛阳市,河科大西苑校区,112.3677,34.662,2025-04-04T2100,32,113,0.5,36,7,67,111,82,颗粒物(PM10)
洛阳市,英才小学,112.4388,34.6781,2025-04-04T2100,35,103,0.3,16,5,89,104,77,颗粒物(PM10)
洛阳市,春都路1号院,112.4600,34.6949,2025-04-04T2100,31,110,0.4,21,5,86,110,80,颗粒物(PM10)
漯河市,三五一五工厂,114.051,33.5699,2025-04-04T2100,74,115,0.6,18,7,106,128,99,细颗粒物(PM2.5)
漯河市,漯河大学,114.0055,33.5698,2025-04-04T2100,68,119,0.7,26,8,88,127,92,细颗粒物(PM2.5)
漯河市,市水利局,114.0138,33.5828,2025-04-04T2100,61,122,0.5,20,7,105,131,86,颗粒物(PM10)
漯河市,市广电局,114.0261,33.5698,2025-04-04T2100,69,117,0.7,20,8,100,126,93,细颗粒物(PM2.5)
漯河市,市图书馆,113.9749,33.5664,2025-04-04T2100,68,114,0.7,19,6,99,125,92,细颗粒物(PM2.5)
漯河市,韶山路11号,114.0892,33.5882,2025-04-04T2100,63,129,0.6,19,8,115,142,90,颗粒物(PM10)
马鞍山市,湖东路四小,118.5092,31.6837,2025-04-04T2100,68,125,1.0,53,12,82,136,92,细颗粒物(PM2.5)
马鞍山市,开发区,118.5024,31.6449,2025-04-04T2100,78,122,0.8,35,9,104,136,104,细颗粒物(PM2.5)
马鞍山市,濮塘,118.6245,31.7241,2025-04-04T2100,59,93,0.6,27,12,105,148,80,细颗粒物(PM2.5)
马鞍山市,雨山,118.4918,31.6809,2025-04-04T2100,67,120,1.1,44,12,86,127,90,细颗粒物(PM2.5)
马鞍山市,慈湖高新区,118.5274,31.72227,2025-04-04T2100,77,139,0.8,50,10,90,130,103,细颗粒物(PM2.5)
茂名市,电白南海,111.0286,21.4688,2025-04-04T2100,24,61,0.9,12,1,88,108,56,颗粒物(PM10)
茂名市,茂石化七小,110.9294,21.6533,2025-04-04T2100,24,48,0.8,7,3,82,107,48,
茂名市,健康路,110.9107,21.6687,2025-04-04T2100,29,46,0.6,9,4,90,120,46,
茂名市,高岭,110.8592,21.6828,2025-04-04T2100,17,48,0.6,7,5,85,117,48,
茂名市,电白水东,111.01,21.5165,2025-04-04T2100,14,48,0.6,11,2,85,102,48,
眉山市,黑龙滩水库,104.0308,30.0478,2025-04-04T2100,23,46,0.4,6,2,82,131,46,
眉山市,气象局,103.8416,30.0874,2025-04-04T2100,51,94,0.6,30,3,105,135,72,颗粒物(PM10)
眉山市,市委党校,103.8578,30.0744,2025-04-04T2100,,,,,,,84,,
眉山市,区人社局,103.8291,30.0564,2025-04-04T2100,56,90,0.7,36,12,95,129,77,细颗粒物(PM2.5)
梅州市,梅江月梅,116.1231,24.3284,2025-04-04T2100,36,55,0.5,9,6,130,137,53,颗粒物(PM10)
梅州市,梅县新城,116.0797,24.2719,2025-04-04T2100,40,55,0.5,14,6,128,135,57,细颗粒物(PM2.5)
梅州市,环境监控中心,116.1248,24.2654,2025-04-04T2100,36,45,0.6,19,7,124,128,52,细颗粒物(PM2.5)
梅州市,梅龙,116.1233,24.2991,2025-04-04T2100,31,48,0.5,10,8,128,126,48,
绵阳市,富乐山,104.7778,31.4741,2025-04-04T2100,32,61,0.6,27,3,79,110,56,颗粒物(PM10)
绵阳市,高新区自来水公司,104.6697,31.4668,2025-04-04T2100,39,86,0.8,86,3,21,114,68,颗粒物(PM10)
绵阳市,三水厂,104.7287,31.5075,2025-04-04T2100,38,98,1.0,87,6,9,114,74,颗粒物(PM10)
绵阳市,西科大附属小学,104.69,31.5322,2025-04-04T2100,50,98,0.8,75,7,34,107,74,颗粒物(PM10)
绵阳市,安州区旅游局,104.5648,31.5343,2025-04-04T2100,44,100,1.4,62,4,32,108,75,颗粒物(PM10)
绵阳市,绵阳市气象局,104.7651,31.4531,2025-04-04T2100,37,72,0.5,57,3,50,98,61,颗粒物(PM10)
牡丹江市,环保大楼,129.61,44.561,2025-04-04T2100,53,101,0.8,45,9,49,107,76,颗粒物(PM10)
牡丹江市,文化广场,129.6115,44.5782,2025-04-04T2100,91,135,1.1,52,24,40,104,120,细颗粒物(PM2.5)
牡丹江市,第一医院,129.5904,44.5963,2025-04-04T2100,83,122,0.8,35,14,62,108,110,细颗粒物(PM2.5)
牡丹江市,机车工厂,129.6364,44.6075,2025-04-04T2100,55,80,0.7,26,86,55,109,75,细颗粒物(PM2.5)
牡丹江市,第一中学,129.6386,44.5462,2025-04-04T2100,43,71,0.6,43,7,47,110,61,颗粒物(PM10)
内江市,市监测站,105.0703,29.61,2025-04-04T2100,59,86,1.0,72,6,12,107,80,细颗粒物(PM2.5)
内江市,东兴区政府,105.0717,29.5947,2025-04-04T2100,39,66,0.9,55,1,48,103,58,颗粒物(PM10)
内江市,内江二中,105.0653,29.5817,2025-04-04T2100,52,79,0.9,77,6,21,109,72,细颗粒物(PM2.5)
内江市,内江日报社,105.0406,29.5822,2025-04-04T2100,53,108,0.9,79,5,38,109,79,颗粒物(PM10)
那曲市,那曲监测站,92.0657,31.4846,2025-04-04T2100,17,27,0.3,6,7,139,133,44,
那曲市,那曲市委宣传部,92.0515,31.4787,2025-04-04T2100,17,33,0.2,2,4,147,145,46,
南昌市,省外办,115.8931,28.6843,2025-04-04T2100,48,80,0.7,41,10,60,103,67,细颗粒物(PM2.5)
南昌市,省林业公司,115.8886,28.7003,2025-04-04T2100,61,95,0.6,42,13,,93,,
南昌市,林科所,115.8126,28.7442,2025-04-04T2100,48,63,0.5,95,7,17,107,67,细颗粒物(PM2.5)
南昌市,建工学校,115.8518,28.687,2025-04-04T2100,78,102,0.8,48,11,64,102,104,细颗粒物(PM2.5)
南昌市,象湖,115.8921,28.6424,2025-04-04T2100,48,70,0.6,40,11,57,117,67,细颗粒物(PM2.5)
南昌市,武术学校,115.7423,28.7996,2025-04-04T2100,44,,0.7,8,8,56,88,62,细颗粒物(PM2.5)
南昌市,机电学校,115.9084,28.6062,2025-04-04T2100,53,93,0.7,51,4,35,105,73,细颗粒物(PM2.5)
南昌市,外国语学校,115.9721,28.7031,2025-04-04T2100,49,80,0.1,31,12,74,114,68,细颗粒物(PM2.5)
南昌市,南京东路235号,115.9316,28.68677,2025-04-04T2100,54,89,0.7,49,14,59,110,74,细颗粒物(PM2.5)
南充市,西山风景区,106.056,30.8064,2025-04-04T2100,38,69,0.8,17,6,88,116,60,颗粒物(PM10)
南充市,南充市委,106.0789,30.8023,2025-04-04T2100,53,79,0.7,25,4,83,106,73,细颗粒物(PM2.5)
南充市,南充炼油厂,106.1031,30.8217,2025-04-04T2100,53,76,0.6,23,5,81,105,73,细颗粒物(PM2.5)
南充市,嘉陵区环保局,106.0642,30.7636,2025-04-04T2100,,,,,,,,,
南充市,梨树横街98号,106.1083,30.7884,2025-04-04T2100,35,82,0.2,15,6,90,106,66,颗粒物(PM10)
南充市,清泉寺北路188号,106.1172,30.843,2025-04-04T2100,48,80,0.5,24,8,91,114,67,细颗粒物(PM2.5)
南京市,迈皋桥,118.8086,32.1065,2025-04-04T2100,58,97,1.0,52,4,122,148,79,细颗粒物(PM2.5)
南京市,草场门,118.7538,32.0551,2025-04-04T2100,61,95,0.8,34,7,123,140,83,细颗粒物(PM2.5)
南京市,山西路,118.7794,32.0745,2025-04-04T2100,63,110,0.4,27,6,129,148,85,细颗粒物(PM2.5)
南京市,中华门,118.7752,32.0023,2025-04-04T2100,63,100,0.5,32,10,108,129,85,细颗粒物(PM2.5)
南京市,瑞金路,118.8109,32.0309,2025-04-04T2100,61,110,0.5,26,6,104,134,83,细颗粒物(PM2.5)
南京市,玄武湖,118.7997,32.0754,2025-04-04T2100,57,88,0.7,24,8,98,120,78,细颗粒物(PM2.5)
南京市,浦口,118.6414,32.0931,2025-04-04T2100,57,125,0.5,42,8,108,137,88,颗粒物(PM10)
南京市,奥体中心,118.7356,31.9996,2025-04-04T2100,63,108,0.5,35,9,107,132,85,细颗粒物(PM2.5)
南京市,仙林大学城,118.9125,32.1028,2025-04-04T2100,70,95,0.9,26,12,128,144,94,细颗粒物(PM2.5)
南京市,江宁彩虹桥,118.8436,31.9198,2025-04-04T2100,66,106,0.7,28,3,115,142,89,细颗粒物(PM2.5)
南京市,六合雄州,118.8554,32.3578,2025-04-04T2100,55,96,0.5,24,8,99,148,75,细颗粒物(PM2.5)
南京市,汶溪路181号,118.8708,31.3402,2025-04-04T2100,56,102,0.9,45,7,88,130,77,细颗粒物(PM2.5)
南京市,中山西路1号,119.019,31.6512,2025-04-04T2100,43,85,0.6,29,8,120,137,68,颗粒物(PM10)
南宁市,二十一中,108.3103,22.7881,2025-04-04T2100,24,33,0.8,12,6,122,127,39,
南宁市,北湖,108.3141,22.8528,2025-04-04T2100,21,49,0.6,12,7,120,125,49,
南宁市,市监测站,108.3206,22.8225,2025-04-04T2100,22,35,0.4,12,8,115,120,36,
南宁市,大自然花园,108.3829,22.8037,2025-04-04T2100,26,51,0.9,9,7,125,133,51,颗粒物(PM10)
南宁市,仙葫,108.4394,22.7904,2025-04-04T2100,26,41,0.7,10,3,109,116,41,
南宁市,区农职院,108.2397,22.8467,2025-04-04T2100,22,34,0.7,11,5,109,114,35,
南宁市,英华嘉园,108.3275,22.735,2025-04-04T2100,25,36,0.5,18,8,115,128,36,
南宁市,红星社区,108.4834,22.7618,2025-04-04T2100,26,41,0.8,9,10,129,142,41,
南宁市,乐贤路16号,108.2177,22.7774,2025-04-04T2100,16,41,0.9,16,13,104,110,41,
南平市,茫荡山,118.0966,26.6761,2025-04-04T2100,,,,,,,,,
南平市,南平市监测站,118.1681,26.6369,2025-04-04T2100,36,47,0.9,24,5,64,138,52,细颗粒物(PM2.5)
南平市,南平铝业有限公司,118.1825,26.6489,2025-04-04T2100,35,49,0.9,,6,,137,,
南平市,南平七中,118.1756,26.6272,2025-04-04T2100,29,36,0.8,18,6,72,135,42,
南通市,狼山街道,120.9098,31.9663,2025-04-04T2100,24,63,0.6,48,8,64,111,57,颗粒物(PM10)
南通市,虹桥,120.86,32.0005,2025-04-04T2100,23,58,0.5,54,9,63,100,54,颗粒物(PM10)
南通市,城中,120.87,32.02,2025-04-04T2100,30,64,0.7,51,10,71,114,57,颗粒物(PM10)
南通市,星湖花园,120.94,31.93,2025-04-04T2100,26,57,0.2,52,8,58,102,54,颗粒物(PM10)
南通市,紫琅学院,120.81,32.0417,2025-04-04T2100,27,59,0.4,54,8,67,107,55,颗粒物(PM10)
南通市,通州监测站,121.067,32.062,2025-04-04T2100,24,48,0.5,29,5,,130,,
南通市,环境教育馆,120.9348,31.9883,2025-04-04T2100,21,53,0.4,36,7,71,120,52,颗粒物(PM10)
南阳市,瓦房庄,112.5224,33.0122,2025-04-04T2100,,,,,,,100,,
南阳市,汉画馆,112.5003,32.9735,2025-04-04T2100,58,103,0.8,34,6,41,110,79,细颗粒物(PM2.5)
南阳市,气象站,112.5573,33.027,2025-04-04T2100,56,119,0.7,24,9,62,119,85,颗粒物(PM10)
南阳市,理工学院,112.5481,32.9689,2025-04-04T2100,50,100,0.7,23,6,60,119,75,颗粒物(PM10)
南阳市,卧龙区政府,112.5234,32.9922,2025-04-04T2100,57,111,0.8,27,6,49,119,81,颗粒物(PM10)
宁波市,区环保大楼,121.8358,29.911,2025-04-04T2100,11,29,0.5,14,7,104,106,33,
宁波市,万里学院,121.56,29.82,2025-04-04T2100,20,35,0.6,12,9,109,124,35,
宁波市,龙赛医院,121.713,29.9572,2025-04-04T2100,18,38,0.5,14,7,111,122,38,
宁波市,钱湖水厂,121.633,29.7733,2025-04-04T2100,16,28,0.6,13,7,111,123,35,
宁波市,太古小学,121.5856,29.8635,2025-04-04T2100,15,36,0.4,18,8,102,121,36,
宁波市,市环境监测中心,121.524,29.8674,2025-04-04T2100,23,37,0.4,27,8,102,119,37,
宁波市,万里国际学校,121.6147,29.9017,2025-04-04T2100,16,36,0.5,12,7,110,124,36,
宁波市,白沙活动中心,121.5594,29.8975,2025-04-04T2100,21,39,0.3,17,6,103,120,39,
宁德市,金涵水库,119.5001,26.6946,2025-04-04T2100,,,,,,,,,
宁德市,宁德市监测站,119.5388,26.6612,2025-04-04T2100,30,37,0.6,16,5,132,136,43,
宁德市,宁德一中,119.5231,26.6562,2025-04-04T2100,28,40,0.3,9,6,110,136,40,
怒江傈僳族自治州,州监测站,98.8601,25.8567,2025-04-04T2100,48,58,0.5,7,9,140,146,67,细颗粒物(PM2.5)
怒江傈僳族自治州,泸水一中,98.8546,25.8417,2025-04-04T2100,30,48,0.6,11,8,122,133,48,
攀枝花市,弄弄坪,101.6891,26.571,2025-04-04T2100,20,65,3.0,38,57,84,122,58,颗粒物(PM10)
攀枝花市,河门口,101.5769,26.5928,2025-04-04T2100,23,43,,6,9,114,135,,
攀枝花市,炳草岗,101.7169,26.585,2025-04-04T2100,16,42,0.4,15,7,110,137,42,
攀枝花市,仁和,101.7369,26.5008,2025-04-04T2100,25,56,0.6,22,8,83,139,53,颗粒物(PM10)
攀枝花市,四十中小,101.7227,26.567,2025-04-04T2100,30,49,0.5,8,4,118,138,49,
盘锦市,开发区,122.0303,41.1489,2025-04-04T2100,60,,0.8,19,7,83,115,82,细颗粒物(PM2.5)
盘锦市,兴隆台,122.0485,41.0883,2025-04-04T2100,66,,0.9,23,6,73,108,89,细颗粒物(PM2.5)
盘锦市,新生街道,121.8297,41.1028,2025-04-04T2100,62,,1.1,33,7,68,110,84,细颗粒物(PM2.5)
平顶山市,新华旅馆,113.3257,33.742,2025-04-04T2100,79,147,0.8,35,7,72,111,105,细颗粒物(PM2.5)
平顶山市,规划设计院,113.2919,33.737,2025-04-04T2100,83,140,1.1,48,6,56,104,110,细颗粒物(PM2.5)
平顶山市,平顶山工学院,113.182,33.774,2025-04-04T2100,58,111,0.6,17,7,102,106,81,颗粒物(PM10)
平顶山市,规划局,113.3025,33.73,2025-04-04T2100,80,132,0.9,,6,81,105,107,细颗粒物(PM2.5)
平顶山市,石龙区,112.8867,33.9116,2025-04-04T2100,39,203,0.2,11,4,95,115,127,颗粒物(PM10)
平凉市,聚贤嘉苑,106.6692,35.5461,2025-04-04T2100,37,163,0.4,24,15,89,113,107,颗粒物(PM10)
平凉市,博物馆,106.7021,35.5307,2025-04-04T2100,35,143,0.5,9,9,103,109,97,颗粒物(PM10)
萍乡市,武功山,114.0997,27.5002,2025-04-04T2100,22,37,0.9,9,10,29,69,37,
萍乡市,中医院,113.8385,27.6434,2025-04-04T2100,60,89,1.0,24,23,68,93,82,细颗粒物(PM2.5)
萍乡市,市政府车库,113.8493,27.6253,2025-04-04T2100,67,88,1.1,34,30,62,75,90,细颗粒物(PM2.5)
萍乡市,市环保局,113.8676,27.6435,2025-04-04T2100,62,93,0.8,26,29,65,78,84,细颗粒物(PM2.5)
萍乡市,安源区政府,113.866,27.6198,2025-04-04T2100,62,105,0.8,36,26,53,76,84,细颗粒物(PM2.5)
莆田市,荔城区仓后路,119.0141,25.4325,2025-04-04T2100,22,47,0.5,11,2,136,147,47,
莆田市,莆田市监测站,119.0015,25.4553,2025-04-04T2100,27,32,0.4,8,4,132,152,42,
莆田市,涵江区六中,119.1119,25.4561,2025-04-04T2100,20,32,0.5,8,2,151,153,48,
莆田市,秀屿区政府,119.1013,25.3215,2025-04-04T2100,25,40,0.5,10,3,144,153,45,
莆田市,东圳水库,118.981,25.4792,2025-04-04T2100,,,,,,,,,
濮阳市,环保局,115.0312,35.7636,2025-04-04T2100,95,135,0.9,35,11,61,102,125,细颗粒物(PM2.5)
濮阳市,油田运输公司,115.0574,35.7609,2025-04-04T2100,93,174,1.0,36,9,58,99,123,细颗粒物(PM2.5)
濮阳市,濮水河管理处,115,35.7668,2025-04-04T2100,95,176,1.0,43,8,55,98,125,细颗粒物(PM2.5)
濮阳市,任丘路479号,115.0924,35.7686,2025-04-04T2100,107,176,1.2,42,10,55,103,140,细颗粒物(PM2.5)
普洱市,市环保局,100.98,22.7633,2025-04-04T2100,80,176,1.2,22,7,119,143,113,颗粒物(PM10)
普洱市,普洱第二中学,100.9817,22.8322,2025-04-04T2100,93,112,1.0,23,8,90,128,123,细颗粒物(PM2.5)
七台河市,新一中,131.0518,45.8751,2025-04-04T2100,27,42,1.1,15,12,90,118,42,
七台河市,中波台,131.0577,45.7879,2025-04-04T2100,30,46,0.6,17,6,79,96,46,
七台河市,人民广场,131.0176,45.7761,2025-04-04T2100,36,58,0.6,27,9,77,98,54,颗粒物(PM10)
七台河市,新建矿广场,130.8781,45.8222,2025-04-04T2100,42,100,0.7,35,13,64,104,75,颗粒物(PM10)
齐齐哈尔市,安居小区,123.9305,47.3636,2025-04-04T2100,72,174,0.8,33,6,118,132,112,颗粒物(PM10)
齐齐哈尔市,中心广场,123.9488,47.3386,2025-04-04T2100,77,187,0.8,30,10,120,126,119,颗粒物(PM10)
齐齐哈尔市,农牧车辆厂,123.9483,47.3227,2025-04-04T2100,54,163,0.5,26,10,124,142,107,颗粒物(PM10)
齐齐哈尔市,市环境监测站,123.945,47.2988,2025-04-04T2100,71,158,0.7,22,5,125,135,104,颗粒物(PM10)
齐齐哈尔市,富区青少年活动中心,123.6333,47.2075,2025-04-04T2100,88,191,0.8,18,5,113,122,121,颗粒物(PM10)
黔东南苗族侗族自治州,市环境监测站,107.9783,26.5747,2025-04-04T2100,46,67,0.5,11,7,102,128,64,细颗粒物(PM2.5)
黔东南苗族侗族自治州,凯里学院,107.8908,26.5311,2025-04-04T2100,44,75,0.6,10,6,107,136,63,颗粒物(PM10)
黔南布依族苗族自治州,小围寨,107.5228,26.2403,2025-04-04T2100,44,73,0.5,9,7,124,146,62,"颗粒物(PM10),细颗粒物(PM2.5)"
黔南布依族苗族自治州,沙坝,107.5175,26.2978,2025-04-04T2100,44,73,0.7,9,7,121,119,62,"颗粒物(PM10),细颗粒物(PM2.5)"
黔西南布依族苗族自治州,场坝街,104.9022,25.0925,2025-04-04T2100,76,109,0.5,12,14,124,133,102,细颗粒物(PM2.5)
黔西南布依族苗族自治州,坪东大道,104.8811,25.0992,2025-04-04T2100,73,82,0.5,14,12,123,129,98,细颗粒物(PM2.5)
钦州市,市环保站,108.6236,21.9667,2025-04-04T2100,22,48,0.6,27,10,105,126,48,
钦州市,沙埠小学,108.6549,21.9481,2025-04-04T2100,19,41,0.6,22,11,107,125,41,
钦州市,港区一小,108.5989,21.7431,2025-04-04T2100,16,50,0.6,28,7,111,131,50,
钦州市,北职校,108.5959,21.9633,2025-04-04T2100,18,36,0.6,18,8,118,126,37,
秦皇岛市,第一关,119.7493,40.0116,2025-04-04T2100,51,85,0.6,80,5,19,88,70,细颗粒物(PM2.5)
秦皇岛市,监测站,119.5897,39.9499,2025-04-04T2100,50,96,0.7,29,4,74,85,73,颗粒物(PM10)
秦皇岛市,建设大厦,119.5251,39.9041,2025-04-04T2100,50,94,0.8,40,5,66,90,72,颗粒物(PM10)
秦皇岛市,文明里,119.610547,39.943889,2025-04-04T2100,44,84,0.7,32,6,72,83,67,颗粒物(PM10)
秦皇岛市,北戴河轮滑馆,119.5090,39.8253,2025-04-04T2100,46,101,1.0,26,8,74,86,76,颗粒物(PM10)
青岛市,仰口,120.6659,36.2403,2025-04-04T2100,36,55,0.7,12,3,118,153,53,颗粒物(PM10)
青岛市,市南区东部子站,120.4134,36.0658,2025-04-04T2100,17,41,0.4,8,6,110,103,41,
青岛市,四方区子站,120.3664,36.1032,2025-04-04T2100,24,48,0.5,11,6,115,112,48,
青岛市,市南区西部子站,120.2994,36.054,2025-04-04T2100,10,31,0.6,12,7,109,100,35,
青岛市,崂山区子站,120.4581,36.0858,2025-04-04T2100,12,44,0.4,6,7,123,114,44,
青岛市,城阳区子站,120.3999,36.3083,2025-04-04T2100,29,53,0.6,18,8,122,130,52,颗粒物(PM10)
青岛市,黄岛区4号,120.0405,35.8735,2025-04-04T2100,12,36,0.6,14,7,118,121,37,
青岛市,即墨2号,120.5014,36.4034,2025-04-04T2100,37,63,0.6,13,8,121,139,57,颗粒物(PM10)
青岛市,市北区南部,120.3503,36.0736,2025-04-04T2100,19,40,0.5,5,6,101,96,40,
青岛市,李沧区北部,120.3948,36.1805,2025-04-04T2100,27,44,0.6,16,7,113,112,44,
青岛市,珠江路669号,120.1969,35.9546,2025-04-04T2100,20,36,0.6,12,6,110,117,36,
清远市,环保大楼,113.0426,23.691,2025-04-04T2100,43,58,0.7,17,18,129,135,60,细颗粒物(PM2.5)
清远市,凤城街办,113.0208,23.7106,2025-04-04T2100,32,68,0.6,29,11,102,116,59,颗粒物(PM10)
清远市,技师学院,113.0477,23.6344,2025-04-04T2100,40,81,1.0,25,17,114,122,66,颗粒物(PM10)
清远市,清新太和,112.9903,23.7403,2025-04-04T2100,27,56,0.6,28,11,114,132,53,颗粒物(PM10)
清远市,清城东城,113.076,23.7198,2025-04-04T2100,41,81,0.8,19,16,114,123,66,颗粒物(PM10)
庆阳市,庆阳五中,107.6325,35.7357,2025-04-04T2100,32,113,0.2,13,2,93,107,82,颗粒物(PM10)
庆阳市,市环保局,107.6364,35.7067,2025-04-04T2100,28,108,0.2,9,3,100,110,79,颗粒物(PM10)
曲靖市,环境监测站,103.7897,25.5035,2025-04-04T2100,42,100,0.7,19,14,112,145,75,颗粒物(PM10)
曲靖市,烟厂办公区,103.8,25.5364,2025-04-04T2100,54,101,0.6,21,12,101,140,76,颗粒物(PM10)
曲靖市,南苑二区,103.7947,25.462,2025-04-04T2100,44,86,0.6,16,6,109,134,68,颗粒物(PM10)
曲靖市,曲靖师范学院,103.7444,25.5261,2025-04-04T2100,69,111,0.7,20,19,105,141,93,细颗粒物(PM2.5)
衢州市,环保大楼,118.8692,28.9398,2025-04-04T2100,60,107,0.8,62,4,66,145,82,细颗粒物(PM2.5)
衢州市,实验学校,118.8709,28.9666,2025-04-04T2100,51,95,0.7,64,4,71,155,73,颗粒物(PM10)
衢州市,衢州学院,118.8621,28.9808,2025-04-04T2100,55,86,0.5,63,5,57,143,75,细颗粒物(PM2.5)
泉州市,涂山街,118.5819,24.9117,2025-04-04T2100,30,51,0.8,10,5,138,158,51,颗粒物(PM10)
泉州市,津头埔,118.5972,24.8978,2025-04-04T2100,34,57,0.9,17,5,130,155,54,颗粒物(PM10)
泉州市,万安,118.6663,24.9424,2025-04-04T2100,30,51,0.7,13,6,134,160,51,颗粒物(PM10)
泉州市,清源山,118.6117,24.9604,2025-04-04T2100,,,,,,,,,
泉州市,城华南路,118.6333,24.9264,2025-04-04T2100,,,0.6,18,6,,156,,
日喀则市,日喀则监测站,88.8876,29.2718,2025-04-04T2100,19,46,0.5,7,7,159,160,50,
日喀则市,林业技术推广中心,88.8781,29.2426,2025-04-04T2100,20,66,0.3,2,6,163,157,58,颗粒物(PM10)
日照市,监测站,119.471,35.4209,2025-04-04T2100,43,97,0.8,70,7,53,97,74,颗粒物(PM10)
日照市,市政府广场,119.523,35.4216,2025-04-04T2100,43,80,0.8,34,5,76,92,65,颗粒物(PM10)
日照市,港务局,119.5587,35.4044,2025-04-04T2100,37,63,0.7,21,3,98,112,57,颗粒物(PM10)
日照市,职业技术学院,119.5328,35.4625,2025-04-04T2100,39,73,0.8,21,5,94,110,62,颗粒物(PM10)
日照市,岚山环保分局,119.3266,35.1044,2025-04-04T2100,66,124,1.9,56,26,68,108,89,细颗粒物(PM2.5)
三门峡市,市政府,111.1922,34.7752,2025-04-04T2100,50,103,0.6,43,4,59,116,77,颗粒物(PM10)
三门峡市,开发区,111.1587,34.7942,2025-04-04T2100,30,128,0.4,17,1,85,112,89,颗粒物(PM10)
三门峡市,风景区,111.143,34.7955,2025-04-04T2100,29,103,0.2,15,6,77,106,77,颗粒物(PM10)
三门峡市,三门峡市第一小学,111.1911,34.7829,2025-04-04T2100,32,123,0.6,23,5,83,114,87,颗粒物(PM10)
三门峡市,富达温泉假日酒店,111.1,34.7167,2025-04-04T2100,37,157,0.8,35,7,60,110,104,颗粒物(PM10)
三明市,三钢,117.6211,26.2625,2025-04-04T2100,25,53,0.6,19,5,92,125,52,颗粒物(PM10)
三明市,三明二中,117.635,26.2714,2025-04-04T2100,,56,0.3,28,3,74,124,,
三明市,三元区政府,117.6028,26.2378,2025-04-04T2100,31,53,0.8,25,8,68,128,52,颗粒物(PM10)
三明市,洋溪,117.7275,26.3108,2025-04-04T2100,,,,,,,,,
三亚市,河东子站,109.5078,18.2489,2025-04-04T2100,22,30,0.3,8,4,102,117,32,
三亚市,河西子站,109.4964,18.2681,2025-04-04T2100,18,31,0.4,9,4,104,120,33,
三亚市,君悦子站,109.7348,18.3443,2025-04-04T2100,12,38,0.3,4,4,119,121,38,
山南市,山南监测站,91.7608,29.2313,2025-04-04T2100,19,42,0.4,2,7,130,132,42,
山南市,山南人民医院,91.7706,29.2436,2025-04-04T2100,26,72,0.4,2,5,130,130,61,颗粒物(PM10)
汕头市,金平子站,116.6794,23.3667,2025-04-04T2100,36,41,0.6,21,5,117,124,52,细颗粒物(PM2.5)
汕头市,龙湖子站,116.7244,23.3633,2025-04-04T2100,29,47,0.6,13,5,125,138,47,
汕头市,濠江子站,116.7258,23.2775,2025-04-04T2100,29,36,0.8,11,4,130,144,42,
汕头市,澄海子站,116.7519,23.4714,2025-04-04T2100,40,51,0.7,15,3,130,145,57,细颗粒物(PM2.5)
汕头市,潮阳子站,116.6092,23.2539,2025-04-04T2100,29,43,0.7,10,6,115,137,43,
汕头市,潮南峡山,116.454,23.2684,2025-04-04T2100,42,68,0.6,9,8,127,141,59,"颗粒物(PM10),细颗粒物(PM2.5)"
汕头市,潮南子站,116.4069,23.2533,2025-04-04T2100,38,78,0.7,16,8,109,134,64,颗粒物(PM10)
汕尾市,市环保局,115.3653,22.775,2025-04-04T2100,59,59,0.8,13,8,112,146,80,细颗粒物(PM2.5)
汕尾市,市政府,115.3706,22.7898,2025-04-04T2100,55,56,0.8,14,5,107,140,75,细颗粒物(PM2.5)
汕尾市,新城中学,115.3622,22.7925,2025-04-04T2100,68,,0.7,11,9,113,144,92,细颗粒物(PM2.5)
商洛市,监测站,109.9154,33.8715,2025-04-04T2100,54,171,0.3,21,6,80,115,111,颗粒物(PM10)
商洛市,商州区中学,109.9643,33.8471,2025-04-04T2100,49,149,0.5,26,3,72,113,100,颗粒物(PM10)
商丘市,环境监测站,115.6702,34.4285,2025-04-04T2100,72,114,0.6,19,8,117,148,97,细颗粒物(PM2.5)
商丘市,粮食局,115.6458,34.4045,2025-04-04T2100,66,116,0.5,16,6,105,134,89,细颗粒物(PM2.5)
商丘市,睢阳区环保局,115.6293,34.3948,2025-04-04T2100,69,107,0.6,25,4,91,131,93,细颗粒物(PM2.5)
商丘市,梁园区档案局,115.6071,34.4465,2025-04-04T2100,66,104,0.7,20,5,106,132,89,细颗粒物(PM2.5)
上海市,普陀,121.4,31.238,2025-04-04T2100,22,42,0.6,35,6,84,141,42,
上海市,十五厂,121.478,31.2036,2025-04-04T2100,26,41,0.7,37,7,86,135,41,
上海市,虹口,121.467,31.3008,2025-04-04T2100,19,39,,48,10,73,137,,
上海市,静安监测站,121.425,31.2261,2025-04-04T2100,21,40,0.6,37,9,86,147,40,
上海市,浦东川沙,121.703,31.1907,2025-04-04T2100,20,40,,,6,93,122,,
上海市,浦东新区监测站,121.533,31.2284,2025-04-04T2100,18,38,0.6,44,7,80,146,38,
上海市,浦东张江,121.577,31.2071,2025-04-04T2100,18,37,0.4,36,6,76,130,37,
上海市,宝山庙行,121.4316,31.3322,2025-04-04T2100,28,65,0.4,42,9,78,143,58,颗粒物(PM10)
上海市,崇明上实东滩,121.8791,31.4662,2025-04-04T2100,9,22,0.5,25,4,97,108,31,
上海市,嘉定南翔,121.3162,31.2838,2025-04-04T2100,22,41,0.6,47,8,72,139,41,
上海市,金山新城,121.3359,30.7456,2025-04-04T2100,14,38,0.6,24,6,98,117,38,
上海市,闵行浦江,121.4996,31.0739,2025-04-04T2100,19,32,0.6,27,4,94,141,32,
上海市,青浦徐泾,121.2886,31.1663,2025-04-04T2100,19,38,0.5,32,6,90,150,38,
上海市,松江图书馆,121.2186,31.0378,2025-04-04T2100,23,38,0.7,35,7,85,140,38,
上海市,长宁仙霞,121.3902,31.2059,2025-04-04T2100,21,39,0.8,35,9,93,148,39,
上海市,浦东惠南,121.7965,31.0507,2025-04-04T2100,16,27,0.6,26,7,93,116,30,
上海市,奉贤南桥新城,121.4891,30.925,2025-04-04T2100,19,36,0.7,32,6,90,132,36,
上海市,冠生园路458号,121.4174,31.16637,2025-04-04T2100,3,38,0.6,29,10,90,140,38,
上海市,宁武路151号,121.5419,31.2683,2025-04-04T2100,20,53,0.5,47,8,71,127,52,颗粒物(PM10)
上饶市,百草园,118.005,28.4572,2025-04-04T2100,,,,,,,,,
上饶市,市监测站,117.9756,28.4436,2025-04-04T2100,50,94,0.8,28,10,81,142,72,颗粒物(PM10)
上饶市,凤凰光学,117.9519,28.4628,2025-04-04T2100,58,97,1.1,37,12,71,132,79,细颗粒物(PM2.5)
上饶市,双创科技城,117.897,28.4315,2025-04-04T2100,44,76,0.7,49,12,70,136,63,颗粒物(PM10)
上饶市,裕丰大道,118.1904,28.4448,2025-04-04T2100,58,104,0.8,36,21,72,131,79,细颗粒物(PM2.5)
韶关市,市八中,113.5824,24.7733,2025-04-04T2100,53,97,0.8,23,16,61,74,74,颗粒物(PM10)
韶关市,园林处,113.5917,24.7972,2025-04-04T2100,56,83,0.8,27,12,53,68,77,细颗粒物(PM2.5)
韶关市,曲江监测站,113.5971,24.6863,2025-04-04T2100,68,118,1.0,36,17,46,85,92,细颗粒物(PM2.5)
韶关市,大学路288号,113.6668,24.7756,2025-04-04T2100,50,86,0.8,17,9,58,79,69,细颗粒物(PM2.5)
韶关市,碧湖山庄,113.5556,24.8082,2025-04-04T2100,69,101,0.8,23,10,41,79,93,细颗粒物(PM2.5)
邵阳市,市水土所,111.5239,27.3033,2025-04-04T2100,,,,,,,,,
邵阳市,市化工厂,111.5283,27.2442,2025-04-04T2100,116,167,1.2,52,17,14,70,152,细颗粒物(PM2.5)
邵阳市,市环保局,111.4328,27.2272,2025-04-04T2100,131,159,1.5,41,19,33,78,173,细颗粒物(PM2.5)
邵阳市,北塔二期4-26地块,111.4460,27.2472,2025-04-04T2100,124,158,1.1,34,15,29,62,163,细颗粒物(PM2.5)
邵阳市,邵水西路287号,111.4739,27.2282,2025-04-04T2100,137,173,1.3,,,46,75,182,细颗粒物(PM2.5)
绍兴市,城东开发委,120.6053,29.9928,2025-04-04T2100,27,46,0.5,27,8,94,127,46,
绍兴市,树下王站,120.5483,30.0003,2025-04-04T2100,53,88,0.6,79,7,39,147,73,细颗粒物(PM2.5)
绍兴市,绍兴中专,120.5683,29.9361,2025-04-04T2100,26,54,0.4,18,6,121,141,52,颗粒物(PM10)
绍兴市,柯桥区政府,120.4906,30.0861,2025-04-04T2100,35,80,1.1,75,8,40,136,65,颗粒物(PM10)
绍兴市,重华小学,120.8752,30.0249,2025-04-04T2100,23,44,0.6,14,7,106,142,44,
绍兴市,上虞中学,120.8369,30.0137,2025-04-04T2100,23,48,0.5,20,9,108,153,48,
绍兴市,柯桥妇保,120.4722,30.0415,2025-04-04T2100,43,84,0.6,50,7,51,155,67,颗粒物(PM10)
绍兴市,袍江中学,120.6153,30.0764,2025-04-04T2100,45,91,1.0,77,5,25,129,71,颗粒物(PM10)
深圳市,通心岭子站,114.1063,22.5545,2025-04-04T2100,25,57,0.6,9,6,134,129,54,颗粒物(PM10)
深圳市,洪湖,114.117,22.5625,2025-04-04T2100,26,62,0.5,8,6,135,126,56,颗粒物(PM10)
深圳市,华侨城,113.987,22.5417,2025-04-04T2100,21,50,0.6,11,5,117,113,50,
深圳市,南海子站,113.9181,22.5171,2025-04-04T2100,31,66,0.6,18,6,115,120,58,颗粒物(PM10)
深圳市,盐田,114.2458,22.5689,2025-04-04T2100,22,60,0.5,16,7,123,113,55,颗粒物(PM10)
深圳市,龙岗,114.2283,22.7244,2025-04-04T2100,26,58,0.6,9,6,138,132,54,颗粒物(PM10)
深圳市,南澳,114.494,22.5422,2025-04-04T2100,37,65,0.5,8,8,132,123,58,颗粒物(PM10)
深圳市,葵涌,114.41,22.6342,2025-04-04T2100,32,55,0.6,11,7,130,128,53,颗粒物(PM10)
深圳市,梅沙,114.297,22.5978,2025-04-04T2100,32,72,0.5,10,8,129,132,61,颗粒物(PM10)
深圳市,观澜,114.0678,22.738,2025-04-04T2100,20,65,0.7,24,6,88,108,58,颗粒物(PM10)
深圳市,莲花,114.0731,22.559,2025-04-04T2100,28,61,0.6,12,7,128,123,56,颗粒物(PM10)
深圳市,民治,114.0261,22.6198,2025-04-04T2100,24,58,0.5,10,4,117,115,54,颗粒物(PM10)
深圳市,横岗,114.1871,22.6451,2025-04-04T2100,31,68,0.7,17,8,116,116,59,颗粒物(PM10)
深圳市,坪山,114.3551,22.7151,2025-04-04T2100,25,62,0.6,11,7,123,120,56,颗粒物(PM10)
深圳市,西乡,113.8953,22.5861,2025-04-04T2100,20,60,0.7,17,8,108,111,55,颗粒物(PM10)
沈阳市,森林路,123.6836,41.9339,2025-04-04T2100,,,,,,,,,
沈阳市,浑南东路,123.505,41.7406,2025-04-04T2100,36,57,0.6,12,11,100,129,54,颗粒物(PM10)
沈阳市,新秀街,123.4231,41.6989,2025-04-04T2100,37,56,0.6,17,12,105,126,53,"颗粒物(PM10),细颗粒物(PM2.5)"
沈阳市,东陵路,123.5903,41.8411,2025-04-04T2100,35,,0.8,17,8,113,138,50,
沈阳市,陵东街,123.4264,41.8467,2025-04-04T2100,34,54,0.7,20,8,104,126,52,颗粒物(PM10)
沈阳市,文化路,123.4114,41.7653,2025-04-04T2100,42,61,0.6,13,8,112,131,59,细颗粒物(PM2.5)
沈阳市,小河沿,123.4678,41.7867,2025-04-04T2100,37,52,0.6,17,8,109,135,53,细颗粒物(PM2.5)
沈阳市,太原街,123.4017,41.7972,2025-04-04T2100,36,43,0.7,15,6,116,132,52,细颗粒物(PM2.5)
沈阳市,京沈街,123.3783,41.9228,2025-04-04T2100,39,,0.6,12,8,110,122,55,细颗粒物(PM2.5)
沈阳市,沈辽西路,123.2444,41.7347,2025-04-04T2100,40,50,0.6,12,11,104,127,57,细颗粒物(PM2.5)
沈阳市,裕农路,123.5953,41.9086,2025-04-04T2100,35,52,0.6,16,6,110,135,51,颗粒物(PM10)
十堰市,武当山,111.0419,32.395,2025-04-04T2100,20,60,0.4,8,12,97,122,55,颗粒物(PM10)
十堰市,滨河新村,110.78,32.6494,2025-04-04T2100,93,146,1.5,75,10,10,66,123,细颗粒物(PM2.5)
十堰市,刘家沟,110.7258,32.6389,2025-04-04T2100,39,74,0.6,17,5,55,68,62,颗粒物(PM10)
十堰市,铁二处,110.8839,32.5714,2025-04-04T2100,56,74,0.7,20,5,39,67,77,细颗粒物(PM2.5)
十堰市,郧阳区金沙路,110.8054,32.8401,2025-04-04T2100,45,72,1.0,35,6,37,82,63,细颗粒物(PM2.5)
石河子市,艾青诗歌馆,86.0497,44.2967,2025-04-04T2100,24,62,0.3,15,7,112,116,56,颗粒物(PM10)
石河子市,南区管委会,86.047,44.2331,2025-04-04T2100,31,75,0.4,17,10,108,112,63,颗粒物(PM10)
石河子市,世纪广场,86.0791,44.3017,2025-04-04T2100,14,57,0.3,9,8,111,118,54,颗粒物(PM10)
石家庄市,职工医院,114.4422,38.0444,2025-04-04T2100,23,109,0.2,4,2,93,101,80,颗粒物(PM10)
石家庄市,高新区,114.6063,38.0266,2025-04-04T2100,21,95,0.3,11,3,94,90,73,颗粒物(PM10)
石家庄市,西北水源,114.4898,38.1328,2025-04-04T2100,19,92,0.3,10,2,83,90,71,颗粒物(PM10)
石家庄市,西南高教,114.4586,38.0058,2025-04-04T2100,31,127,0.1,8,3,95,100,89,颗粒物(PM10)
石家庄市,世纪公园,114.5331,38.0178,2025-04-04T2100,26,96,0.2,9,2,90,88,73,颗粒物(PM10)
石家庄市,人民会堂,114.509,38.0457,2025-04-04T2100,17,112,0.3,7,3,94,97,81,颗粒物(PM10)
石家庄市,封龙山,114.3524,37.8911,2025-04-04T2100,25,172,0.4,4,7,98,102,111,颗粒物(PM10)
石家庄市,22中南校区,114.5481,38.0378,2025-04-04T2100,52,97,0.1,6,1,95,89,74,颗粒物(PM10)
石家庄市,鹿泉一中,114.289,38.0906,2025-04-04T2100,28,124,0.2,3,3,100,106,87,颗粒物(PM10)
石家庄市,藁城区实验学校,114.8506765,38.0322033,2025-04-04T2100,15,101,0.3,14,1,84,84,76,颗粒物(PM10)
石家庄市,栾城区星河路,114.6549,37.9020,2025-04-04T2100,15,84,0.2,2,2,94,86,67,颗粒物(PM10)
石家庄市,矿区区委大楼,114.0494,38.059,2025-04-04T2100,12,152,0.3,11,8,99,103,101,颗粒物(PM10)
石嘴山市,沙湖旅游区,106.3394,38.817,2025-04-04T2100,,,,,,,,,
石嘴山市,大武口朝阳西街,106.3668,39.0145,2025-04-04T2100,21,22,0.6,14,8,86,106,30,
石嘴山市,惠农南大街,106.7704,39.2282,2025-04-04T2100,13,33,0.2,19,6,76,96,33,
石嘴山市,红果子镇惠新街,106.7099,39.1325,2025-04-04T2100,17,47,1.0,26,9,67,99,47,
石嘴山市,妇女儿童医院,106.3495,38.9836,2025-04-04T2100,7,14,0.2,9,2,96,100,30,
石嘴山市,石大公路,106.7492,39.2069,2025-04-04T2100,27,64,2.0,27,5,73,103,57,颗粒物(PM10)
双鸭山市,双合村,131.1511,46.6937,2025-04-04T2100,29,37,0.3,13,9,76,108,42,
双鸭山市,南小市,131.1652,46.6191,2025-04-04T2100,35,68,0.5,30,8,53,104,59,颗粒物(PM10)
双鸭山市,环保局,131.1524,46.6554,2025-04-04T2100,48,96,0.6,42,11,48,100,73,颗粒物(PM10)
双鸭山市,苗圃,131.12,46.5656,2025-04-04T2100,,,,,,,,,
朔州市,平朔,112.4397,39.3522,2025-04-04T2100,12,66,0.6,11,5,78,96,58,颗粒物(PM10)
朔州市,朔唯,112.4575,39.3617,2025-04-04T2100,17,95,0.5,13,9,73,92,73,颗粒物(PM10)
朔州市,区政府,112.4258,39.3197,2025-04-04T2100,3,71,0.6,6,4,82,90,61,颗粒物(PM10)
朔州市,市环保局,112.4072,39.3278,2025-04-04T2100,8,69,0.2,25,4,84,91,60,颗粒物(PM10)
朔州市,市二中,112.4272,39.3681,2025-04-04T2100,8,78,0.4,11,8,72,92,64,颗粒物(PM10)
朔州市,一水厂,112.2931,39.53,2025-04-04T2100,9,96,0.5,4,22,89,98,73,颗粒物(PM10)
四平市,一商场,124.4002,43.1713,2025-04-04T2100,47,51,0.5,10,4,104,130,65,细颗粒物(PM2.5)
四平市,境园,124.388,43.193,2025-04-04T2100,32,51,0.5,17,9,98,131,51,颗粒物(PM10)
四平市,植物园,124.4036,43.1411,2025-04-04T2100,41,52,0.5,14,2,105,130,58,细颗粒物(PM2.5)
四平市,世纪城,124.3419,43.1666,2025-04-04T2100,40,46,0.5,18,3,96,124,57,细颗粒物(PM2.5)
松原市,江南,124.8006,45.1214,2025-04-04T2100,69,195,0.7,21,3,97,144,123,颗粒物(PM10)
松原市,江北,124.7965,45.1722,2025-04-04T2100,56,173,0.8,18,5,101,136,112,颗粒物(PM10)
苏州市,上方山,120.561,31.2472,2025-04-04T2100,,,,,,,,,
苏州市,彩香,120.591,31.3019,2025-04-04T2100,20,39,0.5,28,7,84,130,39,
苏州市,轧钢厂,120.596,31.3264,2025-04-04T2100,20,48,0.5,27,4,78,129,48,
苏州市,吴中区,120.613,31.2703,2025-04-04T2100,18,38,0.4,34,6,78,129,38,
苏州市,苏州新区,120.543,31.2994,2025-04-04T2100,22,43,0.6,39,6,87,137,43,
苏州市,苏州工业园区,120.669,31.3097,2025-04-04T2100,16,38,0.4,27,9,80,128,38,
苏州市,相城区,120.641,31.3708,2025-04-04T2100,14,37,0.4,22,6,89,138,37,
苏州市,方洲路,120.743,31.3188,2025-04-04T2100,16,38,0.4,28,9,87,139,38,
苏州市,木渎中学,120.5031,31.2774,2025-04-04T2100,22,45,0.6,38,9,96,146,45,
苏州市,越秀幼儿园,120.624,31.1733,2025-04-04T2100,20,58,0.4,32,8,93,142,54,颗粒物(PM10)
苏州市,高铁新城,120.6505,31.416,2025-04-04T2100,18,40,0.4,26,6,95,145,40,
宿迁市,宿迁学院,118.293,33.9528,2025-04-04T2100,66,109,0.6,29,6,99,134,89,细颗粒物(PM2.5)
宿迁市,宿迁中学,118.2442,33.9592,2025-04-04T2100,57,96,0.6,24,5,108,142,78,细颗粒物(PM2.5)
宿迁市,市供电局,118.283,33.965,2025-04-04T2100,56,105,0.9,25,6,112,141,78,颗粒物(PM10)
宿迁市,宿豫区政府,118.3225,33.9447,2025-04-04T2100,59,102,0.9,27,6,108,137,80,细颗粒物(PM2.5)
宿州市,远航博物馆,116.9509,33.666,2025-04-04T2100,66,121,0.6,34,6,78,136,89,细颗粒物(PM2.5)
宿州市,社会福利中心,116.9708,33.591,2025-04-04T2100,53,118,0.6,30,7,89,131,84,颗粒物(PM10)
宿州市,宿州学院,116.9884,33.6305,2025-04-04T2100,67,137,0.8,32,7,,141,,
宿州市,皖北煤电集团,116.9648,33.6252,2025-04-04T2100,57,113,0.9,28,6,82,127,82,颗粒物(PM10)
绥化市,人和东街,126.9785,46.6365,2025-04-04T2100,39,66,0.5,16,6,96,123,58,颗粒物(PM10)
绥化市,党政办公中心,126.964,46.6528,2025-04-04T2100,38,66,0.5,15,7,104,128,58,颗粒物(PM10)
随州市,市委党校,113.3583,31.7275,2025-04-04T2100,36,64,0.9,24,6,85,120,57,颗粒物(PM10)
随州市,市林业局,113.3833,31.6908,2025-04-04T2100,34,54,0.7,17,8,95,126,52,颗粒物(PM10)
随州市,市立交桥水厂,113.3983,31.7308,2025-04-04T2100,45,141,0.9,24,9,86,126,96,颗粒物(PM10)
遂宁市,石溪浩,105.5453,30.5678,2025-04-04T2100,37,72,0.5,34,2,65,98,61,颗粒物(PM10)
遂宁市,市监测站,105.5582,30.5232,2025-04-04T2100,40,76,0.6,52,6,48,96,63,颗粒物(PM10)
遂宁市,行政中心,105.5861,30.5366,2025-04-04T2100,36,77,0.5,33,10,86,112,64,颗粒物(PM10)
遂宁市,美宁食品公司,105.5918,30.4728,2025-04-04T2100,44,83,0.5,44,7,51,106,67,颗粒物(PM10)
塔城地区,东门外小游园,82.9994,46.7432,2025-04-04T2100,10,43,2.2,10,7,89,108,43,
台州市,黄岩环保大楼,121.273,28.6459,2025-04-04T2100,17,40,0.5,22,4,78,113,40,
台州市,台州环保大楼,121.419,28.6542,2025-04-04T2100,17,20,0.4,15,4,88,107,28,
台州市,路桥田洋王,121.377,28.5773,2025-04-04T2100,20,28,0.3,13,5,99,133,31,
台州市,台州科技职业学院,121.2568,28.6681,2025-04-04T2100,16,38,0.3,24,4,84,121,38,
太原市,尖草坪,112.522,37.8873,2025-04-04T2100,21,146,0.3,7,7,92,98,98,颗粒物(PM10)
太原市,上兰,112.434,38.0108,2025-04-04T2100,20,111,0.3,,4,95,101,,
太原市,晋源,112.469,37.7124,2025-04-04T2100,25,98,0.2,8,6,99,101,74,颗粒物(PM10)
太原市,小店,112.5583,37.7394,2025-04-04T2100,22,144,0.3,10,3,99,103,97,颗粒物(PM10)
太原市,桃园,112.5369,37.8692,2025-04-04T2100,21,145,0.3,3,7,96,102,98,颗粒物(PM10)
太原市,坞城,112.57,37.8195,2025-04-04T2100,22,130,0.3,6,3,98,103,90,颗粒物(PM10)
太原市,南寨,112.549,37.9854,2025-04-04T2100,19,162,0.2,7,5,97,102,106,颗粒物(PM10)
太原市,金胜,112.4719,37.7831,2025-04-04T2100,20,171,0.3,7,5,93,102,111,颗粒物(PM10)
太原市,育英中学,112.5608,37.8807,2025-04-04T2100,20,135,0.4,8,9,97,106,93,颗粒物(PM10)
泰安市,监测站,117.1437,36.1937,2025-04-04T2100,60,132,0.8,34,12,94,120,91,颗粒物(PM10)
泰安市,人口学校,117.0885,36.2017,2025-04-04T2100,64,136,0.8,29,10,89,113,93,颗粒物(PM10)
泰安市,电力学校,117.1089,36.1758,2025-04-04T2100,75,122,0.6,31,10,88,112,100,细颗粒物(PM2.5)
泰安市,国网新校,117.1812,36.2275,2025-04-04T2100,63,105,0.8,22,4,94,129,85,细颗粒物(PM2.5)
泰安市,交通技校,117.0313,36.2018,2025-04-04T2100,63,117,0.7,47,7,68,123,85,细颗粒物(PM2.5)
泰安市,山东第一医科大学,117.0829,36.13,2025-04-04T2100,79,132,0.4,80,11,45,114,105,细颗粒物(PM2.5)
泰州市,公园路,119.905,32.4878,2025-04-04T2100,51,80,0.8,29,10,110,134,70,细颗粒物(PM2.5)
泰州市,莲花,119.9189,32.4625,2025-04-04T2100,58,103,0.9,32,13,112,144,79,细颗粒物(PM2.5)
泰州市,留学生创业园,119.888,32.4639,2025-04-04T2100,45,88,0.7,28,10,118,140,69,颗粒物(PM10)
泰州市,王营,119.8767,32.3289,2025-04-04T2100,44,80,0.7,38,11,99,131,65,颗粒物(PM10)
泰州市,姜堰区政府广场,120.1259,32.5099,2025-04-04T2100,57,93,1.2,50,18,74,117,78,细颗粒物(PM2.5)
泰州市,周山河街区,119.9192,32.4322,2025-04-04T2100,57,103,0.7,36,11,106,142,78,细颗粒物(PM2.5)
唐山市,物资局,118.1725,39.6334,2025-04-04T2100,16,81,0.2,6,2,83,114,66,颗粒物(PM10)
唐山市,十二中,118.1705,39.6506,2025-04-04T2100,25,93,0.2,11,1,79,111,72,颗粒物(PM10)
唐山市,小山,118.1869,39.622,2025-04-04T2100,11,82,0.2,4,3,81,114,66,颗粒物(PM10)
唐山市,冀东油田职工医院,118.4359,39.2762,2025-04-04T2100,27,86,0.4,12,7,86,102,68,颗粒物(PM10)
唐山市,正泰大街热力站,118.09279,39.58089,2025-04-04T2100,34,62,0.2,13,2,71,99,56,颗粒物(PM10)
唐山市,丰润区政府,118.1562,39.8322,2025-04-04T2100,7,64,0.2,5,3,80,107,57,颗粒物(PM10)
唐山市,金山小学,118.43673,39.73809,2025-04-04T2100,15,91,0.5,8,5,84,116,71,颗粒物(PM10)
唐山市,政府服务中心,118.24498,39.66941,2025-04-04T2100,18,74,0.2,7,2,77,110,62,颗粒物(PM10)
唐山市,消防缸窑路中队,118.2059,39.6585,2025-04-04T2100,8,111,0.3,10,3,86,117,81,颗粒物(PM10)
唐山市,路南电大,118.1436,39.6202,2025-04-04T2100,13,92,0.2,14,3,78,110,71,颗粒物(PM10)
唐山市,友谊北路34号,118.1309,39.6360,2025-04-04T2100,31,84,0.2,12,2,77,112,67,颗粒物(PM10)
天津市,勤俭道,117.1444,39.1661,2025-04-04T2100,3,29,0.2,11,6,84,133,29,
天津市,前进道,117.202,39.0927,2025-04-04T2100,6,35,0.4,9,4,92,140,35,
天津市,淮河道,117.1837,39.2133,2025-04-04T2100,8,35,0.3,14,5,84,131,35,
天津市,跃进路,117.3083,39.0884,2025-04-04T2100,3,38,0.4,12,5,90,138,38,
天津市,第四大街,117.707,39.0343,2025-04-04T2100,6,27,0.5,7,5,92,114,29,
天津市,永明路,117.457,38.8394,2025-04-04T2100,11,51,0.5,5,6,99,116,51,颗粒物(PM10)
天津市,汉北路,117.764,39.1587,2025-04-04T2100,3,29,0.3,11,4,83,120,29,
天津市,团泊洼,117.157,38.9194,2025-04-04T2100,,,,,,,,,
天津市,河西一经路,117.7918,39.2474,2025-04-04T2100,3,30,0.3,16,5,78,123,30,
天津市,津沽路,117.3747,38.9846,2025-04-04T2100,13,36,0.4,5,3,87,120,36,
天津市,宾水西道,117.1589,39.0845,2025-04-04T2100,3,21,0.2,8,3,94,152,30,
天津市,大理道,117.1941,39.1067,2025-04-04T2100,9,25,0.6,6,4,90,137,29,
天津市,中山北路,117.2101,39.1699,2025-04-04T2100,3,30,0.3,16,4,78,116,30,
天津市,西四道,117.3876,39.1488,2025-04-04T2100,3,21,0.2,11,5,,116,,
天津市,雍阳西道,117.0365,39.3828,2025-04-04T2100,3,30,0.2,8,3,81,122,30,
天津市,辛老路,117.0296,39.0605,2025-04-04T2100,8,46,0.3,8,4,87,149,46,
天津市,地纬路,116.9638,38.9375,2025-04-04T2100,8,46,0.4,12,7,87,139,46,
天津市,北环路,117.4067,40.0583,2025-04-04T2100,3,13,0.3,8,4,78,98,25,
天津市,建设路,117.3045,39.7169,2025-04-04T2100,3,22,0.3,11,8,83,105,26,
天津市,滨水东路,117.8199,39.3521,2025-04-04T2100,3,23,0.2,6,6,79,110,25,
天津市,光华路,117.2437,39.1029,2025-04-04T2100,3,31,0.4,11,6,99,153,31,
天水市,麦积山,106.0055,34.343,2025-04-04T2100,,,,,,,,,
天水市,公园小学,105.7205,34.5786,2025-04-04T2100,65,181,0.6,20,7,71,111,116,颗粒物(PM10)
天水市,麦积国土局,105.8945,34.5538,2025-04-04T2100,75,225,0.5,20,7,80,114,138,颗粒物(PM10)
铁岭市,汇工街西,123.8139,42.3022,2025-04-04T2100,32,,0.3,8,7,117,130,46,
铁岭市,水上乐园,123.8649,42.2923,2025-04-04T2100,24,,0.4,18,6,96,122,35,
铁岭市,银州路东段,123.8486,42.2867,2025-04-04T2100,32,39,0.6,12,7,108,127,46,
铁岭市,金沙江路北,123.7153,42.2217,2025-04-04T2100,33,,0.5,12,4,110,130,48,
通化市,光明,125.9358,41.7173,2025-04-04T2100,14,42,0.6,12,9,124,131,42,
通化市,铁路,125.9446,41.7325,2025-04-04T2100,26,36,0.7,11,7,124,130,39,
通辽市,艺术职业学校,122.2532,43.6801,2025-04-04T2100,8,72,0.2,9,14,68,108,61,颗粒物(PM10)
通辽市,老干部活动中心,122.2584,43.6333,2025-04-04T2100,37,91,0.3,16,9,70,119,71,颗粒物(PM10)
通辽市,东方明珠社区,122.2922,43.6189,2025-04-04T2100,54,109,0.4,17,11,68,119,80,颗粒物(PM10)
铜川市,党校,109.0656,35.0994,2025-04-04T2100,,,,,,,,,
铜川市,王益区政府,109.0697,35.0697,2025-04-04T2100,45,151,0.5,20,4,58,106,101,颗粒物(PM10)
铜川市,新区管委会,108.9344,34.9058,2025-04-04T2100,53,133,0.4,19,7,80,107,92,颗粒物(PM10)
铜川市,大唐三路,108.9497,34.8705,2025-04-04T2100,42,135,0.3,10,5,95,113,93,颗粒物(PM10)
铜陵市,市第四中学,117.8177,30.9412,2025-04-04T2100,52,106,0.8,20,19,114,114,78,颗粒物(PM10)
铜陵市,市公路局,117.8059,30.9273,2025-04-04T2100,54,110,1.0,27,24,112,116,80,颗粒物(PM10)
铜陵市,市新民污水厂,117.7807,30.9413,2025-04-04T2100,60,125,0.9,42,22,91,106,88,颗粒物(PM10)
铜陵市,市第九中学,117.7439,30.8792,2025-04-04T2100,58,120,0.9,61,13,72,84,85,颗粒物(PM10)
铜陵市,车站新区,117.846,30.9413,2025-04-04T2100,48,97,0.7,25,20,118,122,74,颗粒物(PM10)
铜陵市,市职教基地,117.8483,30.97,2025-04-04T2100,49,102,1.3,25,20,111,117,76,颗粒物(PM10)
铜仁市,铜仁卫校,109.1839,27.7344,2025-04-04T2100,62,104,0.8,51,4,29,50,84,细颗粒物(PM2.5)
铜仁市,铜仁七中,109.1753,27.6944,2025-04-04T2100,65,66,0.7,37,8,36,62,88,细颗粒物(PM2.5)
吐鲁番市,市环保局,89.1904,42.9418,2025-04-04T2100,28,90,1.4,19,5,102,115,70,颗粒物(PM10)
吐鲁番市,地区环保局,89.1673,42.9559,2025-04-04T2100,,,0.8,42,6,,116,,
威海市,华夏技校,122.1214,37.4236,2025-04-04T2100,15,29,0.3,14,3,111,111,35,
威海市,山大分校,122.0508,37.5236,2025-04-04T2100,17,24,0.2,7,5,138,129,44,
威海市,市监测站,122.1067,37.5072,2025-04-04T2100,24,29,0.4,10,1,131,119,41,
威海市,文登开发区,122.0693,37.2174,2025-04-04T2100,22,33,0.6,15,4,115,118,36,
威海市,临港区管委会,122.1379,37.3414,2025-04-04T2100,14,34,0.2,9,6,117,115,37,
潍坊市,环保局,119.1437,36.7023,2025-04-04T2100,48,95,0.8,35,12,75,107,73,颗粒物(PM10)
潍坊市,坊子邮政,119.1641,36.6523,2025-04-04T2100,53,100,0.9,33,9,74,103,75,颗粒物(PM10)
潍坊市,潍坊七中,119.0587,36.721,2025-04-04T2100,60,95,1.0,34,9,64,111,82,细颗粒物(PM2.5)
潍坊市,高新实验学校,119.1977,36.6872,2025-04-04T2100,46,95,0.9,28,15,84,108,73,颗粒物(PM10)
潍坊市,潍坊学院,119.1755,36.7149,2025-04-04T2100,51,102,1.0,35,10,80,102,76,颗粒物(PM10)
潍坊市,寒亭区实验一小,119.2041,36.7699,2025-04-04T2100,51,97,0.7,35,8,72,106,74,颗粒物(PM10)
渭南市,农科所,109.5293,34.5101,2025-04-04T2100,,,,,,,,,
渭南市,体育馆,109.4636,34.493,2025-04-04T2100,42,151,0.4,30,4,68,110,101,颗粒物(PM10)
渭南市,高新一小,109.4259,34.5023,2025-04-04T2100,53,116,0.4,28,5,70,107,83,颗粒物(PM10)
渭南市,渭花路4号,109.5051,34.4921,2025-04-04T2100,60,158,0.4,28,4,59,106,104,颗粒物(PM10)
温州市,瓯海,120.634,28.0089,2025-04-04T2100,18,30,0.4,20,7,110,132,35,
温州市,南浦,120.6748,27.9939,2025-04-04T2100,16,31,0.4,27,6,101,140,32,
温州市,龙湾,120.76,27.9747,2025-04-04T2100,10,24,0.3,27,5,96,135,30,
温州市,市站,120.6709,28.0167,2025-04-04T2100,3,44,0.5,20,4,100,131,44,
温州市,茶山,120.6985,27.9251,2025-04-04T2100,14,32,0.3,25,7,95,127,32,
文山壮族苗族自治州,州水务局,104.2533,23.3594,2025-04-04T2100,91,107,0.7,17,11,111,139,120,细颗粒物(PM2.5)
文山壮族苗族自治州,市便民服务中心,104.2319,23.3892,2025-04-04T2100,86,97,0.9,15,11,103,125,114,细颗粒物(PM2.5)
乌海市,市林业局,106.8174,39.6973,2025-04-04T2100,20,32,0.7,20,9,76,101,32,
乌海市,中海勃湾学校,106.7907,39.6667,2025-04-04T2100,9,22,0.3,11,8,86,100,27,
乌海市,海北新区,106.813,39.7274,2025-04-04T2100,6,50,0.2,34,11,54,99,50,
乌海市,聚英学校,106.8288,39.6778,2025-04-04T2100,12,15,0.5,14,12,77,100,25,
乌兰察布市,集宁新区,113.1306,40.9923,2025-04-04T2100,15,24,0.2,2,7,89,92,28,
乌兰察布市,光明街小学,113.1076,41.0385,2025-04-04T2100,22,,0.3,6,10,77,88,32,
乌兰察布市,北京八中,113.1376,40.9509,2025-04-04T2100,6,28,0.3,4,11,88,94,28,
乌兰察布市,市委党校,113.1775,40.9779,2025-04-04T2100,16,29,0.1,2,9,92,96,29,
乌鲁木齐市,监测站,87.5801,43.8303,2025-04-04T2100,7,63,0.4,47,3,85,112,57,颗粒物(PM10)
乌鲁木齐市,收费所,87.6046,43.768,2025-04-04T2100,20,56,0.3,1,2,104,106,53,颗粒物(PM10)
乌鲁木齐市,新疆农科院农场,87.4754,43.9469,2025-04-04T2100,12,43,0.5,16,8,93,109,43,
乌鲁木齐市,铁路局,87.5525,43.8711,2025-04-04T2100,14,57,0.3,31,3,98,117,54,颗粒物(PM10)
乌鲁木齐市,三十一中学,87.6432,43.831,2025-04-04T2100,23,54,0.5,11,8,107,112,52,颗粒物(PM10)
乌鲁木齐市,米东区环保局,87.7216,44.1747,2025-04-04T2100,14,33,0.2,2,8,84,112,33,
乌鲁木齐市,培训基地,87.4651,43.4569,2025-04-04T2100,,56,0.4,17,3,92,115,,
乌鲁木齐市,达坂城区环保局,88.3118,43.3658,2025-04-04T2100,22,71,0.2,16,7,98,106,61,颗粒物(PM10)
乌鲁木齐市,红光山片区,87.6162,43.8801,2025-04-04T2100,27,60,0.3,26,,94,108,,
乌鲁木齐市,新师大温泉校区,87.7024,43.8004,2025-04-04T2100,13,57,0.1,1,2,119,118,54,颗粒物(PM10)
