area,positionname,longitude,latitude,timepoint,pm2_5,pm10,co,no2,so2,o3,o3_8h,aqi,primarypollutant
重庆市,鱼新街,106.5093,29.3917,2025-12-09T2100,82,120,0.9,50,6,6,8,109,细颗粒物(PM2.5)
重庆市,歇台子,106.4958,29.5346,2025-12-09T2100,91,114,1.2,59,7,0,3,120,细颗粒物(PM2.5)
重庆市,龙井湾,106.4037,29.5728,2025-12-09T2100,97,126,1.5,60,7,4,10,128,细颗粒物(PM2.5)
重庆市,龙洲湾,106.5507,29.4153,2025-12-09T2100,79,114,0.9,49,5,4,10,105,细颗粒物(PM2.5)
重庆市,上清寺,106.5468,29.5654,2025-12-09T2100,77,126,1.0,58,8,1,4,103,细颗粒物(PM2.5)
重庆市,安康,108.3872,31.1628,2025-12-09T2100,68,79,0.9,35,6,1,26,92,细颗粒物(PM2.5)
重庆市,北山路,105.9017,29.3569,2025-12-09T2100,124,140,1.2,44,6,8,15,163,细颗粒物(PM2.5)
重庆市,滩子口,106.6479,29.0244,2025-12-09T2100,96,130,0.9,40,11,16,38,127,细颗粒物(PM2.5)
重庆市,棠香,105.7167,29.7076,2025-12-09T2100,94,110,0.9,16,2,30,29,124,细颗粒物(PM2.5)
重庆市,桃源西路,107.0732,29.8617,2025-12-09T2100,136,156,1.1,42,6,0,4,180,细颗粒物(PM2.5)
重庆市,迎宾大道,107.3535,29.7287,2025-12-09T2100,112,,1.5,33,10,7,8,147,细颗粒物(PM2.5)
重庆市,舟白,108.815,29.5081,2025-12-09T2100,82,112,0.7,13,4,71,68,109,细颗粒物(PM2.5)
重庆市,周家坝,108.3679,30.8426,2025-12-09T2100,84,110,1.1,65,2,2,14,112,细颗粒物(PM2.5)
重庆市,百安坝,108.4319,30.7555,2025-12-09T2100,100,101,0.7,27,6,34,47,132,细颗粒物(PM2.5)
重庆市,芙蓉中路,107.7541,29.3277,2025-12-09T2100,49,84,0.7,34,5,14,13,68,细颗粒物(PM2.5)
重庆市,西山,108.7661,29.5368,2025-12-09T2100,56,90,0.6,19,4,63,71,77,细颗粒物(PM2.5)
重庆市,行政中心,106.2628,29.32,2025-12-09T2100,115,128,1.3,58,5,0,15,150,细颗粒物(PM2.5)
重庆市,书院路,106.2649,29.9851,2025-12-09T2100,131,141,0.9,33,6,2,6,173,细颗粒物(PM2.5)
重庆市,虎峰,106.2339,29.5559,2025-12-09T2100,111,134,1.1,48,8,0,7,145,细颗粒物(PM2.5)
重庆市,龙门街,106.0499,29.8342,2025-12-09T2100,118,140,1.0,31,13,6,14,155,细颗粒物(PM2.5)
重庆市,昌元,105.5933,29.4105,2025-12-09T2100,94,130,0.8,34,9,14,19,124,细颗粒物(PM2.5)
重庆市,双山路147号,106.4686,29.4893,2025-12-09T2100,110,143,,66,4,1,4,144,细颗粒物(PM2.5)
重庆市,桃园路24号,105.8340,30.1886,2025-12-09T2100,109,135,0.8,,8,6,12,143,细颗粒物(PM2.5)
重庆市,钟楼街32号,107.0910,29.1540,2025-12-09T2100,91,110,1.1,42,6,2,20,120,细颗粒物(PM2.5)
重庆市,人民南路309号,107.8043,30.6735,2025-12-09T2100,83,111,,35,4,,27,110,细颗粒物(PM2.5)
舟山市,定海檀枫,122.122,30.0203,2025-12-09T2100,9,25,0.4,15,6,66,82,25,
阿克苏地区,电视台,80.292,41.1694,2025-12-09T2100,97,192,1.1,89,10,23,72,128,细颗粒物(PM2.5)
阿克苏地区,艺术中心,80.2613,41.1551,2025-12-09T2100,98,,1.4,97,7,6,71,129,细颗粒物(PM2.5)
阿拉善盟,蒙二幼,105.6985,38.8411,2025-12-09T2100,35,61,0.7,18,11,67,87,56,颗粒物(PM10)
阿拉善盟,环保局新楼,105.724,38.8516,2025-12-09T2100,33,47,0.8,11,11,72,88,48,
阿勒泰地区,市站,88.1264,47.8517,2025-12-09T2100,14,18,0.5,47,2,22,59,24,
阿里地区,阿里监测站,80.1161,32.5,2025-12-09T2100,3,6,1.1,44,18,38,85,22,
阿里地区,阿里藏医院,80.0903,32.5028,2025-12-09T2100,3,16,0.5,8,9,70,85,22,
安康市,汉滨区检察院,109.0072,32.6975,2025-12-09T2100,48,104,1.0,46,4,24,63,77,颗粒物(PM10)
安康市,市邮政管理局,109.0325,32.6913,2025-12-09T2100,84,140,2.0,,7,6,68,112,细颗粒物(PM2.5)
安庆市,环科院,117.0809,30.5177,2025-12-09T2100,73,120,0.8,42,7,75,101,98,细颗粒物(PM2.5)
安庆市,马山宾馆,117.0331,30.5119,2025-12-09T2100,85,119,1.1,50,7,68,101,113,细颗粒物(PM2.5)
安庆市,安庆大学,116.9896,30.6145,2025-12-09T2100,94,158,0.8,66,7,33,94,124,细颗粒物(PM2.5)
安庆市,市人大,117.0598,30.5351,2025-12-09T2100,81,127,0.7,55,7,63,105,108,细颗粒物(PM2.5)
安顺市,凤凰山,105.9408,26.2431,2025-12-09T2100,24,31,0.3,11,12,75,76,35,
安顺市,金钟山,105.9439,26.2564,2025-12-09T2100,24,34,0.7,9,16,72,76,35,
安顺市,娄家坡,105.8983,26.2481,2025-12-09T2100,24,28,0.6,8,9,76,74,35,
安阳市,红庙街,114.3551,36.1017,2025-12-09T2100,93,137,0.6,51,7,52,69,123,细颗粒物(PM2.5)
安阳市,银杏小区,114.361,36.0681,2025-12-09T2100,104,146,0.5,42,6,51,70,137,细颗粒物(PM2.5)
安阳市,信访局,114.3922,36.0878,2025-12-09T2100,98,144,0.5,52,5,51,74,129,细颗粒物(PM2.5)
安阳市,左辅环卫站,114.4705,36.0637,2025-12-09T2100,116,194,0.7,48,3,35,71,152,细颗粒物(PM2.5)
安阳市,安钢职工学校,114.2917,36.0949,2025-12-09T2100,102,167,0.7,44,7,57,66,134,细颗粒物(PM2.5)
鞍山市,深沟寺,123.044,41.1196,2025-12-09T2100,64,100,1.1,62,10,9,43,87,细颗粒物(PM2.5)
鞍山市,太阳城,123.011,41.0931,2025-12-09T2100,66,100,1.1,65,14,7,46,89,细颗粒物(PM2.5)
鞍山市,太平,123.0485,41.1442,2025-12-09T2100,142,222,1.9,73,19,7,38,189,细颗粒物(PM2.5)
鞍山市,铁西三道街,122.9642,41.0971,2025-12-09T2100,99,166,1.5,73,16,13,38,130,细颗粒物(PM2.5)
鞍山市,明达新区,123.022,41.0821,2025-12-09T2100,62,92,1.1,38,13,9,45,84,细颗粒物(PM2.5)
鞍山市,兴盛南路290号,122.9446,41.0826,2025-12-09T2100,233,309,3.8,81,32,7,36,283,细颗粒物(PM2.5)
巴彦淖尔市,附二中,107.4212,40.761,2025-12-09T2100,67,114,1.5,67,17,2,25,90,细颗粒物(PM2.5)
巴彦淖尔市,市环保大楼,107.37,40.7372,2025-12-09T2100,70,125,1.4,68,7,4,31,94,细颗粒物(PM2.5)
巴音郭楞蒙古自治州,孔雀公园,86.1472,41.7538,2025-12-09T2100,57,135,1.0,66,11,25,62,93,颗粒物(PM10)
巴音郭楞蒙古自治州,棉纺厂,86.1972,41.7166,2025-12-09T2100,34,147,0.8,49,8,38,63,99,颗粒物(PM10)
巴音郭楞蒙古自治州,经济开发区,86.2357,41.7173,2025-12-09T2100,33,112,0.7,47,9,38,63,81,颗粒物(PM10)
巴中市,市五中,106.7768,31.8526,2025-12-09T2100,86,122,1.3,31,6,2,4,114,细颗粒物(PM2.5)
巴中市,圣泉水务公司,106.7418,31.8654,2025-12-09T2100,76,98,1.2,29,6,1,4,102,细颗粒物(PM2.5)
巴中市,市中心医院,106.7616,31.8344,2025-12-09T2100,102,123,1.7,30,6,1,3,134,细颗粒物(PM2.5)
白城市,洮北区环保局,122.7911,45.6077,2025-12-09T2100,24,56,0.2,21,10,34,48,53,颗粒物(PM10)
白城市,市环保局,122.8738,45.5725,2025-12-09T2100,18,29,0.4,16,5,27,41,29,
白山市,喜丰,126.4219,41.9171,2025-12-09T2100,46,103,0.9,59,14,5,55,77,颗粒物(PM10)
白山市,环保局,126.4077,41.9419,2025-12-09T2100,36,57,1.2,39,10,10,44,54,颗粒物(PM10)
白银市,第三小学,104.1724,36.5446,2025-12-09T2100,93,126,1.6,90,26,12,66,123,细颗粒物(PM2.5)
白银市,动力公司,104.1465,36.5482,2025-12-09T2100,95,128,1.5,80,17,14,82,125,细颗粒物(PM2.5)
百色市,市监测站,106.6103,23.9011,2025-12-09T2100,52,72,1.0,25,7,38,74,72,细颗粒物(PM2.5)
百色市,市中心血站,106.6538,23.8859,2025-12-09T2100,68,119,1.2,62,9,16,88,92,细颗粒物(PM2.5)
百色市,祈福高中,106.6085,23.8798,2025-12-09T2100,66,101,0.9,59,6,10,60,89,细颗粒物(PM2.5)
蚌埠市,工人疗养院,117.396,32.939,2025-12-09T2100,49,120,0.5,43,7,42,80,85,颗粒物(PM10)
蚌埠市,百货大楼,117.3605,32.9427,2025-12-09T2100,47,107,0.5,50,7,38,78,79,颗粒物(PM10)
蚌埠市,蚌埠学院,117.4185,32.8911,2025-12-09T2100,70,129,0.5,92,13,4,82,94,细颗粒物(PM2.5)
蚌埠市,淮上区政府,117.3533,32.9673,2025-12-09T2100,61,134,0.5,69,9,24,84,92,颗粒物(PM10)
蚌埠市,高新区,117.3145,32.8977,2025-12-09T2100,52,114,0.6,70,12,26,81,82,颗粒物(PM10)
蚌埠市,蚌埠田家炳中学,117.3092,32.9314,2025-12-09T2100,57,126,0.6,52,6,41,84,88,颗粒物(PM10)
包头市,市环境监测站,109.8756,40.6532,2025-12-09T2100,50,117,2.2,86,24,3,19,84,颗粒物(PM10)
包头市,包头八中,109.9991,40.5842,2025-12-09T2100,68,128,1.6,78,18,4,31,92,细颗粒物(PM2.5)
包头市,青山宾馆,109.8538,40.6821,2025-12-09T2100,99,159,2.5,88,21,6,24,130,细颗粒物(PM2.5)
包头市,惠龙物流,109.8642,40.6288,2025-12-09T2100,55,109,2.7,84,27,3,28,80,颗粒物(PM10)
包头市,东河鸿龙湾,110.0377,40.5546,2025-12-09T2100,102,202,2.8,96,25,10,32,134,细颗粒物(PM2.5)
包头市,滨河大厦,109.9154,40.5685,2025-12-09T2100,70,108,1.7,81,22,,34,,
阿坝藏族羌族自治州,马师校,102.2502,31.8896,2025-12-09T2100,31,37,0.7,29,6,19,42,45,
阿坝藏族羌族自治州,马尔康中学西区,102.2165,31.9024,2025-12-09T2100,29,41,0.9,41,6,16,56,42,
包头市,包头市委党校,109.9447,40.6261,2025-12-09T2100,58,116,1.9,81,23,3,32,83,颗粒物(PM10)
包头市,昆区政府,109.8331,40.6576,2025-12-09T2100,72,155,2.4,101,26,4,26,103,颗粒物(PM10)
宝鸡市,竹园沟,107.0708,34.3017,2025-12-09T2100,81,108,0.6,34,9,30,53,108,细颗粒物(PM2.5)
宝鸡市,三陆医院,107.1906,34.3672,2025-12-09T2100,115,162,1.0,70,10,19,52,150,细颗粒物(PM2.5)
宝鸡市,监测站,107.1431,34.3547,2025-12-09T2100,113,150,0.8,49,9,28,53,148,细颗粒物(PM2.5)
宝鸡市,技工学校,107.1186,34.3739,2025-12-09T2100,104,160,0.8,46,9,33,58,137,细颗粒物(PM2.5)
宝鸡市,文理学院,107.2058,34.3497,2025-12-09T2100,101,133,1.0,63,10,25,55,133,细颗粒物(PM2.5)
宝鸡市,三迪小学,107.2386,34.3622,2025-12-09T2100,112,166,1.0,74,10,24,56,147,细颗粒物(PM2.5)
宝鸡市,陈仓区北开路21号,107.3898,34.3601,2025-12-09T2100,144,188,1.0,65,12,19,52,192,细颗粒物(PM2.5)
保定市,游泳馆,115.493,38.8632,2025-12-09T2100,75,127,1.0,82,7,5,28,100,细颗粒物(PM2.5)
保定市,华电二区,115.5213,38.8959,2025-12-09T2100,59,84,0.5,75,5,1,23,80,细颗粒物(PM2.5)
保定市,接待中心,115.4713,38.9108,2025-12-09T2100,67,115,1.2,73,2,4,27,90,细颗粒物(PM2.5)
保定市,地表水厂,115.4612,38.8416,2025-12-09T2100,81,142,0.6,87,7,12,40,108,细颗粒物(PM2.5)
保定市,满城区生态环境分局,115.31981,38.95208,2025-12-09T2100,83,151,0.9,79,5,5,32,110,细颗粒物(PM2.5)
保定市,清苑区第二中学,115.47694,38.76408,2025-12-09T2100,78,154,0.7,86,7,1,26,104,细颗粒物(PM2.5)
保定市,徐水物探局,115.62909,39.02311,2025-12-09T2100,73,138,0.9,72,9,6,22,98,细颗粒物(PM2.5)
保定市,双鹰农机,115.4202,38.8656,2025-12-09T2100,58,138,0.9,72,5,8,37,94,颗粒物(PM10)
保定市,植保所站,115.5150,38.8590,2025-12-09T2100,69,124,1.3,86,4,0,18,93,细颗粒物(PM2.5)
保山市,市环境监测站,99.1678,25.1081,2025-12-09T2100,22,,0.4,8,7,53,76,32,
保山市,市环保局,99.1711,25.1328,2025-12-09T2100,24,26,0.4,3,4,63,78,35,
北海市,海滩公园,109.1436,21.4086,2025-12-09T2100,37,56,0.9,11,8,145,154,53,"颗粒物(PM10),细颗粒物(PM2.5)"
北海市,新市环保局,109.0981,21.4661,2025-12-09T2100,46,66,0.9,28,10,126,147,64,细颗粒物(PM2.5)
北海市,北海工业园,109.1778,21.5233,2025-12-09T2100,54,77,1.0,44,6,78,133,74,细颗粒物(PM2.5)
北海市,龙潭自来水厂,109.1911,21.4415,2025-12-09T2100,51,61,1.0,15,6,100,143,70,细颗粒物(PM2.5)
北京市,万寿西宫,116.3621,39.8784,2025-12-09T2100,64,114,0.9,88,5,1,30,87,细颗粒物(PM2.5)
北京市,东四,116.4174,39.9289,2025-12-09T2100,61,105,0.9,79,7,4,29,83,细颗粒物(PM2.5)
北京市,天坛,116.4072,39.8863,2025-12-09T2100,51,85,0.8,60,1,3,27,70,细颗粒物(PM2.5)
佛山市,三水云东海,112.867,23.185,2025-12-09T2100,41,65,0.9,66,5,52,123,58,"颗粒物(PM10),细颗粒物(PM2.5)"
佛山市,容桂街道办,113.2544,22.7642,2025-12-09T2100,63,102,0.9,65,8,83,136,85,细颗粒物(PM2.5)
福州市,师大,119.2681,26.0504,2025-12-09T2100,6,41,0.3,13,6,83,98,41,
福州市,五四北路,119.2984,26.1028,2025-12-09T2100,7,42,0.3,15,4,83,109,42,
福州市,杨桥西路,119.2648,26.0768,2025-12-09T2100,6,42,0.3,12,4,85,97,42,
福州市,紫阳,119.317,26.0746,2025-12-09T2100,6,43,0.3,13,7,85,112,43,
福州市,九龙,119.5799,26.0936,2025-12-09T2100,7,40,0.3,17,4,73,106,40,
福州市,吴航,119.5189,25.9664,2025-12-09T2100,11,35,0.3,11,7,82,106,35,
抚顺市,望花区,123.7977,41.8491,2025-12-09T2100,128,157,1.7,55,11,7,42,169,细颗粒物(PM2.5)
抚顺市,顺城区,123.9161,41.8822,2025-12-09T2100,112,161,1.7,56,15,8,39,147,细颗粒物(PM2.5)
抚顺市,东洲区,124.0436,41.8611,2025-12-09T2100,113,140,1.5,54,10,8,37,148,细颗粒物(PM2.5)
抚顺市,新抚区,123.9247,41.8642,2025-12-09T2100,120,142,1.7,50,8,5,34,158,细颗粒物(PM2.5)
抚顺市,大伙房水库,124.0972,41.8961,2025-12-09T2100,57,103,1.1,61,11,9,52,78,细颗粒物(PM2.5)
抚顺市,沈抚新城,123.7086,41.8391,2025-12-09T2100,100,106,1.2,56,9,16,44,132,细颗粒物(PM2.5)
抚州市,市站,116.3544,27.9831,2025-12-09T2100,65,96,1.3,24,9,99,132,88,细颗粒物(PM2.5)
抚州市,血防站,116.3565,27.963,2025-12-09T2100,62,97,0.9,24,9,103,131,84,细颗粒物(PM2.5)
抚州市,采茶剧团,116.3564,28.0007,2025-12-09T2100,68,98,1.4,16,10,90,118,92,细颗粒物(PM2.5)
抚州市,医学分院,116.385,27.9647,2025-12-09T2100,65,112,1.1,19,8,85,131,88,细颗粒物(PM2.5)
阜新市,工业园区,121.6094,41.998,2025-12-09T2100,113,173,1.4,60,24,9,58,148,细颗粒物(PM2.5)
阜新市,长青街,121.6697,42.0279,2025-12-09T2100,74,83,0.8,56,18,5,53,99,细颗粒物(PM2.5)
阜新市,农业园区,121.6673,42.0705,2025-12-09T2100,34,52,0.4,19,16,41,53,51,颗粒物(PM10)
阜新市,东苑,121.6717,42.0224,2025-12-09T2100,45,104,0.9,49,20,12,51,77,颗粒物(PM10)
阜新市,玉龙新城,121.6506,42.0498,2025-12-09T2100,46,102,0.9,58,12,3,54,76,颗粒物(PM10)
阜阳市,市监测站,115.8277,32.8929,2025-12-09T2100,57,126,0.7,60,6,25,84,88,颗粒物(PM10)
阜阳市,开发区,115.8554,32.8605,2025-12-09T2100,53,121,0.8,51,8,37,92,86,颗粒物(PM10)
阜阳市,阜阳职业技术学院,115.784,32.8892,2025-12-09T2100,66,100,0.9,43,8,47,96,89,细颗粒物(PM2.5)
阜阳市,市规划展馆,115.7901,32.8613,2025-12-09T2100,41,96,0.7,41,10,53,96,73,颗粒物(PM10)
阜阳市,枣园社区,115.836,32.9183,2025-12-09T2100,52,108,0.9,68,6,25,88,79,颗粒物(PM10)
济南市,省种子仓库,117.0624,36.6868,2025-12-09T2100,66,149,1.0,79,6,22,80,100,颗粒物(PM10)
济南市,机床二厂,116.9489,36.6447,2025-12-09T2100,78,132,0.8,70,29,41,75,104,细颗粒物(PM2.5)
济南市,市监测站,117.0495,36.663,2025-12-09T2100,61,110,0.8,60,4,34,83,83,细颗粒物(PM2.5)
济南市,长清党校,116.7675,36.5484,2025-12-09T2100,51,107,0.8,33,8,74,74,79,颗粒物(PM10)
济南市,技术学院,117.6795,36.229,2025-12-09T2100,102,166,1.0,100,17,3,70,134,细颗粒物(PM2.5)
济南市,东山小学,117.532,36.6868,2025-12-09T2100,129,,0.8,58,8,42,89,170,细颗粒物(PM2.5)
济南市,泰兴公司,117.7161,36.2049,2025-12-09T2100,107,180,1.2,92,16,6,80,140,细颗粒物(PM2.5)
济南市,莱芜战役纪念馆,117.6867,36.2171,2025-12-09T2100,105,173,1.0,95,28,6,74,138,细颗粒物(PM2.5)
济南市,济阳区政府,117.1673,36.9782,2025-12-09T2100,66,149,0.8,88,12,25,77,100,颗粒物(PM10)
济南市,锦屏中学,117.1171,36.63,2025-12-09T2100,54,100,0.8,36,5,47,94,75,颗粒物(PM10)
济南市,济南四建,116.9814,36.6819,2025-12-09T2100,66,114,1.0,42,14,57,76,89,细颗粒物(PM2.5)
济宁市,火炬城,116.6251,35.4302,2025-12-09T2100,92,155,0.5,40,10,47,70,122,细颗粒物(PM2.5)
济宁市,电化厂,116.5491,35.4042,2025-12-09T2100,70,154,0.4,40,9,53,71,102,颗粒物(PM10)
济宁市,北湖一中,116.5814,35.3707,2025-12-09T2100,75,110,0.7,38,10,52,70,100,细颗粒物(PM2.5)
济宁市,服务中心,116.8249,35.5593,2025-12-09T2100,73,146,0.6,50,13,26,76,98,"颗粒物(PM10),细颗粒物(PM2.5)"
济宁市,市第七中学,116.5907,35.4054,2025-12-09T2100,83,140,0.7,50,12,47,73,110,细颗粒物(PM2.5)
佳木斯市,佳纺,130.2751,46.8028,2025-12-09T2100,29,72,0.4,51,3,14,48,61,颗粒物(PM10)
佳木斯市,发电厂,130.3995,46.8307,2025-12-09T2100,31,42,0.5,20,4,42,52,45,
佳木斯市,环保局,130.3258,46.7975,2025-12-09T2100,24,34,0.4,23,3,41,49,35,
佳木斯市,十一中,130.3648,46.8032,2025-12-09T2100,27,33,0.6,18,5,46,49,39,
嘉兴市,清河小学,120.7436,30.778,2025-12-09T2100,17,52,0.3,29,6,51,88,51,颗粒物(PM10)
嘉兴市,嘉兴学院,120.726,30.7478,2025-12-09T2100,21,57,0.5,30,7,54,91,54,颗粒物(PM10)
嘉兴市,南湖区残联,120.7846,30.7525,2025-12-09T2100,16,46,0.4,31,4,52,92,46,
嘉兴市,秀洲住建,120.6916,30.7739,2025-12-09T2100,16,47,0.3,30,8,54,95,47,
嘉峪关市,气象局,98.2908,39.7711,2025-12-09T2100,36,224,0.5,3,8,82,68,137,颗粒物(PM10)
嘉峪关市,酒钢宾馆,98.2672,39.7978,2025-12-09T2100,29,227,0.3,2,11,85,72,139,颗粒物(PM10)
嘉峪关市,雄关区,98.2643,39.7724,2025-12-09T2100,41,175,0.6,10,12,82,71,113,颗粒物(PM10)
江门市,北街,113.1064,22.6058,2025-12-09T2100,58,85,1.1,55,7,89,151,79,细颗粒物(PM2.5)
绵阳市,西科大附属小学,104.69,31.5322,2025-12-09T2100,74,107,0.9,46,8,5,22,99,细颗粒物(PM2.5)
绵阳市,安州区旅游局,104.5648,31.5343,2025-12-09T2100,75,80,0.8,28,9,27,34,100,细颗粒物(PM2.5)
绵阳市,绵阳市气象局,104.7651,31.4531,2025-12-09T2100,66,98,0.7,33,8,8,23,89,细颗粒物(PM2.5)
牡丹江市,环保大楼,129.61,44.561,2025-12-09T2100,23,36,0.3,19,7,35,51,36,
牡丹江市,文化广场,129.6115,44.5782,2025-12-09T2100,32,32,0.4,19,5,36,52,46,
牡丹江市,第一医院,129.5904,44.5963,2025-12-09T2100,28,53,0.7,43,8,11,54,52,颗粒物(PM10)
牡丹江市,机车工厂,129.6364,44.6075,2025-12-09T2100,29,54,0.5,32,51,20,54,52,颗粒物(PM10)
牡丹江市,第一中学,129.6386,44.5462,2025-12-09T2100,35,38,0.3,12,4,38,52,50,
内江市,市监测站,105.0703,29.61,2025-12-09T2100,93,96,1.0,14,6,44,58,123,细颗粒物(PM2.5)
内江市,东兴区政府,105.0717,29.5947,2025-12-09T2100,96,102,0.7,27,5,25,40,127,细颗粒物(PM2.5)
内江市,内江二中,105.0653,29.5817,2025-12-09T2100,96,116,1.0,26,6,28,41,127,细颗粒物(PM2.5)
内江市,内江日报社,105.0406,29.5822,2025-12-09T2100,82,118,0.8,34,6,26,42,109,细颗粒物(PM2.5)
那曲市,那曲监测站,92.0657,31.4846,2025-12-09T2100,14,19,0.7,11,6,80,80,25,
那曲市,那曲市委宣传部,92.0515,31.4787,2025-12-09T2100,6,14,0.4,2,2,79,86,25,
南昌市,省外办,115.8931,28.6843,2025-12-09T2100,78,103,1.2,29,8,72,113,104,细颗粒物(PM2.5)
南昌市,省林业公司,115.8886,28.7003,2025-12-09T2100,78,132,0.9,90,6,37,118,104,细颗粒物(PM2.5)
南昌市,林科所,115.8126,28.7442,2025-12-09T2100,56,83,0.6,25,6,92,118,77,细颗粒物(PM2.5)
南昌市,建工学校,115.8518,28.687,2025-12-09T2100,75,130,1.2,64,12,66,114,100,细颗粒物(PM2.5)
南昌市,象湖,115.8921,28.6424,2025-12-09T2100,85,108,1.0,75,10,49,121,113,细颗粒物(PM2.5)
南昌市,机电学校,115.9084,28.6062,2025-12-09T2100,70,119,1.0,77,10,51,122,94,细颗粒物(PM2.5)
南昌市,外国语学校,115.9721,28.7031,2025-12-09T2100,78,112,0.8,54,11,66,121,104,细颗粒物(PM2.5)
南昌市,南京东路235号,115.9316,28.68677,2025-12-09T2100,77,125,0.7,42,6,88,132,103,细颗粒物(PM2.5)
南充市,南充市委,106.0789,30.8023,2025-12-09T2100,111,130,1.0,36,4,3,6,145,细颗粒物(PM2.5)
南充市,南充炼油厂,106.1031,30.8217,2025-12-09T2100,107,125,0.9,21,6,9,11,140,细颗粒物(PM2.5)
南充市,梨树横街98号,106.1083,30.7884,2025-12-09T2100,99,129,0.8,28,6,9,10,130,细颗粒物(PM2.5)
南充市,清泉寺北路188号,106.1172,30.843,2025-12-09T2100,89,99,0.8,23,5,14,10,118,细颗粒物(PM2.5)
南充市,同庆路1号,106.067,30.7616,2025-12-09T2100,102,116,1.0,31,6,4,5,134,细颗粒物(PM2.5)
石河子市,世纪广场,86.0791,44.3017,2025-12-09T2100,49,57,1.2,16,12,38,39,68,细颗粒物(PM2.5)
石家庄市,职工医院,114.4422,38.0444,2025-12-09T2100,82,150,1.1,74,11,6,31,109,细颗粒物(PM2.5)
石家庄市,高新区,114.6063,38.0266,2025-12-09T2100,85,142,0.8,74,11,7,27,113,细颗粒物(PM2.5)
石家庄市,西北水源,114.4898,38.1328,2025-12-09T2100,92,166,1.0,74,7,4,32,122,细颗粒物(PM2.5)
石家庄市,西南高教,114.4586,38.0058,2025-12-09T2100,78,162,1.0,80,4,5,27,106,颗粒物(PM10)
石家庄市,世纪公园,114.5331,38.0178,2025-12-09T2100,76,122,0.8,75,10,5,33,102,细颗粒物(PM2.5)
石家庄市,人民会堂,114.509,38.0457,2025-12-09T2100,80,122,0.8,76,6,5,32,107,细颗粒物(PM2.5)
石家庄市,22中南校区,114.5481,38.0378,2025-12-09T2100,81,126,0.9,77,8,8,34,108,细颗粒物(PM2.5)
石家庄市,鹿泉一中,114.289,38.0906,2025-12-09T2100,48,121,0.8,61,4,3,25,86,颗粒物(PM10)
石家庄市,藁城区实验学校,114.8506765,38.0322033,2025-12-09T2100,93,180,1.0,100,10,8,37,123,细颗粒物(PM2.5)
石家庄市,栾城区星河路,114.6549,37.9020,2025-12-09T2100,107,171,0.9,84,15,17,42,140,细颗粒物(PM2.5)
石家庄市,矿区区委大楼,114.0494,38.059,2025-12-09T2100,52,114,1.1,67,18,4,23,82,颗粒物(PM10)
石嘴山市,大武口朝阳西街,106.3668,39.0145,2025-12-09T2100,77,158,2.0,88,96,20,46,104,颗粒物(PM10)
石嘴山市,惠农南大街,106.7704,39.2282,2025-12-09T2100,78,154,1.4,73,28,9,43,104,细颗粒物(PM2.5)
石嘴山市,红果子镇惠新街,106.7099,39.1325,2025-12-09T2100,116,130,2.0,85,35,4,45,152,细颗粒物(PM2.5)
石嘴山市,妇女儿童医院,106.3495,38.9836,2025-12-09T2100,92,205,2.2,75,65,14,46,128,颗粒物(PM10)
石嘴山市,石大公路,106.7492,39.2069,2025-12-09T2100,81,175,1.5,77,27,19,54,113,颗粒物(PM10)
双鸭山市,双合村,131.1511,46.6937,2025-12-09T2100,36,36,0.9,19,27,41,51,52,细颗粒物(PM2.5)
双鸭山市,南小市,131.1652,46.6191,2025-12-09T2100,28,,0.4,14,4,49,50,40,
双鸭山市,环保局,131.1524,46.6554,2025-12-09T2100,21,44,0.5,18,21,45,54,44,
朔州市,平朔,112.4397,39.3522,2025-12-09T2100,45,122,0.5,50,11,16,75,86,颗粒物(PM10)
朔州市,朔唯,112.4575,39.3617,2025-12-09T2100,36,111,0.5,61,15,9,71,81,颗粒物(PM10)
朔州市,区政府,112.4258,39.3197,2025-12-09T2100,,,0.5,41,13,35,89,,
朔州市,市环保局,112.4072,39.3278,2025-12-09T2100,56,116,0.7,51,10,29,77,83,颗粒物(PM10)
朔州市,市二中,112.4272,39.3681,2025-12-09T2100,44,126,0.7,54,12,12,81,88,颗粒物(PM10)
朔州市,一水厂,112.2931,39.53,2025-12-09T2100,48,90,1.1,78,28,5,79,70,颗粒物(PM10)
四平市,一商场,124.4002,43.1713,2025-12-09T2100,94,157,0.7,58,13,12,50,124,细颗粒物(PM2.5)
咸阳市,奥体中心,108.6396,34.4078,2025-12-09T2100,110,190,1.2,56,10,24,52,144,细颗粒物(PM2.5)
湘潭市,板塘,112.9433,27.8614,2025-12-09T2100,110,156,1.0,105,5,6,105,144,细颗粒物(PM2.5)
湘潭市,市监测站,112.9118,27.8403,2025-12-09T2100,125,154,1.6,100,7,23,121,165,细颗粒物(PM2.5)
湘潭市,江麓,112.8937,27.8728,2025-12-09T2100,116,147,1.6,64,18,36,116,152,细颗粒物(PM2.5)
湘潭市,岳塘,112.9227,27.8159,2025-12-09T2100,128,183,1.8,118,15,0,105,169,细颗粒物(PM2.5)
湘潭市,科大,112.9074,27.9119,2025-12-09T2100,114,144,1.0,107,7,13,119,149,细颗粒物(PM2.5)
湘潭市,昭山,113.0048,27.9153,2025-12-09T2100,91,129,1.4,96,4,12,112,120,细颗粒物(PM2.5)
湘西土家族苗族自治州,州政府,109.7325,28.3169,2025-12-09T2100,50,89,0.7,21,4,55,104,70,颗粒物(PM10)
湘西土家族苗族自治州,吉首市计生局,109.6958,28.2675,2025-12-09T2100,44,81,0.7,35,7,53,100,66,颗粒物(PM10)
襄阳市,襄城运动路,112.155,32.0197,2025-12-09T2100,124,198,0.7,65,12,51,81,163,细颗粒物(PM2.5)
襄阳市,高新管委会,112.1825,32.1142,2025-12-09T2100,156,239,1.1,99,12,0,75,206,细颗粒物(PM2.5)
襄阳市,襄州航空路,112.2106,32.0903,2025-12-09T2100,149,275,1.6,112,10,4,83,199,细颗粒物(PM2.5)
襄阳市,襄城隆中路,112.0828,32.0067,2025-12-09T2100,108,186,0.7,37,13,85,94,142,细颗粒物(PM2.5)
襄阳市,高新台子湾,112.1214,32.1008,2025-12-09T2100,107,221,0.8,86,6,35,82,140,细颗粒物(PM2.5)
襄阳市,铁院东路4号,112.1433,32.0581,2025-12-09T2100,142,248,1.8,114,12,2,79,189,细颗粒物(PM2.5)
孝感市,文化路,113.9153,30.9285,2025-12-09T2100,131,180,1.6,65,11,54,124,173,细颗粒物(PM2.5)
孝感市,东城区,113.942,30.9075,2025-12-09T2100,138,185,1.5,87,10,29,112,183,细颗粒物(PM2.5)
忻州市,开发区,112.7383,38.4519,2025-12-09T2100,84,154,1.4,65,16,4,24,112,细颗粒物(PM2.5)
忻州市,会展中心,112.7003,38.4928,2025-12-09T2100,78,139,1.2,59,13,7,27,104,细颗粒物(PM2.5)
忻州市,市政府,112.7283,38.4153,2025-12-09T2100,79,147,1.3,77,16,7,29,105,细颗粒物(PM2.5)
新乡市,环保西院,113.836,35.311,2025-12-09T2100,132,237,1.9,104,13,2,46,175,细颗粒物(PM2.5)
新乡市,开发区,113.884,35.272,2025-12-09T2100,122,178,1.0,91,16,19,54,160,细颗粒物(PM2.5)
新乡市,环保东院,113.883,35.303,2025-12-09T2100,123,189,1.0,72,17,29,52,162,细颗粒物(PM2.5)
新乡市,市委党校,113.9194,35.2847,2025-12-09T2100,110,143,1.1,72,15,31,59,144,细颗粒物(PM2.5)
北京市,农展馆,116.462,39.9365,2025-12-09T2100,52,99,1.3,68,5,3,24,75,颗粒物(PM10)
北京市,官园,116.3392,39.9295,2025-12-09T2100,49,93,1.0,72,5,2,27,72,颗粒物(PM10)
北京市,海淀万柳,116.2878,39.9611,2025-12-09T2100,44,86,0.9,66,3,1,24,68,颗粒物(PM10)
北京市,顺义新城,116.6636,40.135,2025-12-09T2100,47,127,0.8,66,6,1,30,89,颗粒物(PM10)
北京市,怀柔镇,116.6275,40.3275,2025-12-09T2100,39,61,0.6,34,6,21,33,56,颗粒物(PM10)
北京市,昌平镇,116.2296,40.217,2025-12-09T2100,37,64,0.7,44,5,11,21,57,颗粒物(PM10)
北京市,奥体中心,116.3966,39.9821,2025-12-09T2100,49,94,1.2,85,6,2,28,72,颗粒物(PM10)
北京市,延庆夏都,115.9718,40.4529,2025-12-09T2100,49,89,1.0,56,2,3,24,70,颗粒物(PM10)
北京市,密云新城,116.8336,40.4095,2025-12-09T2100,44,84,0.5,50,2,5,37,67,颗粒物(PM10)
北京市,门头沟三家店,116.088,39.9726,2025-12-09T2100,66,104,0.7,45,2,3,27,89,细颗粒物(PM2.5)
北京市,丰台云岗,116.1541,39.8204,2025-12-09T2100,37,85,0.4,73,5,2,29,68,颗粒物(PM10)
北京市,通州东关,116.6804,39.9081,2025-12-09T2100,65,133,0.9,82,6,2,20,92,颗粒物(PM10)
北京市,房山燕山,115.9577,39.7603,2025-12-09T2100,36,69,0.6,48,4,11,29,60,颗粒物(PM10)
北京市,大兴旧宫,116.4672,39.7733,2025-12-09T2100,44,89,0.6,56,4,5,22,70,颗粒物(PM10)
北京市,延庆石河营,115.986,40.4563,2025-12-09T2100,32,71,0.7,56,4,2,20,61,颗粒物(PM10)
北京市,怀柔新城,116.6151,40.3053,2025-12-09T2100,35,62,0.5,30,4,23,32,56,颗粒物(PM10)
北京市,丰台小屯,116.2545,39.8768,2025-12-09T2100,50,116,1.0,79,4,2,26,83,颗粒物(PM10)
北京市,密云镇,116.84,40.3844,2025-12-09T2100,64,107,0.9,65,3,4,34,87,细颗粒物(PM2.5)
北京市,八角北路9号,116.1942,39.9158,2025-12-09T2100,54,122,0.8,67,2,7,26,86,颗粒物(PM10)
北京市,洳河巡河路,117.0790,40.1518,2025-12-09T2100,62,110,0.8,48,1,4,34,84,细颗粒物(PM2.5)
本溪市,大峪,123.8275,41.3064,2025-12-09T2100,66,108,1.8,52,11,4,30,89,细颗粒物(PM2.5)
本溪市,溪湖,123.7567,41.3325,2025-12-09T2100,96,136,1.8,59,11,4,34,127,细颗粒物(PM2.5)
本溪市,彩屯,123.7169,41.3094,2025-12-09T2100,61,92,1.4,54,10,3,36,83,细颗粒物(PM2.5)
本溪市,东明,123.7669,41.2864,2025-12-09T2100,92,101,2.0,58,11,8,36,122,细颗粒物(PM2.5)
本溪市,新立屯,123.7992,41.2664,2025-12-09T2100,39,49,1.0,48,7,4,30,55,细颗粒物(PM2.5)
本溪市,威宁,123.8142,41.3472,2025-12-09T2100,79,137,1.8,43,6,6,29,105,细颗粒物(PM2.5)
毕节市,八中,105.2864,27.3125,2025-12-09T2100,25,36,0.7,8,8,28,27,36,
毕节市,师专,105.31,27.2944,2025-12-09T2100,28,35,0.8,12,7,28,31,40,
毕节市,工业大道,105.3688,27.3598,2025-12-09T2100,20,24,0.9,9,9,35,37,29,
滨州市,第二水厂,118.0018,37.3617,2025-12-09T2100,102,163,0.9,106,24,9,61,134,细颗粒物(PM2.5)
滨州市,北中新校,117.9776,37.393,2025-12-09T2100,105,153,1.4,104,18,10,61,138,细颗粒物(PM2.5)
滨州市,中海酒店,117.9378,37.3956,2025-12-09T2100,97,139,1.2,84,16,33,64,128,细颗粒物(PM2.5)
滨州市,开发区一中,117.9378,37.3553,2025-12-09T2100,110,175,1.1,74,27,30,64,144,细颗粒物(PM2.5)
滨州市,金海六路,118.0917,37.694,2025-12-09T2100,92,168,0.8,90,20,25,59,122,细颗粒物(PM2.5)
滨州市,滨州市西街道办事处,117.9956,37.3753,2025-12-09T2100,105,166,1.2,90,22,9,56,138,细颗粒物(PM2.5)
亳州市,污水处理厂,115.8072,33.8399,2025-12-09T2100,97,136,1.0,54,36,29,73,128,细颗粒物(PM2.5)
亳州市,三国揽胜宫,115.7789,33.8518,2025-12-09T2100,78,140,0.8,50,25,31,72,104,细颗粒物(PM2.5)
亳州市,亳州学院,115.7633,33.8034,2025-12-09T2100,74,129,0.8,40,13,44,80,99,细颗粒物(PM2.5)
博尔塔拉蒙古自治州,市党校,82.0485,44.8556,2025-12-09T2100,25,51,0.6,21,2,28,30,51,颗粒物(PM10)
博尔塔拉蒙古自治州,市环保局,82.0806,44.8969,2025-12-09T2100,24,40,0.5,12,1,34,34,40,
沧州市,沧县城建局,116.8842,38.2991,2025-12-09T2100,127,204,1.9,93,12,12,48,168,细颗粒物(PM2.5)
沧州市,电视转播站,116.8584,38.3254,2025-12-09T2100,129,178,1.5,96,6,4,44,170,细颗粒物(PM2.5)
沧州市,市环保局,116.8709,38.3228,2025-12-09T2100,135,205,1.9,85,7,20,18,179,细颗粒物(PM2.5)
沧州市,河北水利电力学院,116.8136,38.3004,2025-12-09T2100,,190,1.4,93,10,5,41,120,颗粒物(PM10)
昌都市,昌都监测站,97.1806,31.1273,2025-12-09T2100,,20,,12,4,61,63,,
昌都市,昌都会议中心,97.1714,31.1406,2025-12-09T2100,8,19,0.1,4,2,67,80,21,
昌吉回族自治州,新区政务中心,87.2717,44.0297,2025-12-09T2100,44,68,0.9,37,5,19,38,62,细颗粒物(PM2.5)
昌吉回族自治州,亚心广场,87.3095,44.0142,2025-12-09T2100,68,97,0.9,34,10,16,41,92,细颗粒物(PM2.5)
长春市,客车厂,125.2863,43.9027,2025-12-09T2100,78,89,1.4,71,12,8,43,104,细颗粒物(PM2.5)
长春市,邮电学院,125.2841,43.8463,2025-12-09T2100,63,72,0.7,70,9,6,51,85,细颗粒物(PM2.5)
长春市,劳动公园,125.3716,43.8772,2025-12-09T2100,47,62,0.8,60,7,5,50,65,细颗粒物(PM2.5)
长春市,园林处,125.3297,43.8805,2025-12-09T2100,49,59,0.9,59,8,6,44,68,细颗粒物(PM2.5)
长春市,净月潭,125.4605,43.79,2025-12-09T2100,30,36,0.3,13,6,43,46,43,
长春市,经开区环卫处,125.3863,43.8447,2025-12-09T2100,57,98,1.3,69,8,3,41,78,细颗粒物(PM2.5)
长春市,高新区管委会,125.245,43.7783,2025-12-09T2100,139,,1.6,58,9,,39,185,细颗粒物(PM2.5)
长春市,岱山公园,125.1761,43.8325,2025-12-09T2100,99,108,0.8,75,12,9,44,130,细颗粒物(PM2.5)
长春市,北亚泰大街1068号,125.3346,43.9164,2025-12-09T2100,150,166,1.8,74,12,8,46,200,细颗粒物(PM2.5)
长沙市,经开区环保局,113.0833,28.2325,2025-12-09T2100,114,149,1.2,70,6,74,115,149,细颗粒物(PM2.5)
长沙市,高开区环保局,112.8872,28.2189,2025-12-09T2100,122,159,1.4,48,7,72,114,160,细颗粒物(PM2.5)
长沙市,马坡岭,113.0792,28.2053,2025-12-09T2100,111,179,1.4,107,6,28,113,145,细颗粒物(PM2.5)
长沙市,湖南师范大学,112.9394,28.19,2025-12-09T2100,86,139,0.6,27,3,92,112,114,细颗粒物(PM2.5)
长沙市,雨花区环保局,113.0178,28.1322,2025-12-09T2100,62,175,1.2,62,9,66,119,113,颗粒物(PM10)
长沙市,伍家岭,112.9792,28.2597,2025-12-09T2100,138,221,1.5,106,7,7,99,183,细颗粒物(PM2.5)
长沙市,火车新站,113.0014,28.1944,2025-12-09T2100,129,184,1.3,58,8,83,113,170,细颗粒物(PM2.5)
长沙市,天心区环保局,112.9844,28.1178,2025-12-09T2100,105,162,1.3,60,8,82,125,138,细颗粒物(PM2.5)
长沙市,湖南中医药大学,112.8908,28.1308,2025-12-09T2100,122,163,1.2,83,6,20,120,160,细颗粒物(PM2.5)
长治市,清华站,113.1147,36.1547,2025-12-09T2100,68,85,0.8,42,18,53,69,92,细颗粒物(PM2.5)
长治市,审计局,113.0886,36.2125,2025-12-09T2100,63,102,0.9,54,14,44,74,85,细颗粒物(PM2.5)
长治市,长治八中,113.0844,36.1856,2025-12-09T2100,74,137,1.0,32,19,57,62,99,细颗粒物(PM2.5)
长治市,德盛苑,113.1569,36.1911,2025-12-09T2100,61,84,0.8,22,23,75,87,83,细颗粒物(PM2.5)
长治市,向阳小学,113.06,36.0464,2025-12-09T2100,71,131,1.1,53,22,53,67,95,细颗粒物(PM2.5)
长治市,屯留一中,112.8792,36.3144,2025-12-09T2100,81,128,1.6,80,36,12,67,108,细颗粒物(PM2.5)
长治市,英华南巷50号,113.1131,36.19948,2025-12-09T2100,61,105,0.7,54,18,38,64,83,细颗粒物(PM2.5)
长治市,学府街1号,113.2367,36.3344,2025-12-09T2100,59,67,1.1,83,13,5,69,80,细颗粒物(PM2.5)
常德市,市二中,111.6975,28.9703,2025-12-09T2100,134,176,0.8,22,8,99,105,178,细颗粒物(PM2.5)
常德市,武陵区永安,111.7153,29.0289,2025-12-09T2100,118,159,0.7,20,9,112,113,155,细颗粒物(PM2.5)
常德市,鼎城区玉霞,111.6892,28.9881,2025-12-09T2100,129,173,0.8,31,10,84,110,170,细颗粒物(PM2.5)
常德市,武陵区长庚,111.6625,29.0531,2025-12-09T2100,114,162,0.7,24,9,109,113,149,细颗粒物(PM2.5)
常州市,市监测站,119.9633,31.762,2025-12-09T2100,30,76,0.7,65,6,23,62,63,颗粒物(PM10)
常州市,武进监测站,119.9468,31.7069,2025-12-09T2100,28,82,0.9,68,9,21,62,66,颗粒物(PM10)
常州市,安家,119.9255,31.9087,2025-12-09T2100,35,84,0.5,63,11,22,71,67,颗粒物(PM10)
常州市,行政中心,119.9805,31.8174,2025-12-09T2100,24,69,0.6,56,7,36,70,60,颗粒物(PM10)
常州市,经开区,120.0522,31.7748,2025-12-09T2100,23,79,0.4,52,7,30,64,65,颗粒物(PM10)
常州市,钟楼,119.9025,31.7964,2025-12-09T2100,24,72,0.7,49,6,34,64,61,颗粒物(PM10)
常州市,武进经发区,119.8598,31.7066,2025-12-09T2100,30,84,0.9,72,8,20,66,67,颗粒物(PM10)
常州市,金坛城区,119.5826,31.7245,2025-12-09T2100,30,94,0.8,77,8,6,80,72,颗粒物(PM10)
朝阳市,西梁,120.4318,41.5881,2025-12-09T2100,124,154,1.6,56,24,3,52,163,细颗粒物(PM2.5)
朝阳市,河畔小区,120.4521,41.5646,2025-12-09T2100,125,,1.5,58,23,7,58,165,细颗粒物(PM2.5)
朝阳市,八里堡,120.4176,41.5648,2025-12-09T2100,62,67,1.1,48,20,27,56,84,细颗粒物(PM2.5)
朝阳市,农业园区,120.3806,41.5969,2025-12-09T2100,54,64,0.8,47,18,22,58,74,细颗粒物(PM2.5)
潮州市,市政府,116.6183,23.6608,2025-12-09T2100,24,58,0.4,12,7,104,131,54,颗粒物(PM10)
潮州市,金山,116.6461,23.6761,2025-12-09T2100,24,40,0.5,13,4,,126,,
郴州市,市职中,113.0116,25.8226,2025-12-09T2100,72,88,1.1,37,4,22,104,97,细颗粒物(PM2.5)
郴州市,市审计局,113.0383,25.8071,2025-12-09T2100,70,100,1.0,49,2,36,116,94,细颗粒物(PM2.5)
郴州市,市环保局,113.0348,25.7759,2025-12-09T2100,69,104,1.0,44,3,,112,,
郴州市,好美居路49号,113.0138,25.8011,2025-12-09T2100,66,69,1.1,46,6,57,117,89,细颗粒物(PM2.5)
成都市,金泉两河,103.9728,30.7236,2025-12-09T2100,88,111,0.9,56,3,22,48,117,细颗粒物(PM2.5)
成都市,十里店,104.176,30.6872,2025-12-09T2100,86,111,0.6,28,3,52,53,114,细颗粒物(PM2.5)
成都市,三瓦窑,104.079,30.5706,2025-12-09T2100,82,116,0.8,28,3,,39,109,细颗粒物(PM2.5)
成都市,沙河铺,104.1114,30.63,2025-12-09T2100,120,,0.9,35,5,38,45,158,细颗粒物(PM2.5)
成都市,君平街,104.0786,30.6531,2025-12-09T2100,111,125,0.9,43,4,32,40,145,细颗粒物(PM2.5)
成都市,大石西路,104.0239,30.65639,2025-12-09T2100,90,111,0.7,49,6,24,35,119,细颗粒物(PM2.5)
成都市,龙泉驿区区政府,104.2725,30.5589,2025-12-09T2100,75,90,0.7,13,5,51,56,100,细颗粒物(PM2.5)
成都市,金博路,104.0106,30.6931,2025-12-09T2100,77,111,0.8,45,6,36,44,103,细颗粒物(PM2.5)
成都市,华阳,104.0578,30.5225,2025-12-09T2100,83,110,0.8,37,3,42,53,110,细颗粒物(PM2.5)
成都市,青石路225号,104.3880,30.7467,2025-12-09T2100,96,123,0.7,41,6,21,55,127,细颗粒物(PM2.5)
成都市,科学城,104.0789,30.4072,2025-12-09T2100,81,108,0.6,19,5,52,64,108,细颗粒物(PM2.5)
成都市,光华大道三段,103.8506,30.6947,2025-12-09T2100,84,111,0.9,60,3,20,56,112,细颗粒物(PM2.5)
成都市,鲸龙路1057号,104.2433,30.5353,2025-12-09T2100,77,95,0.6,24,6,43,51,103,细颗粒物(PM2.5)
承德市,铁路,117.9531,40.9081,2025-12-09T2100,50,85,1.1,44,8,3,22,69,细颗粒物(PM2.5)
承德市,中国银行,117.9392,40.9763,2025-12-09T2100,45,74,1.0,43,3,2,32,63,细颗粒物(PM2.5)
承德市,开发区,117.9503,40.928,2025-12-09T2100,44,82,0.8,44,7,6,30,66,颗粒物(PM10)
承德市,滨河大街98号,117.7994,40.9605,2025-12-09T2100,49,74,0.8,44,4,4,25,68,细颗粒物(PM2.5)
池州市,池州学院,117.47,30.6618,2025-12-09T2100,36,61,0.5,24,8,80,96,56,颗粒物(PM10)
池州市,展览馆,117.4918,30.6617,2025-12-09T2100,32,63,0.4,29,8,79,96,57,颗粒物(PM10)
池州市,第八中学,117.5627,30.695,2025-12-09T2100,37,70,0.7,30,5,73,96,60,颗粒物(PM10)
池州市,第十二中学,117.5038,30.6243,2025-12-09T2100,37,69,0.9,38,7,73,98,60,颗粒物(PM10)
赤峰市,松山一中,118.9233,42.2816,2025-12-09T2100,52,118,1.8,61,22,3,15,84,颗粒物(PM10)
赤峰市,哈达街,118.9576,42.2728,2025-12-09T2100,56,119,1.6,55,42,8,22,85,颗粒物(PM10)
赤峰市,天义路,118.8788,42.2554,2025-12-09T2100,64,109,1.4,69,23,6,26,87,细颗粒物(PM2.5)
赤峰市,银河街,119.2658,42.0353,2025-12-09T2100,59,111,1.2,44,22,20,44,81,颗粒物(PM10)
赤峰市,桥北物流园区,118.9359,42.3147,2025-12-09T2100,70,123,1.9,49,27,10,28,94,细颗粒物(PM2.5)
崇左市,市环保局江州分局,107.3476,22.4136,2025-12-09T2100,43,86,0.7,43,6,32,110,68,颗粒物(PM10)
崇左市,石景林东路7号,107.3750,22.3736,2025-12-09T2100,39,50,0.8,33,7,41,106,55,细颗粒物(PM2.5)
滁州市,老年大学,118.3093,32.3153,2025-12-09T2100,53,107,0.7,91,13,6,72,79,颗粒物(PM10)
滁州市,人大宾馆,118.3244,32.2786,2025-12-09T2100,42,100,0.5,62,9,28,81,75,颗粒物(PM10)
滁州市,市政府原办公楼,118.3118,32.3038,2025-12-09T2100,40,102,0.6,70,10,29,84,76,颗粒物(PM10)
滁州市,图书馆,118.3267,32.2634,2025-12-09T2100,36,91,0.5,74,10,23,83,71,颗粒物(PM10)
楚雄彝族自治州,州环境监测站,101.5482,25.0441,2025-12-09T2100,16,18,0.7,13,6,40,58,23,
楚雄彝族自治州,市经济开发区,101.538,25.0492,2025-12-09T2100,22,33,,,6,29,60,,
达州市,市环境监测站,107.5086,31.2186,2025-12-09T2100,102,130,1.3,38,9,2,2,134,细颗粒物(PM2.5)
达州市,凤凰小区,107.4988,31.2132,2025-12-09T2100,117,146,1.4,43,9,4,4,153,细颗粒物(PM2.5)
达州市,达县机关宾馆,107.5082,31.1986,2025-12-09T2100,120,171,1.6,37,7,3,4,158,细颗粒物(PM2.5)
达州市,市政中心,107.4644,31.2124,2025-12-09T2100,124,194,1.7,50,10,3,4,163,细颗粒物(PM2.5)
大理白族自治州,大理市环境监测站,100.1542,25.7054,2025-12-09T2100,16,18,0.6,10,6,66,71,23,
大理白族自治州,大理古城,100.2171,25.5811,2025-12-09T2100,18,22,0.5,20,8,53,84,26,
大连市,甘井子,121.612,38.9741,2025-12-09T2100,28,54,0.4,65,15,18,53,52,颗粒物(PM10)
大连市,周水子,121.565,38.9511,2025-12-09T2100,60,83,1.4,80,12,27,69,82,细颗粒物(PM2.5)
大连市,星海三站,121.5637,38.8845,2025-12-09T2100,46,58,1.0,52,7,2,54,64,细颗粒物(PM2.5)
大连市,青泥洼桥,121.6302,38.9117,2025-12-09T2100,37,74,0.8,62,9,10,47,62,颗粒物(PM10)
大连市,傅家庄,121.6251,38.8638,2025-12-09T2100,36,64,0.6,35,13,36,58,57,颗粒物(PM10)
大连市,七贤岭,121.5213,38.8661,2025-12-09T2100,50,70,1.0,34,7,26,49,69,细颗粒物(PM2.5)
大连市,旅顺,121.2529,38.8061,2025-12-09T2100,54,84,0.7,20,5,41,58,74,细颗粒物(PM2.5)
大连市,金州,121.7485,39.1311,2025-12-09T2100,36,57,0.6,39,12,39,57,54,颗粒物(PM10)
大连市,开发区,121.7811,39.0496,2025-12-09T2100,110,145,2.0,79,18,11,46,144,细颗粒物(PM2.5)
大连市,双D港,121.9762,39.0631,2025-12-09T2100,28,54,0.6,24,12,54,66,52,颗粒物(PM10)
大庆市,大同区,124.81117,46.03138,2025-12-09T2100,37,56,0.9,16,6,24,36,53,"颗粒物(PM10),细颗粒物(PM2.5)"
大庆市,龙凤区,125.129,46.533,2025-12-09T2100,29,56,0.5,21,5,24,38,53,颗粒物(PM10)
大庆市,红岗区,124.902,46.408,2025-12-09T2100,36,44,0.8,26,8,29,45,52,细颗粒物(PM2.5)
大庆市,萨尔图区,125.153,46.586,2025-12-09T2100,22,41,0.8,20,8,36,35,41,
大庆市,让胡路区,124.9042,46.6215,2025-12-09T2100,27,32,0.4,15,7,40,42,39,
大庆市,萨区政府监测点,125.141,46.634,2025-12-09T2100,7,36,0.4,14,10,39,35,36,
大同市,云冈宾馆,113.2994,40.0758,2025-12-09T2100,100,194,2.9,84,16,8,50,132,细颗粒物(PM2.5)
大同市,大同大学,113.3444,40.0917,2025-12-09T2100,58,144,0.9,56,14,17,38,97,颗粒物(PM10)
大同市,安家小村,113.2661,40.1269,2025-12-09T2100,31,81,0.6,40,12,36,41,66,颗粒物(PM10)
大同市,教育学院,113.2711,40.0844,2025-12-09T2100,62,200,1.6,73,14,10,46,125,颗粒物(PM10)
大同市,大同市卫生学校,113.3397,40.0597,2025-12-09T2100,95,198,3.1,87,16,4,47,125,细颗粒物(PM2.5)
大同市,云冈站,113.1367,40.1122,2025-12-09T2100,21,58,0.6,53,11,4,56,54,颗粒物(PM10)
大同市,图书馆,113.1186,40.2556,2025-12-09T2100,37,74,0.8,20,5,36,62,62,颗粒物(PM10)
大同市,区一中,113.5931,40.0461,2025-12-09T2100,96,155,1.4,46,35,32,68,127,细颗粒物(PM2.5)
大同市,魏都大道141号,113.2798,40.0997,2025-12-09T2100,53,175,1.7,71,16,18,44,113,颗粒物(PM10)
大兴安岭地区,科技局,124.1069,50.4097,2025-12-09T2100,21,26,0.3,6,6,40,30,30,
大兴安岭地区,红旗社区,124.1164,50.4278,2025-12-09T2100,13,19,0.5,15,9,40,25,19,
丹东市,江湾东路,124.3303,40.0625,2025-12-09T2100,120,164,3.2,61,14,4,44,158,细颗粒物(PM2.5)
丹东市,临江后街,124.4256,40.1503,2025-12-09T2100,99,163,2.2,58,14,5,37,130,细颗粒物(PM2.5)
丹东市,元宝山,124.3933,40.1461,2025-12-09T2100,64,90,1.3,40,10,20,42,87,细颗粒物(PM2.5)
丹东市,民主桥,124.3633,40.1092,2025-12-09T2100,77,125,2.3,55,11,8,43,103,细颗粒物(PM2.5)
儋州市,第一中学子站,109.5726,19.5167,2025-12-09T2100,29,46,0.5,5,5,83,94,46,
儋州市,东坡学校子站,109.5567,19.5187,2025-12-09T2100,26,47,0.5,6,5,91,102,47,
德宏傣族景颇族自治州,德宏州监测站,98.5842,24.428,2025-12-09T2100,69,97,1.4,49,8,14,73,93,细颗粒物(PM2.5)
德宏傣族景颇族自治州,芒市人民政府综合楼,98.5881,24.4368,2025-12-09T2100,26,56,0.6,20,8,36,71,53,颗粒物(PM10)
德阳市,东山公园,104.4239,31.1208,2025-12-09T2100,96,104,1.0,26,2,31,52,127,细颗粒物(PM2.5)
德阳市,西小区,104.3826,31.1317,2025-12-09T2100,92,118,0.8,27,4,27,42,122,细颗粒物(PM2.5)
德阳市,耐火材料厂,104.3553,31.1091,2025-12-09T2100,86,96,,30,2,33,46,114,细颗粒物(PM2.5)
德阳市,市教育局,104.4019,31.1244,2025-12-09T2100,95,,0.9,35,2,21,42,125,细颗粒物(PM2.5)
德州市,儿童乐园,116.3032,37.4674,2025-12-09T2100,92,175,1.1,64,15,38,66,122,细颗粒物(PM2.5)
德州市,监理站,116.2991,37.4451,2025-12-09T2100,92,173,0.9,78,16,40,76,122,细颗粒物(PM2.5)
德州市,九衢泉纯净水厂,116.2721,37.4379,2025-12-09T2100,102,180,1.5,95,15,11,58,134,细颗粒物(PM2.5)
德州市,开发区人民医院,116.3728,37.4403,2025-12-09T2100,102,173,1.1,56,16,55,77,134,细颗粒物(PM2.5)
德州市,陵城艺术中心,116.5652,37.3319,2025-12-09T2100,80,149,0.8,47,17,58,69,107,细颗粒物(PM2.5)
德州市,新河东路,116.3525,37.4209,2025-12-09T2100,117,188,0.9,87,15,29,60,153,细颗粒物(PM2.5)
迪庆藏族自治州,迪庆州站,99.7056,27.8317,2025-12-09T2100,20,32,0.9,17,6,66,83,32,
迪庆藏族自治州,质量技术监督局,99.7136,27.8094,2025-12-09T2100,3,25,0.4,16,7,,87,,
定西市,将台街,104.6092,35.5962,2025-12-09T2100,68,113,1.0,66,20,12,75,92,细颗粒物(PM2.5)
定西市,正龙路62号,104.6159,35.5701,2025-12-09T2100,73,130,1.6,44,22,26,72,98,细颗粒物(PM2.5)
东莞市,莞城梨川,113.7547,23.0494,2025-12-09T2100,44,77,0.8,56,5,69,152,64,颗粒物(PM10)
东莞市,东城石井,113.7944,23.0128,2025-12-09T2100,39,59,0.8,29,8,85,142,55,"颗粒物(PM10),细颗粒物(PM2.5)"
东莞市,南城西平,113.7383,22.9658,2025-12-09T2100,60,107,1.0,101,12,31,156,82,细颗粒物(PM2.5)
东莞市,万江金泰,113.7338,23.0381,2025-12-09T2100,50,85,1.1,65,6,53,150,69,细颗粒物(PM2.5)
东莞市,南城元岭,113.7533,23.0202,2025-12-09T2100,52,86,1.1,63,7,58,169,72,细颗粒物(PM2.5)
东莞市,东城主山,113.7875,23.0457,2025-12-09T2100,,,0.8,62,7,68,160,,
东营市,市环保局,118.6614,37.4309,2025-12-09T2100,102,163,1.4,84,20,19,55,134,细颗粒物(PM2.5)
东营市,开发区管委会,118.6904,37.4338,2025-12-09T2100,92,165,0.9,68,51,35,57,122,细颗粒物(PM2.5)
东营市,垦利区民丰路,118.5719,37.565,2025-12-09T2100,88,158,1.2,101,12,0,64,117,细颗粒物(PM2.5)
东营市,河口城区,118.5055,37.8612,2025-12-09T2100,93,168,1.3,94,12,12,69,123,细颗粒物(PM2.5)
东营市,胜利站,118.4978,37.4623,2025-12-09T2100,83,140,1.2,90,47,22,54,110,细颗粒物(PM2.5)
东营市,理想之城,118.35,37.26,2025-12-09T2100,88,166,1.0,81,80,,62,117,细颗粒物(PM2.5)
鄂尔多斯市,综合楼,110.0023,39.8129,2025-12-09T2100,39,95,0.9,85,20,5,70,73,颗粒物(PM10)
鄂尔多斯市,巴音孟克林场办事处,109.9486,39.8261,2025-12-09T2100,27,46,0.3,27,21,63,76,46,
鄂尔多斯市,康泽苑,109.7736,39.5986,2025-12-09T2100,31,61,0.7,60,9,9,47,56,颗粒物(PM10)
鄂尔多斯市,华泰汽车城,109.8119,39.5989,2025-12-09T2100,34,63,1.1,76,5,2,62,57,颗粒物(PM10)
鄂尔多斯市,奥林花园,109.9734,39.7884,2025-12-09T2100,19,68,0.6,84,10,2,62,59,颗粒物(PM10)
鄂州市,市政府,114.8938,30.3994,2025-12-09T2100,84,98,0.9,34,11,80,102,112,细颗粒物(PM2.5)
鄂州市,赵家坝,114.8989,30.3714,2025-12-09T2100,81,115,1.0,30,12,84,101,108,细颗粒物(PM2.5)
鄂州市,精准医疗中心,114.8094,30.4089,2025-12-09T2100,90,121,1.2,94,4,19,94,119,细颗粒物(PM2.5)
恩施土家族苗族自治州,湖北民院,109.4978,30.2981,2025-12-09T2100,92,104,1.2,36,7,7,36,122,细颗粒物(PM2.5)
恩施土家族苗族自治州,州电力总公司,109.4707,30.2798,2025-12-09T2100,100,133,0.7,55,7,6,32,132,细颗粒物(PM2.5)
恩施土家族苗族自治州,龙凤新区,109.5061,30.3772,2025-12-09T2100,64,91,0.7,19,5,13,30,87,细颗粒物(PM2.5)
防城港市,沙万,108.3411,21.6158,2025-12-09T2100,51,86,0.7,41,7,76,117,70,细颗粒物(PM2.5)
防城港市,防城档案局,108.3514,21.7731,2025-12-09T2100,63,119,1.4,58,5,13,121,85,"颗粒物(PM10),细颗粒物(PM2.5)"
防城港市,大海花园,108.3506,21.6414,2025-12-09T2100,48,64,1.1,28,40,91,131,67,细颗粒物(PM2.5)
佛山市,湾梁,113.1294,23.0067,2025-12-09T2100,53,92,0.8,48,7,72,139,73,细颗粒物(PM2.5)
佛山市,华材职中,113.1083,23.0478,2025-12-09T2100,74,144,1.0,135,7,6,132,99,细颗粒物(PM2.5)
佛山市,南海气象局,113.144,23.0453,2025-12-09T2100,47,78,1.2,68,8,62,137,65,细颗粒物(PM2.5)
佛山市,顺德苏岗,113.2881,22.8094,2025-12-09T2100,53,78,0.8,40,8,88,130,73,细颗粒物(PM2.5)
佛山市,高明孔堂,112.8383,22.8678,2025-12-09T2100,42,76,0.7,30,4,101,151,63,颗粒物(PM10)
佛山市,三水监测站,112.8836,23.1588,2025-12-09T2100,51,114,1.0,125,5,8,125,82,颗粒物(PM10)
甘南藏族自治州,州政府,102.9099,34.9841,2025-12-09T2100,25,33,0.5,21,11,70,80,36,
甘南藏族自治州,甘肃民族师范学院,102.8914,34.9617,2025-12-09T2100,10,32,0.5,21,5,60,76,32,
甘孜藏族自治州,水桥子,101.9603,30.0475,2025-12-09T2100,10,10,0.6,33,8,,71,,
甘孜藏族自治州,州环保局,101.9533,29.9972,2025-12-09T2100,3,28,0.5,40,6,25,65,28,
赣江新区,桑海产业园,115.8347,28.932,2025-12-09T2100,66,110,0.6,41,13,79,130,89,细颗粒物(PM2.5)
赣州市,通天岩,114.9017,25.9149,2025-12-09T2100,49,66,1.0,9,16,66,126,68,细颗粒物(PM2.5)
赣州市,地委,114.9367,25.8664,2025-12-09T2100,57,98,1.0,68,8,32,135,78,细颗粒物(PM2.5)
赣州市,气象台,114.9461,25.8481,2025-12-09T2100,54,145,1.0,74,6,,139,,
赣州市,市图书馆,114.9322,25.8333,2025-12-09T2100,63,127,1.0,70,5,45,118,89,颗粒物(PM10)
赣州市,华坚鞋城,114.8905,25.8471,2025-12-09T2100,60,128,1.1,115,6,11,113,89,颗粒物(PM10)
赣州市,赣县区卫计委,115.0093,25.8613,2025-12-09T2100,88,102,1.1,57,10,42,127,117,细颗粒物(PM2.5)
固原市,监测站,106.2792,36.0022,2025-12-09T2100,49,52,1.2,54,7,24,72,68,细颗粒物(PM2.5)
固原市,新区,106.2375,36.0211,2025-12-09T2100,32,58,1.0,67,4,7,82,54,颗粒物(PM10)
固原市,原州区十五小,106.2177,35.9959,2025-12-09T2100,33,45,0.8,19,7,55,79,48,
广安市,市委,106.6303,30.4576,2025-12-09T2100,120,141,1.0,28,4,12,12,158,细颗粒物(PM2.5)
广安市,友谊中学,106.6271,30.4663,2025-12-09T2100,115,133,1.1,22,10,9,6,150,细颗粒物(PM2.5)
广安市,广电花园,106.6388,30.4551,2025-12-09T2100,114,,1.0,27,3,4,6,149,细颗粒物(PM2.5)
广安市,北辰小学,106.6351,30.4865,2025-12-09T2100,120,129,1.2,22,14,12,13,158,细颗粒物(PM2.5)
广元市,老城,105.821,32.4444,2025-12-09T2100,57,85,1.3,48,8,9,10,78,细颗粒物(PM2.5)
广元市,监测站,105.8628,32.4287,2025-12-09T2100,64,72,1.7,44,5,,11,,
广元市,经开区,105.8047,32.4166,2025-12-09T2100,79,119,1.5,41,11,1,2,105,细颗粒物(PM2.5)
广州市,广雅中学,113.2347,23.1423,2025-12-09T2100,55,90,1.0,93,7,32,116,75,细颗粒物(PM2.5)
广州市,市五中,113.2612,23.105,2025-12-09T2100,54,82,0.9,71,8,64,140,74,细颗粒物(PM2.5)
广州市,广东商学院,113.3478,23.0916,2025-12-09T2100,50,74,0.8,73,6,36,89,69,细颗粒物(PM2.5)
广州市,市八十六中,113.4332,23.1047,2025-12-09T2100,56,88,1.2,115,6,7,115,77,细颗粒物(PM2.5)
广州市,番禺中学,113.3505,22.9483,2025-12-09T2100,77,130,1.0,94,5,18,125,103,细颗粒物(PM2.5)
广州市,花都师范,113.2146,23.3916,2025-12-09T2100,48,79,0.8,62,7,66,139,67,细颗粒物(PM2.5)
广州市,市监测站,113.2597,23.1331,2025-12-09T2100,53,82,0.8,88,7,56,139,73,细颗粒物(PM2.5)
广州市,九龙镇镇龙,113.5618,23.312,2025-12-09T2100,52,93,0.7,72,5,11,109,72,"颗粒物(PM10),细颗粒物(PM2.5)"
广州市,麓湖,113.2765,23.1544,2025-12-09T2100,38,46,0.8,89,7,24,118,54,细颗粒物(PM2.5)
广州市,体育西,113.3221,23.1322,2025-12-09T2100,58,81,1.0,61,7,54,121,79,细颗粒物(PM2.5)
广州市,从化街口,113.5717,23.5491,2025-12-09T2100,68,87,1.1,57,6,25,117,92,细颗粒物(PM2.5)
广州市,白云竹料,113.3472,23.3692,2025-12-09T2100,70,113,1.0,63,4,40,137,94,细颗粒物(PM2.5)
广州市,白云嘉禾,113.2981,23.237,2025-12-09T2100,59,99,1.1,111,,8,136,,
广州市,黄埔科学城,113.4256,23.1716,2025-12-09T2100,41,66,0.7,49,5,45,132,58,"颗粒物(PM10),细颗粒物(PM2.5)"
广州市,番禺大学城,113.3942,23.0483,2025-12-09T2100,56,94,0.8,78,10,46,136,77,细颗粒物(PM2.5)
广州市,南沙黄阁,113.4922,22.8168,2025-12-09T2100,48,94,0.9,95,14,51,172,72,颗粒物(PM10)
广州市,南沙街,113.5342,22.7896,2025-12-09T2100,50,92,0.9,55,9,82,176,71,颗粒物(PM10)
广州市,花都梯面,113.2902,23.5544,2025-12-09T2100,34,52,0.6,51,4,22,122,51,颗粒物(PM10)
广州市,从化良口,113.7858,23.7478,2025-12-09T2100,28,37,0.7,21,6,65,93,40,
广州市,增城荔城,113.8051,23.2614,2025-12-09T2100,35,55,0.8,34,5,40,120,53,颗粒物(PM10)
贵港市,江南子站,109.6047,23.0666,2025-12-09T2100,75,124,1.2,70,6,19,118,100,细颗粒物(PM2.5)
贵港市,荷城子站,109.5669,23.1065,2025-12-09T2100,66,92,1.2,51,5,41,104,89,细颗粒物(PM2.5)
贵港市,新世纪学校,109.5886,23.1172,2025-12-09T2100,57,102,1.1,50,4,34,112,78,细颗粒物(PM2.5)
贵港市,中山路155-3号,109.5933,23.0951,2025-12-09T2100,60,95,1.0,47,6,53,124,82,细颗粒物(PM2.5)
贵阳市,马鞍山,106.6899,26.5998,2025-12-09T2100,22,24,0.5,13,8,61,63,32,
贵阳市,鉴湖路,106.6243,26.6266,2025-12-09T2100,27,48,0.5,17,7,56,62,48,
贵阳市,燕子冲,106.7487,26.6343,2025-12-09T2100,27,41,0.3,14,8,70,69,41,
贵阳市,碧云窝,106.6555,26.4365,2025-12-09T2100,27,44,0.5,13,5,60,64,44,
贵阳市,红边门,106.7109,26.6027,2025-12-09T2100,24,41,0.5,17,11,61,62,41,
贵阳市,新华路,106.7164,26.5699,2025-12-09T2100,31,48,0.5,18,13,56,60,48,
贵阳市,太慈桥,106.674,26.5424,2025-12-09T2100,22,39,0.2,13,7,68,68,39,
贵阳市,桐木岭,106.805,26.3003,2025-12-09T2100,36,44,0.6,3,1,82,82,52,细颗粒物(PM2.5)
贵阳市,花果园大街66号,106.6882,26.5695,2025-12-09T2100,28,34,0.3,18,5,60,62,40,
贵阳市,漓江路57号,106.6873,26.5169,2025-12-09T2100,22,29,0.6,15,12,64,64,32,
桂林市,龙隐路小学,110.3089,25.2708,2025-12-09T2100,70,101,0.8,51,6,49,109,94,细颗粒物(PM2.5)
桂林市,八中,110.2869,25.2178,2025-12-09T2100,75,112,0.9,33,7,46,106,100,细颗粒物(PM2.5)
桂林市,旅游学院,110.296,25.1253,2025-12-09T2100,88,114,0.8,59,4,40,113,117,细颗粒物(PM2.5)
桂林市,环湖路276号,110.1835,25.2444,2025-12-09T2100,75,105,0.7,57,6,36,106,100,细颗粒物(PM2.5)
桂林市,信义路13号,110.2803,25.2773,2025-12-09T2100,70,107,1.2,75,5,18,114,94,细颗粒物(PM2.5)
果洛藏族自治州,玛沁县大武镇,100.2561,34.4714,2025-12-09T2100,14,51,0.3,1,13,79,86,51,颗粒物(PM10)
哈尔滨市,松北商大,126.561,45.8167,2025-12-09T2100,36,64,0.8,36,11,23,41,57,颗粒物(PM10)
哈尔滨市,阿城会宁,126.979,45.5419,2025-12-09T2100,43,48,0.7,18,9,39,40,60,细颗粒物(PM2.5)
哈尔滨市,南岗学府路,126.599,45.7222,2025-12-09T2100,37,61,0.8,42,11,12,38,56,颗粒物(PM10)
哈尔滨市,太平宏伟公园,126.689,45.7733,2025-12-09T2100,39,56,0.7,43,12,16,45,55,细颗粒物(PM2.5)
哈尔滨市,道外承德广场,126.635,45.7667,2025-12-09T2100,45,70,0.5,56,18,11,42,63,细颗粒物(PM2.5)
哈尔滨市,香坊红旗大街,126.685,45.7319,2025-12-09T2100,56,83,1.5,52,15,10,44,77,细颗粒物(PM2.5)
哈尔滨市,动力和平路,126.6411,45.7258,2025-12-09T2100,59,64,0.9,50,15,9,42,80,细颗粒物(PM2.5)
哈尔滨市,道里建国路,126.593,45.7478,2025-12-09T2100,50,63,0.9,45,12,16,38,69,细颗粒物(PM2.5)
哈尔滨市,平房东轻厂,126.615,45.61,2025-12-09T2100,42,57,0.8,19,9,38,36,59,细颗粒物(PM2.5)
哈尔滨市,呼兰师专,126.595,45.9855,2025-12-09T2100,39,60,0.7,36,10,22,38,55,"颗粒物(PM10),细颗粒物(PM2.5)"
哈尔滨市,省农科院,126.6206,45.6842,2025-12-09T2100,51,65,0.7,50,9,19,41,70,细颗粒物(PM2.5)
哈密市,地区监测站,93.5128,42.8172,2025-12-09T2100,52,83,0.3,40,12,26,34,72,细颗粒物(PM2.5)
哈密市,哈密师范学校,93.4961,42.8328,2025-12-09T2100,,,0.5,38,9,,32,,
海北藏族自治州,海晏县西海镇,100.9048,36.9639,2025-12-09T2100,16,18,0.3,8,8,66,87,23,
海东市,平安区公安北苑,102.0738,36.5056,2025-12-09T2100,50,64,1.1,15,16,50,61,69,细颗粒物(PM2.5)
海口市,海南大学,110.3232,20.0574,2025-12-09T2100,24,45,0.4,8,6,139,129,45,
海口市,秀英海南医院,110.283,20.0053,2025-12-09T2100,22,51,0.2,11,8,130,124,51,颗粒物(PM10)
海口市,海南师范大学,110.338,19.9969,2025-12-09T2100,25,51,0.5,12,6,134,132,51,颗粒物(PM10)
海口市,龙华路环保局宿舍,110.33,20.0356,2025-12-09T2100,25,50,0.6,12,8,137,132,50,
海口市,桂林洋子站,110.5111,19.9736,2025-12-09T2100,40,62,0.6,11,7,124,127,57,细颗粒物(PM2.5)
海南藏族自治州,共和县恰卜恰镇,100.6188,36.2866,2025-12-09T2100,15,57,0.7,46,12,17,77,54,颗粒物(PM10)
海西蒙古族藏族自治州,德令哈市,97.3731,37.3753,2025-12-09T2100,15,32,0.5,6,12,79,80,32,
邯郸市,东污水处理厂,114.5302,36.6116,2025-12-09T2100,155,214,1.5,94,9,7,40,205,细颗粒物(PM2.5)
邯郸市,矿院,114.4918,36.5713,2025-12-09T2100,139,175,1.1,90,8,6,43,185,细颗粒物(PM2.5)
邯郸市,丛台公园,114.484,36.6133,2025-12-09T2100,149,210,1.4,91,10,8,44,199,细颗粒物(PM2.5)
邯郸市,香泉濮院小区,114.7895,36.5593,2025-12-09T2100,134,217,0.9,45,10,56,73,178,细颗粒物(PM2.5)
邯郸市,永年区实验高中,114.50634,36.77178,2025-12-09T2100,106,189,1.2,103,11,8,30,139,细颗粒物(PM2.5)
邯郸市,峰峰矿区临水派出所,114.20016,36.44293,2025-12-09T2100,124,,0.8,32,13,70,71,163,细颗粒物(PM2.5)
汉中市,市监测站,107.0154,33.0706,2025-12-09T2100,87,121,2.0,72,21,28,54,115,细颗粒物(PM2.5)
汉中市,鑫源开发区,107.0089,33.1138,2025-12-09T2100,70,104,1.2,59,12,16,57,94,细颗粒物(PM2.5)
汉中市,南郑大河坎水厂,107.007,33.0323,2025-12-09T2100,110,174,1.7,55,8,7,46,144,细颗粒物(PM2.5)
杭州市,滨江,120.2072,30.2111,2025-12-09T2100,13,58,0.4,49,9,38,86,54,颗粒物(PM10)
杭州市,西溪,120.0633,30.2747,2025-12-09T2100,15,55,0.3,28,8,49,83,53,颗粒物(PM10)
杭州市,下沙,120.3417,30.3150,2025-12-09T2100,18,58,0.5,43,7,41,82,54,颗粒物(PM10)
杭州市,卧龙桥,120.1269,30.2456,2025-12-09T2100,14,44,0.5,24,9,37,86,44,
杭州市,浙江农大,120.1903,30.2692,2025-12-09T2100,11,44,0.4,48,7,44,75,44,
杭州市,和睦小学,120.1197,30.3119,2025-12-09T2100,22,49,0.4,34,9,48,84,49,
杭州市,临平镇,120.3019,30.4183,2025-12-09T2100,17,51,0.5,28,6,48,88,51,颗粒物(PM10)
杭州市,城厢镇,120.2753,30.1839,2025-12-09T2100,23,68,0.6,52,9,34,91,59,颗粒物(PM10)
杭州市,云栖,120.0883,30.1808,2025-12-09T2100,19,85,0.5,32,5,59,92,68,颗粒物(PM10)
杭州市,镇二中,119.9464,30.0494,2025-12-09T2100,15,40,0.7,27,5,60,85,40,
杭州市,市府大楼,119.7183,30.2367,2025-12-09T2100,22,67,0.6,29,10,58,80,59,颗粒物(PM10)
杭州市,消防大队,120.1556,30.2864,2025-12-09T2100,19,58,0.3,30,5,52,80,54,颗粒物(PM10)
合肥市,明珠广场,117.1959,31.7848,2025-12-09T2100,31,88,0.6,43,10,45,80,69,颗粒物(PM10)
合肥市,三里街,117.3072,31.8764,2025-12-09T2100,39,102,0.8,97,8,2,71,76,颗粒物(PM10)
合肥市,琥珀山庄,117.2588,31.8707,2025-12-09T2100,38,95,0.8,65,9,25,76,73,颗粒物(PM10)
合肥市,长江中路,117.25,31.8571,2025-12-09T2100,37,85,0.6,50,11,41,78,68,颗粒物(PM10)
合肥市,庐阳区,117.266,31.9436,2025-12-09T2100,36,107,0.6,68,11,27,79,79,颗粒物(PM10)
合肥市,瑶海区,117.3453,31.8616,2025-12-09T2100,32,100,0.7,89,9,13,79,75,颗粒物(PM10)
合肥市,包河区,117.3027,31.7964,2025-12-09T2100,44,114,0.9,122,16,5,86,82,颗粒物(PM10)
合肥市,滨湖新区,117.2776,31.7385,2025-12-09T2100,31,83,0.6,36,8,57,89,67,颗粒物(PM10)
合肥市,高新区,117.1318,31.8403,2025-12-09T2100,25,73,0.7,48,10,52,82,62,颗粒物(PM10)
合肥市,高教基地,117.3803,31.9147,2025-12-09T2100,39,78,0.6,31,8,47,84,64,颗粒物(PM10)
和田地区,地区环保局,79.924,37.0877,2025-12-09T2100,32,129,1.0,19,3,61,79,90,颗粒物(PM10)
和田地区,市环保局,79.9131,37.113,2025-12-09T2100,3,107,0.1,41,4,59,85,79,颗粒物(PM10)
河池市,市环保站,108.0497,24.6947,2025-12-09T2100,60,,0.8,21,5,48,77,82,细颗粒物(PM2.5)
河池市,市疾控中心,108.0983,24.6989,2025-12-09T2100,55,85,1.0,59,6,4,76,75,细颗粒物(PM2.5)
河源市,东埔,114.6944,23.7586,2025-12-09T2100,40,53,0.8,32,5,70,111,57,细颗粒物(PM2.5)
河源市,老城,114.6892,23.7233,2025-12-09T2100,26,37,0.7,20,5,61,112,38,
菏泽市,气象局,115.4208,35.2464,2025-12-09T2100,79,140,0.6,38,,67,86,105,细颗粒物(PM2.5)
菏泽市,定陶老年大学,115.5564,35.0891,2025-12-09T2100,75,141,0.7,59,8,43,79,100,细颗粒物(PM2.5)
菏泽市,永昌路1号,115.4797,35.24401,2025-12-09T2100,86,,0.6,44,8,53,77,114,细颗粒物(PM2.5)
菏泽市,长城路999号,115.4715,35.2800,2025-12-09T2100,80,153,0.6,39,5,63,84,107,细颗粒物(PM2.5)
贺州市,环保小区,111.5264,24.4172,2025-12-09T2100,84,120,1.2,34,7,48,113,112,细颗粒物(PM2.5)
贺州市,政协大楼,111.5608,24.4078,2025-12-09T2100,78,108,1.2,39,11,37,117,104,细颗粒物(PM2.5)
贺州市,西湾,111.4744,24.4553,2025-12-09T2100,62,96,2.6,44,5,42,106,84,细颗粒物(PM2.5)
鹤壁市,市监测站,114.17,35.9019,2025-12-09T2100,91,125,0.7,32,10,76,74,120,细颗粒物(PM2.5)
鹤壁市,市交警支队,114.2956,35.7511,2025-12-09T2100,87,154,1.0,58,6,43,57,115,细颗粒物(PM2.5)
鹤壁市,迎宾馆,114.2878,35.7306,2025-12-09T2100,95,144,0.9,46,9,56,65,125,细颗粒物(PM2.5)
鹤壁市,大新区,114.2617,35.6822,2025-12-09T2100,104,150,1.0,112,9,2,54,137,细颗粒物(PM2.5)
鹤壁市,南山宾馆,114.1572,35.9603,2025-12-09T2100,95,143,0.8,26,8,88,78,125,细颗粒物(PM2.5)
鹤岗市,哈啤分公司,130.2537,47.3416,2025-12-09T2100,19,29,0.5,9,6,56,63,29,
鹤岗市,斯达机电,130.2684,47.3086,2025-12-09T2100,26,50,0.6,15,8,54,63,50,
鹤岗市,东山纸板厂,130.3114,47.3388,2025-12-09T2100,44,146,1.1,45,17,17,66,98,颗粒物(PM10)
黑河市,交通局,127.4833,50.2524,2025-12-09T2100,17,17,0.8,24,3,26,40,25,
黑河市,环保局,127.5144,50.2341,2025-12-09T2100,22,,0.4,17,10,41,40,32,
衡水市,电机北厂,115.6838,37.7541,2025-12-09T2100,144,262,1.1,96,12,0,46,192,细颗粒物(PM2.5)
衡水市,市监测站,115.6303,37.7316,2025-12-09T2100,136,195,1.0,86,11,10,44,180,细颗粒物(PM2.5)
衡水市,市城管局,115.6683,37.7217,2025-12-09T2100,127,225,1.3,75,10,15,52,168,细颗粒物(PM2.5)
衡水市,地表水厂,115.5989,37.5491,2025-12-09T2100,149,213,1.2,99,11,3,51,199,细颗粒物(PM2.5)
衡阳市,衡阳化工总厂,112.6194,26.9258,2025-12-09T2100,110,127,1.1,25,10,103,131,144,细颗粒物(PM2.5)
衡阳市,珠晖区环保局,112.6211,26.8956,2025-12-09T2100,102,107,1.5,41,10,84,118,134,细颗粒物(PM2.5)
衡阳市,市委党校,112.6197,26.8733,2025-12-09T2100,94,115,1.3,19,9,108,130,124,细颗粒物(PM2.5)
衡阳市,市监测站,112.6006,26.8919,2025-12-09T2100,123,158,1.3,29,15,104,124,162,细颗粒物(PM2.5)
衡阳市,真空机电公司,112.5664,26.9056,2025-12-09T2100,112,138,1.2,29,12,102,58,147,细颗粒物(PM2.5)
衡阳市,师范学院,112.6703,26.882,2025-12-09T2100,87,137,1.0,24,12,109,130,115,细颗粒物(PM2.5)
红河哈尼族彝族自治州,污水处理厂,103.3772,23.3993,2025-12-09T2100,42,52,0.4,12,6,58,76,59,细颗粒物(PM2.5)
红河哈尼族彝族自治州,监测站,103.3861,23.35,2025-12-09T2100,39,50,0.3,6,7,67,80,55,细颗粒物(PM2.5)
红河哈尼族彝族自治州,州图书馆,103.3758,23.368,2025-12-09T2100,30,41,0.5,8,5,63,76,43,
呼和浩特市,呼市一监,111.6507,40.7517,2025-12-09T2100,101,197,1.4,63,14,1,36,133,细颗粒物(PM2.5)
呼和浩特市,小召,111.6572,40.8033,2025-12-09T2100,61,105,1.1,77,14,3,27,83,细颗粒物(PM2.5)
呼和浩特市,如意水处理厂,111.7516,40.8369,2025-12-09T2100,65,144,1.3,70,14,2,28,97,颗粒物(PM10)
呼和浩特市,二十九中,111.7276,40.8062,2025-12-09T2100,62,119,1.2,78,17,1,30,85,颗粒物(PM10)
呼和浩特市,工大金川校区,111.5512,40.7866,2025-12-09T2100,42,93,0.6,70,15,0,28,72,颗粒物(PM10)
呼和浩特市,化肥厂生活区,111.717,40.7612,2025-12-09T2100,79,157,1.3,74,14,5,33,105,细颗粒物(PM2.5)
呼和浩特市,红旗小学,111.5968,40.8178,2025-12-09T2100,44,85,0.7,70,15,4,27,68,颗粒物(PM10)
呼和浩特市,海东办,111.6518,40.8389,2025-12-09T2100,45,92,1.0,67,13,3,25,71,颗粒物(PM10)
呼伦贝尔市,国华电力东,119.7512,49.1577,2025-12-09T2100,18,,0.4,2,5,,51,,
呼伦贝尔市,伊敏大街东7号,119.7569,49.2222,2025-12-09T2100,17,21,0.7,4,5,50,47,25,
湖州市,城西水厂,120.0751,30.8669,2025-12-09T2100,16,43,0.5,44,9,42,94,43,
湖州市,仁皇山新区,120.0830,30.8929,2025-12-09T2100,15,46,0.4,26,9,61,90,46,
湖州市,吴兴区站,120.1844,30.8596,2025-12-09T2100,14,50,0.7,25,8,62,99,50,
湖州市,南浔区站,120.4148,30.8538,2025-12-09T2100,20,48,0.6,16,6,53,88,48,
葫芦岛市,龙港区,120.9049,40.7211,2025-12-09T2100,208,217,1.8,69,19,15,61,258,细颗粒物(PM2.5)
葫芦岛市,化工街,120.8392,40.7514,2025-12-09T2100,153,241,1.8,83,28,14,55,203,细颗粒物(PM2.5)
葫芦岛市,新区,120.8341,40.7073,2025-12-09T2100,236,,2.3,93,17,14,57,286,细颗粒物(PM2.5)
葫芦岛市,东城区,120.8695,40.7677,2025-12-09T2100,187,,1.8,72,18,16,57,237,细颗粒物(PM2.5)
怀化市,河西地税局,109.9453,27.5444,2025-12-09T2100,51,85,0.7,31,5,33,107,70,细颗粒物(PM2.5)
怀化市,市四医院,109.9781,27.5342,2025-12-09T2100,65,99,0.9,24,37,71,112,88,细颗粒物(PM2.5)
怀化市,监测楼,109.9972,27.5578,2025-12-09T2100,71,104,0.5,31,9,49,114,95,细颗粒物(PM2.5)
怀化市,市委党校,110.0394,27.583,2025-12-09T2100,69,103,0.7,50,23,19,103,93,细颗粒物(PM2.5)
淮安市,钵池山,119.036,33.5981,2025-12-09T2100,35,92,0.6,49,9,39,67,71,颗粒物(PM10)
淮安市,北京南路,119.007,33.575,2025-12-09T2100,35,95,0.5,29,8,53,70,73,颗粒物(PM10)
淮安市,市监测站,118.989,33.6067,2025-12-09T2100,31,85,0.4,29,9,61,70,68,颗粒物(PM10)
淮安市,楚州区监测站,119.135,33.5039,2025-12-09T2100,32,93,0.5,36,8,43,68,72,颗粒物(PM10)
淮安市,新华书店,118.8755,33.2894,2025-12-09T2100,35,95,0.5,42,10,43,67,73,颗粒物(PM10)
淮安市,承德北路606号,119.0288,33.6319,2025-12-09T2100,36,110,0.5,36,7,46,68,80,颗粒物(PM10)
淮北市,监测站,116.8004,33.975,2025-12-09T2100,37,117,0.5,30,9,63,72,84,颗粒物(PM10)
淮北市,烈山区政府,116.8091,33.9007,2025-12-09T2100,44,116,0.4,31,10,64,80,83,颗粒物(PM10)
淮北市,杜集区检察院,116.8873,33.9836,2025-12-09T2100,38,105,0.6,18,7,73,85,78,颗粒物(PM10)
淮北市,市博物馆,116.7923,33.9535,2025-12-09T2100,47,121,0.3,28,11,60,75,86,颗粒物(PM10)
淮南市,潘集区政府,116.8305,32.7727,2025-12-09T2100,76,151,0.7,33,9,39,68,102,细颗粒物(PM2.5)
淮南市,谢家集区政府,116.8569,32.5951,2025-12-09T2100,28,87,0.4,35,15,49,76,69,颗粒物(PM10)
淮南市,八公山区政府,116.8281,32.633,2025-12-09T2100,38,101,0.6,37,6,38,78,76,颗粒物(PM10)
淮南市,经济技术开发区消防队,117.0566,32.6531,2025-12-09T2100,47,96,0.5,52,4,41,75,73,颗粒物(PM10)
淮南市,山南新区,117.0108,32.5893,2025-12-09T2100,51,127,0.6,38,6,54,82,89,颗粒物(PM10)
淮南市,国庆中路369号,117.0031,32.6445,2025-12-09T2100,51,113,0.6,40,9,39,67,82,颗粒物(PM10)
黄冈市,职工中心,114.9028,30.4742,2025-12-09T2100,72,104,0.8,40,6,92,116,97,细颗粒物(PM2.5)
黄冈市,红卫路,114.8858,30.4519,2025-12-09T2100,68,88,0.7,28,6,94,108,92,细颗粒物(PM2.5)
黄冈市,市林业局,114.9136,30.4445,2025-12-09T2100,72,120,1.0,46,5,83,107,97,细颗粒物(PM2.5)
黄南藏族自治州,同仁县隆务镇,102.0199,35.5102,2025-12-09T2100,31,57,0.6,10,12,61,72,54,颗粒物(PM10)
黄山市,延安路89号,118.2903,29.6963,2025-12-09T2100,50,64,0.7,,5,50,108,,
黄山市,黄山区政府5号楼,118.1371,30.2756,2025-12-09T2100,69,98,0.5,26,5,27,103,93,细颗粒物(PM2.5)
黄山市,滨江东路7-2号,118.3354,29.7203,2025-12-09T2100,44,72,0.5,39,4,31,103,62,细颗粒物(PM2.5)
黄石市,沈家营,115.0601,30.2313,2025-12-09T2100,75,139,1.3,48,7,46,92,100,细颗粒物(PM2.5)
黄石市,铁山,114.8988,30.2019,2025-12-09T2100,72,87,0.8,57,4,46,106,97,细颗粒物(PM2.5)
黄石市,团城山,115.0307,30.2092,2025-12-09T2100,88,116,1.0,45,9,68,96,117,细颗粒物(PM2.5)
黄石市,笔架山北路,115.0235,30.1578,2025-12-09T2100,71,146,1.2,20,7,111,108,98,颗粒物(PM10)
黄石市,磁湖东路29号,115.0780,30.21118,2025-12-09T2100,90,146,1.2,54,10,32,79,119,细颗粒物(PM2.5)
惠州市,河南岸金山湖子站,114.4183,23.0528,2025-12-09T2100,48,89,0.8,46,3,56,104,70,颗粒物(PM10)
惠州市,下埔横江三路子站,114.4053,23.0822,2025-12-09T2100,16,90,0.8,40,6,74,123,70,颗粒物(PM10)
惠州市,江北云山西路子站,114.4103,23.1142,2025-12-09T2100,43,77,0.7,39,9,95,128,64,颗粒物(PM10)
惠州市,惠阳区承修路船湖子站,114.4645,22.7833,2025-12-09T2100,23,53,0.5,14,6,128,144,52,颗粒物(PM10)
惠州市,大亚湾管委会子站,114.5317,22.7422,2025-12-09T2100,21,56,0.4,17,5,122,146,53,颗粒物(PM10)
惠州市,惠阳秋长,114.4338,22.8134,2025-12-09T2100,25,63,0.5,20,8,131,147,57,颗粒物(PM10)
惠州市,大亚湾霞涌,114.6517,22.775,2025-12-09T2100,28,62,0.5,21,5,106,150,56,颗粒物(PM10)
鸡西市,环保局,130.9762,45.3001,2025-12-09T2100,14,22,0.5,18,7,34,53,22,
鸡西市,第一中学,130.9429,45.3039,2025-12-09T2100,17,17,0.3,8,4,49,55,25,
鸡西市,欧美日汽修厂,131.0207,45.3073,2025-12-09T2100,45,54,0.7,23,9,29,46,63,细颗粒物(PM2.5)
鸡西市,市政设施管理处,130.9967,45.3106,2025-12-09T2100,34,40,0.7,41,11,15,45,49,
吉安市,红声器材厂,114.9754,27.0803,2025-12-09T2100,65,103,0.6,31,14,111,142,88,细颗粒物(PM2.5)
吉安市,市森林工业局,114.9658,27.0999,2025-12-09T2100,75,111,1.0,,,81,131,,
吉安市,市环境监测站,114.99,27.1312,2025-12-09T2100,70,96,0.8,28,26,109,138,94,细颗粒物(PM2.5)
吉安市,青原区法院,115.0093,27.0968,2025-12-09T2100,74,108,0.8,20,11,110,130,99,细颗粒物(PM2.5)
吉林市,哈达湾,126.54,43.8622,2025-12-09T2100,72,114,1.5,48,12,18,53,97,细颗粒物(PM2.5)
吉林市,东局子,126.5844,43.8358,2025-12-09T2100,61,73,1.2,41,7,18,48,83,细颗粒物(PM2.5)
吉林市,电力学院,126.5052,43.8245,2025-12-09T2100,130,171,1.9,51,14,18,52,172,细颗粒物(PM2.5)
吉林市,江北,126.6133,43.8972,2025-12-09T2100,65,88,1.5,36,6,16,49,88,细颗粒物(PM2.5)
吉林市,江南公园,126.555,43.8306,2025-12-09T2100,84,135,1.3,47,7,9,49,112,细颗粒物(PM2.5)
吉林市,九站,126.4739,43.953,2025-12-09T2100,67,96,1.3,57,38,8,46,90,细颗粒物(PM2.5)
济南市,科干所,116.9862,36.6114,2025-12-09T2100,49,102,0.7,41,7,66,86,76,颗粒物(PM10)
济南市,农科所,116.9376,36.665,2025-12-09T2100,63,125,0.8,56,10,42,77,88,颗粒物(PM10)
济南市,开发区,117.1265,36.6734,2025-12-09T2100,66,112,1.0,90,4,7,90,89,细颗粒物(PM2.5)
江门市,西区,113.0731,22.5835,2025-12-09T2100,62,119,1.7,88,7,51,146,85,颗粒物(PM10)
江门市,圭峰西,113.0219,22.5311,2025-12-09T2100,49,58,0.7,32,6,112,156,68,细颗粒物(PM2.5)
江门市,东湖,113.0828,22.5947,2025-12-09T2100,49,109,0.8,52,11,98,110,80,颗粒物(PM10)
江门市,江海富民,113.1075,22.5647,2025-12-09T2100,45,94,1.1,68,6,92,153,72,颗粒物(PM10)
焦作市,马村街道办,113.3137,35.2641,2025-12-09T2100,112,152,1.1,32,10,52,49,147,细颗粒物(PM2.5)
焦作市,焦作技师学院,113.2465,35.2373,2025-12-09T2100,105,170,1.2,39,13,40,42,138,细颗粒物(PM2.5)
焦作市,中站许衡医院,113.1656,35.2539,2025-12-09T2100,96,137,0.7,33,9,75,55,127,细颗粒物(PM2.5)
焦作市,原李万街道办,113.2449,35.1803,2025-12-09T2100,102,152,1.1,43,13,57,52,134,细颗粒物(PM2.5)
焦作市,新安路1731号,113.2340,35.2190,2025-12-09T2100,115,176,1.2,48,15,35,42,150,细颗粒物(PM2.5)
焦作市,人民路3066号,113.2722,35.2121,2025-12-09T2100,87,188,1.1,46,14,39,42,119,颗粒物(PM10)
揭阳市,新兴,116.3701,23.5345,2025-12-09T2100,31,57,0.5,20,10,94,129,54,颗粒物(PM10)
揭阳市,西马,116.3264,23.5443,2025-12-09T2100,22,54,0.3,18,5,97,134,52,颗粒物(PM10)
揭阳市,东兴,116.3611,23.5626,2025-12-09T2100,23,54,0.6,18,8,91,130,52,颗粒物(PM10)
揭阳市,渔湖,116.4151,23.5294,2025-12-09T2100,27,39,0.6,16,6,96,131,39,
揭阳市,曲溪,116.403,23.5699,2025-12-09T2100,33,65,0.4,20,6,95,137,58,颗粒物(PM10)
金昌市,天庆家园,102.1692,38.5167,2025-12-09T2100,38,105,,40,25,,53,,
金昌市,金川区人防中心,102.1647,38.5371,2025-12-09T2100,74,124,1.0,37,16,29,67,99,细颗粒物(PM2.5)
金昌市,长春路96号,102.1930,38.5319,2025-12-09T2100,28,83,0.5,46,174,21,57,67,颗粒物(PM10)
金华市,十五中,119.647,29.077,2025-12-09T2100,31,82,0.4,63,4,45,99,66,颗粒物(PM10)
金华市,监测站,119.686,29.1029,2025-12-09T2100,40,103,0.5,95,7,16,87,77,颗粒物(PM10)
金华市,气象局,119.656,29.1131,2025-12-09T2100,39,106,0.4,99,4,12,85,78,颗粒物(PM10)
锦州市,南山,121.1115,41.0879,2025-12-09T2100,119,127,0.8,41,181,39,58,156,细颗粒物(PM2.5)
锦州市,开发区,121.0604,40.8428,2025-12-09T2100,70,96,0.7,42,12,31,62,94,细颗粒物(PM2.5)
锦州市,百股街道,121.1836,41.1119,2025-12-09T2100,153,159,2.3,68,43,7,55,203,细颗粒物(PM2.5)
锦州市,天安街道,121.1178,41.1222,2025-12-09T2100,146,,1.7,59,20,14,57,195,细颗粒物(PM2.5)
锦州市,北湖公园,121.1303,41.1386,2025-12-09T2100,112,124,1.1,47,16,19,55,147,细颗粒物(PM2.5)
晋城市,自来水公司,112.85,35.5051,2025-12-09T2100,,165,1.1,29,11,74,81,108,颗粒物(PM10)
晋城市,白云商贸,112.8318,35.4936,2025-12-09T2100,78,167,0.9,51,8,43,79,109,颗粒物(PM10)
晋城市,市环保局,112.8508,35.4887,2025-12-09T2100,88,151,0.8,28,10,78,87,117,细颗粒物(PM2.5)
晋城市,技术学院,112.8676,35.4897,2025-12-09T2100,85,141,0.9,32,12,71,73,113,细颗粒物(PM2.5)
晋城市,泽州一中,112.8271,35.4828,2025-12-09T2100,78,116,0.7,36,9,85,89,104,细颗粒物(PM2.5)
晋中市,南都小区,112.7249,37.7067,2025-12-09T2100,91,161,1.5,95,25,9,68,120,细颗粒物(PM2.5)
晋中市,榆次区政府,112.6991,37.6982,2025-12-09T2100,95,168,1.2,93,22,4,62,125,细颗粒物(PM2.5)
晋中市,榆次三中,112.7195,37.6828,2025-12-09T2100,78,151,1.3,80,21,7,66,104,细颗粒物(PM2.5)
晋中市,迎宾街26号,112.7478,37.6954,2025-12-09T2100,85,151,1.0,80,25,10,69,113,细颗粒物(PM2.5)
荆门市,竹园小学,112.2014,31.0481,2025-12-09T2100,127,185,0.3,45,7,64,107,168,细颗粒物(PM2.5)
荆门市,掇刀,112.1969,30.9891,2025-12-09T2100,125,193,1.0,65,6,65,117,165,细颗粒物(PM2.5)
荆门市,石化一小,112.2213,31.0386,2025-12-09T2100,151,205,1.4,98,11,24,106,201,细颗粒物(PM2.5)
荆门市,西山林语,112.1849,31.0362,2025-12-09T2100,110,152,1.2,27,6,80,117,144,细颗粒物(PM2.5)
荆门市,龙泉中学南校,112.1632,31.0138,2025-12-09T2100,116,179,1.1,28,11,96,121,152,细颗粒物(PM2.5)
荆州市,市图书馆,112.2494,30.3197,2025-12-09T2100,124,151,1.4,78,8,40,109,163,细颗粒物(PM2.5)
荆州市,市委党校,112.2008,30.3544,2025-12-09T2100,112,143,1.2,78,6,33,93,147,细颗粒物(PM2.5)
荆州市,管委会,112.2747,30.3122,2025-12-09T2100,122,148,1.2,94,8,27,98,160,细颗粒物(PM2.5)
荆州市,学苑路85号,112.1722,30.3366,2025-12-09T2100,113,150,1.3,47,11,57,117,148,细颗粒物(PM2.5)
景德镇市,老干部活动中心,117.2117,29.2933,2025-12-09T2100,59,87,0.7,49,5,,125,,
景德镇市,兽医站,117.1894,29.2789,2025-12-09T2100,61,115,1.0,17,7,47,117,83,"颗粒物(PM10),细颗粒物(PM2.5)"
景德镇市,陶研所,117.2461,29.2956,2025-12-09T2100,51,76,1.0,38,5,42,112,70,细颗粒物(PM2.5)
景德镇市,青少年活动中心,117.1542,29.2566,2025-12-09T2100,59,122,0.7,59,16,39,114,86,颗粒物(PM10)
九江市,十里,115.9872,29.6815,2025-12-09T2100,92,129,1.3,77,13,35,93,122,细颗粒物(PM2.5)
九江市,茅山头,115.9584,29.7046,2025-12-09T2100,75,132,1.3,86,6,9,83,100,细颗粒物(PM2.5)
九江市,西园,115.9877,29.7295,2025-12-09T2100,89,123,1.3,98,11,42,92,118,细颗粒物(PM2.5)
九江市,综合工业园,115.9114,29.6038,2025-12-09T2100,106,135,0.8,87,4,15,79,139,细颗粒物(PM2.5)
九江市,石化总厂,116.0721,29.7535,2025-12-09T2100,79,124,0.8,68,6,84,93,105,细颗粒物(PM2.5)
九江市,外国语学校,116.0254,29.6994,2025-12-09T2100,84,128,1.2,37,13,67,80,112,细颗粒物(PM2.5)
九江市,莲花大道8号,116.0102,29.6594,2025-12-09T2100,80,112,0.9,27,8,81,89,107,细颗粒物(PM2.5)
酒泉市,玉门东路5号,98.4958,39.7339,2025-12-09T2100,41,276,0.2,6,9,78,77,163,颗粒物(PM10)
酒泉市,北大街108号,98.5099,39.7506,2025-12-09T2100,56,337,0.3,8,9,69,77,194,颗粒物(PM10)
喀什地区,巡警大队,76.0072,39.4467,2025-12-09T2100,70,160,1.5,76,11,39,69,105,颗粒物(PM10)
喀什地区,吾办,75.9755,39.4694,2025-12-09T2100,68,180,1.6,98,7,8,58,115,颗粒物(PM10)
喀什地区,老干局,75.9483,39.4689,2025-12-09T2100,82,231,2.0,103,7,6,54,141,颗粒物(PM10)
开封市,肿瘤医院,114.3389,34.7781,2025-12-09T2100,74,134,0.7,67,7,22,73,99,细颗粒物(PM2.5)
开封市,世纪星幼儿园,114.2885,34.7965,2025-12-09T2100,92,136,1.0,63,11,33,72,122,细颗粒物(PM2.5)
开封市,龙亭公园,114.3438,34.8106,2025-12-09T2100,94,163,1.1,57,12,36,68,124,细颗粒物(PM2.5)
开封市,汴京公园,114.3644,34.7964,2025-12-09T2100,80,160,0.8,49,10,44,65,107,细颗粒物(PM2.5)
开封市,技师学院,114.2485,34.8306,2025-12-09T2100,78,123,1.2,89,10,11,72,104,细颗粒物(PM2.5)
开封市,祥符区生态环境局,114.4644,34.7556,2025-12-09T2100,71,133,0.4,51,4,45,64,95,细颗粒物(PM2.5)
克拉玛依市,长征新村,84.895,45.6094,2025-12-09T2100,28,35,0.7,15,4,48,44,40,
克拉玛依市,南林小区,84.8988,45.5893,2025-12-09T2100,19,30,0.5,11,2,51,46,30,
克拉玛依市,独山子区,84.905,44.3396,2025-12-09T2100,25,40,0.7,26,6,36,31,40,
克拉玛依市,乌尔禾区商贸楼,85.6979,46.098,2025-12-09T2100,31,37,0.2,6,8,30,38,45,
克拉玛依市,白碱滩区新站,85.1045,45.6899,2025-12-09T2100,21,34,0.3,4,7,55,55,34,
克孜勒苏柯尔克孜自治州,市人民政府,76.1454,39.7142,2025-12-09T2100,74,164,0.9,75,12,39,86,107,颗粒物(PM10)
克孜勒苏柯尔克孜自治州,克州文化中心,76.1658,39.7157,2025-12-09T2100,71,190,1.7,84,13,21,86,120,颗粒物(PM10)
昆明市,呈贡新区,102.8204,24.8886,2025-12-09T2100,,,1.1,2,6,,83,,
昆明市,龙泉镇,102.7252,25.0902,2025-12-09T2100,11,37,0.7,23,2,40,71,37,
昆明市,东风东路,102.7266,25.0375,2025-12-09T2100,16,22,0.4,21,4,56,77,23,
昆明市,金鼎山,102.6742,25.0669,2025-12-09T2100,18,30,0.6,17,5,58,74,30,
昆明市,碧鸡广场,102.6644,25.0401,2025-12-09T2100,20,30,0.6,31,5,37,74,30,
昆明市,官渡区博物馆,102.7494,25.0119,2025-12-09T2100,18,26,0.5,27,4,54,79,26,
昆明市,青年创业园,102.8017,24.8336,2025-12-09T2100,26,37,1.0,24,6,50,83,38,
昆明市,昆明学院,102.7997,24.9786,2025-12-09T2100,20,34,0.8,15,3,68,77,34,
昆明市,晋宁区生态环境分局,102.5967,24.6736,2025-12-09T2100,22,,0.7,16,2,58,77,,
昆明市,云天化总部,102.6678,24.9856,2025-12-09T2100,11,22,0.5,25,5,50,78,22,
拉萨市,八廓街,91.1319,29.6514,2025-12-09T2100,23,28,0.7,32,13,72,98,33,
拉萨市,市环保局,91.1221,29.6747,2025-12-09T2100,33,43,1.4,36,8,41,82,48,
拉萨市,区监测站,91.0874,29.6475,2025-12-09T2100,10,19,0.5,44,4,61,91,22,
拉萨市,西藏大学,91.1774,29.6541,2025-12-09T2100,28,29,1.1,48,10,62,92,40,
拉萨市,区辐射站,90.9798,29.6588,2025-12-09T2100,46,66,1.4,65,9,39,79,64,细颗粒物(PM2.5)
拉萨市,拉萨火车站,91.0834,29.6292,2025-12-09T2100,10,16,0.5,20,4,77,91,25,
来宾市,来宾技工学校,109.2203,23.7256,2025-12-09T2100,88,131,1.0,65,7,16,104,117,细颗粒物(PM2.5)
来宾市,兴宾区政府,109.1781,23.7297,2025-12-09T2100,50,63,0.8,17,5,77,118,69,细颗粒物(PM2.5)
来宾市,中南小学,109.2416,23.7461,2025-12-09T2100,54,108,,56,5,,114,,
兰州市,百合公园,103.7439,36.0842,2025-12-09T2100,93,148,2.3,108,32,1,58,123,细颗粒物(PM2.5)
兰州市,和平,103.9611,35.998,2025-12-09T2100,66,100,1.0,60,11,34,55,89,细颗粒物(PM2.5)
兰州市,庄浪东路808号,103.6293,36.0938,2025-12-09T2100,80,111,1.3,99,20,15,72,107,细颗粒物(PM2.5)
兰州市,安宁西路88号,103.7251,36.1043,2025-12-09T2100,71,129,0.8,95,16,8,83,95,细颗粒物(PM2.5)
兰州市,北滨河东路1号,103.8470,36.0676,2025-12-09T2100,82,141,1.6,100,18,2,39,109,细颗粒物(PM2.5)
兰州新区,新区管委会,103.6633,36.533,2025-12-09T2100,117,182,1.7,70,38,10,72,153,细颗粒物(PM2.5)
兰州新区,舟曲中学,103.6975,36.4789,2025-12-09T2100,90,143,1.2,81,24,37,98,119,细颗粒物(PM2.5)
廊坊市,药材公司,116.6708,39.5111,2025-12-09T2100,77,124,1.3,79,9,3,18,103,细颗粒物(PM2.5)
廊坊市,开发区,116.7214,39.5589,2025-12-09T2100,82,126,1.0,82,8,1,19,109,细颗粒物(PM2.5)
廊坊市,北华航天学院,116.7244,39.5269,2025-12-09T2100,86,135,1.3,76,8,3,17,114,细颗粒物(PM2.5)
廊坊市,河北工业大学,116.7022,39.5453,2025-12-09T2100,72,117,0.9,86,9,1,17,97,细颗粒物(PM2.5)
乐山市,牛耳桥,103.7627,29.5844,2025-12-09T2100,121,146,1.1,45,7,17,46,159,细颗粒物(PM2.5)
乐山市,市第三水厂,103.7508,29.6006,2025-12-09T2100,106,133,1.1,48,6,91,65,139,细颗粒物(PM2.5)
乐山市,市监测站,103.7571,29.5664,2025-12-09T2100,102,129,1.3,44,7,17,54,134,细颗粒物(PM2.5)
乐山市,理工大学,103.7311,29.5628,2025-12-09T2100,97,122,1.0,36,8,24,62,128,细颗粒物(PM2.5)
丽江市,丽江古城,100.2497,26.8802,2025-12-09T2100,16,58,0.5,25,10,62,81,54,颗粒物(PM10)
丽江市,市中心,100.2203,26.8906,2025-12-09T2100,43,76,1.1,53,8,25,87,63,颗粒物(PM10)
丽水市,监测站大楼,119.914,28.4514,2025-12-09T2100,20,48,0.5,19,5,82,99,48,
丽水市,莲都小学,119.93,28.4586,2025-12-09T2100,8,32,0.3,18,5,91,102,32,
丽水市,余庄前,119.879,28.4231,2025-12-09T2100,11,26,0.2,12,5,82,95,26,
连云港市,市环境监测站,119.176,34.5885,2025-12-09T2100,48,114,0.4,38,11,43,73,82,颗粒物(PM10)
连云港市,德源药业,119.3581,34.6972,2025-12-09T2100,36,134,0.4,61,6,8,70,92,颗粒物(PM10)
连云港市,新城一中,119.178,34.844,2025-12-09T2100,35,71,0.4,65,8,14,46,61,颗粒物(PM10)
连云港市,胡沟管理处,119.3608,34.7519,2025-12-09T2100,29,102,0.9,65,12,,52,,
连云港市,矿山设计院,119.1478,34.5911,2025-12-09T2100,51,136,0.7,53,12,32,73,93,颗粒物(PM10)
连云港市,工贸学校,119.2413,34.6539,2025-12-09T2100,32,95,0.6,29,10,63,80,73,颗粒物(PM10)
连云港市,连云街道,119.4172,34.7341,2025-12-09T2100,,,0.8,27,8,,56,,
凉山彝族自治州,邛海宾馆,102.2721,27.8415,2025-12-09T2100,36,60,0.5,21,8,54,87,55,颗粒物(PM10)
凉山彝族自治州,西昌市政府,102.2625,27.898,2025-12-09T2100,31,50,0.9,21,10,50,75,50,
凉山彝族自治州,凉山州政府,102.2685,27.8851,2025-12-09T2100,28,53,0.8,21,11,47,75,52,颗粒物(PM10)
凉山彝族自治州,凯乐南路30号,102.2342,27.8859,2025-12-09T2100,28,51,0.9,19,14,60,76,51,颗粒物(PM10)
辽阳市,宏伟区,123.2,41.1953,2025-12-09T2100,78,118,1.2,55,23,13,46,104,细颗粒物(PM2.5)
辽阳市,新华园,123.1683,41.2495,2025-12-09T2100,,225,3.3,69,12,20,43,,
辽阳市,滨河路,123.2354,41.2639,2025-12-09T2100,91,140,1.5,67,14,6,39,120,细颗粒物(PM2.5)
辽阳市,铁西工业园,123.149,41.2991,2025-12-09T2100,155,169,1.5,63,14,0,35,205,细颗粒物(PM2.5)
辽源市,环保局,125.1358,42.8845,2025-12-09T2100,110,188,1.9,50,6,8,51,144,细颗粒物(PM2.5)
辽源市,银鹰制药,125.0764,42.9078,2025-12-09T2100,79,112,1.4,44,6,6,53,105,细颗粒物(PM2.5)
聊城市,区政府,115.9848,36.4372,2025-12-09T2100,75,139,0.7,50,14,58,72,100,细颗粒物(PM2.5)
聊城市,聊大东校,116.0072,36.4343,2025-12-09T2100,89,175,0.9,52,12,54,66,118,细颗粒物(PM2.5)
聊城市,监控中心,115.9819,36.4978,2025-12-09T2100,85,140,1.0,40,14,58,74,113,细颗粒物(PM2.5)
聊城市,九州社区,116.0445,36.4361,2025-12-09T2100,78,143,0.6,42,10,61,78,104,细颗粒物(PM2.5)
聊城市,星美广场,116.0567,36.4608,2025-12-09T2100,70,140,0.6,33,8,64,70,95,颗粒物(PM10)
林芝市,林芝监测站,94.3681,29.6376,2025-12-09T2100,7,14,0.3,5,4,80,84,25,
临沧市,市环保局,100.0781,23.8982,2025-12-09T2100,74,,0.8,29,9,27,67,99,细颗粒物(PM2.5)
临沧市,市气象局,100.0894,23.8822,2025-12-09T2100,28,49,0.6,17,6,37,69,49,
临汾市,临钢医院,111.5531,36.0783,2025-12-09T2100,88,200,1.3,70,10,10,57,125,颗粒物(PM10)
临汾市,技工学校,111.5028,36.0714,2025-12-09T2100,85,170,1.3,81,9,4,59,113,细颗粒物(PM2.5)
临汾市,市委,111.5018,36.0855,2025-12-09T2100,77,175,1.4,89,12,8,70,113,颗粒物(PM10)
临汾市,唐尧大酒店,111.505,36.1014,2025-12-09T2100,75,168,1.5,92,6,4,71,109,颗粒物(PM10)
临汾市,启星学校,111.4879,36.0530,2025-12-09T2100,85,157,1.0,87,12,8,68,113,细颗粒物(PM2.5)
临夏回族自治州,滨河东路1号,103.2464,35.6123,2025-12-09T2100,125,190,2.0,71,11,6,70,165,细颗粒物(PM2.5)
临夏回族自治州,新华街21号,103.2093,35.5995,2025-12-09T2100,112,191,2.3,64,18,10,72,147,细颗粒物(PM2.5)
临沂市,沂河小区,118.3429,35.0532,2025-12-09T2100,90,156,0.7,73,14,21,72,119,细颗粒物(PM2.5)
临沂市,鲁南制药厂,118.295,35.0583,2025-12-09T2100,91,163,0.8,63,17,34,71,120,细颗粒物(PM2.5)
临沂市,新光毛纺厂,118.2794,34.9976,2025-12-09T2100,98,171,1.1,97,20,7,68,129,细颗粒物(PM2.5)
临沂市,河东保险公司,118.3956,35.0888,2025-12-09T2100,98,175,0.8,84,12,9,76,129,细颗粒物(PM2.5)
临沂市,十里堡居委,118.3564,35.0215,2025-12-09T2100,75,161,1.1,74,14,19,76,106,颗粒物(PM10)
临沂市,南坊新区,118.3604,35.1084,2025-12-09T2100,85,161,0.9,75,13,20,80,113,细颗粒物(PM2.5)
临沂市,皇山花园小区,118.3920,35.0300,2025-12-09T2100,64,149,0.8,87,16,12,81,100,颗粒物(PM10)
柳州市,柳东小学,109.4856,24.3895,2025-12-09T2100,60,77,0.9,46,14,81,138,82,细颗粒物(PM2.5)
柳州市,环保监测站,109.4157,24.3277,2025-12-09T2100,66,84,1.2,73,8,29,120,89,细颗粒物(PM2.5)
柳州市,河西水厂,109.389,24.341,2025-12-09T2100,57,106,1.3,58,7,32,124,78,"颗粒物(PM10),细颗粒物(PM2.5)"
柳州市,市四中,109.4311,24.2921,2025-12-09T2100,71,144,1.3,66,11,29,123,97,颗粒物(PM10)
柳州市,市九中,109.4006,24.3631,2025-12-09T2100,63,84,0.9,30,9,78,118,85,细颗粒物(PM2.5)
柳州市,古亭山,109.4958,24.3134,2025-12-09T2100,42,64,1.0,81,9,15,119,59,细颗粒物(PM2.5)
柳州市,市二中,109.5422,24.3996,2025-12-09T2100,74,103,1.0,74,16,22,130,99,细颗粒物(PM2.5)
六安市,监测大楼,116.5079,31.737,2025-12-09T2100,40,85,0.4,26,5,78,88,68,颗粒物(PM10)
六安市,皖西学院,116.4738,31.7643,2025-12-09T2100,49,107,0.4,44,4,64,97,79,颗粒物(PM10)
六安市,朝阳厂,116.4996,31.7905,2025-12-09T2100,56,96,0.6,70,4,33,85,77,细颗粒物(PM2.5)
六安市,开发区,116.5567,31.7886,2025-12-09T2100,39,103,,48,3,,91,,
六盘水市,窑上,104.8,26.5892,2025-12-09T2100,48,49,0.6,8,3,71,80,67,细颗粒物(PM2.5)
六盘水市,黄土坡,104.83,26.5917,2025-12-09T2100,34,45,0.6,16,6,65,74,49,
六盘水市,水钢,104.89,26.5939,2025-12-09T2100,33,52,0.6,10,3,66,76,51,颗粒物(PM10)
六盘水市,民中,104.8475,26.5894,2025-12-09T2100,36,49,0.8,15,3,63,74,52,细颗粒物(PM2.5)
六盘水市,双水,104.9544,26.5506,2025-12-09T2100,37,53,0.4,11,4,67,74,53,细颗粒物(PM2.5)
龙岩市,龙岩市监测站,117.0217,25.1033,2025-12-09T2100,29,49,0.6,40,15,55,127,49,
龙岩市,闽西职业技术学院,117.0258,25.0661,2025-12-09T2100,24,40,0.5,19,8,83,126,40,
龙岩市,龙岩学院,117.0196,25.0306,2025-12-09T2100,22,29,0.5,17,8,55,119,32,
陇南市,滨江中学,104.9339,33.3826,2025-12-09T2100,64,107,2.7,60,16,13,59,87,细颗粒物(PM2.5)
陇南市,市总工会,104.955,33.371,2025-12-09T2100,53,113,0.8,54,7,15,53,82,颗粒物(PM10)
娄底市,市监测站,111.9975,27.725,2025-12-09T2100,114,155,1.1,43,10,83,136,149,细颗粒物(PM2.5)
娄底市,市委党校,112.0194,27.7314,2025-12-09T2100,106,144,0.9,41,11,90,124,139,细颗粒物(PM2.5)
娄底市,涟钢,111.9561,27.7569,2025-12-09T2100,135,203,0.7,68,6,24,124,179,细颗粒物(PM2.5)
娄底市,市政府,111.9892,27.7044,2025-12-09T2100,98,131,0.9,65,12,46,128,129,细颗粒物(PM2.5)
泸州市,小市上码头,105.4427,28.9063,2025-12-09T2100,110,129,1.2,38,10,4,8,144,细颗粒物(PM2.5)
泸州市,兰田宪桥,105.4241,28.8573,2025-12-09T2100,84,103,1.0,33,8,1,11,112,细颗粒物(PM2.5)
泸州市,市环监站,105.4379,28.8833,2025-12-09T2100,82,122,1.0,35,9,1,9,109,细颗粒物(PM2.5)
泸州市,纳溪中医医院,105.3689,28.7783,2025-12-09T2100,75,78,1.1,31,7,3,10,100,细颗粒物(PM2.5)
吕梁市,环保局,111.1406,37.5211,2025-12-09T2100,49,152,0.9,76,9,4,45,101,颗粒物(PM10)
吕梁市,自来水公司,111.1297,37.5136,2025-12-09T2100,56,164,1.1,71,14,3,37,107,颗粒物(PM10)
吕梁市,马茂庄小学,111.1283,37.51,2025-12-09T2100,53,161,1.0,78,10,4,34,106,颗粒物(PM10)
洛阳市,市委党校,112.3931,34.6516,2025-12-09T2100,114,172,1.1,79,16,29,60,149,细颗粒物(PM2.5)
洛阳市,河南林校,112.494,34.6886,2025-12-09T2100,132,190,1.0,89,14,16,53,175,细颗粒物(PM2.5)
洛阳市,开发区管委会,112.3844,34.623,2025-12-09T2100,134,205,1.1,60,19,41,68,178,细颗粒物(PM2.5)
洛阳市,市委新办公区,112.4267,34.6258,2025-12-09T2100,135,216,1.2,70,16,24,54,179,细颗粒物(PM2.5)
洛阳市,伊滨,112.6005,34.6326,2025-12-09T2100,131,223,1.1,69,11,21,44,173,细颗粒物(PM2.5)
洛阳市,中移产业园,112.4951,34.6332,2025-12-09T2100,140,196,1.1,75,18,22,48,186,细颗粒物(PM2.5)
洛阳市,吉利监测站,112.5736,34.8993,2025-12-09T2100,118,233,1.0,74,13,22,67,155,细颗粒物(PM2.5)
洛阳市,河科大西苑校区,112.3677,34.662,2025-12-09T2100,101,188,1.2,74,19,33,64,133,细颗粒物(PM2.5)
洛阳市,英才小学,112.4388,34.6781,2025-12-09T2100,126,208,1.3,83,18,19,48,166,细颗粒物(PM2.5)
洛阳市,春都路1号院,112.4600,34.6949,2025-12-09T2100,102,202,1.2,57,17,22,46,134,细颗粒物(PM2.5)
漯河市,三五一五工厂,114.051,33.5699,2025-12-09T2100,110,173,0.8,68,8,26,90,144,细颗粒物(PM2.5)
漯河市,漯河大学,114.0055,33.5698,2025-12-09T2100,105,158,1.0,60,7,57,95,138,细颗粒物(PM2.5)
漯河市,市水利局,114.0138,33.5828,2025-12-09T2100,100,153,1.1,59,8,35,94,132,细颗粒物(PM2.5)
漯河市,市广电局,114.0261,33.5698,2025-12-09T2100,91,161,0.8,60,8,35,88,120,细颗粒物(PM2.5)
漯河市,市图书馆,113.9749,33.5664,2025-12-09T2100,94,158,0.8,55,6,38,82,124,细颗粒物(PM2.5)
漯河市,韶山路11号,114.0892,33.5882,2025-12-09T2100,100,148,0.7,78,10,22,82,132,细颗粒物(PM2.5)
马鞍山市,湖东路四小,118.5092,31.6837,2025-12-09T2100,25,73,0.3,31,5,67,83,62,颗粒物(PM10)
马鞍山市,开发区,118.5024,31.6449,2025-12-09T2100,24,78,0.4,26,7,72,84,64,颗粒物(PM10)
马鞍山市,雨山,118.4918,31.6809,2025-12-09T2100,26,91,0.5,28,7,76,84,71,颗粒物(PM10)
马鞍山市,慈湖高新区,118.5274,31.72227,2025-12-09T2100,25,77,0.4,34,4,65,77,64,颗粒物(PM10)
茂名市,电白南海,111.0286,21.4688,2025-12-09T2100,46,68,1.1,20,10,159,155,64,细颗粒物(PM2.5)
茂名市,茂石化七小,110.9294,21.6533,2025-12-09T2100,46,75,0.7,27,7,132,135,64,细颗粒物(PM2.5)
茂名市,健康路,110.9107,21.6687,2025-12-09T2100,34,68,0.7,21,10,158,153,59,颗粒物(PM10)
茂名市,高岭,110.8592,21.6828,2025-12-09T2100,44,92,0.9,38,10,110,133,71,颗粒物(PM10)
茂名市,电白水东,111.01,21.5165,2025-12-09T2100,44,68,0.8,26,7,,130,,
眉山市,气象局,103.8416,30.0874,2025-12-09T2100,102,110,1.1,39,10,37,67,134,细颗粒物(PM2.5)
眉山市,市委党校,103.8578,30.0744,2025-12-09T2100,85,100,0.7,28,6,51,64,113,细颗粒物(PM2.5)
眉山市,区人社局,103.8291,30.0564,2025-12-09T2100,92,119,1.0,30,3,45,62,122,细颗粒物(PM2.5)
梅州市,梅江月梅,116.1231,24.3284,2025-12-09T2100,50,80,0.8,50,6,28,110,69,细颗粒物(PM2.5)
梅州市,梅县新城,116.0797,24.2719,2025-12-09T2100,65,110,0.9,68,7,11,108,88,细颗粒物(PM2.5)
梅州市,环境监控中心,116.1248,24.2654,2025-12-09T2100,41,65,0.7,67,5,19,102,58,"颗粒物(PM10),细颗粒物(PM2.5)"
梅州市,梅龙,116.1233,24.2991,2025-12-09T2100,43,78,0.9,40,9,38,104,64,颗粒物(PM10)
绵阳市,富乐山,104.7778,31.4741,2025-12-09T2100,79,89,0.9,28,10,9,29,105,细颗粒物(PM2.5)
绵阳市,高新区自来水公司,104.6697,31.4668,2025-12-09T2100,73,96,0.7,35,7,10,28,98,细颗粒物(PM2.5)
绵阳市,三水厂,104.7287,31.5075,2025-12-09T2100,74,93,0.8,44,6,6,22,99,细颗粒物(PM2.5)
南京市,迈皋桥,118.8086,32.1065,2025-12-09T2100,27,62,0.5,40,3,40,83,56,颗粒物(PM10)
南京市,草场门,118.7538,32.0551,2025-12-09T2100,22,61,0.4,38,3,52,73,56,颗粒物(PM10)
南京市,山西路,118.7794,32.0745,2025-12-09T2100,14,63,,28,3,57,86,,
南京市,中华门,118.7752,32.0023,2025-12-09T2100,17,58,0.4,26,4,50,80,54,颗粒物(PM10)
南京市,瑞金路,118.8109,32.0309,2025-12-09T2100,19,56,0.4,28,4,48,78,53,颗粒物(PM10)
南京市,玄武湖,118.7997,32.0754,2025-12-09T2100,9,59,0.4,26,4,57,83,55,颗粒物(PM10)
南京市,浦口,118.6414,32.0931,2025-12-09T2100,28,81,0.4,41,8,50,80,66,颗粒物(PM10)
南京市,奥体中心,118.7356,31.9996,2025-12-09T2100,17,63,0.4,42,7,58,90,57,颗粒物(PM10)
南京市,仙林大学城,118.9125,32.1028,2025-12-09T2100,22,83,0.6,38,7,41,79,67,颗粒物(PM10)
南京市,江宁彩虹桥,118.8436,31.9198,2025-12-09T2100,19,57,0.5,38,4,44,89,54,颗粒物(PM10)
南京市,六合雄州,118.8554,32.3578,2025-12-09T2100,29,101,0.7,65,7,21,77,76,颗粒物(PM10)
南京市,汶溪路181号,118.8708,31.3402,2025-12-09T2100,32,72,0.5,32,3,75,91,61,颗粒物(PM10)
南京市,中山西路1号,119.019,31.6512,2025-12-09T2100,24,53,0.6,26,4,50,69,52,颗粒物(PM10)
南宁市,二十一中,108.3103,22.7881,2025-12-09T2100,69,90,1.1,70,5,13,101,93,细颗粒物(PM2.5)
南宁市,北湖,108.3141,22.8528,2025-12-09T2100,91,152,1.0,111,8,0,107,120,细颗粒物(PM2.5)
南宁市,市监测站,108.3206,22.8225,2025-12-09T2100,64,84,1.4,89,8,17,116,87,细颗粒物(PM2.5)
南宁市,大自然花园,108.3829,22.8037,2025-12-09T2100,50,70,1.0,35,6,66,110,69,细颗粒物(PM2.5)
南宁市,区农职院,108.2397,22.8467,2025-12-09T2100,43,82,0.8,35,6,46,106,66,颗粒物(PM10)
南宁市,英华嘉园,108.3275,22.735,2025-12-09T2100,65,107,0.8,96,4,2,98,88,细颗粒物(PM2.5)
南宁市,红星社区,108.4834,22.7618,2025-12-09T2100,68,115,1.0,32,6,58,117,92,细颗粒物(PM2.5)
南宁市,乐贤路16号,108.2177,22.7774,2025-12-09T2100,60,115,1.0,82,4,0,94,83,颗粒物(PM10)
南平市,南平市监测站,118.1681,26.6369,2025-12-09T2100,16,32,0.6,20,6,62,111,32,
南平市,南平铝业有限公司,118.1825,26.6489,2025-12-09T2100,19,43,0.6,27,8,53,112,43,
南平市,南平七中,118.1756,26.6272,2025-12-09T2100,11,27,0.3,9,6,77,114,27,
南通市,狼山街道,120.9098,31.9663,2025-12-09T2100,23,56,0.6,27,2,40,84,53,颗粒物(PM10)
南通市,虹桥,120.86,32.0005,2025-12-09T2100,26,51,0.4,26,4,59,84,51,颗粒物(PM10)
南通市,城中,120.87,32.02,2025-12-09T2100,30,64,0.5,33,6,52,84,57,颗粒物(PM10)
南通市,星湖花园,120.94,31.93,2025-12-09T2100,27,64,0.6,41,3,36,74,57,颗粒物(PM10)
南通市,紫琅学院,120.81,32.0417,2025-12-09T2100,18,58,0.7,30,4,59,84,54,颗粒物(PM10)
南通市,通州监测站,121.067,32.062,2025-12-09T2100,24,36,0.5,16,3,76,92,36,
南通市,环境教育馆,120.9348,31.9883,2025-12-09T2100,37,66,0.4,62,5,8,84,58,颗粒物(PM10)
南阳市,瓦房庄,112.5224,33.0122,2025-12-09T2100,133,207,2.0,90,7,8,94,176,细颗粒物(PM2.5)
南阳市,汉画馆,112.5003,32.9735,2025-12-09T2100,133,192,1.5,81,5,13,87,176,细颗粒物(PM2.5)
南阳市,气象站,112.5573,33.027,2025-12-09T2100,149,237,1.0,56,7,60,110,199,细颗粒物(PM2.5)
南阳市,理工学院,112.5481,32.9689,2025-12-09T2100,119,179,1.1,54,8,62,104,156,细颗粒物(PM2.5)
南阳市,卧龙区政府,112.5234,32.9922,2025-12-09T2100,130,215,1.7,105,7,9,95,172,细颗粒物(PM2.5)
宁波市,区环保大楼,121.8358,29.911,2025-12-09T2100,14,45,0.6,69,6,22,66,45,
宁波市,万里学院,121.56,29.82,2025-12-09T2100,14,41,0.5,37,6,55,73,41,
宁波市,龙赛医院,121.713,29.9572,2025-12-09T2100,12,43,0.6,44,4,41,71,43,
宁波市,钱湖水厂,121.633,29.7733,2025-12-09T2100,6,23,0.4,14,6,71,73,23,
宁波市,太古小学,121.5856,29.8635,2025-12-09T2100,12,35,0.5,28,3,61,74,35,
宁波市,市环境监测中心,121.524,29.8674,2025-12-09T2100,11,41,0.4,30,8,57,68,41,
宁波市,万里国际学校,121.6147,29.9017,2025-12-09T2100,8,40,0.4,23,4,73,74,40,
宁波市,白沙活动中心,121.5594,29.8975,2025-12-09T2100,11,40,0.3,24,4,70,76,40,
宁德市,宁德市监测站,119.5388,26.6612,2025-12-09T2100,11,43,0.4,20,8,78,98,43,
宁德市,宁德一中,119.5231,26.6562,2025-12-09T2100,22,45,0.3,14,9,81,98,45,
怒江傈僳族自治州,州监测站,98.8601,25.8567,2025-12-09T2100,34,48,0.6,18,7,43,70,49,
怒江傈僳族自治州,泸水一中,98.8546,25.8417,2025-12-09T2100,17,33,0.8,27,5,22,48,33,
攀枝花市,弄弄坪,101.6891,26.571,2025-12-09T2100,36,59,1.6,34,24,53,81,55,颗粒物(PM10)
攀枝花市,河门口,101.5769,26.5928,2025-12-09T2100,42,62,1.5,19,14,62,84,59,细颗粒物(PM2.5)
攀枝花市,炳草岗,101.7169,26.585,2025-12-09T2100,41,74,1.2,54,11,31,78,62,颗粒物(PM10)
攀枝花市,仁和,101.7369,26.5008,2025-12-09T2100,47,78,1.1,24,8,29,62,65,细颗粒物(PM2.5)
攀枝花市,四十中小,101.7227,26.567,2025-12-09T2100,46,68,1.7,65,17,19,67,64,细颗粒物(PM2.5)
盘锦市,开发区,122.0303,41.1489,2025-12-09T2100,93,113,0.8,37,6,28,57,123,细颗粒物(PM2.5)
盘锦市,兴隆台,122.0485,41.0883,2025-12-09T2100,82,97,0.9,55,12,16,54,109,细颗粒物(PM2.5)
盘锦市,新生街道,121.8297,41.1028,2025-12-09T2100,110,,0.6,65,10,8,48,144,细颗粒物(PM2.5)
平顶山市,新华旅馆,113.3257,33.742,2025-12-09T2100,108,181,0.7,66,9,36,87,142,细颗粒物(PM2.5)
平顶山市,规划设计院,113.2919,33.737,2025-12-09T2100,104,198,0.9,55,7,51,83,137,细颗粒物(PM2.5)
平顶山市,平顶山工学院,113.182,33.774,2025-12-09T2100,92,162,0.7,48,9,52,89,122,细颗粒物(PM2.5)
平顶山市,规划局,113.3025,33.73,2025-12-09T2100,90,173,0.8,50,9,54,87,119,细颗粒物(PM2.5)
平顶山市,石龙区,112.8867,33.9116,2025-12-09T2100,112,183,1.0,57,10,38,98,147,细颗粒物(PM2.5)
平凉市,聚贤嘉苑,106.6692,35.5461,2025-12-09T2100,82,128,1.0,82,12,7,51,109,细颗粒物(PM2.5)
平凉市,博物馆,106.7021,35.5307,2025-12-09T2100,81,126,1.2,81,21,5,52,108,细颗粒物(PM2.5)
萍乡市,中医院,113.8385,27.6434,2025-12-09T2100,94,154,1.5,66,8,42,135,124,细颗粒物(PM2.5)
萍乡市,市政府车库,113.8493,27.6253,2025-12-09T2100,95,120,2.1,56,9,63,136,125,细颗粒物(PM2.5)
萍乡市,市环保局,113.8676,27.6435,2025-12-09T2100,75,119,0.9,33,18,104,154,100,细颗粒物(PM2.5)
萍乡市,安源区政府,113.866,27.6198,2025-12-09T2100,126,181,3.1,55,18,53,118,166,细颗粒物(PM2.5)
莆田市,荔城区仓后路,119.0141,25.4325,2025-12-09T2100,10,34,0.4,9,3,80,112,34,
莆田市,莆田市监测站,119.0015,25.4553,2025-12-09T2100,6,31,0.3,7,4,87,119,31,
莆田市,涵江区六中,119.1119,25.4561,2025-12-09T2100,7,34,0.4,7,3,87,109,34,
莆田市,秀屿区政府,119.1013,25.3215,2025-12-09T2100,9,39,0.4,11,4,82,109,39,
濮阳市,环保局,115.0312,35.7636,2025-12-09T2100,120,167,1.1,61,9,32,69,158,细颗粒物(PM2.5)
濮阳市,油田运输公司,115.0574,35.7609,2025-12-09T2100,124,193,1.3,65,11,30,71,163,细颗粒物(PM2.5)
濮阳市,濮水河管理处,115,35.7668,2025-12-09T2100,118,163,1.2,43,10,40,65,155,细颗粒物(PM2.5)
濮阳市,任丘路479号,115.0924,35.7686,2025-12-09T2100,120,187,1.0,51,9,37,65,158,细颗粒物(PM2.5)
普洱市,市环保局,100.98,22.7633,2025-12-09T2100,31,72,0.5,25,4,23,65,61,颗粒物(PM10)
普洱市,普洱第二中学,100.9817,22.8322,2025-12-09T2100,32,57,0.4,20,4,28,63,54,颗粒物(PM10)
七台河市,中波台,131.0577,45.7879,2025-12-09T2100,25,37,0.6,36,8,22,52,37,
七台河市,人民广场,131.0176,45.7761,2025-12-09T2100,30,31,0.6,41,7,16,47,43,
七台河市,新建矿广场,130.8781,45.8222,2025-12-09T2100,26,,0.2,28,8,21,47,38,
齐齐哈尔市,安居小区,123.9305,47.3636,2025-12-09T2100,17,48,0.7,18,10,31,41,48,
齐齐哈尔市,中心广场,123.9488,47.3386,2025-12-09T2100,17,45,0.5,23,9,29,40,45,
齐齐哈尔市,农牧车辆厂,123.9483,47.3227,2025-12-09T2100,15,51,0.7,20,8,23,36,51,颗粒物(PM10)
齐齐哈尔市,市环境监测站,123.945,47.2988,2025-12-09T2100,19,48,0.5,19,10,31,46,48,
齐齐哈尔市,富区青少年活动中心,123.6333,47.2075,2025-12-09T2100,51,86,0.8,18,9,29,40,70,细颗粒物(PM2.5)
黔东南苗族侗族自治州,市环境监测站,107.9783,26.5747,2025-12-09T2100,66,84,1.1,50,8,,68,,
黔东南苗族侗族自治州,凯里学院,107.8908,26.5311,2025-12-09T2100,30,36,0.6,12,8,75,71,43,
黔南布依族苗族自治州,小围寨,107.5228,26.2403,2025-12-09T2100,22,22,0.5,5,4,78,72,32,
黔南布依族苗族自治州,沙坝,107.5175,26.2978,2025-12-09T2100,24,36,0.6,10,4,54,64,36,
黔西南布依族苗族自治州,场坝街,104.9022,25.0925,2025-12-09T2100,28,37,0.6,9,2,64,67,40,
黔西南布依族苗族自治州,坪东大道,104.8811,25.0992,2025-12-09T2100,42,,0.7,9,5,61,64,59,细颗粒物(PM2.5)
钦州市,市环保站,108.6236,21.9667,2025-12-09T2100,61,78,1.0,26,5,118,130,83,细颗粒物(PM2.5)
钦州市,沙埠小学,108.6549,21.9481,2025-12-09T2100,90,109,0.9,71,7,48,134,119,细颗粒物(PM2.5)
钦州市,港区一小,108.5989,21.7431,2025-12-09T2100,51,156,0.7,85,16,59,132,103,颗粒物(PM10)
钦州市,北职校,108.5959,21.9633,2025-12-09T2100,76,93,0.8,27,9,98,131,102,细颗粒物(PM2.5)
秦皇岛市,第一关,119.7493,40.0116,2025-12-09T2100,17,27,0.2,64,7,7,42,32,
秦皇岛市,监测站,119.5897,39.9499,2025-12-09T2100,40,85,0.8,64,10,5,37,68,颗粒物(PM10)
秦皇岛市,建设大厦,119.5251,39.9041,2025-12-09T2100,42,73,0.7,59,9,8,43,62,颗粒物(PM10)
秦皇岛市,文明里,119.610547,39.943889,2025-12-09T2100,19,54,0.5,64,12,2,38,52,颗粒物(PM10)
秦皇岛市,北戴河轮滑馆,119.5090,39.8253,2025-12-09T2100,26,43,0.3,39,5,28,48,43,
青岛市,市南区东部子站,120.4134,36.0658,2025-12-09T2100,22,75,0.4,11,9,93,82,63,颗粒物(PM10)
青岛市,四方区子站,120.3664,36.1032,2025-12-09T2100,31,73,0.6,23,4,76,71,62,颗粒物(PM10)
青岛市,市南区西部子站,120.2994,36.054,2025-12-09T2100,27,78,0.7,24,10,81,71,64,颗粒物(PM10)
青岛市,崂山区子站,120.4581,36.0858,2025-12-09T2100,17,70,0.6,21,10,86,80,60,颗粒物(PM10)
青岛市,城阳区子站,120.3999,36.3083,2025-12-09T2100,27,97,0.5,57,8,51,54,74,颗粒物(PM10)
青岛市,即墨2号,120.5014,36.4034,2025-12-09T2100,47,96,0.8,44,10,54,46,73,颗粒物(PM10)
青岛市,市北区南部,120.3503,36.0736,2025-12-09T2100,19,68,0.6,14,4,80,74,59,颗粒物(PM10)
青岛市,李沧区北部,120.3948,36.1805,2025-12-09T2100,36,88,0.9,58,8,46,50,69,颗粒物(PM10)
青岛市,珠江路669号,120.1969,35.9546,2025-12-09T2100,27,78,0.4,28,10,70,82,64,颗粒物(PM10)
青岛市,黄岛区人民政府广场,120.0424,35.8656,2025-12-09T2100,31,85,0.9,62,7,32,67,68,颗粒物(PM10)
清远市,凤城街办,113.0208,23.7106,2025-12-09T2100,39,60,0.9,40,7,69,125,55,"颗粒物(PM10),细颗粒物(PM2.5)"
清远市,技师学院,113.0477,23.6344,2025-12-09T2100,49,78,1.0,92,6,16,127,68,细颗粒物(PM2.5)
清远市,清新太和,112.9903,23.7403,2025-12-09T2100,27,41,0.6,15,10,118,137,41,
清远市,清城东城,113.076,23.7198,2025-12-09T2100,47,72,0.8,33,8,57,125,65,细颗粒物(PM2.5)
庆阳市,庆阳五中,107.6325,35.7357,2025-12-09T2100,50,73,0.7,31,8,68,81,69,细颗粒物(PM2.5)
庆阳市,市环保局,107.6364,35.7067,2025-12-09T2100,55,74,0.9,36,14,60,82,75,细颗粒物(PM2.5)
曲靖市,环境监测站,103.7897,25.5035,2025-12-09T2100,29,59,0.7,20,7,69,91,55,颗粒物(PM10)
曲靖市,烟厂办公区,103.8,25.5364,2025-12-09T2100,30,49,0.6,19,5,69,90,49,
曲靖市,南苑二区,103.7947,25.462,2025-12-09T2100,29,56,0.6,15,3,64,79,53,颗粒物(PM10)
曲靖市,曲靖师范学院,103.7444,25.5261,2025-12-09T2100,44,55,0.5,11,4,83,95,62,细颗粒物(PM2.5)
衢州市,环保大楼,118.8692,28.9398,2025-12-09T2100,27,64,0.4,35,6,79,105,57,颗粒物(PM10)
衢州市,实验学校,118.8709,28.9666,2025-12-09T2100,23,54,0.5,32,4,89,110,52,颗粒物(PM10)
衢州市,衢州学院,118.8621,28.9808,2025-12-09T2100,23,54,0.5,48,8,70,109,52,颗粒物(PM10)
泉州市,涂山街,118.5819,24.9117,2025-12-09T2100,13,33,0.4,7,3,82,117,33,
泉州市,津头埔,118.5972,24.8978,2025-12-09T2100,12,35,0.5,8,3,77,108,35,
泉州市,万安,118.6663,24.9424,2025-12-09T2100,,,0.4,8,3,82,115,,
泉州市,城华南路,118.6333,24.9264,2025-12-09T2100,13,31,0.5,8,4,78,113,31,
日喀则市,日喀则监测站,88.8876,29.2718,2025-12-09T2100,11,20,0.5,29,16,88,113,28,
日喀则市,林业技术推广中心,88.8781,29.2426,2025-12-09T2100,3,15,0.3,2,9,94,101,30,
日照市,监测站,119.471,35.4209,2025-12-09T2100,42,112,1.2,82,13,3,56,81,颗粒物(PM10)
日照市,市政府广场,119.523,35.4216,2025-12-09T2100,26,83,0.8,59,11,30,41,67,颗粒物(PM10)
日照市,港务局,119.5587,35.4044,2025-12-09T2100,25,90,0.7,37,9,55,50,70,颗粒物(PM10)
日照市,职业技术学院,119.5328,35.4625,2025-12-09T2100,24,88,0.9,42,9,44,53,69,颗粒物(PM10)
日照市,岚山环保分局,119.3266,35.1044,2025-12-09T2100,19,70,0.6,31,10,60,49,60,颗粒物(PM10)
三门峡市,市政府,111.1922,34.7752,2025-12-09T2100,146,,0.7,36,19,84,87,195,细颗粒物(PM2.5)
三门峡市,开发区,111.1587,34.7942,2025-12-09T2100,134,197,0.7,35,18,82,80,178,细颗粒物(PM2.5)
三门峡市,三门峡市第一小学,111.1911,34.7829,2025-12-09T2100,142,157,0.6,30,18,83,83,189,细颗粒物(PM2.5)
三门峡市,富达温泉假日酒店,111.1,34.7167,2025-12-09T2100,100,155,0.4,48,18,46,62,132,细颗粒物(PM2.5)
三明市,三钢,117.6211,26.2625,2025-12-09T2100,18,33,0.6,14,5,78,117,33,
三明市,三明二中,117.635,26.2714,2025-12-09T2100,22,25,0.5,8,8,83,115,32,
三明市,三元区政府,117.6028,26.2378,2025-12-09T2100,21,38,0.6,14,7,81,122,38,
三亚市,河东子站,109.5078,18.2489,2025-12-09T2100,24,40,0.6,11,5,89,110,40,
三亚市,河西子站,109.4964,18.2681,2025-12-09T2100,29,43,0.5,8,4,88,106,43,
三亚市,君悦子站,109.7348,18.3443,2025-12-09T2100,26,69,0.7,8,5,102,95,60,颗粒物(PM10)
山南市,山南监测站,91.7608,29.2313,2025-12-09T2100,6,19,0.3,7,5,89,93,28,
山南市,山南人民医院,91.7706,29.2436,2025-12-09T2100,17,34,0.5,21,5,70,85,34,
汕头市,金平子站,116.6794,23.3667,2025-12-09T2100,21,49,0.5,14,4,97,128,49,
汕头市,龙湖子站,116.7244,23.3633,2025-12-09T2100,19,49,0.4,12,8,94,118,49,
汕头市,濠江子站,116.7258,23.2775,2025-12-09T2100,20,41,0.5,8,7,90,121,41,
汕头市,澄海子站,116.7519,23.4714,2025-12-09T2100,20,37,0.6,12,5,94,124,37,
汕头市,潮阳子站,116.6092,23.2539,2025-12-09T2100,16,48,0.6,11,6,99,129,48,
汕头市,潮南峡山,116.454,23.2684,2025-12-09T2100,11,30,0.5,11,8,103,132,33,
汕头市,潮南子站,116.4069,23.2533,2025-12-09T2100,20,54,0.5,14,6,96,126,52,颗粒物(PM10)
汕尾市,市环保局,115.3653,22.775,2025-12-09T2100,25,41,0.5,12,7,111,130,41,
汕尾市,市政府,115.3706,22.7898,2025-12-09T2100,27,38,0.5,13,7,110,134,39,
汕尾市,新城中学,115.3622,22.7925,2025-12-09T2100,22,48,0.5,14,6,104,135,48,
商洛市,监测站,109.9154,33.8715,2025-12-09T2100,44,70,0.5,45,8,69,88,62,细颗粒物(PM2.5)
商洛市,商州区中学,109.9643,33.8471,2025-12-09T2100,47,74,0.4,45,8,57,83,65,细颗粒物(PM2.5)
商丘市,环境监测站,115.6702,34.4285,2025-12-09T2100,57,100,0.6,41,2,51,80,78,细颗粒物(PM2.5)
商丘市,粮食局,115.6458,34.4045,2025-12-09T2100,54,94,0.5,36,4,56,79,74,细颗粒物(PM2.5)
商丘市,睢阳区环保局,115.6293,34.3948,2025-12-09T2100,51,105,0.5,36,6,56,77,78,颗粒物(PM10)
商丘市,梁园区档案局,115.6071,34.4465,2025-12-09T2100,44,81,0.5,37,5,53,82,66,颗粒物(PM10)
上海市,普陀,121.4,31.238,2025-12-09T2100,16,45,0.4,42,6,54,75,45,
上海市,十五厂,121.478,31.2036,2025-12-09T2100,18,53,0.7,59,9,32,70,52,颗粒物(PM10)
上海市,虹口,121.467,31.3008,2025-12-09T2100,16,47,0.4,47,9,35,72,47,
上海市,静安监测站,121.425,31.2261,2025-12-09T2100,17,43,0.4,40,6,52,79,43,
上海市,浦东川沙,121.703,31.1907,2025-12-09T2100,12,47,0.6,61,10,29,80,47,
上海市,浦东新区监测站,121.533,31.2284,2025-12-09T2100,18,46,,,6,43,74,,
上海市,浦东张江,121.577,31.2071,2025-12-09T2100,14,48,0.6,50,6,41,80,48,
上海市,宝山庙行,121.4316,31.3322,2025-12-09T2100,18,51,0.6,47,4,40,72,51,颗粒物(PM10)
上海市,崇明上实东滩,121.8791,31.4662,2025-12-09T2100,3,18,0.5,4,4,77,90,25,
上海市,嘉定南翔,121.3162,31.2838,2025-12-09T2100,13,39,0.3,44,7,38,68,39,
上海市,金山新城,121.3359,30.7456,2025-12-09T2100,13,28,0.4,16,5,76,81,28,
上海市,闵行浦江,121.4996,31.0739,2025-12-09T2100,21,51,0.6,42,6,42,68,51,颗粒物(PM10)
上海市,青浦徐泾,121.2886,31.1663,2025-12-09T2100,16,49,0.1,47,4,43,70,49,
上海市,松江图书馆,121.2186,31.0378,2025-12-09T2100,17,42,0.4,54,6,36,71,42,
上海市,长宁仙霞,121.3902,31.2059,2025-12-09T2100,13,42,0.3,39,7,,74,,
上海市,浦东惠南,121.7965,31.0507,2025-12-09T2100,11,45,0.5,50,4,34,75,45,
上海市,奉贤南桥新城,121.4891,30.925,2025-12-09T2100,25,79,0.3,56,5,31,78,65,颗粒物(PM10)
上海市,冠生园路458号,121.4174,31.16637,2025-12-09T2100,16,46,0.8,54,5,37,72,46,
上海市,宁武路151号,121.5419,31.2683,2025-12-09T2100,16,55,0.5,59,5,25,64,53,颗粒物(PM10)
上饶市,市监测站,117.9756,28.4436,2025-12-09T2100,35,82,0.8,24,8,88,120,66,颗粒物(PM10)
上饶市,凤凰光学,117.9519,28.4628,2025-12-09T2100,40,89,0.8,29,11,85,120,70,颗粒物(PM10)
上饶市,双创科技城,117.897,28.4315,2025-12-09T2100,49,80,0.8,28,9,93,125,68,细颗粒物(PM2.5)
上饶市,裕丰大道,118.1904,28.4448,2025-12-09T2100,39,105,0.7,36,9,92,126,78,颗粒物(PM10)
韶关市,市八中,113.5824,24.7733,2025-12-09T2100,48,88,,58,11,,108,,
韶关市,园林处,113.5917,24.7972,2025-12-09T2100,61,70,1.1,67,10,29,118,83,细颗粒物(PM2.5)
韶关市,曲江监测站,113.5971,24.6863,2025-12-09T2100,60,85,1.3,35,11,59,111,82,细颗粒物(PM2.5)
韶关市,大学路288号,113.6668,24.7756,2025-12-09T2100,47,60,1.2,20,31,66,109,65,细颗粒物(PM2.5)
韶关市,碧湖山庄,113.5556,24.8082,2025-12-09T2100,56,80,0.8,21,5,80,122,77,细颗粒物(PM2.5)
邵阳市,市化工厂,111.5283,27.2442,2025-12-09T2100,118,161,1.2,52,18,66,131,155,细颗粒物(PM2.5)
邵阳市,市环保局,111.4328,27.2272,2025-12-09T2100,106,118,1.5,38,12,85,122,139,细颗粒物(PM2.5)
邵阳市,北塔二期4-26地块,111.4460,27.2472,2025-12-09T2100,103,142,1.4,65,12,50,115,135,细颗粒物(PM2.5)
邵阳市,邵水西路287号,111.4739,27.2282,2025-12-09T2100,133,139,1.2,46,16,61,121,176,细颗粒物(PM2.5)
绍兴市,城东开发委,120.6053,29.9928,2025-12-09T2100,26,65,0.5,56,9,28,82,58,颗粒物(PM10)
绍兴市,树下王站,120.5483,30.0003,2025-12-09T2100,29,63,0.4,33,7,41,72,57,颗粒物(PM10)
绍兴市,绍兴中专,120.5683,29.9361,2025-12-09T2100,25,73,0.7,44,6,24,86,62,颗粒物(PM10)
绍兴市,柯桥区政府,120.4906,30.0861,2025-12-09T2100,22,50,0.6,37,9,46,84,50,
绍兴市,重华小学,120.8752,30.0249,2025-12-09T2100,17,44,0.4,25,6,66,87,44,
绍兴市,上虞中学,120.8369,30.0137,2025-12-09T2100,18,48,0.3,23,8,70,91,48,
绍兴市,柯桥妇保,120.4722,30.0415,2025-12-09T2100,25,67,0.5,40,5,32,89,59,颗粒物(PM10)
绍兴市,袍江中学,120.6153,30.0764,2025-12-09T2100,22,59,0.4,33,9,49,83,55,颗粒物(PM10)
深圳市,通心岭子站,114.1063,22.5545,2025-12-09T2100,28,46,0.6,13,10,140,147,46,
深圳市,洪湖,114.117,22.5625,2025-12-09T2100,30,56,0.6,26,9,122,142,53,颗粒物(PM10)
深圳市,华侨城,113.987,22.5417,2025-12-09T2100,33,49,1.0,21,9,118,139,49,
深圳市,南海子站,113.9181,22.5171,2025-12-09T2100,34,57,0.9,29,7,116,145,54,颗粒物(PM10)
深圳市,盐田,114.2458,22.5689,2025-12-09T2100,28,46,0.7,33,10,107,131,46,
深圳市,龙岗,114.2283,22.7244,2025-12-09T2100,37,58,0.9,24,8,122,155,54,颗粒物(PM10)
深圳市,南澳,114.494,22.5422,2025-12-09T2100,23,37,0.6,8,7,97,139,37,
深圳市,葵涌,114.41,22.6342,2025-12-09T2100,24,40,0.7,20,7,100,132,40,
深圳市,梅沙,114.297,22.5978,2025-12-09T2100,22,46,0.7,14,6,121,145,46,
深圳市,观澜,114.0678,22.738,2025-12-09T2100,45,91,0.8,55,8,74,150,71,颗粒物(PM10)
深圳市,莲花,114.0731,22.559,2025-12-09T2100,28,46,0.7,19,8,128,131,46,
深圳市,民治,114.0261,22.6198,2025-12-09T2100,28,55,0.7,47,8,104,150,53,颗粒物(PM10)
深圳市,横岗,114.1871,22.6451,2025-12-09T2100,31,56,0.7,21,8,128,145,53,颗粒物(PM10)
深圳市,坪山,114.3551,22.7151,2025-12-09T2100,27,53,0.6,18,8,118,145,52,颗粒物(PM10)
深圳市,西乡,113.8953,22.5861,2025-12-09T2100,36,66,0.8,68,8,79,155,58,颗粒物(PM10)
沈阳市,浑南东路,123.505,41.7406,2025-12-09T2100,59,103,1.0,78,16,5,38,80,细颗粒物(PM2.5)
沈阳市,新秀街,123.4231,41.6989,2025-12-09T2100,49,111,1.2,74,15,4,27,81,颗粒物(PM10)
沈阳市,东陵路,123.5903,41.8411,2025-12-09T2100,60,84,0.6,56,8,3,35,82,细颗粒物(PM2.5)
沈阳市,陵东街,123.4264,41.8467,2025-12-09T2100,52,84,0.9,67,11,0,34,72,细颗粒物(PM2.5)
沈阳市,文化路,123.4114,41.7653,2025-12-09T2100,62,111,1.2,74,27,2,30,84,细颗粒物(PM2.5)
沈阳市,小河沿,123.4678,41.7867,2025-12-09T2100,50,75,1.3,83,19,4,36,69,细颗粒物(PM2.5)
沈阳市,太原街,123.4017,41.7972,2025-12-09T2100,83,127,0.9,71,17,0,32,110,细颗粒物(PM2.5)
沈阳市,京沈街,123.3783,41.9228,2025-12-09T2100,70,71,0.7,46,12,27,48,94,细颗粒物(PM2.5)
沈阳市,沈辽西路,123.2444,41.7347,2025-12-09T2100,78,149,1.4,85,22,9,32,104,细颗粒物(PM2.5)
沈阳市,裕农路,123.5953,41.9086,2025-12-09T2100,59,84,0.9,42,4,23,42,80,细颗粒物(PM2.5)
十堰市,滨河新村,110.78,32.6494,2025-12-09T2100,91,135,1.2,93,8,17,86,120,细颗粒物(PM2.5)
十堰市,刘家沟,110.7258,32.6389,2025-12-09T2100,90,197,,63,9,,97,124,颗粒物(PM10)
十堰市,铁二处,110.8839,32.5714,2025-12-09T2100,75,122,1.1,49,9,34,77,100,细颗粒物(PM2.5)
十堰市,郧阳区金沙路,110.8054,32.8401,2025-12-09T2100,72,129,1.1,39,9,51,85,97,细颗粒物(PM2.5)
石河子市,艾青诗歌馆,86.0497,44.2967,2025-12-09T2100,54,68,1.4,23,10,35,41,74,细颗粒物(PM2.5)
石河子市,南区管委会,86.047,44.2331,2025-12-09T2100,56,108,1.5,24,6,31,50,79,颗粒物(PM10)
四平市,境园,124.388,43.193,2025-12-09T2100,124,159,1.0,51,9,8,50,163,细颗粒物(PM2.5)
四平市,植物园,124.4036,43.1411,2025-12-09T2100,63,123,0.7,55,7,13,50,87,颗粒物(PM10)
四平市,世纪城,124.3419,43.1666,2025-12-09T2100,156,200,1.8,66,18,16,47,206,细颗粒物(PM2.5)
松原市,江南,124.8006,45.1214,2025-12-09T2100,38,61,0.5,30,10,20,33,56,颗粒物(PM10)
松原市,江北,124.7965,45.1722,2025-12-09T2100,37,45,0.6,21,10,34,46,53,细颗粒物(PM2.5)
苏州市,彩香,120.591,31.3019,2025-12-09T2100,19,56,0.2,32,8,47,66,53,颗粒物(PM10)
苏州市,轧钢厂,120.596,31.3264,2025-12-09T2100,17,58,0.4,43,6,33,64,54,颗粒物(PM10)
苏州市,吴中区,120.613,31.2703,2025-12-09T2100,14,52,0.7,42,6,38,55,51,颗粒物(PM10)
苏州市,苏州新区,120.543,31.2994,2025-12-09T2100,16,52,0.5,39,7,45,66,51,颗粒物(PM10)
苏州市,苏州工业园区,120.669,31.3097,2025-12-09T2100,16,60,0.4,56,5,26,65,55,颗粒物(PM10)
苏州市,相城区,120.641,31.3708,2025-12-09T2100,11,47,0.5,42,9,47,63,47,
苏州市,方洲路,120.743,31.3188,2025-12-09T2100,13,47,0.3,49,6,39,61,47,
苏州市,木渎中学,120.5031,31.2774,2025-12-09T2100,17,58,0.6,38,6,48,68,54,颗粒物(PM10)
苏州市,越秀幼儿园,120.624,31.1733,2025-12-09T2100,21,54,0.4,44,5,,72,,
苏州市,高铁新城,120.6505,31.416,2025-12-09T2100,15,52,0.6,74,7,4,58,51,颗粒物(PM10)
宿迁市,宿迁学院,118.293,33.9528,2025-12-09T2100,45,121,0.4,40,8,44,65,86,颗粒物(PM10)
宿迁市,宿迁中学,118.2442,33.9592,2025-12-09T2100,44,117,0.6,26,7,59,72,84,颗粒物(PM10)
宿迁市,市供电局,118.283,33.965,2025-12-09T2100,43,121,0.6,34,5,52,74,86,颗粒物(PM10)
宿迁市,宿豫区政府,118.3225,33.9447,2025-12-09T2100,48,125,0.6,40,8,45,68,88,颗粒物(PM10)
宿州市,远航博物馆,116.9509,33.666,2025-12-09T2100,44,127,0,36,6,59,86,89,颗粒物(PM10)
宿州市,社会福利中心,116.9708,33.591,2025-12-09T2100,50,136,0.4,40,28,42,73,93,颗粒物(PM10)
宿州市,宿州学院,116.9884,33.6305,2025-12-09T2100,,117,0.5,35,8,,82,,
宿州市,皖北煤电集团,116.9648,33.6252,2025-12-09T2100,54,123,0.6,36,7,50,77,87,颗粒物(PM10)
绥化市,人和东街,126.9785,46.6365,2025-12-09T2100,57,77,0.8,34,6,26,46,78,细颗粒物(PM2.5)
绥化市,党政办公中心,126.964,46.6528,2025-12-09T2100,48,63,0.5,26,6,35,49,67,细颗粒物(PM2.5)
随州市,市委党校,113.3583,31.7275,2025-12-09T2100,121,185,2.0,84,7,13,93,159,细颗粒物(PM2.5)
随州市,市林业局,113.3833,31.6908,2025-12-09T2100,98,138,1.9,64,10,49,123,129,细颗粒物(PM2.5)
随州市,市立交桥水厂,113.3983,31.7308,2025-12-09T2100,148,180,1.3,113,10,2,96,198,细颗粒物(PM2.5)
遂宁市,市监测站,105.5582,30.5232,2025-12-09T2100,74,106,0.8,24,6,4,3,99,细颗粒物(PM2.5)
遂宁市,行政中心,105.5861,30.5366,2025-12-09T2100,83,107,0.7,25,8,4,10,110,细颗粒物(PM2.5)
遂宁市,美宁食品公司,105.5918,30.4728,2025-12-09T2100,66,97,0.7,27,6,8,15,89,细颗粒物(PM2.5)
塔城地区,东门外小游园,82.9994,46.7432,2025-12-09T2100,18,25,0.6,13,4,40,59,26,
台州市,黄岩环保大楼,121.273,28.6459,2025-12-09T2100,12,45,0.3,34,5,38,84,45,
台州市,台州环保大楼,121.419,28.6542,2025-12-09T2100,11,38,0.3,16,6,68,89,38,
台州市,路桥田洋王,121.377,28.5773,2025-12-09T2100,13,41,0.4,18,4,70,86,41,
台州市,台州科技职业学院,121.2568,28.6681,2025-12-09T2100,19,43,0.5,20,5,64,82,43,
太原市,尖草坪,112.522,37.8873,2025-12-09T2100,93,180,1.6,92,22,5,36,123,细颗粒物(PM2.5)
太原市,上兰,112.434,38.0108,2025-12-09T2100,78,133,1.2,59,15,13,29,104,细颗粒物(PM2.5)
太原市,晋源,112.469,37.7124,2025-12-09T2100,79,148,1.5,81,16,4,38,105,细颗粒物(PM2.5)
太原市,小店,112.5583,37.7394,2025-12-09T2100,102,173,1.5,101,23,4,52,134,细颗粒物(PM2.5)
太原市,桃园,112.5369,37.8692,2025-12-09T2100,105,201,1.8,92,17,4,33,138,细颗粒物(PM2.5)
太原市,坞城,112.57,37.8195,2025-12-09T2100,90,157,1.6,116,22,3,46,119,细颗粒物(PM2.5)
太原市,南寨,112.549,37.9854,2025-12-09T2100,102,189,1.9,75,16,4,28,134,细颗粒物(PM2.5)
太原市,金胜,112.4719,37.7831,2025-12-09T2100,70,120,1.2,58,16,24,38,94,细颗粒物(PM2.5)
太原市,育英中学,112.5608,37.8807,2025-12-09T2100,90,172,1.8,88,20,5,38,119,细颗粒物(PM2.5)
泰安市,监测站,117.1437,36.1937,2025-12-09T2100,66,110,0.7,40,10,57,61,89,细颗粒物(PM2.5)
泰安市,人口学校,117.0885,36.2017,2025-12-09T2100,62,105,0.5,28,10,88,85,84,细颗粒物(PM2.5)
泰安市,电力学校,117.1089,36.1758,2025-12-09T2100,86,132,0.8,67,17,58,71,114,细颗粒物(PM2.5)
泰安市,国网新校,117.1812,36.2275,2025-12-09T2100,97,152,1.0,74,10,18,61,128,细颗粒物(PM2.5)
泰安市,交通技校,117.0313,36.2018,2025-12-09T2100,72,117,1.1,32,12,71,74,97,细颗粒物(PM2.5)
泰安市,山东第一医科大学,117.0829,36.13,2025-12-09T2100,79,129,0.8,61,13,50,65,105,细颗粒物(PM2.5)
泰州市,公园路,119.905,32.4878,2025-12-09T2100,31,78,0.4,27,8,55,80,64,颗粒物(PM10)
泰州市,莲花,119.9189,32.4625,2025-12-09T2100,36,81,0.5,21,11,58,83,66,颗粒物(PM10)
泰州市,留学生创业园,119.888,32.4639,2025-12-09T2100,35,86,0.6,24,12,60,83,68,颗粒物(PM10)
泰州市,王营,119.8767,32.3289,2025-12-09T2100,36,95,0.7,32,8,52,88,73,颗粒物(PM10)
泰州市,姜堰区政府广场,120.1259,32.5099,2025-12-09T2100,34,81,0.6,24,8,58,84,66,颗粒物(PM10)
泰州市,周山河街区,119.9192,32.4322,2025-12-09T2100,35,85,0.6,24,11,49,74,68,颗粒物(PM10)
唐山市,物资局,118.1725,39.6334,2025-12-09T2100,38,81,1.3,60,12,7,36,66,颗粒物(PM10)
唐山市,十二中,118.1705,39.6506,2025-12-09T2100,36,75,0.8,,7,15,34,,
唐山市,小山,118.1869,39.622,2025-12-09T2100,37,75,1.6,37,3,13,32,63,颗粒物(PM10)
唐山市,冀东油田职工医院,118.4359,39.2762,2025-12-09T2100,44,74,1.0,56,11,4,38,62,"颗粒物(PM10),细颗粒物(PM2.5)"
唐山市,正泰大街热力站,118.09279,39.58089,2025-12-09T2100,44,81,1.0,41,4,4,29,66,颗粒物(PM10)
唐山市,丰润区政府,118.1562,39.8322,2025-12-09T2100,39,86,1.2,35,5,2,32,68,颗粒物(PM10)
唐山市,金山小学,118.43673,39.73809,2025-12-09T2100,27,60,1.3,48,10,10,37,55,颗粒物(PM10)
唐山市,政府服务中心,118.24498,39.66941,2025-12-09T2100,33,47,0.6,45,16,13,24,48,
唐山市,消防缸窑路中队,118.2059,39.6585,2025-12-09T2100,26,68,1.0,30,8,15,31,59,颗粒物(PM10)
唐山市,路南电大,118.1436,39.6202,2025-12-09T2100,47,88,1.3,35,2,8,31,69,颗粒物(PM10)
唐山市,友谊北路34号,118.1309,39.6360,2025-12-09T2100,41,86,1.8,44,6,7,32,68,颗粒物(PM10)
天津市,勤俭道,117.1444,39.1661,2025-12-09T2100,102,180,1.7,99,15,6,42,134,细颗粒物(PM2.5)
天津市,前进道,117.202,39.0927,2025-12-09T2100,112,181,1.3,100,14,2,40,147,细颗粒物(PM2.5)
天津市,淮河道,117.1837,39.2133,2025-12-09T2100,126,235,1.8,106,13,3,16,166,细颗粒物(PM2.5)
天津市,跃进路,117.3083,39.0884,2025-12-09T2100,119,219,2.0,110,16,1,38,156,细颗粒物(PM2.5)
天津市,第四大街,117.707,39.0343,2025-12-09T2100,118,230,0.9,132,13,5,26,155,细颗粒物(PM2.5)
天津市,永明路,117.457,38.8394,2025-12-09T2100,130,210,1.3,107,12,0,32,172,细颗粒物(PM2.5)
天津市,汉北路,117.764,39.1587,2025-12-09T2100,94,149,1.4,83,10,0,3,124,细颗粒物(PM2.5)
天津市,河西一经路,117.7918,39.2474,2025-12-09T2100,96,156,1.3,98,11,0,10,127,细颗粒物(PM2.5)
天津市,津沽路,117.3747,38.9846,2025-12-09T2100,114,174,1.1,102,17,4,41,149,细颗粒物(PM2.5)
天津市,宾水西道,117.1589,39.0845,2025-12-09T2100,107,160,1.4,88,7,3,42,140,细颗粒物(PM2.5)
天津市,大理道,117.1941,39.1067,2025-12-09T2100,115,183,1.4,107,15,2,41,150,细颗粒物(PM2.5)
天津市,中山北路,117.2101,39.1699,2025-12-09T2100,117,,1.9,94,10,4,27,153,细颗粒物(PM2.5)
天津市,西四道,117.3876,39.1488,2025-12-09T2100,94,176,1.4,105,12,2,27,124,细颗粒物(PM2.5)
天津市,雍阳西道,117.0365,39.3828,2025-12-09T2100,56,120,0.8,78,13,5,14,85,颗粒物(PM10)
天津市,辛老路,117.0296,39.0605,2025-12-09T2100,127,224,1.6,95,15,7,38,168,细颗粒物(PM2.5)
天津市,地纬路,116.9638,38.9375,2025-12-09T2100,167,266,1.6,96,16,3,23,217,细颗粒物(PM2.5)
天津市,北环路,117.4067,40.0583,2025-12-09T2100,39,79,0.8,44,6,20,37,65,颗粒物(PM10)
天津市,建设路,117.3045,39.7169,2025-12-09T2100,68,126,1.4,74,17,2,16,92,细颗粒物(PM2.5)
天津市,滨水东路,117.8199,39.3521,2025-12-09T2100,88,248,1.4,99,16,1,12,149,颗粒物(PM10)
天津市,光华路,117.2437,39.1029,2025-12-09T2100,120,208,1.5,105,14,3,43,158,细颗粒物(PM2.5)
天水市,公园小学,105.7205,34.5786,2025-12-09T2100,102,121,1.6,68,20,12,22,134,细颗粒物(PM2.5)
天水市,麦积国土局,105.8945,34.5538,2025-12-09T2100,74,152,1.8,63,23,6,15,101,颗粒物(PM10)
铁岭市,汇工街西,123.8139,42.3022,2025-12-09T2100,194,,1.6,67,67,9,57,244,细颗粒物(PM2.5)
铁岭市,水上乐园,123.8649,42.2923,2025-12-09T2100,141,159,1.2,48,14,22,48,188,细颗粒物(PM2.5)
铁岭市,银州路东段,123.8486,42.2867,2025-12-09T2100,133,180,1.1,46,12,19,52,176,细颗粒物(PM2.5)
铁岭市,金沙江路北,123.7153,42.2217,2025-12-09T2100,94,114,0.9,48,8,14,57,124,细颗粒物(PM2.5)
通化市,光明,125.9358,41.7173,2025-12-09T2100,38,65,0.8,34,10,13,44,58,颗粒物(PM10)
通化市,铁路,125.9446,41.7325,2025-12-09T2100,36,49,0.8,39,10,18,42,52,细颗粒物(PM2.5)
通辽市,艺术职业学校,122.2532,43.6801,2025-12-09T2100,35,111,0.6,27,11,33,51,81,颗粒物(PM10)
通辽市,老干部活动中心,122.2584,43.6333,2025-12-09T2100,24,42,0.6,23,4,38,45,42,
通辽市,东方明珠社区,122.2922,43.6189,2025-12-09T2100,34,,0.6,32,6,25,40,49,
铜川市,王益区政府,109.0697,35.0697,2025-12-09T2100,106,177,1.3,65,12,25,57,139,细颗粒物(PM2.5)
铜川市,新区管委会,108.9344,34.9058,2025-12-09T2100,120,151,1.2,66,24,28,69,158,细颗粒物(PM2.5)
铜川市,大唐三路,108.9497,34.8705,2025-12-09T2100,120,138,1.1,54,24,36,69,158,细颗粒物(PM2.5)
铜陵市,市第四中学,117.8177,30.9412,2025-12-09T2100,42,107,0.5,33,8,61,87,79,颗粒物(PM10)
铜陵市,市公路局,117.8059,30.9273,2025-12-09T2100,43,101,0.4,42,9,49,76,76,颗粒物(PM10)
铜陵市,市新民污水厂,117.7807,30.9413,2025-12-09T2100,43,72,0.4,26,6,74,87,61,颗粒物(PM10)
铜陵市,市第九中学,117.7439,30.8792,2025-12-09T2100,32,106,1.4,53,10,43,65,78,颗粒物(PM10)
铜陵市,车站新区,117.846,30.9413,2025-12-09T2100,51,69,0.4,36,7,57,93,70,细颗粒物(PM2.5)
铜陵市,市职教基地,117.8483,30.97,2025-12-09T2100,31,94,0.3,24,8,65,98,72,颗粒物(PM10)
铜仁市,铜仁卫校,109.1839,27.7344,2025-12-09T2100,51,80,1.1,48,2,30,97,70,细颗粒物(PM2.5)
铜仁市,铜仁七中,109.1753,27.6944,2025-12-09T2100,61,66,0.9,29,3,49,98,83,细颗粒物(PM2.5)
吐鲁番市,市环保局,89.1904,42.9418,2025-12-09T2100,102,255,2.1,54,8,24,50,153,颗粒物(PM10)
吐鲁番市,地区环保局,89.1673,42.9559,2025-12-09T2100,154,263,2.8,78,10,10,46,204,细颗粒物(PM2.5)
威海市,华夏技校,122.1214,37.4236,2025-12-09T2100,57,102,0.5,37,11,54,72,78,细颗粒物(PM2.5)
威海市,山大分校,122.0508,37.5236,2025-12-09T2100,61,85,1.0,49,13,46,67,83,细颗粒物(PM2.5)
威海市,市监测站,122.1067,37.5072,2025-12-09T2100,71,120,1.0,51,7,42,72,95,细颗粒物(PM2.5)
威海市,文登开发区,122.0693,37.2174,2025-12-09T2100,51,99,1.1,33,6,45,16,75,颗粒物(PM10)
威海市,临港区管委会,122.1379,37.3414,2025-12-09T2100,50,102,0.6,36,10,54,74,76,颗粒物(PM10)
潍坊市,环保局,119.1437,36.7023,2025-12-09T2100,155,237,1.1,59,10,31,76,205,细颗粒物(PM2.5)
潍坊市,坊子邮政,119.1641,36.6523,2025-12-09T2100,168,246,1.3,75,12,21,74,218,细颗粒物(PM2.5)
潍坊市,潍坊七中,119.0587,36.721,2025-12-09T2100,205,268,1.3,71,11,21,72,255,细颗粒物(PM2.5)
潍坊市,高新实验学校,119.1977,36.6872,2025-12-09T2100,159,217,0.9,52,10,42,85,209,细颗粒物(PM2.5)
潍坊市,潍坊学院,119.1755,36.7149,2025-12-09T2100,142,227,1.1,59,10,40,80,189,细颗粒物(PM2.5)
潍坊市,寒亭区实验一小,119.2041,36.7699,2025-12-09T2100,102,173,0.9,52,12,42,75,134,细颗粒物(PM2.5)
渭南市,体育馆,109.4636,34.493,2025-12-09T2100,98,173,1.4,95,14,4,52,129,细颗粒物(PM2.5)
渭南市,高新一小,109.4259,34.5023,2025-12-09T2100,117,173,1.5,87,13,5,48,153,细颗粒物(PM2.5)
渭南市,渭花路4号,109.5051,34.4921,2025-12-09T2100,105,175,1.2,,13,,50,138,细颗粒物(PM2.5)
温州市,瓯海,120.634,28.0089,2025-12-09T2100,13,32,0.3,21,6,64,87,32,
温州市,南浦,120.6748,27.9939,2025-12-09T2100,16,38,0.2,15,5,76,90,38,
温州市,龙湾,120.76,27.9747,2025-12-09T2100,13,33,0.4,23,5,66,83,33,
温州市,市站,120.6709,28.0167,2025-12-09T2100,13,31,0.4,20,6,66,89,31,
温州市,茶山,120.6985,27.9251,2025-12-09T2100,11,36,0.3,21,5,69,96,36,
文山壮族苗族自治州,州水务局,104.2533,23.3594,2025-12-09T2100,47,60,0.5,12,4,52,74,65,细颗粒物(PM2.5)
文山壮族苗族自治州,市便民服务中心,104.2319,23.3892,2025-12-09T2100,33,39,0.4,13,5,58,71,48,
乌海市,市林业局,106.8174,39.6973,2025-12-09T2100,49,81,1.1,82,26,8,43,68,细颗粒物(PM2.5)
乌海市,中海勃湾学校,106.7907,39.6667,2025-12-09T2100,52,93,1.5,75,20,13,55,72,"颗粒物(PM10),细颗粒物(PM2.5)"
乌海市,海北新区,106.813,39.7274,2025-12-09T2100,45,104,1.1,77,5,0,37,77,颗粒物(PM10)
乌海市,聚英学校,106.8288,39.6778,2025-12-09T2100,57,98,1.5,75,27,0,29,78,细颗粒物(PM2.5)
乌兰察布市,集宁新区,113.1306,40.9923,2025-12-09T2100,31,38,0.2,38,14,63,82,45,
乌兰察布市,光明街小学,113.1076,41.0385,2025-12-09T2100,33,48,0.6,41,15,52,73,48,
乌兰察布市,北京八中,113.1376,40.9509,2025-12-09T2100,33,46,0.3,42,11,36,63,48,
乌兰察布市,市委党校,113.1775,40.9779,2025-12-09T2100,24,44,0.6,36,13,46,64,44,
乌鲁木齐市,监测站,87.5801,43.8303,2025-12-09T2100,12,32,0.5,46,4,37,37,32,
乌鲁木齐市,收费所,87.6046,43.768,2025-12-09T2100,18,19,0.4,33,5,50,40,26,
乌鲁木齐市,铁路局,87.5525,43.8711,2025-12-09T2100,52,61,1.5,76,,2,37,,
乌鲁木齐市,三十一中学,87.6432,43.831,2025-12-09T2100,20,26,0.6,40,8,35,44,29,
乌鲁木齐市,米东区环保局,87.7216,44.1747,2025-12-09T2100,42,59,0.8,14,8,46,43,59,细颗粒物(PM2.5)
乌鲁木齐市,培训基地,87.4651,43.4569,2025-12-09T2100,3,6,0.6,12,5,74,88,24,
乌鲁木齐市,达坂城区环保局,88.3118,43.3658,2025-12-09T2100,12,18,0.3,12,4,62,72,20,
乌鲁木齐市,红光山片区,87.6162,43.8801,2025-12-09T2100,31,43,1.0,76,8,5,41,45,
乌鲁木齐市,新师大温泉校区,87.7024,43.8004,2025-12-09T2100,14,21,0.3,40,5,40,60,21,
乌鲁木齐市,大绿谷,87.4921,43.8411,2025-12-09T2100,20,22,0.6,27,4,57,36,29,
无锡市,雪浪,120.269,31.4867,2025-12-09T2100,17,63,0.5,65,7,25,59,57,颗粒物(PM10)
无锡市,黄巷,120.275,31.6219,2025-12-09T2100,19,76,0.7,70,7,12,42,63,颗粒物(PM10)
无锡市,漆塘,120.242,31.5031,2025-12-09T2100,17,70,0.4,54,9,25,60,60,颗粒物(PM10)
无锡市,东亭,120.3489,31.5863,2025-12-09T2100,17,58,0.3,67,9,6,52,54,颗粒物(PM10)
无锡市,旺庄,120.354,31.5475,2025-12-09T2100,14,67,0.5,79,5,5,50,59,颗粒物(PM10)
无锡市,荣巷,120.245,31.5631,2025-12-09T2100,17,63,0.7,70,9,17,52,57,颗粒物(PM10)
无锡市,堰桥,120.299,31.6817,2025-12-09T2100,14,53,0.8,54,9,,58,,
无锡市,华庄,120.3142,31.4753,2025-12-09T2100,19,58,0.7,66,7,24,61,54,颗粒物(PM10)
无锡市,健康路105号,120.2925,31.5685,2025-12-09T2100,27,61,0.7,81,6,11,50,56,颗粒物(PM10)
吴忠市,教育园区,106.1532,37.9648,2025-12-09T2100,127,174,2.4,89,20,7,47,168,细颗粒物(PM2.5)
