area,positionname,longitude,latitude,timepoint,pm2_5,pm10,co,no2,so2,o3,o3_8h,aqi,primarypollutant
阿坝藏族羌族自治州,州农科所,102.1879,31.914,2025-03-08T1100,26,,0,5,8,70,74,38,
阿坝藏族羌族自治州,马师校,102.2502,31.8896,2025-03-08T1100,28,57,0.4,11,5,80,85,54,颗粒物(PM10)
阿坝藏族羌族自治州,马尔康中学西区,102.2165,31.9024,2025-03-08T1100,24,47,0.3,8,5,84,91,47,
阿克苏地区,电视台,80.292,41.1694,2025-03-08T1100,40,138,0.9,41,4,48,27,94,颗粒物(PM10)
阿克苏地区,艺术中心,80.2613,41.1551,2025-03-08T1100,65,149,1.3,47,6,30,26,100,颗粒物(PM10)
阿拉善盟,西城区西花园,105.6467,38.8363,2025-03-08T1100,25,113,0.6,9,12,108,107,82,颗粒物(PM10)
阿拉善盟,蒙二幼,105.6985,38.8411,2025-03-08T1100,29,88,0.5,9,6,102,99,69,颗粒物(PM10)
阿拉善盟,环保局新楼,105.724,38.8516,2025-03-08T1100,30,87,0.9,8,11,104,105,69,颗粒物(PM10)
阿勒泰地区,市站,88.1264,47.8517,2025-03-08T1100,8,43,0.4,12,2,71,91,43,
阿里地区,阿里监测站,80.1161,32.5,2025-03-08T1100,8,22,0.4,6,9,88,95,28,
阿里地区,阿里藏医院,80.0903,32.5028,2025-03-08T1100,8,22,0.7,8,11,84,99,27,
安康市,香溪洞,109.0318,32.6537,2025-03-08T1100,25,44,0.8,10,12,44,42,44,
安康市,汉滨区检察院,109.0072,32.6975,2025-03-08T1100,22,54,0.6,18,27,39,27,52,颗粒物(PM10)
安康市,市邮政管理局,109.0325,32.6913,2025-03-08T1100,24,57,0.7,17,42,38,28,54,颗粒物(PM10)
安庆市,环科院,117.0809,30.5177,2025-03-08T1100,52,60,0.6,23,8,72,39,72,细颗粒物(PM2.5)
安庆市,马山宾馆,117.0331,30.5119,2025-03-08T1100,58,68,0.5,20,6,64,29,79,细颗粒物(PM2.5)
安庆市,安庆大学,116.9896,30.6145,2025-03-08T1100,57,66,0.4,26,12,73,60,78,细颗粒物(PM2.5)
安庆市,市人大,117.0598,30.5351,2025-03-08T1100,57,62,0.6,20,8,74,41,78,细颗粒物(PM2.5)
安顺市,伍家关,105.9606,26.2611,2025-03-08T1100,17,20,0.5,19,13,50,59,25,
安顺市,凤凰山,105.9408,26.2431,2025-03-08T1100,21,25,0.7,19,20,50,56,30,
安顺市,金钟山,105.9439,26.2564,2025-03-08T1100,18,26,0.5,15,20,53,57,26,
安顺市,娄家坡,105.8983,26.2481,2025-03-08T1100,19,26,0.7,20,20,49,53,28,
安阳市,棉研所,114.4839,36.0621,2025-03-08T1100,,,,,,,,,
安阳市,红庙街,114.3551,36.1017,2025-03-08T1100,106,122,1.1,29,17,72,24,139,细颗粒物(PM2.5)
安阳市,银杏小区,114.361,36.0681,2025-03-08T1100,,110,1.1,31,9,86,23,,
安阳市,信访局,114.3922,36.0878,2025-03-08T1100,111,141,1.1,33,9,80,32,145,细颗粒物(PM2.5)
安阳市,左辅环卫站,114.4705,36.0637,2025-03-08T1100,116,150,1.0,35,7,93,46,152,细颗粒物(PM2.5)
安阳市,安钢职工学校,114.2917,36.0949,2025-03-08T1100,104,133,1.5,34,18,78,19,137,细颗粒物(PM2.5)
鞍山市,深沟寺,123.044,41.1196,2025-03-08T1100,48,64,0.8,20,14,98,92,67,细颗粒物(PM2.5)
鞍山市,太阳城,123.011,41.0931,2025-03-08T1100,47,67,0.8,20,11,97,94,65,细颗粒物(PM2.5)
鞍山市,太平,123.0485,41.1442,2025-03-08T1100,45,74,0.8,26,13,95,88,63,细颗粒物(PM2.5)
鞍山市,铁西三道街,122.9642,41.0971,2025-03-08T1100,52,93,0.8,24,11,99,81,72,"颗粒物(PM10),细颗粒物(PM2.5)"
鞍山市,明达新区,123.022,41.0821,2025-03-08T1100,45,71,,14,11,101,96,,
鞍山市,千山,123.1289,41.0228,2025-03-08T1100,,,,,,,79,,
鞍山市,兴盛南路290号,122.9446,41.0826,2025-03-08T1100,57,92,0.8,32,16,91,81,78,细颗粒物(PM2.5)
巴彦淖尔市,附二中,107.4212,40.761,2025-03-08T1100,21,144,0.6,,10,65,39,,
巴彦淖尔市,市环保大楼,107.37,40.7372,2025-03-08T1100,26,155,0.4,24,12,60,40,103,颗粒物(PM10)
巴音郭楞蒙古自治州,孔雀公园,86.1472,41.7538,2025-03-08T1100,36,147,0.5,26,7,52,19,99,颗粒物(PM10)
巴音郭楞蒙古自治州,棉纺厂,86.1972,41.7166,2025-03-08T1100,33,217,0.4,27,4,53,48,134,颗粒物(PM10)
巴音郭楞蒙古自治州,经济开发区,86.2357,41.7173,2025-03-08T1100,23,160,0.4,20,5,65,55,105,颗粒物(PM10)
巴中市,苏山坪,106.7677,31.8794,2025-03-08T1100,27,36,0.5,21,5,33,54,39,
巴中市,市五中,106.7768,31.8526,2025-03-08T1100,30,45,,37,5,8,14,,
巴中市,圣泉水务公司,106.7418,31.8654,2025-03-08T1100,21,34,0.6,30,7,11,21,34,
巴中市,市中心医院,106.7616,31.8344,2025-03-08T1100,33,40,0.6,27,7,10,7,48,
白城市,洮北区环保局,122.7911,45.6077,2025-03-08T1100,42,61,0.7,14,9,84,80,59,细颗粒物(PM2.5)
白城市,市环保局,122.8738,45.5725,2025-03-08T1100,39,58,0.5,5,6,94,91,55,细颗粒物(PM2.5)
白山市,喜丰,126.4219,41.9171,2025-03-08T1100,23,36,0.5,6,5,95,32,36,
白山市,环保局,126.4077,41.9419,2025-03-08T1100,19,35,0.6,4,7,94,37,35,
白银市,第三小学,104.1724,36.5446,2025-03-08T1100,65,118,1.3,36,103,52,42,88,细颗粒物(PM2.5)
白银市,动力公司,104.1465,36.5482,2025-03-08T1100,58,105,0.9,24,121,84,56,79,细颗粒物(PM2.5)
百色市,市监测站,106.6103,23.9011,2025-03-08T1100,16,27,0.6,9,7,56,61,27,
百色市,市中心血站,106.6538,23.8859,2025-03-08T1100,22,28,0.6,11,8,55,61,32,
百色市,祈福高中,106.6085,23.8798,2025-03-08T1100,14,21,0.6,10,6,60,60,21,
蚌埠市,工人疗养院,117.396,32.939,2025-03-08T1100,51,80,0.6,26,7,98,91,70,细颗粒物(PM2.5)
蚌埠市,百货大楼,117.3605,32.9427,2025-03-08T1100,49,86,0.6,37,9,83,73,68,"颗粒物(PM10),细颗粒物(PM2.5)"
蚌埠市,蚌埠学院,117.4185,32.8911,2025-03-08T1100,54,68,0.6,21,8,97,76,74,细颗粒物(PM2.5)
蚌埠市,淮上区政府,117.3533,32.9673,2025-03-08T1100,61,80,0.8,30,9,88,80,83,细颗粒物(PM2.5)
蚌埠市,高新区,117.3145,32.8977,2025-03-08T1100,52,78,0.5,30,11,95,84,72,细颗粒物(PM2.5)
蚌埠市,蚌埠田家炳中学,117.3092,32.9314,2025-03-08T1100,55,93,0.7,39,10,90,88,75,细颗粒物(PM2.5)
包头市,市环境监测站,109.8756,40.6532,2025-03-08T1100,32,77,1.2,35,44,,27,,
包头市,包头八中,109.9991,40.5842,2025-03-08T1100,67,97,1.1,32,46,47,19,90,细颗粒物(PM2.5)
包头市,青山宾馆,109.8538,40.6821,2025-03-08T1100,47,66,0.9,31,28,58,19,65,细颗粒物(PM2.5)
包头市,惠龙物流,109.8642,40.6288,2025-03-08T1100,48,81,1.0,32,39,50,28,67,细颗粒物(PM2.5)
包头市,东河鸿龙湾,110.0377,40.5546,2025-03-08T1100,41,77,0.6,27,15,46,21,64,颗粒物(PM10)
包头市,滨河大厦,109.9154,40.5685,2025-03-08T1100,33,119,0.7,24,,36,14,,
包头市,包头市委党校,109.9447,40.6261,2025-03-08T1100,31,86,1.3,34,37,50,28,68,颗粒物(PM10)
包头市,昆区政府,109.8331,40.6576,2025-03-08T1100,61,90,1.2,36,47,47,25,83,细颗粒物(PM2.5)
宝鸡市,庙沟村,107.185,34.3063,2025-03-08T1100,71,71,0.4,19,7,45,55,95,细颗粒物(PM2.5)
宝鸡市,竹园沟,107.0708,34.3017,2025-03-08T1100,46,81,0.6,27,14,43,24,66,颗粒物(PM10)
宝鸡市,三陆医院,107.1906,34.3672,2025-03-08T1100,62,99,0.8,34,12,34,15,84,细颗粒物(PM2.5)
宝鸡市,监测站,107.1431,34.3547,2025-03-08T1100,62,88,0.7,25,14,41,21,84,细颗粒物(PM2.5)
宝鸡市,技工学校,107.1186,34.3739,2025-03-08T1100,43,114,0.8,27,16,41,29,82,颗粒物(PM10)
宝鸡市,陈仓区环保局家属楼,107.3906,34.3528,2025-03-08T1100,74,99,0.7,35,12,39,12,99,细颗粒物(PM2.5)
宝鸡市,文理学院,107.2058,34.3497,2025-03-08T1100,62,83,0.6,25,11,40,22,84,细颗粒物(PM2.5)
宝鸡市,三迪小学,107.2386,34.3622,2025-03-08T1100,72,90,0.8,35,12,35,16,97,细颗粒物(PM2.5)
保定市,游泳馆,115.493,38.8632,2025-03-08T1100,104,122,0.6,28,8,86,31,137,细颗粒物(PM2.5)
保定市,华电二区,115.5213,38.8959,2025-03-08T1100,96,,1.0,38,7,74,32,127,细颗粒物(PM2.5)
保定市,接待中心,115.4713,38.9108,2025-03-08T1100,116,120,0.9,27,8,84,25,152,细颗粒物(PM2.5)
保定市,地表水厂,115.4612,38.8416,2025-03-08T1100,104,145,0.8,26,6,84,29,137,细颗粒物(PM2.5)
保定市,满城区生态环境分局,115.31981,38.95208,2025-03-08T1100,105,122,0.8,20,14,94,40,138,细颗粒物(PM2.5)
保定市,清苑区第二中学,115.47694,38.76408,2025-03-08T1100,101,113,0.7,30,9,82,22,133,细颗粒物(PM2.5)
保定市,徐水物探局,115.62909,39.02311,2025-03-08T1100,105,116,0.6,22,9,83,29,138,细颗粒物(PM2.5)
保定市,双鹰农机,115.4202,38.8656,2025-03-08T1100,77,106,0.9,25,7,87,31,103,细颗粒物(PM2.5)
保定市,植保所站,115.5150,38.8590,2025-03-08T1100,92,117,0.8,35,7,74,36,122,细颗粒物(PM2.5)
保山市,市环境监测站,99.1678,25.1081,2025-03-08T1100,69,123,0.9,41,7,70,110,93,细颗粒物(PM2.5)
保山市,市环保局,99.1711,25.1328,2025-03-08T1100,68,119,1.1,37,7,82,123,92,细颗粒物(PM2.5)
北海市,牛尾岭水库,109.2262,21.588,2025-03-08T1100,8,11,0.9,,6,32,30,,
北海市,海滩公园,109.1436,21.4086,2025-03-08T1100,15,16,0.6,13,6,43,45,22,
北海市,新市环保局,109.0981,21.4661,2025-03-08T1100,12,13,0.8,9,4,46,47,18,
北海市,北海工业园,109.1778,21.5233,2025-03-08T1100,22,22,0.8,12,7,45,44,32,
北海市,龙潭自来水厂,109.1911,21.4415,2025-03-08T1100,13,14,0.8,11,6,44,41,19,
北京市,万寿西宫,116.3621,39.8784,2025-03-08T1100,96,123,0.9,34,4,75,47,127,细颗粒物(PM2.5)
北京市,定陵,116.2202,40.2915,2025-03-08T1100,,,,,,,,,
北京市,东四,116.4174,39.9289,2025-03-08T1100,99,124,0.8,43,6,55,40,130,细颗粒物(PM2.5)
北京市,天坛,116.4072,39.8863,2025-03-08T1100,99,127,1.0,50,5,53,23,130,细颗粒物(PM2.5)
北京市,农展馆,116.462,39.9365,2025-03-08T1100,98,126,0.8,42,7,60,28,129,细颗粒物(PM2.5)
北京市,官园,116.3392,39.9295,2025-03-08T1100,101,120,0.8,34,8,54,20,133,细颗粒物(PM2.5)
北京市,海淀万柳,116.2878,39.9611,2025-03-08T1100,92,116,0.9,33,5,61,18,122,细颗粒物(PM2.5)
北京市,顺义新城,116.6636,40.135,2025-03-08T1100,81,118,0.5,23,5,75,26,108,细颗粒物(PM2.5)
北京市,怀柔镇,116.6275,40.3275,2025-03-08T1100,95,116,0.6,22,4,78,48,125,细颗粒物(PM2.5)
北京市,昌平镇,116.2296,40.217,2025-03-08T1100,89,126,0.8,34,3,51,37,118,细颗粒物(PM2.5)
北京市,奥体中心,116.3966,39.9821,2025-03-08T1100,104,126,0.9,38,5,60,17,137,细颗粒物(PM2.5)
北京市,延庆夏都,115.9718,40.4529,2025-03-08T1100,91,111,0.8,33,7,42,23,120,细颗粒物(PM2.5)
北京市,密云新城,116.8336,40.4095,2025-03-08T1100,83,106,0.6,11,3,81,45,110,细颗粒物(PM2.5)
北京市,门头沟三家店,116.088,39.9726,2025-03-08T1100,77,105,0.4,22,5,64,30,103,细颗粒物(PM2.5)
北京市,丰台云岗,116.1541,39.8204,2025-03-08T1100,95,120,0.6,20,5,91,59,125,细颗粒物(PM2.5)
北京市,通州东关,116.6804,39.9081,2025-03-08T1100,102,135,0.6,58,8,58,45,134,细颗粒物(PM2.5)
北京市,房山燕山,115.9577,39.7603,2025-03-08T1100,84,110,0.6,16,2,91,47,112,细颗粒物(PM2.5)
北京市,大兴旧宫,116.4672,39.7733,2025-03-08T1100,87,105,0.6,28,1,66,22,115,细颗粒物(PM2.5)
北京市,延庆石河营,115.986,40.4563,2025-03-08T1100,87,109,0.9,35,5,42,17,115,细颗粒物(PM2.5)
北京市,怀柔新城,116.6151,40.3053,2025-03-08T1100,93,109,0.7,19,5,75,56,123,细颗粒物(PM2.5)
北京市,丰台小屯,116.2545,39.8768,2025-03-08T1100,93,120,0.5,25,2,76,21,123,细颗粒物(PM2.5)
北京市,密云镇,116.84,40.3844,2025-03-08T1100,87,123,0.6,16,4,74,29,115,细颗粒物(PM2.5)
北京市,八角北路9号,116.1942,39.9158,2025-03-08T1100,88,110,0.5,18,2,87,52,117,细颗粒物(PM2.5)
北京市,洳河巡河路,117.0790,40.1518,2025-03-08T1100,95,115,0.5,16,4,83,40,125,细颗粒物(PM2.5)
本溪市,大峪,123.8275,41.3064,2025-03-08T1100,30,52,0.6,12,10,108,90,51,颗粒物(PM10)
本溪市,溪湖,123.7567,41.3325,2025-03-08T1100,38,63,2.0,29,30,97,94,57,颗粒物(PM10)
本溪市,彩屯,123.7169,41.3094,2025-03-08T1100,50,83,1.8,27,20,95,83,69,细颗粒物(PM2.5)
本溪市,东明,123.7669,41.2864,2025-03-08T1100,29,55,0.6,15,9,101,95,53,颗粒物(PM10)
本溪市,新立屯,123.7992,41.2664,2025-03-08T1100,32,49,0.6,16,7,115,111,49,
本溪市,威宁,123.8142,41.3472,2025-03-08T1100,34,62,0.6,11,7,109,74,56,颗粒物(PM10)
毕节市,八中,105.2864,27.3125,2025-03-08T1100,23,24,0.8,17,7,43,49,33,
毕节市,师专,105.31,27.2944,2025-03-08T1100,16,22,0.7,19,5,43,53,23,
毕节市,工业大道,105.3688,27.3598,2025-03-08T1100,9,10,0.5,11,8,59,49,19,
滨州市,第二水厂,118.0018,37.3617,2025-03-08T1100,63,92,0.3,13,16,100,56,85,细颗粒物(PM2.5)
滨州市,北中新校,117.9776,37.393,2025-03-08T1100,61,102,0.8,23,19,101,68,83,细颗粒物(PM2.5)
滨州市,中海酒店,117.9378,37.3956,2025-03-08T1100,66,95,0.6,18,14,108,74,89,细颗粒物(PM2.5)
滨州市,开发区一中,117.9378,37.3553,2025-03-08T1100,56,95,0.4,25,13,98,52,77,细颗粒物(PM2.5)
滨州市,金海六路,118.0917,37.694,2025-03-08T1100,73,110,0.8,26,13,86,49,98,细颗粒物(PM2.5)
滨州市,滨州市西街道办事处,117.9956,37.3753,2025-03-08T1100,73,92,0.7,15,18,105,64,98,细颗粒物(PM2.5)
亳州市,污水处理厂,115.8072,33.8399,2025-03-08T1100,50,86,0.6,24,4,97,75,69,细颗粒物(PM2.5)
亳州市,三国揽胜宫,115.7789,33.8518,2025-03-08T1100,53,114,0.5,21,5,90,78,82,颗粒物(PM10)
亳州市,亳州学院,115.7633,33.8034,2025-03-08T1100,59,88,0.5,22,6,94,86,80,细颗粒物(PM2.5)
博尔塔拉蒙古自治州,市党校,82.0485,44.8556,2025-03-08T1100,22,,0.1,16,8,71,68,32,
博尔塔拉蒙古自治州,市环保局,82.0806,44.8969,2025-03-08T1100,16,37,0.8,30,4,66,81,37,
沧州市,沧县城建局,116.8842,38.2991,2025-03-08T1100,105,129,0.9,40,7,61,31,138,细颗粒物(PM2.5)
沧州市,电视转播站,116.8584,38.3254,2025-03-08T1100,110,120,0.7,31,6,69,23,144,细颗粒物(PM2.5)
沧州市,市环保局,116.8709,38.3228,2025-03-08T1100,88,116,0.7,27,8,73,31,117,细颗粒物(PM2.5)
沧州市,河北水利电力学院,116.8136,38.3004,2025-03-08T1100,98,127,0.6,49,9,48,34,129,细颗粒物(PM2.5)
昌都市,昌都监测站,97.1806,31.1273,2025-03-08T1100,15,23,1.0,10,6,62,67,23,
昌都市,昌都会议中心,97.1714,31.1406,2025-03-08T1100,14,17,0.5,5,2,83,81,26,
昌吉回族自治州,天山天池,88.1236,43.8886,2025-03-08T1100,,15,0.4,4,5,92,93,,
昌吉回族自治州,新区政务中心,87.2717,44.0297,2025-03-08T1100,8,15,0.3,18,6,79,80,25,
昌吉回族自治州,亚心广场,87.3095,44.0142,2025-03-08T1100,12,14,0.2,30,6,66,74,21,
长春市,食品厂,125.3325,43.9166,2025-03-08T1100,60,79,0.6,24,12,79,71,82,细颗粒物(PM2.5)
长春市,客车厂,125.2863,43.9027,2025-03-08T1100,67,76,0.7,24,11,80,68,90,细颗粒物(PM2.5)
长春市,邮电学院,125.2841,43.8463,2025-03-08T1100,65,78,0.8,25,14,81,72,88,细颗粒物(PM2.5)
长春市,劳动公园,125.3716,43.8772,2025-03-08T1100,58,88,0.5,26,13,79,77,79,细颗粒物(PM2.5)
长春市,园林处,125.3297,43.8805,2025-03-08T1100,59,87,0.6,22,12,79,75,80,细颗粒物(PM2.5)
长春市,净月潭,125.4605,43.79,2025-03-08T1100,49,79,0.6,18,12,79,74,68,细颗粒物(PM2.5)
长春市,甩湾子,125.7194,43.515,2025-03-08T1100,,,,,,,,,
长春市,经开区环卫处,125.3863,43.8447,2025-03-08T1100,53,78,0.6,21,11,75,72,73,细颗粒物(PM2.5)
长春市,高新区管委会,125.245,43.7783,2025-03-08T1100,60,66,0.6,22,13,80,74,82,细颗粒物(PM2.5)
长春市,岱山公园,125.1761,43.8325,2025-03-08T1100,58,69,0.6,18,10,86,70,79,细颗粒物(PM2.5)
长沙市,经开区环保局,113.0833,28.2325,2025-03-08T1100,31,56,0.5,39,4,35,17,53,颗粒物(PM10)
长沙市,高开区环保局,112.8872,28.2189,2025-03-08T1100,26,28,0.6,17,4,57,33,38,
长沙市,马坡岭,113.0792,28.2053,2025-03-08T1100,33,45,0.5,17,4,45,28,48,
长沙市,湖南师范大学,112.9394,28.19,2025-03-08T1100,27,36,0.6,20,6,49,33,39,
长沙市,雨花区环保局,113.0178,28.1322,2025-03-08T1100,25,37,0.4,18,6,48,35,37,
长沙市,伍家岭,112.9792,28.2597,2025-03-08T1100,16,52,0.6,23,4,45,13,51,颗粒物(PM10)
长沙市,火车新站,113.0014,28.1944,2025-03-08T1100,31,35,0.7,27,6,47,35,45,
长沙市,天心区环保局,112.9844,28.1178,2025-03-08T1100,29,30,0.7,28,3,45,42,42,
长沙市,湖南中医药大学,112.8908,28.1308,2025-03-08T1100,24,48,0.6,20,5,45,15,48,
长沙市,沙坪,112.9581,28.3611,2025-03-08T1100,29,36,0.7,17,7,49,27,42,
长治市,清华站,113.1147,36.1547,2025-03-08T1100,68,,1.9,34,8,25,16,92,细颗粒物(PM2.5)
长治市,审计局,113.0886,36.2125,2025-03-08T1100,85,,1.9,29,5,30,24,113,细颗粒物(PM2.5)
长治市,长治八中,113.0844,36.1856,2025-03-08T1100,81,,1.9,26,6,31,15,108,细颗粒物(PM2.5)
长治市,德盛苑,113.1569,36.1911,2025-03-08T1100,70,,2.2,28,4,32,40,94,细颗粒物(PM2.5)
长治市,向阳小学,113.06,36.0464,2025-03-08T1100,68,92,1.5,29,6,22,38,92,细颗粒物(PM2.5)
长治市,屯留一中,112.8792,36.3144,2025-03-08T1100,81,94,0.8,25,9,31,16,108,细颗粒物(PM2.5)
长治市,英华南巷50号,113.1131,36.19948,2025-03-08T1100,73,75,2.1,28,7,34,16,98,细颗粒物(PM2.5)
长治市,学府街1号,113.2367,36.3344,2025-03-08T1100,113,140,3.3,31,6,32,18,148,细颗粒物(PM2.5)
常德市,市二中,111.6975,28.9703,2025-03-08T1100,20,53,0.5,30,8,30,47,52,颗粒物(PM10)
常德市,白鹤山,111.7158,29.1456,2025-03-08T1100,,,,,,,,,
常德市,武陵区永安,111.7153,29.0289,2025-03-08T1100,30,55,0.6,20,6,37,41,53,颗粒物(PM10)
常德市,鼎城区玉霞,111.6892,28.9881,2025-03-08T1100,28,54,0.5,26,7,37,39,52,颗粒物(PM10)
常德市,武陵区长庚,111.6625,29.0531,2025-03-08T1100,21,37,0.5,14,5,43,40,37,
常州市,市监测站,119.9633,31.762,2025-03-08T1100,71,109,1.1,38,11,88,31,95,细颗粒物(PM2.5)
常州市,武进监测站,119.9468,31.7069,2025-03-08T1100,68,96,0.8,32,1,89,35,92,细颗粒物(PM2.5)
常州市,安家,119.9255,31.9087,2025-03-08T1100,63,102,0.7,32,10,91,32,85,细颗粒物(PM2.5)
常州市,行政中心,119.9805,31.8174,2025-03-08T1100,59,90,0.8,30,13,90,41,80,细颗粒物(PM2.5)
常州市,经开区,120.0522,31.7748,2025-03-08T1100,68,98,0.7,34,10,102,36,92,细颗粒物(PM2.5)
常州市,钟楼,119.9025,31.7964,2025-03-08T1100,68,112,0.8,32,11,89,37,92,细颗粒物(PM2.5)
常州市,武进经发区,119.8598,31.7066,2025-03-08T1100,86,132,0.8,46,12,73,25,114,细颗粒物(PM2.5)
常州市,金坛城区,119.5826,31.7245,2025-03-08T1100,80,122,0.9,31,12,86,34,107,细颗粒物(PM2.5)
朝阳市,西梁,120.4318,41.5881,2025-03-08T1100,42,64,0.9,20,20,77,60,59,细颗粒物(PM2.5)
朝阳市,河畔小区,120.4521,41.5646,2025-03-08T1100,36,61,0.9,20,21,76,72,56,颗粒物(PM10)
朝阳市,八里堡,120.4176,41.5648,2025-03-08T1100,41,56,1.0,26,22,72,54,58,细颗粒物(PM2.5)
朝阳市,农业园区,120.3806,41.5969,2025-03-08T1100,50,80,1.0,21,20,83,69,69,细颗粒物(PM2.5)
潮州市,西园路,116.6367,23.6719,2025-03-08T1100,9,13,0.1,9,3,38,26,13,
潮州市,市政府,116.6183,23.6608,2025-03-08T1100,9,37,0.4,13,3,39,26,37,
潮州市,金山,116.6461,23.6761,2025-03-08T1100,12,23,0.7,10,5,34,23,23,
郴州市,马头岭,113.0073,25.9061,2025-03-08T1100,35,42,0.6,19,12,49,31,50,
郴州市,市职中,113.0116,25.8226,2025-03-08T1100,49,53,0.7,20,7,37,19,68,细颗粒物(PM2.5)
郴州市,市审计局,113.0383,25.8071,2025-03-08T1100,51,,0.7,20,15,34,18,70,细颗粒物(PM2.5)
郴州市,市环保局,113.0348,25.7759,2025-03-08T1100,58,63,0.7,18,12,29,13,79,细颗粒物(PM2.5)
郴州市,好美居路49号,113.0138,25.8011,2025-03-08T1100,51,56,0.7,22,13,34,16,70,细颗粒物(PM2.5)
成都市,金泉两河,103.9728,30.7236,2025-03-08T1100,3,36,0.5,25,2,42,33,36,
成都市,十里店,104.176,30.6872,2025-03-08T1100,9,33,0.6,38,2,27,44,33,
成都市,三瓦窑,104.079,30.5706,2025-03-08T1100,25,38,0.6,36,3,29,38,38,
成都市,沙河铺,104.1114,30.63,2025-03-08T1100,34,36,0.7,33,5,28,36,49,
成都市,君平街,104.0786,30.6531,2025-03-08T1100,11,18,0.7,29,5,48,46,18,
成都市,灵岩寺,103.613,31.0283,2025-03-08T1100,,,,,,,,,
成都市,大石西路,104.0239,30.65639,2025-03-08T1100,20,34,0.7,31,5,44,41,34,
成都市,龙泉驿区区政府,104.2725,30.5589,2025-03-08T1100,29,,0.6,18,4,44,44,42,
成都市,金博路,104.0106,30.6931,2025-03-08T1100,7,16,0.8,27,6,36,37,16,
成都市,华阳,104.0578,30.5225,2025-03-08T1100,29,44,0.7,33,5,28,41,44,
成都市,青白江技师分院,104.3853,30.7453,2025-03-08T1100,29,,0.4,24,5,37,16,42,
成都市,科学城,104.0789,30.4072,2025-03-08T1100,23,29,0.4,19,5,54,54,33,
成都市,光华大道三段,103.8506,30.6947,2025-03-08T1100,12,29,0.6,30,5,42,37,29,
成都市,鲸龙路1057号,104.2433,30.5353,2025-03-08T1100,26,35,0.6,22,4,53,49,38,
承德市,铁路,117.9531,40.9081,2025-03-08T1100,80,109,0.6,34,9,63,37,107,细颗粒物(PM2.5)
承德市,中国银行,117.9392,40.9763,2025-03-08T1100,70,103,0.6,23,5,72,33,94,细颗粒物(PM2.5)
承德市,开发区,117.9503,40.928,2025-03-08T1100,57,105,0.7,29,6,82,39,78,"颗粒物(PM10),细颗粒物(PM2.5)"
承德市,文化中心,117.8051,40.9655,2025-03-08T1100,101,151,1.5,41,26,58,27,133,细颗粒物(PM2.5)
承德市,离宫,117.9268,41.0026,2025-03-08T1100,72,97,0.5,22,6,74,43,97,细颗粒物(PM2.5)
池州市,池州学院,117.47,30.6618,2025-03-08T1100,55,74,0.5,14,6,85,57,75,细颗粒物(PM2.5)
池州市,展览馆,117.4918,30.6617,2025-03-08T1100,49,69,0.5,13,6,83,54,68,细颗粒物(PM2.5)
池州市,第八中学,117.5627,30.695,2025-03-08T1100,46,64,0.5,18,5,84,51,64,细颗粒物(PM2.5)
池州市,第十二中学,117.5038,30.6243,2025-03-08T1100,48,67,0.5,14,7,87,50,67,细颗粒物(PM2.5)
赤峰市,松山一中,118.9233,42.2816,2025-03-08T1100,57,107,1.2,46,37,59,36,79,颗粒物(PM10)
赤峰市,哈达街,118.9576,42.2728,2025-03-08T1100,68,125,2.2,58,67,47,52,92,细颗粒物(PM2.5)
赤峰市,天义路,118.8788,42.2554,2025-03-08T1100,83,129,1.0,49,55,47,50,110,细颗粒物(PM2.5)
赤峰市,银河街,119.2658,42.0353,2025-03-08T1100,69,116,0.8,33,20,61,43,93,细颗粒物(PM2.5)
赤峰市,桥北物流园区,118.9359,42.3147,2025-03-08T1100,94,109,1.1,35,36,63,40,124,细颗粒物(PM2.5)
崇左市,市环保局江州分局,107.3476,22.4136,2025-03-08T1100,40,60,0.6,11,6,54,62,57,细颗粒物(PM2.5)
崇左市,石景林东路7号,107.3750,22.3736,2025-03-08T1100,44,54,0.6,17,7,56,66,62,细颗粒物(PM2.5)
滁州市,老年大学,118.3093,32.3153,2025-03-08T1100,58,83,0.9,38,11,96,35,79,细颗粒物(PM2.5)
滁州市,人大宾馆,118.3244,32.2786,2025-03-08T1100,63,84,1.1,36,18,93,44,85,细颗粒物(PM2.5)
滁州市,市政府原办公楼,118.3118,32.3038,2025-03-08T1100,60,76,0.8,30,15,95,39,82,细颗粒物(PM2.5)
滁州市,图书馆,118.3267,32.2634,2025-03-08T1100,51,89,0.9,32,17,95,52,70,"颗粒物(PM10),细颗粒物(PM2.5)"
楚雄彝族自治州,州环境监测站,101.5482,25.0441,2025-03-08T1100,38,,0.8,13,6,86,80,54,细颗粒物(PM2.5)
楚雄彝族自治州,市经济开发区,101.538,25.0492,2025-03-08T1100,36,,0.7,8,6,84,75,52,细颗粒物(PM2.5)
达州市,达州职业技术学院,107.5277,31.2827,2025-03-08T1100,33,63,0.5,29,9,14,7,57,颗粒物(PM10)
达州市,市环境监测站,107.5086,31.2186,2025-03-08T1100,27,60,0.7,43,7,6,5,55,颗粒物(PM10)
达州市,凤凰小区,107.4988,31.2132,2025-03-08T1100,27,53,0.4,39,8,14,10,52,颗粒物(PM10)
达州市,达县机关宾馆,107.5082,31.1986,2025-03-08T1100,32,51,0.7,36,6,14,7,51,颗粒物(PM10)
达州市,市政中心,107.4644,31.2124,2025-03-08T1100,27,69,0.7,44,2,8,6,60,颗粒物(PM10)
大理白族自治州,大理市环境监测站,100.1542,25.7054,2025-03-08T1100,49,78,0.9,10,9,142,118,68,细颗粒物(PM2.5)
大理白族自治州,大理古城,100.2171,25.5811,2025-03-08T1100,54,71,0.9,8,8,144,138,74,细颗粒物(PM2.5)
大连市,甘井子,121.612,38.9741,2025-03-08T1100,50,60,0.7,32,7,66,66,69,细颗粒物(PM2.5)
大连市,周水子,121.565,38.9511,2025-03-08T1100,58,63,0.4,28,14,69,61,79,细颗粒物(PM2.5)
大连市,星海三站,121.5637,38.8845,2025-03-08T1100,45,53,0.8,14,8,68,73,63,细颗粒物(PM2.5)
大连市,青泥洼桥,121.6302,38.9117,2025-03-08T1100,44,58,0.7,14,9,74,66,62,细颗粒物(PM2.5)
大连市,傅家庄,121.6251,38.8638,2025-03-08T1100,38,52,0.6,23,6,62,62,54,细颗粒物(PM2.5)
大连市,七贤岭,121.5213,38.8661,2025-03-08T1100,42,59,0.6,18,10,68,62,59,细颗粒物(PM2.5)
大连市,旅顺,121.2529,38.8061,2025-03-08T1100,55,65,0.6,16,5,68,72,75,细颗粒物(PM2.5)
大连市,金州,121.7485,39.1311,2025-03-08T1100,61,85,0.8,38,,,66,,
大连市,开发区,121.7811,39.0496,2025-03-08T1100,53,68,1.0,35,8,51,62,73,细颗粒物(PM2.5)
大连市,双D港,121.9762,39.0631,2025-03-08T1100,48,,0.6,16,10,83,62,67,细颗粒物(PM2.5)
大庆市,大同区,124.81117,46.03138,2025-03-08T1100,35,58,0.6,11,7,68,52,54,颗粒物(PM10)
大庆市,龙凤区,125.129,46.533,2025-03-08T1100,18,49,0.4,16,14,73,71,49,
大庆市,红岗区,124.902,46.408,2025-03-08T1100,24,45,0.5,18,10,77,64,45,
大庆市,萨尔图区,125.153,46.586,2025-03-08T1100,22,52,0.4,14,9,80,78,51,颗粒物(PM10)
大庆市,让胡路区,124.9042,46.6215,2025-03-08T1100,23,44,0.6,,,77,69,,
大庆市,萨区政府监测点,125.141,46.634,2025-03-08T1100,24,45,0.5,9,8,86,80,45,
大同市,果树场,113.3819,40.1097,2025-03-08T1100,71,72,0.7,23,20,59,26,95,细颗粒物(PM2.5)
大同市,云冈宾馆,113.2994,40.0758,2025-03-08T1100,51,81,0.7,28,21,57,30,70,细颗粒物(PM2.5)
大同市,大同大学,113.3444,40.0917,2025-03-08T1100,55,87,0.8,27,20,56,25,75,细颗粒物(PM2.5)
大同市,安家小村,113.2661,40.1269,2025-03-08T1100,52,99,0.8,26,22,57,33,75,颗粒物(PM10)
大同市,教育学院,113.2711,40.0844,2025-03-08T1100,51,90,0.7,28,20,52,25,70,"颗粒物(PM10),细颗粒物(PM2.5)"
大同市,大同市卫生学校,113.3397,40.0597,2025-03-08T1100,48,102,0.7,27,18,53,27,76,颗粒物(PM10)
大同市,云冈站,113.1367,40.1122,2025-03-08T1100,63,92,,,25,57,16,,
大同市,图书馆,113.1186,40.2556,2025-03-08T1100,104,105,1.0,24,39,54,19,137,细颗粒物(PM2.5)
大同市,区一中,113.5931,40.0461,2025-03-08T1100,58,110,0.6,25,32,61,34,80,颗粒物(PM10)
大同市,魏都大道141号,113.2798,40.0997,2025-03-08T1100,49,97,0.9,24,23,51,27,74,颗粒物(PM10)
大兴安岭地区,科技局,124.1069,50.4097,2025-03-08T1100,14,24,0.4,6,8,81,65,26,
大兴安岭地区,红旗社区,124.1164,50.4278,2025-03-08T1100,14,24,0.5,17,12,76,44,24,
丹东市,江湾东路,124.3303,40.0625,2025-03-08T1100,39,64,0.6,9,12,98,53,57,颗粒物(PM10)
丹东市,临江后街,124.4256,40.1503,2025-03-08T1100,38,62,1.1,17,14,94,56,56,颗粒物(PM10)
丹东市,元宝山,124.3933,40.1461,2025-03-08T1100,42,60,1.0,17,16,88,57,59,细颗粒物(PM2.5)
丹东市,民主桥,124.3633,40.1092,2025-03-08T1100,40,74,,12,10,89,33,,
儋州市,第一中学子站,109.5726,19.5167,2025-03-08T1100,6,7,0.8,9,3,25,38,9,
儋州市,东坡学校子站,109.5567,19.5187,2025-03-08T1100,7,9,0.8,12,3,26,38,10,
德宏傣族景颇族自治州,德宏州监测站,98.5842,24.428,2025-03-08T1100,83,118,1.1,28,12,57,36,110,细颗粒物(PM2.5)
德宏傣族景颇族自治州,芒市人民政府综合楼,98.5881,24.4368,2025-03-08T1100,90,134,1.2,41,8,,75,119,细颗粒物(PM2.5)
德阳市,东山公园,104.4239,31.1208,2025-03-08T1100,40,46,0.6,18,2,45,22,57,细颗粒物(PM2.5)
德阳市,西小区,104.3826,31.1317,2025-03-08T1100,38,53,0.7,36,4,29,25,54,细颗粒物(PM2.5)
德阳市,耐火材料厂,104.3553,31.1091,2025-03-08T1100,47,59,0.5,36,9,28,14,65,细颗粒物(PM2.5)
德阳市,市教育局,104.4019,31.1244,2025-03-08T1100,37,46,0.6,27,4,42,24,53,细颗粒物(PM2.5)
德州市,儿童乐园,116.3032,37.4674,2025-03-08T1100,97,141,0.9,39,13,78,63,128,细颗粒物(PM2.5)
德州市,监理站,116.2991,37.4451,2025-03-08T1100,90,119,0.8,31,19,82,60,119,细颗粒物(PM2.5)
德州市,九衢泉纯净水厂,116.2721,37.4379,2025-03-08T1100,75,107,0.7,28,12,79,46,100,细颗粒物(PM2.5)
德州市,开发区人民医院,116.3728,37.4403,2025-03-08T1100,70,119,0.6,30,16,,80,,
德州市,太阳城中学,116.3572,37.4094,2025-03-08T1100,70,105,0.6,26,12,84,70,94,细颗粒物(PM2.5)
德州市,陵城艺术中心,116.5652,37.3319,2025-03-08T1100,73,112,0.7,31,20,71,53,98,细颗粒物(PM2.5)
迪庆藏族自治州,迪庆州站,99.7056,27.8317,2025-03-08T1100,29,55,0.4,9,7,115,119,53,颗粒物(PM10)
迪庆藏族自治州,质量技术监督局,99.7136,27.8094,2025-03-08T1100,40,57,0.7,13,8,104,109,57,细颗粒物(PM2.5)
定西市,将台街,104.6092,35.5962,2025-03-08T1100,34,69,0.2,11,10,84,71,60,颗粒物(PM10)
定西市,正龙路62号,104.6159,35.5701,2025-03-08T1100,38,73,0.3,6,6,92,87,62,颗粒物(PM10)
东莞市,莞城梨川,113.7547,23.0494,2025-03-08T1100,19,22,0.6,14,5,39,32,28,
东莞市,东城石井,113.7944,23.0128,2025-03-08T1100,19,25,0.7,18,8,36,28,28,
东莞市,南城西平,113.7383,22.9658,2025-03-08T1100,17,20,0.6,22,13,46,25,25,
东莞市,万江金泰,113.7338,23.0381,2025-03-08T1100,17,21,0.8,10,4,46,38,25,
东莞市,南城元岭,113.7533,23.0202,2025-03-08T1100,19,25,0.6,14,6,39,34,28,
东莞市,东城主山,113.7875,23.0457,2025-03-08T1100,17,27,0.6,18,7,37,32,27,
东营市,市环保局,118.6614,37.4309,2025-03-08T1100,58,97,0.5,23,7,97,54,79,细颗粒物(PM2.5)
东营市,开发区管委会,118.6904,37.4338,2025-03-08T1100,75,104,0.8,27,8,95,38,100,细颗粒物(PM2.5)
东营市,垦利区民丰路,118.5719,37.565,2025-03-08T1100,61,97,0.8,23,14,97,55,83,细颗粒物(PM2.5)
东营市,河口城区,118.5055,37.8612,2025-03-08T1100,95,139,0.9,22,8,93,47,125,细颗粒物(PM2.5)
东营市,胜利站,118.4978,37.4623,2025-03-08T1100,63,120,0.9,34,12,90,60,85,"颗粒物(PM10),细颗粒物(PM2.5)"
东营市,理想之城,118.35,37.26,2025-03-08T1100,70,114,0.8,28,12,94,40,94,细颗粒物(PM2.5)
鄂尔多斯市,综合楼,110.0023,39.8129,2025-03-08T1100,51,136,0.7,30,11,68,54,93,颗粒物(PM10)
鄂尔多斯市,巴音孟克林场办事处,109.9486,39.8261,2025-03-08T1100,48,129,0.7,30,20,67,64,90,颗粒物(PM10)
鄂尔多斯市,康泽苑,109.7736,39.5986,2025-03-08T1100,56,92,0.9,40,8,32,18,77,细颗粒物(PM2.5)
鄂尔多斯市,华泰汽车城,109.8119,39.5989,2025-03-08T1100,70,97,1.0,44,7,22,9,94,细颗粒物(PM2.5)
鄂尔多斯市,奥林花园,109.9734,39.7884,2025-03-08T1100,48,124,1.0,26,10,68,43,87,颗粒物(PM10)
鄂州市,市政府,114.8938,30.3994,2025-03-08T1100,84,98,1.1,38,18,59,31,112,细颗粒物(PM2.5)
鄂州市,赵家坝,114.8989,30.3714,2025-03-08T1100,77,94,1.2,31,2,72,28,103,细颗粒物(PM2.5)
鄂州市,精准医疗中心,114.8094,30.4089,2025-03-08T1100,77,110,1.1,38,4,66,19,103,细颗粒物(PM2.5)
恩施土家族苗族自治州,湖北民院,109.4978,30.2981,2025-03-08T1100,31,37,0.4,32,4,36,38,45,
恩施土家族苗族自治州,州电力总公司,109.4707,30.2798,2025-03-08T1100,35,50,0.1,27,6,31,34,50,
恩施土家族苗族自治州,龙凤新区,109.5061,30.3772,2025-03-08T1100,24,40,0.8,23,6,28,28,40,
防城港市,沙万,108.3411,21.6158,2025-03-08T1100,41,43,0.7,13,8,48,47,58,细颗粒物(PM2.5)
防城港市,防城档案局,108.3514,21.7731,2025-03-08T1100,37,47,0.5,14,7,51,45,53,细颗粒物(PM2.5)
防城港市,大海花园,108.3506,21.6414,2025-03-08T1100,33,34,0.8,8,5,56,53,48,
佛山市,湾梁,113.1294,23.0067,2025-03-08T1100,14,34,0.7,31,7,34,32,34,
佛山市,华材职中,113.1083,23.0478,2025-03-08T1100,20,34,0.6,33,6,37,32,34,
佛山市,南海气象局,113.144,23.0453,2025-03-08T1100,14,31,0.5,30,5,34,31,31,
佛山市,顺德苏岗,113.2881,22.8094,2025-03-08T1100,12,45,0.6,24,5,21,19,45,
佛山市,高明孔堂,112.8383,22.8678,2025-03-08T1100,22,36,0.8,20,9,40,35,36,
佛山市,三水监测站,112.8836,23.1588,2025-03-08T1100,28,36,0.6,28,5,32,28,40,
佛山市,三水云东海,112.867,23.185,2025-03-08T1100,24,33,0.6,23,6,34,26,35,
佛山市,容桂街道办,113.2544,22.7642,2025-03-08T1100,19,24,0.7,28,7,27,24,28,
福州市,鼓山,119.3903,26.0543,2025-03-08T1100,,,,,,,73,,
福州市,师大,119.2681,26.0504,2025-03-08T1100,19,25,0.3,8,3,56,46,28,
福州市,五四北路,119.2984,26.1028,2025-03-08T1100,20,25,0.4,14,3,50,36,29,
福州市,杨桥西路,119.2648,26.0768,2025-03-08T1100,17,20,,,4,,42,,
福州市,紫阳,119.317,26.0746,2025-03-08T1100,22,33,0.5,25,3,38,38,33,
福州市,九龙,119.5799,26.0936,2025-03-08T1100,32,40,0.5,13,6,86,45,46,
福州市,吴航,119.5189,25.9664,2025-03-08T1100,23,30,0.4,15,5,86,43,33,
抚顺市,望花区,123.7977,41.8491,2025-03-08T1100,46,74,1.0,19,12,102,90,64,细颗粒物(PM2.5)
抚顺市,顺城区,123.9161,41.8822,2025-03-08T1100,35,71,0.8,20,12,102,53,61,颗粒物(PM10)
抚顺市,东洲区,124.0436,41.8611,2025-03-08T1100,39,61,0.9,18,10,100,89,56,颗粒物(PM10)
抚顺市,新抚区,123.9247,41.8642,2025-03-08T1100,41,74,1.1,21,10,101,64,62,颗粒物(PM10)
抚顺市,大伙房水库,124.0972,41.8961,2025-03-08T1100,38,52,1.0,15,12,99,74,54,细颗粒物(PM2.5)
抚顺市,沈抚新城,123.7086,41.8391,2025-03-08T1100,54,67,0.7,18,10,106,86,74,细颗粒物(PM2.5)
抚州市,桐源党溪,116.2127,28.0814,2025-03-08T1100,38,80,0.7,11,30,39,11,65,颗粒物(PM10)
抚州市,市站,116.3544,27.9831,2025-03-08T1100,30,40,0.8,30,16,28,16,43,
抚州市,血防站,116.3565,27.963,2025-03-08T1100,24,43,0.8,18,12,44,14,43,
抚州市,采茶剧团,116.3564,28.0007,2025-03-08T1100,24,44,1.0,16,8,23,13,44,
抚州市,医学分院,116.385,27.9647,2025-03-08T1100,25,40,0.9,23,8,40,14,40,
阜新市,工业园区,121.6094,41.998,2025-03-08T1100,52,77,0.7,20,11,72,59,72,细颗粒物(PM2.5)
阜新市,长青街,121.6697,42.0279,2025-03-08T1100,49,76,1.1,19,10,73,67,68,细颗粒物(PM2.5)
阜新市,农业园区,121.6673,42.0705,2025-03-08T1100,44,97,1.9,11,13,74,63,74,颗粒物(PM10)
阜新市,东苑,121.6717,42.0224,2025-03-08T1100,51,102,1.7,16,13,70,66,76,颗粒物(PM10)
阜新市,玉龙新城,121.6506,42.0498,2025-03-08T1100,46,90,0.9,15,13,75,56,70,颗粒物(PM10)
阜阳市,市监测站,115.8277,32.8929,2025-03-08T1100,75,90,0.6,20,9,101,72,100,细颗粒物(PM2.5)
阜阳市,开发区,115.8554,32.8605,2025-03-08T1100,70,113,0.9,21,9,104,72,94,细颗粒物(PM2.5)
阜阳市,阜阳职业技术学院,115.784,32.8892,2025-03-08T1100,83,95,0.7,20,8,92,78,110,细颗粒物(PM2.5)
阜阳市,市规划展馆,115.7901,32.8613,2025-03-08T1100,77,116,0.7,16,8,103,81,103,细颗粒物(PM2.5)
阜阳市,枣园社区,115.836,32.9183,2025-03-08T1100,80,111,0.5,18,6,111,76,107,细颗粒物(PM2.5)
甘南藏族自治州,州政府,102.9099,34.9841,2025-03-08T1100,26,62,0.4,14,11,67,22,56,颗粒物(PM10)
甘南藏族自治州,甘肃民族师范学院,102.8914,34.9617,2025-03-08T1100,24,70,0.2,2,14,79,36,60,颗粒物(PM10)
甘孜藏族自治州,水桥子,101.9603,30.0475,2025-03-08T1100,11,,0.5,18,4,43,56,16,
甘孜藏族自治州,州环保局,101.9533,29.9972,2025-03-08T1100,3,6,0.3,7,4,62,59,20,
赣江新区,桑海产业园,115.8347,28.932,2025-03-08T1100,45,61,0.4,28,11,51,17,63,细颗粒物(PM2.5)
赣州市,通天岩,114.9017,25.9149,2025-03-08T1100,9,34,0.3,11,9,55,50,34,
赣州市,地委,114.9367,25.8664,2025-03-08T1100,19,33,0.5,7,10,57,55,33,
赣州市,气象台,114.9461,25.8481,2025-03-08T1100,17,40,0.5,14,5,55,54,40,
赣州市,市图书馆,114.9322,25.8333,2025-03-08T1100,20,27,0.5,15,4,58,62,29,
赣州市,华坚鞋城,114.8905,25.8471,2025-03-08T1100,14,33,0.4,11,5,58,61,33,
赣州市,赣县区卫计委,115.0093,25.8613,2025-03-08T1100,19,28,0.2,6,3,60,60,28,
固原市,马园,106.2319,36.1417,2025-03-08T1100,22,81,0.5,21,5,68,36,66,颗粒物(PM10)
固原市,监测站,106.2792,36.0022,2025-03-08T1100,32,80,0.5,10,9,71,65,65,颗粒物(PM10)
固原市,新区,106.2375,36.0211,2025-03-08T1100,26,77,0.4,11,8,72,62,64,颗粒物(PM10)
固原市,原州区十五小,106.2177,35.9959,2025-03-08T1100,31,82,0.3,17,6,71,88,66,颗粒物(PM10)
广安市,小平旧居,106.6308,30.5278,2025-03-08T1100,,,,,,,,,
广安市,市委,106.6303,30.4576,2025-03-08T1100,37,61,0.5,35,5,32,57,56,颗粒物(PM10)
广安市,友谊中学,106.6271,30.4663,2025-03-08T1100,38,54,0.6,36,5,32,58,54,细颗粒物(PM2.5)
广安市,广电花园,106.6388,30.4551,2025-03-08T1100,40,59,0.6,47,5,18,52,57,细颗粒物(PM2.5)
广安市,北辰小学,106.6351,30.4865,2025-03-08T1100,36,41,0.4,22,11,46,59,52,细颗粒物(PM2.5)
广元市,黑石坡,105.8945,32.4535,2025-03-08T1100,21,53,0.7,26,11,6,36,52,颗粒物(PM10)
广元市,老城,105.821,32.4444,2025-03-08T1100,35,59,0.8,34,1,5,3,55,颗粒物(PM10)
广元市,监测站,105.8628,32.4287,2025-03-08T1100,31,35,0.9,32,8,11,30,45,
广元市,经开区,105.8047,32.4166,2025-03-08T1100,48,73,1.0,36,21,8,6,67,细颗粒物(PM2.5)
广州市,广雅中学,113.2347,23.1423,2025-03-08T1100,20,33,0.5,31,4,33,34,33,
广州市,市五中,113.2612,23.105,2025-03-08T1100,17,24,0.5,21,3,40,37,25,
广州市,广东商学院,113.3478,23.0916,2025-03-08T1100,16,19,0.6,20,3,35,32,23,
广州市,市八十六中,113.4332,23.1047,2025-03-08T1100,16,21,0.3,18,3,34,26,23,
广州市,番禺中学,113.3505,22.9483,2025-03-08T1100,16,25,0.7,22,7,36,27,25,
广州市,花都师范,113.2146,23.3916,2025-03-08T1100,18,26,0.5,19,8,42,54,26,
广州市,市监测站,113.2597,23.1331,2025-03-08T1100,16,27,0.5,24,6,37,34,27,
广州市,九龙镇镇龙,113.5618,23.312,2025-03-08T1100,20,22,,14,4,,32,,
广州市,麓湖,113.2765,23.1544,2025-03-08T1100,17,25,,21,3,,23,,
广州市,帽峰山森林公园,113.443,23.3035,2025-03-08T1100,7,13,0.7,12,5,43,36,14,
广州市,体育西,113.3221,23.1322,2025-03-08T1100,19,23,0.6,21,4,38,36,28,
广州市,从化街口,113.5717,23.5491,2025-03-08T1100,19,23,0.6,11,6,53,54,28,
广州市,白云竹料,113.3472,23.3692,2025-03-08T1100,15,21,0.5,12,7,53,52,22,
广州市,白云嘉禾,113.2981,23.237,2025-03-08T1100,19,26,0.4,29,3,38,39,28,
广州市,黄埔科学城,113.4256,23.1716,2025-03-08T1100,16,19,0.5,16,4,40,35,23,
广州市,番禺大学城,113.3942,23.0483,2025-03-08T1100,13,22,0.1,24,3,34,27,22,
广州市,南沙黄阁,113.4922,22.8168,2025-03-08T1100,21,34,0.6,25,8,32,31,34,
广州市,南沙街,113.5342,22.7896,2025-03-08T1100,20,32,0.7,29,11,31,29,32,
广州市,花都梯面,113.2902,23.5544,2025-03-08T1100,22,24,0.6,12,16,46,52,32,
广州市,从化良口,113.7858,23.7478,2025-03-08T1100,13,16,0.6,6,6,46,46,19,
广州市,增城荔城,113.8051,23.2614,2025-03-08T1100,15,17,0.6,9,8,47,47,22,
贵港市,德智高中,109.568,23.1478,2025-03-08T1100,,,,,,,,,
贵港市,江南子站,109.6047,23.0666,2025-03-08T1100,29,,0.5,16,4,52,44,42,
贵港市,贵城子站,109.6014,23.0948,2025-03-08T1100,27,,0.7,11,6,53,46,39,
贵港市,荷城子站,109.5669,23.1065,2025-03-08T1100,24,29,0.6,12,7,48,46,35,
贵港市,新世纪学校,109.5886,23.1172,2025-03-08T1100,26,41,0.3,12,2,51,46,41,
贵阳市,马鞍山,106.6899,26.5998,2025-03-08T1100,31,44,0.7,17,5,37,47,45,
贵阳市,鉴湖路,106.6243,26.6266,2025-03-08T1100,29,46,0.5,20,9,39,51,46,
贵阳市,燕子冲,106.7487,26.6343,2025-03-08T1100,44,,0.5,14,9,49,55,62,细颗粒物(PM2.5)
贵阳市,碧云窝,106.6555,26.4365,2025-03-08T1100,31,41,0.6,20,13,35,59,45,
贵阳市,红边门,106.7109,26.6027,2025-03-08T1100,46,51,0.7,23,10,42,59,64,细颗粒物(PM2.5)
贵阳市,新华路,106.7164,26.5699,2025-03-08T1100,46,53,0.6,19,11,40,62,64,细颗粒物(PM2.5)
贵阳市,太慈桥,106.674,26.5424,2025-03-08T1100,27,41,0.6,32,9,31,54,41,
贵阳市,桐木岭,106.805,26.3003,2025-03-08T1100,27,32,0.3,2,1,41,44,39,
贵阳市,花果园大街66号,106.6882,26.5695,2025-03-08T1100,40,44,0.6,17,6,31,51,57,细颗粒物(PM2.5)
贵阳市,漓江路57号,106.6873,26.5169,2025-03-08T1100,29,39,0.5,20,13,33,48,42,
桂林市,电子科大尧山校区,110.4144,25.3167,2025-03-08T1100,,,,,,,,,
桂林市,龙隐路小学,110.3089,25.2708,2025-03-08T1100,30,,0.7,11,8,76,71,43,
桂林市,八中,110.2869,25.2178,2025-03-08T1100,28,,0.5,16,6,71,66,40,
桂林市,旅游学院,110.296,25.1253,2025-03-08T1100,27,27,0.6,12,6,67,52,39,
桂林市,环湖路276号,110.1835,25.2444,2025-03-08T1100,27,31,0.8,17,9,64,62,39,
桂林市,信义路13号,110.2803,25.2773,2025-03-08T1100,31,31,0.8,15,7,69,71,45,
果洛藏族自治州,玛沁县大武镇,100.2561,34.4714,2025-03-08T1100,22,88,0.6,10,25,84,82,69,颗粒物(PM10)
哈尔滨市,岭北,126.5422,45.755,2025-03-08T1100,37,45,0.8,17,17,76,65,53,细颗粒物(PM2.5)
哈尔滨市,松北商大,126.561,45.8167,2025-03-08T1100,28,40,0.5,16,63,66,43,40,
哈尔滨市,阿城会宁,126.979,45.5419,2025-03-08T1100,62,93,0.6,21,13,58,71,84,细颗粒物(PM2.5)
哈尔滨市,南岗学府路,126.599,45.7222,2025-03-08T1100,60,98,0.8,36,19,56,56,82,细颗粒物(PM2.5)
哈尔滨市,太平宏伟公园,126.689,45.7733,2025-03-08T1100,37,50,0.6,27,9,53,51,53,细颗粒物(PM2.5)
哈尔滨市,道外承德广场,126.635,45.7667,2025-03-08T1100,44,74,0.4,23,8,49,49,62,"颗粒物(PM10),细颗粒物(PM2.5)"
哈尔滨市,香坊红旗大街,126.685,45.7319,2025-03-08T1100,54,78,0.9,29,15,47,53,74,细颗粒物(PM2.5)
哈尔滨市,动力和平路,126.6411,45.7258,2025-03-08T1100,49,80,0.8,31,10,47,54,68,细颗粒物(PM2.5)
哈尔滨市,道里建国路,126.593,45.7478,2025-03-08T1100,44,63,0.6,19,15,54,45,62,细颗粒物(PM2.5)
哈尔滨市,平房东轻厂,126.615,45.61,2025-03-08T1100,71,107,0.7,29,11,50,56,95,细颗粒物(PM2.5)
哈尔滨市,呼兰师专,126.595,45.9855,2025-03-08T1100,29,36,0.4,18,10,66,56,42,
哈尔滨市,省农科院,126.6206,45.6842,2025-03-08T1100,68,107,0.8,36,13,44,45,92,细颗粒物(PM2.5)
哈密市,地区监测站,93.5128,42.8172,2025-03-08T1100,36,176,0.3,27,7,58,46,113,颗粒物(PM10)
哈密市,哈密师范学校,93.4961,42.8328,2025-03-08T1100,47,163,0.5,39,8,58,32,107,颗粒物(PM10)
海北藏族自治州,海晏县西海镇,100.9048,36.9639,2025-03-08T1100,15,44,0.4,5,12,73,53,44,
海东市,平安区公安北苑,102.0738,36.5056,2025-03-08T1100,34,68,1.5,17,38,49,48,59,颗粒物(PM10)
海口市,东寨港,110.576,19.9507,2025-03-08T1100,11,,1.1,10,5,29,34,16,
海口市,海南大学,110.3232,20.0574,2025-03-08T1100,11,15,0.6,13,3,37,42,16,
海口市,秀英海南医院,110.283,20.0053,2025-03-08T1100,7,12,0.5,16,4,34,42,12,
海口市,海南师范大学,110.338,19.9969,2025-03-08T1100,8,12,0.6,11,2,40,44,13,
海口市,龙华路环保局宿舍,110.33,20.0356,2025-03-08T1100,11,14,0.6,13,3,37,43,16,
海口市,桂林洋子站,110.5111,19.9736,2025-03-08T1100,9,11,0.5,13,4,32,40,13,
海南藏族自治州,共和县恰卜恰镇,100.6188,36.2866,2025-03-08T1100,39,57,0.6,15,8,69,52,55,细颗粒物(PM2.5)
海西蒙古族藏族自治州,德令哈市,97.3731,37.3753,2025-03-08T1100,7,32,0.4,2,16,91,93,32,
邯郸市,东污水处理厂,114.5302,36.6116,2025-03-08T1100,107,,1.5,29,9,72,44,140,细颗粒物(PM2.5)
邯郸市,矿院,114.4918,36.5713,2025-03-08T1100,112,138,1.1,22,7,69,33,147,细颗粒物(PM2.5)
邯郸市,丛台公园,114.484,36.6133,2025-03-08T1100,112,119,1.6,26,15,77,48,147,细颗粒物(PM2.5)
邯郸市,香泉濮院小区,114.7895,36.5593,2025-03-08T1100,89,89,1.3,26,11,78,29,118,细颗粒物(PM2.5)
邯郸市,永年区实验高中,114.50634,36.77178,2025-03-08T1100,102,143,1.7,22,13,70,25,134,细颗粒物(PM2.5)
邯郸市,峰峰矿区临水派出所,114.20016,36.44293,2025-03-08T1100,100,102,1.8,15,15,109,69,132,细颗粒物(PM2.5)
汉中市,汉川机床厂子校,106.9893,33.1842,2025-03-08T1100,22,48,0.8,7,8,41,38,48,
汉中市,市监测站,107.0154,33.0706,2025-03-08T1100,30,51,0.9,23,6,38,16,51,颗粒物(PM10)
汉中市,鑫源开发区,107.0089,33.1138,2025-03-08T1100,33,45,0.7,20,5,38,20,48,
汉中市,南郑大河坎水厂,107.007,33.0323,2025-03-08T1100,26,58,0.8,20,8,47,21,54,颗粒物(PM10)
杭州市,滨江,120.2072,30.2111,2025-03-08T1100,54,77,0.5,35,6,49,19,74,细颗粒物(PM2.5)
杭州市,西溪,120.0633,30.2747,2025-03-08T1100,47,64,0.6,24,7,67,22,65,细颗粒物(PM2.5)
杭州市,下沙,120.3461,30.3153,2025-03-08T1100,51,84,0.6,42,5,44,25,70,细颗粒物(PM2.5)
杭州市,卧龙桥,120.1269,30.2456,2025-03-08T1100,46,63,0.8,30,6,42,24,64,细颗粒物(PM2.5)
杭州市,浙江农大,120.1903,30.2692,2025-03-08T1100,46,63,0.5,23,8,56,20,64,细颗粒物(PM2.5)
杭州市,和睦小学,120.1197,30.3119,2025-03-08T1100,50,67,0.7,37,8,52,16,69,细颗粒物(PM2.5)
杭州市,临平镇,120.3019,30.4183,2025-03-08T1100,51,99,0.6,44,6,42,13,75,颗粒物(PM10)
杭州市,城厢镇,120.2697,30.1819,2025-03-08T1100,56,77,0.6,36,7,49,24,77,细颗粒物(PM2.5)
杭州市,云栖,120.0883,30.1808,2025-03-08T1100,50,75,0.6,36,7,50,19,69,细颗粒物(PM2.5)
杭州市,镇二中,119.9464,30.0494,2025-03-08T1100,51,60,0.7,29,7,40,14,70,细颗粒物(PM2.5)
杭州市,市府大楼,119.7183,30.2367,2025-03-08T1100,45,57,0.6,28,8,61,30,63,细颗粒物(PM2.5)
杭州市,消防大队,120.1556,30.2864,2025-03-08T1100,44,63,0.6,25,7,79,33,62,细颗粒物(PM2.5)
合肥市,明珠广场,117.1959,31.7848,2025-03-08T1100,,,,,,,,,
合肥市,三里街,117.3072,31.8764,2025-03-08T1100,48,88,0.7,44,6,62,35,69,颗粒物(PM10)
合肥市,琥珀山庄,117.2588,31.8707,2025-03-08T1100,62,75,0.6,33,3,86,53,84,细颗粒物(PM2.5)
合肥市,董铺水库,117.1604,31.9052,2025-03-08T1100,36,70,0.5,25,3,100,73,60,颗粒物(PM10)
合肥市,长江中路,117.25,31.8571,2025-03-08T1100,55,80,0.7,37,9,81,65,75,细颗粒物(PM2.5)
合肥市,庐阳区,117.266,31.9436,2025-03-08T1100,68,105,0.6,42,7,86,61,92,细颗粒物(PM2.5)
合肥市,瑶海区,117.336,31.8586,2025-03-08T1100,48,78,0.5,32,6,69,49,67,细颗粒物(PM2.5)
合肥市,包河区,117.3027,31.7964,2025-03-08T1100,48,63,0.8,22,4,86,45,67,细颗粒物(PM2.5)
合肥市,滨湖新区,117.2776,31.7385,2025-03-08T1100,53,68,0.5,24,6,83,72,73,细颗粒物(PM2.5)
合肥市,高新区,117.1318,31.8403,2025-03-08T1100,46,70,0.5,38,3,93,72,64,细颗粒物(PM2.5)
合肥市,高教基地,117.3803,31.9147,2025-03-08T1100,55,78,0.5,33,8,76,52,75,细颗粒物(PM2.5)
和田地区,地区环保局,79.924,37.0877,2025-03-08T1100,51,194,0.1,19,5,57,69,122,颗粒物(PM10)
和田地区,市环保局,79.9131,37.113,2025-03-08T1100,36,191,1.2,29,2,67,74,121,颗粒物(PM10)
河池市,东仁乐园,108.2011,24.715,2025-03-08T1100,21,31,0.8,7,9,58,55,31,
河池市,市环保站,108.0497,24.6947,2025-03-08T1100,22,27,0.6,7,11,56,60,32,
河池市,市疾控中心,108.0983,24.6989,2025-03-08T1100,23,,0.6,2,10,58,52,33,
河源市,源西,114.6778,23.7569,2025-03-08T1100,19,20,0.2,9,5,38,35,28,
河源市,东埔,114.6944,23.7586,2025-03-08T1100,23,26,0.6,10,4,39,38,33,
河源市,老城,114.6892,23.7233,2025-03-08T1100,26,,0.7,9,4,40,37,38,
菏泽市,气象局,115.4208,35.2464,2025-03-08T1100,78,107,0.6,26,7,86,80,104,细颗粒物(PM2.5)
菏泽市,定陶老年大学,115.5564,35.0891,2025-03-08T1100,73,100,0.5,30,7,91,72,98,细颗粒物(PM2.5)
菏泽市,永昌路1号,115.4797,35.24401,2025-03-08T1100,,,,,9,91,89,,
菏泽市,长城路999号,115.4715,35.2800,2025-03-08T1100,66,96,0.6,28,8,79,83,89,细颗粒物(PM2.5)
贺州市,环保小区,111.5264,24.4172,2025-03-08T1100,40,40,0.8,11,6,61,58,57,细颗粒物(PM2.5)
贺州市,政协大楼,111.5608,24.4078,2025-03-08T1100,38,48,0.9,14,6,,55,,
贺州市,西湾,111.4744,24.4553,2025-03-08T1100,42,,0.6,11,5,58,54,59,细颗粒物(PM2.5)
鹤壁市,市监测站,114.17,35.9019,2025-03-08T1100,74,100,1.2,32,7,79,40,99,细颗粒物(PM2.5)
鹤壁市,市交警支队,114.2956,35.7511,2025-03-08T1100,80,100,0.7,20,12,77,28,107,细颗粒物(PM2.5)
鹤壁市,迎宾馆,114.2878,35.7306,2025-03-08T1100,65,112,1.0,21,14,80,40,88,细颗粒物(PM2.5)
鹤壁市,大新区,114.2617,35.6822,2025-03-08T1100,89,92,1.0,25,9,75,31,118,细颗粒物(PM2.5)
鹤壁市,南山宾馆,114.1572,35.9603,2025-03-08T1100,88,101,1.0,18,14,86,62,117,细颗粒物(PM2.5)
鹤岗市,哈啤分公司,130.2537,47.3416,2025-03-08T1100,12,24,0.6,5,14,82,77,26,
鹤岗市,斯达机电,130.2684,47.3086,2025-03-08T1100,6,15,0.3,6,15,78,72,25,
鹤岗市,东山纸板厂,130.3114,47.3388,2025-03-08T1100,10,40,0.6,8,16,76,59,40,
鹤岗市,五号水库,130.1097,47.3382,2025-03-08T1100,,,,,,,,,
黑河市,交通局,127.4833,50.2524,2025-03-08T1100,23,49,0.9,20,7,66,62,49,
黑河市,环保局,127.5144,50.2341,2025-03-08T1100,30,46,0.6,13,9,67,38,46,
黑河市,大黑河岛,127.5291,50.2472,2025-03-08T1100,,,,,,,,,
衡水市,电机北厂,115.6838,37.7541,2025-03-08T1100,111,146,0.8,29,8,68,33,145,细颗粒物(PM2.5)
衡水市,市监测站,115.6303,37.7316,2025-03-08T1100,105,125,0.8,24,11,76,30,138,细颗粒物(PM2.5)
衡水市,市城管局,115.6683,37.7217,2025-03-08T1100,90,139,0.8,26,6,70,27,119,细颗粒物(PM2.5)
衡水市,地表水厂,115.5989,37.5491,2025-03-08T1100,139,146,0.9,40,14,74,27,185,细颗粒物(PM2.5)
衡阳市,原169医院,112.5003,26.9167,2025-03-08T1100,26,37,0.6,30,9,23,14,38,
衡阳市,衡阳化工总厂,112.6194,26.9258,2025-03-08T1100,43,,0.6,14,5,34,26,60,细颗粒物(PM2.5)
衡阳市,珠晖区环保局,112.6211,26.8956,2025-03-08T1100,36,,0.6,14,6,36,21,52,细颗粒物(PM2.5)
衡阳市,市委党校,112.6197,26.8733,2025-03-08T1100,37,37,0.8,19,10,34,29,53,细颗粒物(PM2.5)
衡阳市,市监测站,112.6006,26.8919,2025-03-08T1100,35,42,0.8,16,8,41,30,50,
衡阳市,真空机电公司,112.5664,26.9056,2025-03-08T1100,39,44,0.7,19,6,38,32,55,细颗粒物(PM2.5)
衡阳市,师范学院,112.6703,26.882,2025-03-08T1100,37,47,0.8,22,9,33,27,53,细颗粒物(PM2.5)
红河哈尼族彝族自治州,污水处理厂,103.3772,23.3993,2025-03-08T1100,34,36,0.5,8,6,65,66,49,
红河哈尼族彝族自治州,监测站,103.3861,23.35,2025-03-08T1100,28,36,0.5,9,6,65,67,40,
红河哈尼族彝族自治州,州图书馆,103.3758,23.368,2025-03-08T1100,36,,0.4,8,6,65,65,52,细颗粒物(PM2.5)
呼和浩特市,呼市一监,111.6507,40.7517,2025-03-08T1100,55,70,0.9,21,12,60,32,75,细颗粒物(PM2.5)
呼和浩特市,小召,111.6572,40.8033,2025-03-08T1100,65,102,0.7,30,5,48,39,88,细颗粒物(PM2.5)
呼和浩特市,如意水处理厂,111.7516,40.8369,2025-03-08T1100,65,107,0.7,29,9,46,24,88,细颗粒物(PM2.5)
呼和浩特市,二十九中,111.7276,40.8062,2025-03-08T1100,61,85,0.9,30,7,46,32,83,细颗粒物(PM2.5)
呼和浩特市,工大金川校区,111.5512,40.7866,2025-03-08T1100,72,86,0.8,33,8,42,26,97,细颗粒物(PM2.5)
呼和浩特市,化肥厂生活区,111.717,40.7612,2025-03-08T1100,56,88,0.7,28,11,55,30,77,细颗粒物(PM2.5)
呼和浩特市,红旗小学,111.5968,40.8178,2025-03-08T1100,71,97,0.7,31,7,49,24,95,细颗粒物(PM2.5)
呼和浩特市,海东办,111.6518,40.8389,2025-03-08T1100,68,85,0.8,29,8,47,15,92,细颗粒物(PM2.5)
呼伦贝尔市,区环保局,119.7594,49.2261,2025-03-08T1100,15,32,0.5,14,6,84,67,32,
呼伦贝尔市,国华电力东,119.7512,49.1577,2025-03-08T1100,24,32,0.5,8,4,89,82,35,
湖州市,城西水厂,120.0751,30.8669,2025-03-08T1100,60,86,0.5,35,8,72,19,82,细颗粒物(PM2.5)
湖州市,仁皇山新区,120.0875,30.8955,2025-03-08T1100,72,103,0.6,49,9,58,16,97,细颗粒物(PM2.5)
湖州市,吴兴区站,120.1844,30.8596,2025-03-08T1100,69,98,0.5,38,8,64,16,93,细颗粒物(PM2.5)
湖州市,南浔区站,120.4148,30.8538,2025-03-08T1100,41,70,0.5,18,3,88,36,60,颗粒物(PM10)
葫芦岛市,龙港区,120.9092,40.7136,2025-03-08T1100,55,72,0.9,31,17,73,64,75,细颗粒物(PM2.5)
葫芦岛市,化工街,120.8392,40.7514,2025-03-08T1100,58,90,0.7,39,18,71,46,79,细颗粒物(PM2.5)
葫芦岛市,新区,120.8341,40.7073,2025-03-08T1100,80,93,1.2,51,26,51,63,107,细颗粒物(PM2.5)
葫芦岛市,东城区,120.8695,40.7677,2025-03-08T1100,58,87,1.0,44,16,65,48,79,细颗粒物(PM2.5)
怀化市,林科所,109.5981,27.5721,2025-03-08T1100,12,13,0.9,11,8,50,43,18,
怀化市,河西地税局,109.9453,27.5444,2025-03-08T1100,18,22,0.5,10,8,51,28,26,
怀化市,市四医院,109.9781,27.5342,2025-03-08T1100,28,36,0.7,30,7,20,21,40,
怀化市,监测楼,109.9972,27.5578,2025-03-08T1100,19,30,,28,8,27,30,,
怀化市,市委党校,110.0394,27.583,2025-03-08T1100,25,29,0.6,18,14,32,29,36,
淮安市,钵池山,119.036,33.5981,2025-03-08T1100,83,97,0.8,21,12,91,67,110,细颗粒物(PM2.5)
淮安市,北京南路,119.007,33.575,2025-03-08T1100,90,112,0.7,34,11,74,48,119,细颗粒物(PM2.5)
淮安市,市监测站,118.989,33.6067,2025-03-08T1100,92,117,1.6,42,21,76,68,122,细颗粒物(PM2.5)
淮安市,楚州区监测站,119.135,33.5039,2025-03-08T1100,89,107,0.8,28,11,85,25,118,细颗粒物(PM2.5)
淮安市,新华书店,118.8755,33.2894,2025-03-08T1100,94,104,0.6,,10,,62,124,细颗粒物(PM2.5)
淮安市,承德北路606号,119.0288,33.6319,2025-03-08T1100,83,122,1.1,30,15,96,68,110,细颗粒物(PM2.5)
淮北市,监测站,116.8004,33.975,2025-03-08T1100,78,116,0.9,27,12,96,86,104,细颗粒物(PM2.5)
淮北市,烈山区政府,116.8091,33.9007,2025-03-08T1100,75,96,0.9,35,11,94,93,100,细颗粒物(PM2.5)
淮北市,杜集区检察院,116.8873,33.9836,2025-03-08T1100,71,88,0.9,27,11,101,95,95,细颗粒物(PM2.5)
淮北市,市博物馆,116.7923,33.9535,2025-03-08T1100,74,110,0.9,26,12,98,85,99,细颗粒物(PM2.5)
淮南市,潘集区政府,116.8305,32.7727,2025-03-08T1100,78,108,,,10,69,54,104,细颗粒物(PM2.5)
淮南市,谢家集区政府,116.8569,32.5951,2025-03-08T1100,65,89,0.6,25,9,68,50,88,细颗粒物(PM2.5)
淮南市,八公山区政府,116.8281,32.633,2025-03-08T1100,60,88,0.5,28,7,75,61,82,细颗粒物(PM2.5)
淮南市,焦岗湖风景区管理处,116.6325,32.6201,2025-03-08T1100,54,71,0.2,17,4,51,40,74,细颗粒物(PM2.5)
淮南市,经济技术开发区消防队,117.0566,32.6531,2025-03-08T1100,62,94,0.5,20,8,78,67,84,细颗粒物(PM2.5)
淮南市,山南新区,117.0108,32.5893,2025-03-08T1100,53,86,0.6,26,10,77,64,73,细颗粒物(PM2.5)
淮南市,国庆中路369号,117.0031,32.6445,2025-03-08T1100,75,,0.5,32,6,85,79,100,细颗粒物(PM2.5)
黄冈市,职工中心,114.9028,30.4742,2025-03-08T1100,72,88,1.0,28,15,66,49,97,细颗粒物(PM2.5)
黄冈市,红卫路,114.8858,30.4519,2025-03-08T1100,82,105,1.0,37,19,66,49,109,细颗粒物(PM2.5)
黄冈市,市林业局,114.9136,30.4445,2025-03-08T1100,79,108,1.2,38,23,70,44,105,细颗粒物(PM2.5)
黄南藏族自治州,同仁县隆务镇,102.0199,35.5102,2025-03-08T1100,19,46,0.4,5,14,74,65,46,
黄山市,延安路89号,118.2903,29.6963,2025-03-08T1100,28,53,0.6,12,4,49,17,52,颗粒物(PM10)
黄山市,黄山区政府5号楼,118.1371,30.2756,2025-03-08T1100,34,36,0.5,6,8,61,24,49,
黄山市,滨江东路7-2号,118.3354,29.7203,2025-03-08T1100,22,53,0.4,9,5,63,22,52,颗粒物(PM10)
黄石市,沈家营,115.0601,30.2313,2025-03-08T1100,72,94,1.2,42,26,52,25,97,细颗粒物(PM2.5)
黄石市,铁山,114.8988,30.2019,2025-03-08T1100,72,,0.9,16,34,88,38,97,细颗粒物(PM2.5)
黄石市,团城山,115.0307,30.2092,2025-03-08T1100,89,97,1.2,52,28,46,43,118,细颗粒物(PM2.5)
黄石市,笔架山北路,115.0235,30.1578,2025-03-08T1100,75,95,1.3,33,14,63,48,100,细颗粒物(PM2.5)
黄石市,磁湖东路29号,115.0780,30.21118,2025-03-08T1100,93,113,1.2,43,25,50,21,123,细颗粒物(PM2.5)
惠州市,河南岸金山湖子站,114.4183,23.0528,2025-03-08T1100,17,18,0.6,10,8,36,38,25,
惠州市,下埔横江三路子站,114.4053,23.0822,2025-03-08T1100,17,20,0.6,12,9,36,38,25,
惠州市,江北云山西路子站,114.4103,23.1142,2025-03-08T1100,17,20,0.8,13,10,33,37,25,
惠州市,惠阳区承修路船湖子站,114.4645,22.7833,2025-03-08T1100,18,24,0.7,16,8,25,29,26,
惠州市,大亚湾管委会子站,114.5317,22.7422,2025-03-08T1100,13,20,0.7,14,6,25,32,20,
惠州市,惠阳秋长,114.4338,22.8134,2025-03-08T1100,16,24,0.6,21,4,32,36,24,
惠州市,大亚湾霞涌,114.6517,22.775,2025-03-08T1100,3,21,0.8,15,8,26,31,21,
鸡西市,环保局,130.9762,45.3001,2025-03-08T1100,29,48,0.5,23,8,47,61,48,
鸡西市,第一中学,130.9429,45.3039,2025-03-08T1100,35,46,0.4,25,9,49,66,50,
鸡西市,欧美日汽修厂,131.0207,45.3073,2025-03-08T1100,42,57,0.3,16,12,58,64,59,细颗粒物(PM2.5)
鸡西市,市政设施管理处,130.9967,45.3106,2025-03-08T1100,32,50,0.5,15,8,54,55,50,
吉安市,红声器材厂,114.9754,27.0803,2025-03-08T1100,41,59,0.7,,,20,16,,
吉安市,市森林工业局,114.9658,27.0999,2025-03-08T1100,32,37,0.2,35,12,22,19,46,
吉安市,市环境监测站,114.99,27.1312,2025-03-08T1100,25,43,0.6,23,14,20,17,43,
吉安市,青原区法院,115.0093,27.0968,2025-03-08T1100,40,56,0.4,31,12,21,22,57,细颗粒物(PM2.5)
吉林市,哈达湾,126.54,43.8622,2025-03-08T1100,34,54,0.8,14,11,95,90,52,颗粒物(PM10)
吉林市,东局子,126.5844,43.8358,2025-03-08T1100,27,49,0.6,16,9,91,85,49,
吉林市,电力学院,126.5052,43.8245,2025-03-08T1100,33,44,0.5,15,9,,86,,
吉林市,江北,126.6133,43.8972,2025-03-08T1100,31,54,0.7,17,13,92,82,52,颗粒物(PM10)
吉林市,江南公园,126.555,43.8306,2025-03-08T1100,34,48,0.6,14,9,92,89,49,
吉林市,丰满,126.7061,43.7133,2025-03-08T1100,32,39,0.6,11,9,108,105,46,
吉林市,九站,126.4739,43.953,2025-03-08T1100,34,57,0.7,20,11,88,84,54,颗粒物(PM10)
济南市,科干所,116.9862,36.6114,2025-03-08T1100,54,90,0.6,23,8,118,118,74,细颗粒物(PM2.5)
济南市,农科所,116.9376,36.665,2025-03-08T1100,54,93,0.8,19,9,108,97,74,细颗粒物(PM2.5)
济南市,开发区,117.1265,36.6734,2025-03-08T1100,68,76,0.6,16,9,115,115,92,细颗粒物(PM2.5)
济南市,省种子仓库,117.0624,36.6868,2025-03-08T1100,56,92,0.8,18,6,116,116,77,细颗粒物(PM2.5)
济南市,机床二厂,116.9489,36.6447,2025-03-08T1100,66,95,0.8,24,14,94,93,89,细颗粒物(PM2.5)
济南市,市监测站,117.0495,36.663,2025-03-08T1100,61,81,0.6,23,10,107,107,83,细颗粒物(PM2.5)
济南市,长清党校,116.7675,36.5484,2025-03-08T1100,68,103,0.7,20,11,113,105,92,细颗粒物(PM2.5)
济南市,技术学院,117.6795,36.229,2025-03-08T1100,68,92,1.0,28,15,125,92,92,细颗粒物(PM2.5)
济南市,东山小学,117.532,36.6868,2025-03-08T1100,56,81,0.7,21,9,120,108,77,细颗粒物(PM2.5)
济南市,泰兴公司,117.7161,36.2049,2025-03-08T1100,68,90,0.7,23,13,126,41,92,细颗粒物(PM2.5)
济南市,莱芜战役纪念馆,117.6867,36.2171,2025-03-08T1100,66,107,0.9,24,10,126,94,89,细颗粒物(PM2.5)
济南市,济阳区政府,117.1673,36.9782,2025-03-08T1100,56,93,0.5,21,14,85,72,77,细颗粒物(PM2.5)
济南市,锦屏中学,117.1171,36.63,2025-03-08T1100,51,71,0.6,19,11,111,108,70,细颗粒物(PM2.5)
济南市,济南四建,116.9814,36.6819,2025-03-08T1100,59,80,0.4,22,9,107,106,80,细颗粒物(PM2.5)
济宁市,火炬城,116.6251,35.4302,2025-03-08T1100,88,,0.9,16,13,112,99,117,细颗粒物(PM2.5)
济宁市,电化厂,116.5491,35.4042,2025-03-08T1100,88,109,1.0,18,13,111,98,117,细颗粒物(PM2.5)
济宁市,北湖一中,116.5814,35.3707,2025-03-08T1100,63,71,0.9,23,13,114,104,85,细颗粒物(PM2.5)
济宁市,服务中心,116.8249,35.5593,2025-03-08T1100,82,129,0.9,29,10,114,95,109,细颗粒物(PM2.5)
济宁市,市第七中学,116.5907,35.4054,2025-03-08T1100,68,,0.9,25,8,119,109,92,细颗粒物(PM2.5)
佳木斯市,佳纺,130.2751,46.8028,2025-03-08T1100,15,26,0.2,8,6,74,70,26,
佳木斯市,发电厂,130.3995,46.8307,2025-03-08T1100,11,17,0.4,5,3,82,78,26,
佳木斯市,环保局,130.3258,46.7975,2025-03-08T1100,16,37,0.3,11,3,71,71,37,
佳木斯市,十一中,130.3648,46.8032,2025-03-08T1100,14,19,0.4,8,4,72,73,23,
佳木斯市,四丰,130.3794,46.7588,2025-03-08T1100,13,44,0.5,9,1,69,58,44,
嘉兴市,清河小学,120.7436,30.778,2025-03-08T1100,48,82,1.1,39,6,70,36,67,细颗粒物(PM2.5)
嘉兴市,嘉兴学院,120.726,30.7478,2025-03-08T1100,50,74,0.5,36,8,75,21,69,细颗粒物(PM2.5)
嘉兴市,南湖区残联,120.7846,30.7525,2025-03-08T1100,54,81,0.5,34,9,82,48,74,细颗粒物(PM2.5)
嘉兴市,秀洲住建,120.6916,30.7739,2025-03-08T1100,60,101,,,7,66,17,,
嘉峪关市,气象局,98.2908,39.7711,2025-03-08T1100,22,58,0.1,16,5,75,60,54,颗粒物(PM10)
嘉峪关市,酒钢宾馆,98.2672,39.7978,2025-03-08T1100,19,95,0.5,18,1,63,65,73,颗粒物(PM10)
嘉峪关市,雄关区,98.2643,39.7724,2025-03-08T1100,15,49,0.5,18,4,75,61,49,
江门市,北街,113.1064,22.6058,2025-03-08T1100,18,29,0.6,28,4,33,25,29,
江门市,西区,113.0731,22.5835,2025-03-08T1100,14,35,0.6,26,7,33,24,35,
江门市,圭峰西,113.0219,22.5311,2025-03-08T1100,17,32,0.5,29,4,30,22,32,
江门市,东湖,113.0828,22.5947,2025-03-08T1100,21,27,0.5,25,7,36,25,30,
江门市,江海富民,113.1075,22.5647,2025-03-08T1100,9,36,0.4,26,7,30,22,36,
江门市,新会银湖,113.05,22.4667,2025-03-08T1100,25,30,0.6,26,1,30,18,36,
焦作市,影视城,113.1992,35.2590,2025-03-08T1100,,,,,,,,,
焦作市,太极体育中心,113.2725,35.2067,2025-03-08T1100,52,76,1.1,28,14,63,45,72,细颗粒物(PM2.5)
焦作市,马村街道办,113.3137,35.2641,2025-03-08T1100,64,81,1.2,24,28,68,48,87,细颗粒物(PM2.5)
焦作市,焦作技师学院,113.2465,35.2373,2025-03-08T1100,46,72,1.1,23,8,68,54,64,细颗粒物(PM2.5)
焦作市,中站许衡医院,113.1656,35.2539,2025-03-08T1100,45,53,0.7,18,8,88,74,63,细颗粒物(PM2.5)
焦作市,原李万街道办,113.2449,35.1803,2025-03-08T1100,46,,0.7,,14,70,51,,
焦作市,新安路1731号,113.2340,35.2190,2025-03-08T1100,42,56,0.8,26,11,66,47,59,细颗粒物(PM2.5)
揭阳市,新兴,116.3701,23.5345,2025-03-08T1100,17,34,0.8,21,,23,15,,
揭阳市,西马,116.3264,23.5443,2025-03-08T1100,15,29,0.6,,9,27,19,,
揭阳市,东兴,116.3611,23.5626,2025-03-08T1100,15,41,0.7,18,7,24,12,41,
揭阳市,渔湖,116.4151,23.5294,2025-03-08T1100,13,52,0.7,25,6,28,19,51,颗粒物(PM10)
揭阳市,曲溪,116.403,23.5699,2025-03-08T1100,13,32,0.6,23,5,23,14,32,
金昌市,天庆家园,102.1692,38.5167,2025-03-08T1100,42,87,0.8,16,13,78,59,69,颗粒物(PM10)
金昌市,金川区人防中心,102.1647,38.5371,2025-03-08T1100,38,117,0.7,14,9,68,63,84,颗粒物(PM10)
金昌市,长春路96号,102.1930,38.5319,2025-03-08T1100,42,69,0.8,13,13,70,60,60,颗粒物(PM10)
金华市,十五中,119.647,29.077,2025-03-08T1100,51,72,0.7,37,6,52,24,70,细颗粒物(PM2.5)
金华市,监测站,119.686,29.1029,2025-03-08T1100,57,78,0.6,24,6,64,27,78,细颗粒物(PM2.5)
金华市,气象局,119.656,29.1131,2025-03-08T1100,56,80,0.7,29,7,53,17,77,细颗粒物(PM2.5)
锦州市,南山,121.1115,41.0879,2025-03-08T1100,76,82,0.8,37,21,65,55,102,细颗粒物(PM2.5)
锦州市,开发区,121.0533,40.8434,2025-03-08T1100,71,91,1.0,42,37,60,45,95,细颗粒物(PM2.5)
锦州市,百股街道,121.1836,41.1119,2025-03-08T1100,75,87,1.1,36,23,61,58,100,细颗粒物(PM2.5)
锦州市,天安街道,121.1178,41.1222,2025-03-08T1100,89,96,1.0,38,29,64,59,118,细颗粒物(PM2.5)
锦州市,北湖公园,121.1303,41.1386,2025-03-08T1100,80,109,0.9,37,32,65,56,107,细颗粒物(PM2.5)
晋城市,自来水公司,112.85,35.5051,2025-03-08T1100,56,76,1.4,26,10,64,43,77,细颗粒物(PM2.5)
晋城市,白云商贸,112.8318,35.4936,2025-03-08T1100,58,93,1.7,27,11,76,48,79,细颗粒物(PM2.5)
晋城市,市环保局,112.8508,35.4887,2025-03-08T1100,51,74,1.4,25,10,69,38,70,细颗粒物(PM2.5)
晋城市,技术学院,112.8676,35.4897,2025-03-08T1100,46,66,1.5,30,11,60,28,64,细颗粒物(PM2.5)
晋城市,白马寺,112.8453,35.546,2025-03-08T1100,97,,1.1,8,8,95,61,128,细颗粒物(PM2.5)
晋城市,泽州一中,112.8271,35.4828,2025-03-08T1100,61,101,1.7,27,12,78,52,83,细颗粒物(PM2.5)
晋中市,南都小区,112.7249,37.7067,2025-03-08T1100,59,95,1.1,22,21,58,30,80,细颗粒物(PM2.5)
晋中市,榆次区政府,112.6991,37.6982,2025-03-08T1100,76,112,0.9,25,20,57,24,102,细颗粒物(PM2.5)
晋中市,榆次三中,112.7195,37.6828,2025-03-08T1100,66,97,0.7,24,19,63,23,89,细颗粒物(PM2.5)
晋中市,迎宾街26号,112.7478,37.6954,2025-03-08T1100,66,90,0.7,20,16,63,28,89,细颗粒物(PM2.5)
荆门市,竹园小学,112.2014,31.0481,2025-03-08T1100,88,130,0.6,36,6,65,91,117,细颗粒物(PM2.5)
荆门市,掇刀,112.1969,30.9891,2025-03-08T1100,85,125,0.6,42,6,64,86,113,细颗粒物(PM2.5)
荆门市,石化一小,112.2213,31.0386,2025-03-08T1100,80,134,0.5,52,14,55,78,107,细颗粒物(PM2.5)
荆门市,西山林语,112.1849,31.0362,2025-03-08T1100,76,98,0.2,27,5,75,88,102,细颗粒物(PM2.5)
荆门市,龙泉中学南校,112.1632,31.0138,2025-03-08T1100,85,105,0.5,28,7,66,74,113,细颗粒物(PM2.5)
荆州市,市图书馆,112.2494,30.3197,2025-03-08T1100,73,,0.7,21,4,67,76,98,细颗粒物(PM2.5)
荆州市,市委党校,112.2008,30.3544,2025-03-08T1100,73,80,0.7,25,10,65,75,98,细颗粒物(PM2.5)
荆州市,管委会,112.2747,30.3122,2025-03-08T1100,71,72,0.7,23,14,72,80,95,细颗粒物(PM2.5)
荆州市,学苑路85号,112.1722,30.3366,2025-03-08T1100,70,,0.7,19,9,76,77,94,细颗粒物(PM2.5)
景德镇市,王港中学,117.3102,29.3867,2025-03-08T1100,,,,,,,,,
景德镇市,老干部活动中心,117.2117,29.2933,2025-03-08T1100,39,55,0.3,17,6,60,18,55,细颗粒物(PM2.5)
景德镇市,兽医站,117.1894,29.2789,2025-03-08T1100,27,51,0.7,23,6,68,24,51,颗粒物(PM10)
景德镇市,台达陶瓷,117.1547,29.2617,2025-03-08T1100,25,56,0.6,22,21,52,18,53,颗粒物(PM10)
景德镇市,陶研所,117.2461,29.2956,2025-03-08T1100,42,50,0.6,24,10,60,14,59,细颗粒物(PM2.5)
九江市,十里,115.9872,29.6815,2025-03-08T1100,33,54,0.6,25,6,68,30,52,颗粒物(PM10)
九江市,茅山头,115.9584,29.7046,2025-03-08T1100,48,67,0.4,37,11,63,46,67,细颗粒物(PM2.5)
九江市,西园,115.9877,29.7295,2025-03-08T1100,46,60,0.7,46,18,51,52,64,细颗粒物(PM2.5)
九江市,综合工业园,115.9114,29.6038,2025-03-08T1100,52,52,0.6,38,10,77,49,72,细颗粒物(PM2.5)
九江市,石化总厂,116.0721,29.7535,2025-03-08T1100,44,62,0.6,22,12,72,53,62,细颗粒物(PM2.5)
九江市,庐山气象台,115.9773,29.5698,2025-03-08T1100,51,56,1.3,12,6,100,117,70,细颗粒物(PM2.5)
九江市,外国语学校,116.0254,29.6994,2025-03-08T1100,46,57,0.4,24,12,77,43,64,细颗粒物(PM2.5)
九江市,莲花大道8号,116.0102,29.6594,2025-03-08T1100,52,60,0.5,18,13,69,37,72,细颗粒物(PM2.5)
酒泉市,玉门东路5号,98.4958,39.7339,2025-03-08T1100,25,75,0.3,9,8,80,60,63,颗粒物(PM10)
酒泉市,北大街108号,98.5099,39.7506,2025-03-08T1100,19,66,0.3,13,9,69,52,58,颗粒物(PM10)
喀什地区,巡警大队,76.0072,39.4467,2025-03-08T1100,40,79,1.4,58,7,39,50,65,颗粒物(PM10)
喀什地区,吾办,75.9755,39.4694,2025-03-08T1100,28,79,0.8,37,7,54,52,65,颗粒物(PM10)
喀什地区,老干局,75.9483,39.4689,2025-03-08T1100,27,82,0.9,30,4,61,58,66,颗粒物(PM10)
开封市,肿瘤医院,114.3389,34.7781,2025-03-08T1100,64,68,1.1,23,13,73,36,87,细颗粒物(PM2.5)
开封市,世纪星幼儿园,114.2885,34.7965,2025-03-08T1100,86,,1.1,30,12,73,40,114,细颗粒物(PM2.5)
开封市,龙亭公园,114.3438,34.8106,2025-03-08T1100,69,77,0.8,31,8,69,42,93,细颗粒物(PM2.5)
开封市,汴京公园,114.3644,34.7964,2025-03-08T1100,70,75,0.9,30,11,72,41,94,细颗粒物(PM2.5)
开封市,技师学院,114.2485,34.8306,2025-03-08T1100,70,79,1.1,30,17,62,46,94,细颗粒物(PM2.5)
开封市,祥符区生态环境局,114.4644,34.7556,2025-03-08T1100,98,124,1.7,34,21,64,28,129,细颗粒物(PM2.5)
克拉玛依市,长征新村,84.895,45.6094,2025-03-08T1100,22,25,0.5,30,7,42,68,32,
克拉玛依市,南林小区,84.8988,45.5893,2025-03-08T1100,19,25,0.5,23,3,44,66,28,
克拉玛依市,独山子区,84.905,44.3396,2025-03-08T1100,11,,0.2,15,6,87,101,28,
克拉玛依市,乌尔禾区商贸楼,85.6979,46.098,2025-03-08T1100,26,34,1.1,32,6,43,59,38,
克拉玛依市,白碱滩区新站,85.1045,45.6899,2025-03-08T1100,21,28,0.4,20,8,52,57,30,
克孜勒苏柯尔克孜自治州,市人民政府,76.1454,39.7142,2025-03-08T1100,18,40,0.5,15,5,60,82,40,
克孜勒苏柯尔克孜自治州,克州文化中心,76.1658,39.7157,2025-03-08T1100,15,36,0.5,15,5,73,93,36,
昆明市,呈贡新区,102.8204,24.8886,2025-03-08T1100,48,57,0.6,10,4,93,63,67,细颗粒物(PM2.5)
昆明市,西山森林公园,102.6251,24.9608,2025-03-08T1100,,,,,,,,,
昆明市,龙泉镇,102.7252,25.0902,2025-03-08T1100,46,60,0.9,27,8,64,51,64,细颗粒物(PM2.5)
昆明市,东风东路,102.7266,25.0375,2025-03-08T1100,44,59,0.8,22,8,69,62,62,细颗粒物(PM2.5)
昆明市,金鼎山,102.6742,25.0669,2025-03-08T1100,38,51,0.7,22,3,78,60,54,细颗粒物(PM2.5)
昆明市,碧鸡广场,102.6644,25.0401,2025-03-08T1100,40,53,0.6,23,7,74,56,57,细颗粒物(PM2.5)
昆明市,官渡区博物馆,102.7494,25.0119,2025-03-08T1100,42,57,0.8,13,7,,68,,
昆明市,青年创业园,102.8017,24.8336,2025-03-08T1100,51,61,0.7,9,6,94,58,70,细颗粒物(PM2.5)
昆明市,昆明学院,102.7997,24.9786,2025-03-08T1100,46,58,0.6,10,4,93,74,64,细颗粒物(PM2.5)
昆明市,晋宁区生态环境分局,102.5967,24.6736,2025-03-08T1100,48,,0.9,10,6,66,56,67,细颗粒物(PM2.5)
昆明市,云天化总部,102.6678,24.9856,2025-03-08T1100,40,52,0.8,14,9,90,69,57,细颗粒物(PM2.5)
拉萨市,八廓街,91.1319,29.6514,2025-03-08T1100,18,30,0.5,16,6,91,111,30,
拉萨市,市环保局,91.1221,29.6747,2025-03-08T1100,19,42,0.4,22,6,75,91,42,
拉萨市,区监测站,91.0874,29.6475,2025-03-08T1100,17,37,0.8,21,6,82,103,37,
拉萨市,西藏大学,91.1774,29.6541,2025-03-08T1100,11,41,0.5,13,4,88,106,41,
拉萨市,区辐射站,90.9798,29.6588,2025-03-08T1100,23,98,0.4,26,7,80,98,74,颗粒物(PM10)
拉萨市,拉萨火车站,91.0834,29.6292,2025-03-08T1100,16,58,0.6,24,8,73,105,54,颗粒物(PM10)
来宾市,来宾技工学校,109.2203,23.7256,2025-03-08T1100,34,36,0.6,11,7,69,62,49,
来宾市,兴宾区政府,109.1781,23.7297,2025-03-08T1100,29,39,0.7,10,7,63,56,42,
来宾市,中南小学,109.2416,23.7461,2025-03-08T1100,30,35,0.7,11,7,71,64,43,
兰州市,榆中兰大校区,104.1373,35.9454,2025-03-08T1100,,,,,,,,,
兰州市,铁路设计院,103.831,36.0464,2025-03-08T1100,63,120,1.6,54,44,64,20,85,"颗粒物(PM10),细颗粒物(PM2.5)"
兰州市,百合公园,103.7439,36.0842,2025-03-08T1100,52,105,1.4,46,31,52,18,78,颗粒物(PM10)
兰州市,和平,103.9611,35.998,2025-03-08T1100,64,138,1.1,58,18,36,51,94,颗粒物(PM10)
兰州市,庄浪东路808号,103.6293,36.0938,2025-03-08T1100,48,107,1.2,39,71,49,30,79,颗粒物(PM10)
兰州市,安宁西路88号,103.7251,36.1043,2025-03-08T1100,54,118,0.8,29,35,58,18,84,颗粒物(PM10)
兰州市,北滨河东路1号,103.8470,36.0676,2025-03-08T1100,66,113,1.1,59,29,55,15,89,细颗粒物(PM2.5)
兰州新区,新区管委会,103.6633,36.533,2025-03-08T1100,53,84,0.5,15,20,78,41,73,细颗粒物(PM2.5)
兰州新区,舟曲中学,103.6975,36.4789,2025-03-08T1100,53,111,0.6,16,13,74,32,81,颗粒物(PM10)
廊坊市,药材公司,116.6708,39.5111,2025-03-08T1100,94,96,0.6,20,4,89,34,124,细颗粒物(PM2.5)
廊坊市,开发区,116.7214,39.5589,2025-03-08T1100,100,118,0.6,22,3,93,31,132,细颗粒物(PM2.5)
廊坊市,北华航天学院,116.7244,39.5269,2025-03-08T1100,95,101,0.6,20,5,97,34,125,细颗粒物(PM2.5)
廊坊市,河北工业大学,116.7022,39.5453,2025-03-08T1100,94,108,0.6,17,6,92,39,124,细颗粒物(PM2.5)
乐山市,花湖湾,103.7723,29.5462,2025-03-08T1100,31,31,0.5,19,6,32,22,45,
乐山市,牛耳桥,103.7627,29.5844,2025-03-08T1100,27,32,0.5,15,6,46,21,39,
乐山市,市第三水厂,103.7508,29.6006,2025-03-08T1100,23,28,0.5,14,4,45,26,33,
乐山市,市监测站,103.7571,29.5664,2025-03-08T1100,28,32,0.8,15,5,39,24,40,
乐山市,理工大学,103.7311,29.5628,2025-03-08T1100,26,34,0.5,15,7,42,27,38,
丽江市,西南郊,100.2143,26.8576,2025-03-08T1100,51,83,1.4,53,6,51,92,70,细颗粒物(PM2.5)
丽江市,丽江古城,100.2497,26.8802,2025-03-08T1100,48,74,1.0,45,10,52,83,67,细颗粒物(PM2.5)
丽江市,市中心,100.2203,26.8906,2025-03-08T1100,40,48,0.8,26,8,84,85,57,细颗粒物(PM2.5)
丽水市,监测站大楼,119.914,28.4514,2025-03-08T1100,58,58,0.3,22,3,34,20,79,细颗粒物(PM2.5)
丽水市,莲都小学,119.93,28.4586,2025-03-08T1100,56,76,0.4,23,4,32,20,77,细颗粒物(PM2.5)
丽水市,余庄前,119.879,28.4231,2025-03-08T1100,55,63,0.4,24,4,33,14,75,细颗粒物(PM2.5)
连云港市,市环境监测站,119.176,34.5885,2025-03-08T1100,80,112,0.8,28,13,100,84,107,细颗粒物(PM2.5)
连云港市,德源药业,119.3581,34.6972,2025-03-08T1100,70,97,0.7,28,10,106,79,94,细颗粒物(PM2.5)
连云港市,新城一中,119.178,34.844,2025-03-08T1100,112,128,0.9,53,12,101,59,147,细颗粒物(PM2.5)
连云港市,胡沟管理处,119.3608,34.7519,2025-03-08T1100,66,83,0.7,23,11,122,109,89,细颗粒物(PM2.5)
连云港市,矿山设计院,119.1478,34.5911,2025-03-08T1100,78,114,0.7,25,12,108,97,104,细颗粒物(PM2.5)
连云港市,工贸学校,119.2413,34.6539,2025-03-08T1100,100,125,0.9,28,12,99,97,132,细颗粒物(PM2.5)
连云港市,连云街道,119.4172,34.7341,2025-03-08T1100,75,108,0.7,40,11,107,120,100,细颗粒物(PM2.5)
凉山彝族自治州,青龙寺,102.3431,27.8099,2025-03-08T1100,3,16,0.7,8,6,60,51,19,
凉山彝族自治州,邛海宾馆,102.2721,27.8415,2025-03-08T1100,11,19,0.8,13,15,57,65,19,
凉山彝族自治州,西昌市政府,102.2625,27.898,2025-03-08T1100,15,25,0.8,15,23,,44,,
凉山彝族自治州,凉山州政府,102.2685,27.8851,2025-03-08T1100,13,22,0.8,16,20,56,52,22,
凉山彝族自治州,凯乐南路30号,102.2342,27.8859,2025-03-08T1100,9,21,0.5,14,10,52,52,21,
辽阳市,宏伟区,123.2,41.1953,2025-03-08T1100,36,61,0.8,16,12,112,107,56,颗粒物(PM10)
辽阳市,新华园,123.1683,41.2495,2025-03-08T1100,37,63,1.3,33,21,92,90,57,颗粒物(PM10)
辽阳市,滨河路,123.2354,41.2639,2025-03-08T1100,39,43,0.6,22,10,104,98,55,细颗粒物(PM2.5)
辽阳市,铁西工业园,123.149,41.2991,2025-03-08T1100,41,71,0.8,23,16,98,90,61,颗粒物(PM10)
辽源市,环保局,125.1358,42.8845,2025-03-08T1100,26,47,0.8,16,8,102,89,47,
辽源市,银鹰制药,125.0764,42.9078,2025-03-08T1100,25,34,0.8,14,10,110,97,36,
聊城市,区政府,115.9848,36.4372,2025-03-08T1100,69,101,0.8,17,17,86,74,93,细颗粒物(PM2.5)
聊城市,聊大东校,116.0072,36.4343,2025-03-08T1100,79,110,1.0,21,15,86,73,105,细颗粒物(PM2.5)
聊城市,监控中心,115.9819,36.4978,2025-03-08T1100,80,116,0.8,26,16,79,70,107,细颗粒物(PM2.5)
聊城市,九州社区,116.0445,36.4361,2025-03-08T1100,67,99,0.7,17,18,91,74,90,细颗粒物(PM2.5)
聊城市,星美广场,116.0567,36.4608,2025-03-08T1100,59,113,0.8,26,18,87,78,82,颗粒物(PM10)
林芝市,林芝监测站,94.3681,29.6376,2025-03-08T1100,18,22,0.3,11,7,96,110,30,
林芝市,林芝人民医院,94.3616,29.6616,2025-03-08T1100,18,26,0.3,8,7,92,106,29,
临沧市,市环保局,100.0781,23.8982,2025-03-08T1100,43,87,0.9,27,16,66,69,69,颗粒物(PM10)
临沧市,市气象局,100.0894,23.8822,2025-03-08T1100,65,85,0.8,41,19,59,68,88,细颗粒物(PM2.5)
临汾市,临钢医院,111.5531,36.0783,2025-03-08T1100,47,68,0.8,18,9,50,17,65,细颗粒物(PM2.5)
临汾市,技工学校,111.5028,36.0714,2025-03-08T1100,40,57,0.7,15,9,54,16,57,细颗粒物(PM2.5)
临汾市,市委,111.5018,36.0855,2025-03-08T1100,39,57,0.8,15,7,52,16,55,细颗粒物(PM2.5)
临汾市,唐尧大酒店,111.505,36.1014,2025-03-08T1100,47,69,0.8,16,7,46,13,65,细颗粒物(PM2.5)
临汾市,启星学校,111.4879,36.0530,2025-03-08T1100,40,52,0.7,13,6,55,15,57,细颗粒物(PM2.5)
临夏回族自治州,滨河东路1号,103.2464,35.6123,2025-03-08T1100,11,61,0.9,26,6,65,48,56,颗粒物(PM10)
临夏回族自治州,新华街21号,103.2093,35.5995,2025-03-08T1100,17,51,1.3,35,13,53,38,51,颗粒物(PM10)
临沂市,沂河小区,118.3429,35.0532,2025-03-08T1100,98,129,1.0,37,25,97,79,129,细颗粒物(PM2.5)
临沂市,鲁南制药厂,118.295,35.0583,2025-03-08T1100,84,110,,38,,102,72,112,细颗粒物(PM2.5)
临沂市,新光毛纺厂,118.2794,34.9976,2025-03-08T1100,86,110,0.9,35,18,103,77,114,细颗粒物(PM2.5)
临沂市,河东保险公司,118.3956,35.0888,2025-03-08T1100,89,132,1.1,44,21,106,97,118,细颗粒物(PM2.5)
临沂市,十里堡居委,118.3564,35.0215,2025-03-08T1100,75,107,0.8,32,24,111,77,100,细颗粒物(PM2.5)
临沂市,南坊新区,118.3604,35.1084,2025-03-08T1100,83,110,0.8,32,14,109,94,110,细颗粒物(PM2.5)
临沂市,皇山花园小区,118.3920,35.0300,2025-03-08T1100,74,97,0.6,29,18,106,82,99,细颗粒物(PM2.5)
柳州市,柳东小学,109.4856,24.3895,2025-03-08T1100,23,30,0.5,12,10,74,62,33,
柳州市,环保监测站,109.4157,24.3277,2025-03-08T1100,22,37,0.5,10,9,78,69,37,
柳州市,河西水厂,109.389,24.341,2025-03-08T1100,24,38,0.6,10,2,75,63,38,
柳州市,市四中,109.4311,24.2921,2025-03-08T1100,21,31,0.6,11,8,79,73,31,
柳州市,市九中,109.4006,24.3631,2025-03-08T1100,24,37,0.7,9,6,76,62,37,
柳州市,古亭山,109.4958,24.3134,2025-03-08T1100,24,30,0.4,7,7,77,71,35,
柳州市,市二中,109.5422,24.3996,2025-03-08T1100,26,30,0.4,11,10,75,68,38,
六安市,监测大楼,116.5079,31.737,2025-03-08T1100,45,64,0.7,32,8,90,62,63,细颗粒物(PM2.5)
六安市,皖西学院,116.4738,31.7643,2025-03-08T1100,45,79,0.5,29,5,92,68,65,颗粒物(PM10)
六安市,朝阳厂,116.4996,31.7905,2025-03-08T1100,47,67,0.7,27,5,95,72,65,细颗粒物(PM2.5)
六安市,开发区,116.5567,31.7886,2025-03-08T1100,58,73,0.7,23,7,98,59,79,细颗粒物(PM2.5)
六盘水市,窑上,104.8,26.5892,2025-03-08T1100,11,27,0.7,13,5,32,45,27,
六盘水市,黄土坡,104.83,26.5917,2025-03-08T1100,11,18,0.7,19,8,33,48,18,
六盘水市,水钢,104.89,26.5939,2025-03-08T1100,49,58,0.6,14,6,37,49,68,细颗粒物(PM2.5)
六盘水市,民中,104.8475,26.5894,2025-03-08T1100,12,18,0.8,19,9,30,46,18,
六盘水市,双水,104.9544,26.5506,2025-03-08T1100,7,,0.5,11,8,44,46,14,
龙岩市,龙岩师专,117.0189,25.1181,2025-03-08T1100,,,,,,,,,
龙岩市,龙岩市监测站,117.0217,25.1033,2025-03-08T1100,21,,0.6,12,5,46,36,30,
龙岩市,闽西职业技术学院,117.0258,25.0661,2025-03-08T1100,19,35,0.6,14,4,39,34,35,
龙岩市,龙岩学院,117.0196,25.0306,2025-03-08T1100,22,31,0.7,13,9,39,27,32,
陇南市,汉王镇固水子,105.0822,33.3261,2025-03-08T1100,,,,,,,,,
陇南市,滨江中学,104.9339,33.3826,2025-03-08T1100,22,82,0.5,5,6,65,55,66,颗粒物(PM10)
陇南市,市总工会,104.955,33.371,2025-03-08T1100,27,79,0.4,2,7,68,63,65,颗粒物(PM10)
娄底市,电视发射台,111.9589,27.8901,2025-03-08T1100,62,,2.6,42,24,28,38,84,细颗粒物(PM2.5)
娄底市,市监测站,111.9975,27.725,2025-03-08T1100,46,67,0.9,23,13,44,20,64,细颗粒物(PM2.5)
娄底市,市委党校,112.0194,27.7314,2025-03-08T1100,58,68,0.8,22,4,44,31,79,细颗粒物(PM2.5)
娄底市,涟钢,111.9561,27.7569,2025-03-08T1100,70,89,2.1,28,10,30,32,94,细颗粒物(PM2.5)
娄底市,市政府,111.9892,27.7044,2025-03-08T1100,51,58,0.8,16,9,43,35,70,细颗粒物(PM2.5)
泸州市,九狮山,105.4324,28.9634,2025-03-08T1100,,,,,,,,,
泸州市,小市上码头,105.4427,28.9063,2025-03-08T1100,38,66,0.4,20,6,44,39,58,颗粒物(PM10)
泸州市,兰田宪桥,105.4241,28.8573,2025-03-08T1100,40,59,0.5,20,5,35,33,57,细颗粒物(PM2.5)
泸州市,市环监站,105.4379,28.8833,2025-03-08T1100,44,74,0.2,23,6,40,36,62,"颗粒物(PM10),细颗粒物(PM2.5)"
泸州市,纳溪中医医院,105.3689,28.7783,2025-03-08T1100,46,46,0.5,25,7,39,32,64,细颗粒物(PM2.5)
吕梁市,环保局,111.1406,37.5211,2025-03-08T1100,43,77,0.4,20,6,50,40,64,颗粒物(PM10)
吕梁市,自来水公司,111.1297,37.5136,2025-03-08T1100,39,80,0.5,20,6,56,36,65,颗粒物(PM10)
吕梁市,马茂庄小学,111.1283,37.51,2025-03-08T1100,43,88,0.4,27,6,46,39,69,颗粒物(PM10)
洛阳市,市委党校,112.3931,34.6516,2025-03-08T1100,67,90,1.0,26,9,47,14,90,细颗粒物(PM2.5)
洛阳市,河南林校,112.494,34.6886,2025-03-08T1100,77,95,1.1,44,12,38,12,103,细颗粒物(PM2.5)
洛阳市,开发区管委会,112.3844,34.623,2025-03-08T1100,60,83,0.8,17,11,60,27,82,细颗粒物(PM2.5)
洛阳市,市委新办公区,112.4267,34.6258,2025-03-08T1100,50,77,0.6,22,8,62,27,69,细颗粒物(PM2.5)
洛阳市,伊滨,112.6005,34.6326,2025-03-08T1100,68,87,0.9,20,8,59,22,92,细颗粒物(PM2.5)
洛阳市,中移产业园,112.4951,34.6332,2025-03-08T1100,73,86,1.0,24,6,57,26,98,细颗粒物(PM2.5)
洛阳市,吉利监测站,112.5736,34.8993,2025-03-08T1100,75,83,0.8,15,9,68,36,100,细颗粒物(PM2.5)
洛阳市,河科大西苑校区,112.3677,34.662,2025-03-08T1100,70,94,0.9,27,20,54,18,94,细颗粒物(PM2.5)
洛阳市,英才小学,112.4388,34.6781,2025-03-08T1100,60,,,,,,10,,
洛阳市,春都路1号院,112.4600,34.6949,2025-03-08T1100,59,93,0.9,31,12,52,16,80,细颗粒物(PM2.5)
漯河市,三五一五工厂,114.051,33.5699,2025-03-08T1100,85,103,0.6,26,7,80,58,113,细颗粒物(PM2.5)
漯河市,漯河大学,114.0055,33.5698,2025-03-08T1100,75,106,0.6,24,9,86,67,100,细颗粒物(PM2.5)
漯河市,市水利局,114.0138,33.5828,2025-03-08T1100,78,90,0.5,20,7,91,69,104,细颗粒物(PM2.5)
漯河市,市广电局,114.0261,33.5698,2025-03-08T1100,79,85,0.6,20,8,88,69,105,细颗粒物(PM2.5)
漯河市,市图书馆,113.9749,33.5664,2025-03-08T1100,86,106,0.7,19,5,88,81,114,细颗粒物(PM2.5)
漯河市,韶山路11号,114.0892,33.5882,2025-03-08T1100,95,141,0.6,41,7,69,65,125,细颗粒物(PM2.5)
马鞍山市,湖东路四小,118.5092,31.6837,2025-03-08T1100,54,102,0.6,28,6,87,45,76,颗粒物(PM10)
马鞍山市,开发区,118.5024,31.6449,2025-03-08T1100,61,95,0.6,26,6,92,40,83,细颗粒物(PM2.5)
马鞍山市,濮塘,118.6245,31.7241,2025-03-08T1100,57,73,0.6,24,11,96,62,78,细颗粒物(PM2.5)
马鞍山市,雨山,118.4918,31.6809,2025-03-08T1100,60,103,0.6,34,10,89,45,82,细颗粒物(PM2.5)
马鞍山市,慈湖高新区,118.5274,31.72227,2025-03-08T1100,66,90,0.7,33,8,87,41,89,细颗粒物(PM2.5)
茂名市,电白南海,111.0286,21.4688,2025-03-08T1100,19,34,0.7,8,6,31,33,34,
茂名市,茂石化七小,110.9294,21.6533,2025-03-08T1100,14,31,1.3,10,3,23,24,31,
茂名市,健康路,110.9107,21.6687,2025-03-08T1100,12,17,0.8,10,7,27,22,18,
茂名市,高岭,110.8592,21.6828,2025-03-08T1100,9,22,0.6,9,12,22,17,22,
茂名市,电白水东,111.01,21.5165,2025-03-08T1100,12,24,0.9,16,10,25,27,24,
眉山市,黑龙滩水库,104.0308,30.0478,2025-03-08T1100,32,40,0.6,4,3,44,32,46,
眉山市,气象局,103.8416,30.0874,2025-03-08T1100,78,84,0.7,23,6,33,33,104,细颗粒物(PM2.5)
眉山市,市委党校,103.8578,30.0744,2025-03-08T1100,48,53,0.7,29,7,24,35,67,细颗粒物(PM2.5)
眉山市,区人社局,103.8291,30.0564,2025-03-08T1100,63,87,0.8,37,5,22,35,85,细颗粒物(PM2.5)
梅州市,梅江月梅,116.1231,24.3284,2025-03-08T1100,12,19,0.5,6,10,38,22,19,
梅州市,梅县新城,116.0797,24.2719,2025-03-08T1100,24,27,0.5,11,7,31,25,35,
梅州市,环境监控中心,116.1248,24.2654,2025-03-08T1100,16,24,0.5,13,6,26,20,24,
梅州市,梅龙,116.1233,24.2991,2025-03-08T1100,16,22,0.6,13,6,32,24,23,
绵阳市,富乐山,104.7778,31.4741,2025-03-08T1100,50,67,0.8,31,4,11,6,69,细颗粒物(PM2.5)
绵阳市,高新区自来水公司,104.6697,31.4668,2025-03-08T1100,44,74,0.9,29,4,13,6,62,"颗粒物(PM10),细颗粒物(PM2.5)"
绵阳市,三水厂,104.7287,31.5075,2025-03-08T1100,54,70,0.8,34,6,17,6,74,细颗粒物(PM2.5)
绵阳市,西科大附属小学,104.69,31.5322,2025-03-08T1100,46,74,0.9,36,6,12,9,64,细颗粒物(PM2.5)
绵阳市,安州区旅游局,104.5648,31.5343,2025-03-08T1100,48,,0.5,37,10,16,14,67,细颗粒物(PM2.5)
绵阳市,绵阳市气象局,104.7651,31.4531,2025-03-08T1100,60,84,0.8,33,7,6,5,82,细颗粒物(PM2.5)
牡丹江市,环保大楼,129.61,44.561,2025-03-08T1100,40,77,0.5,36,16,44,43,64,颗粒物(PM10)
牡丹江市,文化广场,129.6115,44.5782,2025-03-08T1100,33,73,0.9,51,25,34,44,62,颗粒物(PM10)
牡丹江市,第一医院,129.5904,44.5963,2025-03-08T1100,29,59,0.2,31,16,52,43,55,颗粒物(PM10)
牡丹江市,机车工厂,129.6364,44.6075,2025-03-08T1100,29,61,0.6,31,24,51,34,56,颗粒物(PM10)
牡丹江市,第一中学,129.6386,44.5462,2025-03-08T1100,23,50,0.5,30,15,53,31,50,
内江市,市监测站,105.0703,29.61,2025-03-08T1100,34,45,0.8,25,4,48,35,49,
内江市,东兴区政府,105.0717,29.5947,2025-03-08T1100,18,23,0.7,15,4,64,34,26,
内江市,内江二中,105.0653,29.5817,2025-03-08T1100,27,40,0.7,13,3,60,36,40,
内江市,内江日报社,105.0406,29.5822,2025-03-08T1100,22,49,0.5,24,6,62,33,49,
那曲市,那曲监测站,92.0657,31.4846,2025-03-08T1100,27,51,0.7,11,8,81,72,51,颗粒物(PM10)
那曲市,那曲会议中心,92.0506,31.4797,2025-03-08T1100,12,73,0.6,2,5,92,78,62,颗粒物(PM10)
南昌市,省外办,115.8931,28.6843,2025-03-08T1100,63,76,1.3,44,6,,43,,
南昌市,省林业公司,115.8886,28.7003,2025-03-08T1100,48,70,0.7,36,15,39,39,67,细颗粒物(PM2.5)
南昌市,林科所,115.8126,28.7442,2025-03-08T1100,46,66,0.7,38,9,53,24,64,细颗粒物(PM2.5)
南昌市,建工学校,115.8518,28.687,2025-03-08T1100,,,,,,,,,
南昌市,象湖,115.8921,28.6424,2025-03-08T1100,53,65,1.1,33,14,55,34,73,细颗粒物(PM2.5)
南昌市,武术学校,115.7423,28.7996,2025-03-08T1100,26,36,0.5,23,3,70,22,38,
南昌市,机电学校,115.9084,28.6062,2025-03-08T1100,53,66,0.5,27,15,55,21,73,细颗粒物(PM2.5)
南昌市,外国语学校,115.9721,28.7031,2025-03-08T1100,45,63,0.4,17,9,58,31,63,细颗粒物(PM2.5)
南昌市,南京东路235号,115.9316,28.68677,2025-03-08T1100,66,71,1.1,32,12,64,34,89,细颗粒物(PM2.5)
南充市,西山风景区,106.056,30.8064,2025-03-08T1100,28,32,0.5,14,3,28,46,40,
南充市,南充市委,106.0789,30.8023,2025-03-08T1100,30,41,0.6,26,4,31,46,43,
南充市,南充炼油厂,106.1031,30.8217,2025-03-08T1100,34,52,0.4,24,4,30,44,51,颗粒物(PM10)
南充市,嘉陵区环保局,106.0642,30.7636,2025-03-08T1100,27,44,0.6,28,7,27,40,44,
南充市,市环境监测站,106.1087,30.8388,2025-03-08T1100,35,66,0.6,28,7,29,43,58,颗粒物(PM10)
南充市,梨树横街98号,106.1083,30.7884,2025-03-08T1100,44,45,0.5,36,6,23,45,62,细颗粒物(PM2.5)
南京市,迈皋桥,118.8086,32.1065,2025-03-08T1100,56,84,0.5,26,4,99,51,77,细颗粒物(PM2.5)
南京市,草场门,118.7538,32.0551,2025-03-08T1100,53,75,0.8,25,6,79,42,73,细颗粒物(PM2.5)
南京市,山西路,118.7794,32.0745,2025-03-08T1100,58,97,0.8,18,3,91,64,79,细颗粒物(PM2.5)
南京市,中华门,118.7752,32.0023,2025-03-08T1100,51,75,0.6,36,4,94,55,70,细颗粒物(PM2.5)
南京市,瑞金路,118.8109,32.0309,2025-03-08T1100,56,90,0.7,29,7,96,47,77,细颗粒物(PM2.5)
南京市,玄武湖,118.7997,32.0754,2025-03-08T1100,62,101,0.6,21,10,,48,,
南京市,浦口,118.6414,32.0931,2025-03-08T1100,49,85,0.5,29,8,96,60,68,"颗粒物(PM10),细颗粒物(PM2.5)"
南京市,奥体中心,118.7356,31.9996,2025-03-08T1100,53,80,0.5,33,9,98,46,73,细颗粒物(PM2.5)
南京市,仙林大学城,118.9125,32.1028,2025-03-08T1100,61,92,0.8,29,8,80,44,83,细颗粒物(PM2.5)
南京市,江宁彩虹桥,118.8436,31.9198,2025-03-08T1100,53,106,0.5,21,8,89,42,78,颗粒物(PM10)
南京市,溧水永阳,119.0138,31.6494,2025-03-08T1100,69,80,0.7,21,7,81,33,93,细颗粒物(PM2.5)
南京市,六合雄州,118.8554,32.3578,2025-03-08T1100,46,100,0.8,30,8,85,23,75,颗粒物(PM10)
南京市,汶溪路181号,118.8708,31.3402,2025-03-08T1100,53,105,0.4,15,8,82,43,78,颗粒物(PM10)
南宁市,二十一中,108.3103,22.7881,2025-03-08T1100,28,32,0.6,17,6,56,60,40,
南宁市,北湖,108.3141,22.8528,2025-03-08T1100,33,,0.6,18,7,47,52,48,
南宁市,市监测站,108.3206,22.8225,2025-03-08T1100,24,39,0.8,18,7,52,55,39,
南宁市,大自然花园,108.3829,22.8037,2025-03-08T1100,28,34,0.7,10,6,56,60,40,
南宁市,仙葫,108.4394,22.7904,2025-03-08T1100,22,34,0.5,14,5,52,53,34,
南宁市,区农职院,108.2397,22.8467,2025-03-08T1100,26,44,0.5,14,12,54,51,44,
南宁市,英华嘉园,108.3275,22.735,2025-03-08T1100,30,32,0.6,13,7,56,58,43,
南宁市,红星社区,108.4834,22.7618,2025-03-08T1100,24,30,0.6,6,9,59,57,35,
南宁市,乐贤路16号,108.2177,22.7774,2025-03-08T1100,29,40,0.6,19,10,48,50,42,
南平市,茫荡山,118.0966,26.6761,2025-03-08T1100,,,,,,,,,
南平市,南平市监测站,118.1681,26.6369,2025-03-08T1100,22,30,0.5,7,3,59,57,32,
南平市,南平铝业有限公司,118.1825,26.6489,2025-03-08T1100,26,,0.6,8,5,57,56,38,
南平市,南平七中,118.1756,26.6272,2025-03-08T1100,23,23,0.5,,,53,56,,
南通市,狼山街道,120.9098,31.9663,2025-03-08T1100,65,98,1.0,31,10,86,46,88,细颗粒物(PM2.5)
南通市,虹桥,120.86,32.0005,2025-03-08T1100,62,85,0.6,32,9,88,47,84,细颗粒物(PM2.5)
南通市,城中,120.87,32.02,2025-03-08T1100,59,95,0.9,28,10,97,54,80,细颗粒物(PM2.5)
南通市,星湖花园,120.94,31.93,2025-03-08T1100,61,83,0.6,26,8,92,48,83,细颗粒物(PM2.5)
南通市,紫琅学院,120.81,32.0417,2025-03-08T1100,59,83,0.8,26,7,95,36,80,细颗粒物(PM2.5)
南通市,通州监测站,121.067,32.062,2025-03-08T1100,44,68,0.6,16,6,112,56,62,细颗粒物(PM2.5)
南通市,环境教育馆,120.9348,31.9883,2025-03-08T1100,59,80,0.5,18,8,111,45,80,细颗粒物(PM2.5)
南阳市,瓦房庄,112.5224,33.0122,2025-03-08T1100,80,109,0.7,36,6,71,38,107,细颗粒物(PM2.5)
南阳市,汉画馆,112.5003,32.9735,2025-03-08T1100,84,99,0.6,30,5,77,24,112,细颗粒物(PM2.5)
南阳市,气象站,112.5573,33.027,2025-03-08T1100,73,112,0.6,29,4,73,49,98,细颗粒物(PM2.5)
南阳市,理工学院,112.5481,32.9689,2025-03-08T1100,77,102,0.6,24,6,81,33,103,细颗粒物(PM2.5)
南阳市,卧龙区政府,112.5234,32.9922,2025-03-08T1100,79,117,0.7,34,8,75,30,105,细颗粒物(PM2.5)
宁波市,区环保大楼,121.8358,29.911,2025-03-08T1100,34,67,0.5,26,9,102,31,59,颗粒物(PM10)
宁波市,万里学院,121.56,29.82,2025-03-08T1100,45,65,0.5,22,7,79,26,63,细颗粒物(PM2.5)
宁波市,龙赛医院,121.713,29.9572,2025-03-08T1100,35,55,0.6,11,7,110,24,53,颗粒物(PM10)
宁波市,钱湖水厂,121.633,29.7733,2025-03-08T1100,40,60,0.7,32,7,75,28,57,细颗粒物(PM2.5)
宁波市,太古小学,121.5856,29.8635,2025-03-08T1100,46,76,0.6,23,8,87,28,64,细颗粒物(PM2.5)
宁波市,市环境监测中心,121.524,29.8674,2025-03-08T1100,39,54,0.4,24,7,81,22,55,细颗粒物(PM2.5)
宁波市,万里国际学校,121.6147,29.9017,2025-03-08T1100,48,54,0.4,26,8,81,20,67,细颗粒物(PM2.5)
宁波市,白沙活动中心,121.5594,29.8975,2025-03-08T1100,42,57,0.7,19,6,85,32,59,细颗粒物(PM2.5)
宁德市,金涵水库,119.5001,26.6946,2025-03-08T1100,,,,,,,,,
宁德市,宁德市监测站,119.5388,26.6612,2025-03-08T1100,21,41,0.4,12,4,46,34,41,
宁德市,宁德一中,119.5231,26.6562,2025-03-08T1100,22,26,0.3,12,4,51,31,32,
怒江傈僳族自治州,州监测站,98.8601,25.8567,2025-03-08T1100,42,68,0.6,18,4,37,57,59,"颗粒物(PM10),细颗粒物(PM2.5)"
怒江傈僳族自治州,泸水一中,98.8546,25.8417,2025-03-08T1100,49,60,0.6,25,6,23,44,68,细颗粒物(PM2.5)
攀枝花市,弄弄坪,101.6891,26.571,2025-03-08T1100,84,121,4.3,51,46,22,18,112,细颗粒物(PM2.5)
攀枝花市,河门口,101.5769,26.5928,2025-03-08T1100,67,80,1.4,30,14,29,23,90,细颗粒物(PM2.5)
攀枝花市,炳草岗,101.7169,26.585,2025-03-08T1100,65,101,2.3,46,18,18,8,88,细颗粒物(PM2.5)
攀枝花市,仁和,101.7369,26.5008,2025-03-08T1100,75,101,3.7,44,40,33,22,100,细颗粒物(PM2.5)
攀枝花市,四十中小,101.7227,26.567,2025-03-08T1100,54,91,1.9,47,19,20,16,74,细颗粒物(PM2.5)
盘锦市,开发区,122.0303,41.1489,2025-03-08T1100,43,46,0.5,14,13,100,82,60,细颗粒物(PM2.5)
盘锦市,兴隆台,122.0485,41.0883,2025-03-08T1100,42,43,0.6,13,11,97,76,59,细颗粒物(PM2.5)
盘锦市,新生街道,121.8297,41.1028,2025-03-08T1100,46,,0.7,17,12,94,71,64,细颗粒物(PM2.5)
平顶山市,新华旅馆,113.3257,33.742,2025-03-08T1100,77,137,0.6,34,5,56,68,103,细颗粒物(PM2.5)
平顶山市,规划设计院,113.2919,33.737,2025-03-08T1100,80,124,0.6,33,4,52,51,107,细颗粒物(PM2.5)
平顶山市,平顶山工学院,113.182,33.774,2025-03-08T1100,61,81,0.8,,5,63,69,,
平顶山市,规划局,113.3025,33.73,2025-03-08T1100,88,119,0.7,34,5,55,62,117,细颗粒物(PM2.5)
平顶山市,石龙区,112.8867,33.9116,2025-03-08T1100,43,73,0.5,14,5,90,26,62,颗粒物(PM10)
平凉市,聚贤嘉苑,106.6692,35.5461,2025-03-08T1100,44,111,0.5,32,22,45,23,81,颗粒物(PM10)
平凉市,博物馆,106.7021,35.5307,2025-03-08T1100,44,105,0.7,27,27,49,23,78,颗粒物(PM10)
萍乡市,武功山,114.0997,27.5002,2025-03-08T1100,20,,0.4,5,8,49,26,29,
萍乡市,中医院,113.8385,27.6434,2025-03-08T1100,34,59,0.7,21,11,41,20,55,颗粒物(PM10)
萍乡市,市政府车库,113.8493,27.6253,2025-03-08T1100,43,50,0.8,26,10,35,16,60,细颗粒物(PM2.5)
萍乡市,市环保局,113.8676,27.6435,2025-03-08T1100,42,51,0.5,21,8,44,20,59,细颗粒物(PM2.5)
萍乡市,安源区政府,113.866,27.6198,2025-03-08T1100,38,65,1.5,23,16,27,11,58,颗粒物(PM10)
莆田市,荔城区仓后路,119.0141,25.4325,2025-03-08T1100,18,37,0.5,17,2,55,31,37,
莆田市,莆田市监测站,119.0015,25.4553,2025-03-08T1100,21,36,0.6,16,3,55,33,36,
莆田市,涵江区六中,119.1119,25.4561,2025-03-08T1100,15,28,0.8,14,2,67,37,28,
莆田市,秀屿区政府,119.1013,25.3215,2025-03-08T1100,21,,0.6,14,4,70,52,30,
莆田市,东圳水库,118.981,25.4792,2025-03-08T1100,,,,,,,,,
濮阳市,环保局,115.0312,35.7636,2025-03-08T1100,86,88,1.0,23,7,125,71,114,细颗粒物(PM2.5)
濮阳市,油田运输公司,115.0574,35.7609,2025-03-08T1100,77,119,1.1,27,7,114,56,103,细颗粒物(PM2.5)
濮阳市,濮水河管理处,115,35.7668,2025-03-08T1100,61,100,0.9,26,8,88,59,83,细颗粒物(PM2.5)
濮阳市,任丘路479号,115.0924,35.7686,2025-03-08T1100,76,111,1.2,33,9,89,61,102,细颗粒物(PM2.5)
普洱市,市环保局,100.98,22.7633,2025-03-08T1100,13,55,0.9,9,3,69,59,53,颗粒物(PM10)
普洱市,普洱第二中学,100.9817,22.8322,2025-03-08T1100,34,53,0.7,10,5,51,54,52,颗粒物(PM10)
七台河市,新一中,131.0518,45.8751,2025-03-08T1100,23,31,0.8,10,14,81,74,33,
七台河市,中波台,131.0577,45.7879,2025-03-08T1100,22,41,0.3,20,12,60,62,41,
七台河市,人民广场,131.0176,45.7761,2025-03-08T1100,28,50,0.6,20,14,60,64,50,
七台河市,新建矿广场,130.8781,45.8222,2025-03-08T1100,35,44,0.5,20,12,63,57,50,
齐齐哈尔市,安居小区,123.9305,47.3636,2025-03-08T1100,27,41,0.4,15,9,84,80,41,
齐齐哈尔市,中心广场,123.9488,47.3386,2025-03-08T1100,23,50,0.6,24,8,74,78,50,
齐齐哈尔市,农牧车辆厂,123.9483,47.3227,2025-03-08T1100,23,34,0.4,22,8,79,84,34,
齐齐哈尔市,市环境监测站,123.945,47.2988,2025-03-08T1100,30,54,0.6,24,7,77,83,52,颗粒物(PM10)
齐齐哈尔市,富区青少年活动中心,123.6333,47.2075,2025-03-08T1100,24,41,0.4,9,9,83,72,41,
黔东南苗族侗族自治州,市环境监测站,107.9783,26.5747,2025-03-08T1100,24,30,0.6,12,4,47,54,35,
黔东南苗族侗族自治州,凯里学院,107.8908,26.5311,2025-03-08T1100,19,19,0.7,11,2,53,50,28,
黔南布依族苗族自治州,小围寨,107.5228,26.2403,2025-03-08T1100,14,14,0.5,11,5,42,40,20,
黔南布依族苗族自治州,沙坝,107.5175,26.2978,2025-03-08T1100,17,17,0.5,12,4,48,43,25,
黔西南布依族苗族自治州,场坝街,104.9022,25.0925,2025-03-08T1100,26,42,0.4,8,3,61,70,42,
黔西南布依族苗族自治州,坪东大道,104.8811,25.0992,2025-03-08T1100,20,49,0.3,12,3,52,64,49,
钦州市,市环保站,108.6236,21.9667,2025-03-08T1100,31,63,1.0,16,6,49,43,57,颗粒物(PM10)
钦州市,沙埠小学,108.6549,21.9481,2025-03-08T1100,38,49,0.8,16,6,52,44,54,细颗粒物(PM2.5)
钦州市,港区一小,108.5989,21.7431,2025-03-08T1100,35,61,0.8,26,8,39,44,56,颗粒物(PM10)
钦州市,北职校,108.5959,21.9633,2025-03-08T1100,37,,0.8,17,6,51,46,53,细颗粒物(PM2.5)
秦皇岛市,第一关,119.7493,40.0116,2025-03-08T1100,59,90,0.9,40,11,69,30,80,细颗粒物(PM2.5)
秦皇岛市,监测站,119.5897,39.9499,2025-03-08T1100,57,79,1.2,27,23,82,64,78,细颗粒物(PM2.5)
秦皇岛市,建设大厦,119.5251,39.9041,2025-03-08T1100,59,100,1.5,31,23,81,73,80,细颗粒物(PM2.5)
秦皇岛市,文明里,119.610547,39.943889,2025-03-08T1100,45,116,1.3,37,26,76,67,83,颗粒物(PM10)
秦皇岛市,北戴河轮滑馆,119.5090,39.8253,2025-03-08T1100,48,89,1.5,23,19,87,72,70,颗粒物(PM10)
青岛市,仰口,120.6659,36.2403,2025-03-08T1100,67,81,0.4,20,6,130,118,90,细颗粒物(PM2.5)
青岛市,市南区东部子站,120.4134,36.0658,2025-03-08T1100,83,141,1.1,40,14,83,85,110,细颗粒物(PM2.5)
青岛市,四方区子站,120.3664,36.1032,2025-03-08T1100,75,110,0.8,56,8,92,86,100,细颗粒物(PM2.5)
青岛市,市南区西部子站,120.2994,36.054,2025-03-08T1100,78,132,1.2,50,10,74,79,104,细颗粒物(PM2.5)
青岛市,崂山区子站,120.4581,36.0858,2025-03-08T1100,78,139,1.1,35,13,78,87,104,细颗粒物(PM2.5)
青岛市,城阳区子站,120.3999,36.3083,2025-03-08T1100,61,112,1.0,45,11,101,84,83,细颗粒物(PM2.5)
青岛市,黄岛区4号,120.0405,35.8735,2025-03-08T1100,63,97,0.9,35,12,114,84,85,细颗粒物(PM2.5)
青岛市,即墨2号,120.5014,36.4034,2025-03-08T1100,84,127,1.0,38,13,102,82,112,细颗粒物(PM2.5)
青岛市,市北区南部,120.3503,36.0736,2025-03-08T1100,73,121,1.0,66,13,57,73,98,细颗粒物(PM2.5)
青岛市,李沧区北部,120.3948,36.1805,2025-03-08T1100,73,112,0.9,42,15,100,78,98,细颗粒物(PM2.5)
青岛市,珠江路669号,120.1969,35.9546,2025-03-08T1100,95,144,1.2,44,12,89,93,125,细颗粒物(PM2.5)
清远市,环保大楼,113.0426,23.691,2025-03-08T1100,19,30,0.7,8,8,55,55,30,
清远市,凤城街办,113.0208,23.7106,2025-03-08T1100,19,25,0.6,13,5,48,47,28,
清远市,技师学院,113.0477,23.6344,2025-03-08T1100,16,22,0.7,16,8,60,49,23,
清远市,清新太和,112.9903,23.7403,2025-03-08T1100,18,25,0.6,5,8,51,56,26,
清远市,清城东城,113.076,23.7198,2025-03-08T1100,17,22,0.7,9,6,51,54,25,
庆阳市,庆阳五中,107.6325,35.7357,2025-03-08T1100,,86,,,5,80,70,,
庆阳市,市环保局,107.6364,35.7067,2025-03-08T1100,43,80,0.4,11,6,86,78,65,颗粒物(PM10)
曲靖市,环境监测站,103.7897,25.5035,2025-03-08T1100,37,60,0.7,20,6,38,42,55,颗粒物(PM10)
曲靖市,烟厂办公区,103.8,25.5364,2025-03-08T1100,33,64,0.9,18,4,41,48,57,颗粒物(PM10)
曲靖市,南苑二区,103.7947,25.462,2025-03-08T1100,40,52,0.7,16,9,42,46,57,细颗粒物(PM2.5)
曲靖市,曲靖师范学院,103.7444,25.5261,2025-03-08T1100,46,68,0.7,18,6,44,44,64,细颗粒物(PM2.5)
衢州市,环保大楼,118.8692,28.9398,2025-03-08T1100,66,90,1.9,42,16,38,8,89,细颗粒物(PM2.5)
衢州市,实验学校,118.8709,28.9666,2025-03-08T1100,61,76,1.6,38,15,39,11,83,细颗粒物(PM2.5)
衢州市,衢州学院,118.8621,28.9808,2025-03-08T1100,58,78,1.1,30,6,39,9,79,细颗粒物(PM2.5)
泉州市,涂山街,118.5819,24.9117,2025-03-08T1100,22,32,0.6,15,3,71,44,32,
泉州市,津头埔,118.5972,24.8978,2025-03-08T1100,25,32,0.6,18,3,68,40,36,
泉州市,万安,118.6663,24.9424,2025-03-08T1100,23,32,0.6,11,5,73,48,33,
泉州市,清源山,118.6117,24.9604,2025-03-08T1100,,,,,,,,,
泉州市,城华南路,118.6333,24.9264,2025-03-08T1100,23,34,0.5,16,4,70,42,34,
日喀则市,日喀则监测站,88.8876,29.2718,2025-03-08T1100,22,33,0.4,7,2,123,109,39,
日喀则市,林业技术推广中心,88.8781,29.2426,2025-03-08T1100,8,35,0.4,2,6,129,112,41,
日照市,监测站,119.471,35.4209,2025-03-08T1100,88,122,1.0,49,17,92,25,117,细颗粒物(PM2.5)
日照市,市政府广场,119.523,35.4216,2025-03-08T1100,82,122,1.0,44,15,92,68,109,细颗粒物(PM2.5)
日照市,港务局,119.5587,35.4044,2025-03-08T1100,88,124,1.1,50,19,95,58,117,细颗粒物(PM2.5)
日照市,职业技术学院,119.5328,35.4625,2025-03-08T1100,70,107,1.0,40,12,104,56,94,细颗粒物(PM2.5)
日照市,岚山环保分局,119.3266,35.1044,2025-03-08T1100,96,129,1.0,42,23,86,53,127,细颗粒物(PM2.5)
三门峡市,市政府,111.1922,34.7752,2025-03-08T1100,52,58,0.5,16,6,89,50,72,细颗粒物(PM2.5)
三门峡市,开发区,111.1587,34.7942,2025-03-08T1100,51,73,0.5,15,8,81,46,70,细颗粒物(PM2.5)
三门峡市,风景区,111.143,34.7955,2025-03-08T1100,59,78,0.5,11,13,60,40,80,细颗粒物(PM2.5)
三门峡市,三门峡市第一小学,111.1911,34.7829,2025-03-08T1100,45,65,0.5,15,8,86,52,63,细颗粒物(PM2.5)
三门峡市,富达温泉假日酒店,111.1,34.7167,2025-03-08T1100,53,83,0.6,33,12,45,23,73,细颗粒物(PM2.5)
三明市,三钢,117.6211,26.2625,2025-03-08T1100,24,24,0.5,12,3,,56,,
三明市,三明二中,117.635,26.2714,2025-03-08T1100,19,24,0.4,13,2,47,55,28,
三明市,三元区政府,117.6028,26.2378,2025-03-08T1100,21,,0.5,14,5,48,60,30,
三明市,洋溪,117.7275,26.3108,2025-03-08T1100,,,,,,,,,
三亚市,河东子站,109.5078,18.2489,2025-03-08T1100,3,12,0.7,6,4,78,62,25,
三亚市,河西子站,109.4964,18.2681,2025-03-08T1100,3,9,0.4,6,3,74,55,24,
三亚市,君悦子站,109.7348,18.3443,2025-03-08T1100,3,16,0.7,9,4,74,56,24,
山南市,山南监测站,91.7608,29.2313,2025-03-08T1100,8,22,0.4,10,6,95,100,30,
山南市,山南人民医院,91.7706,29.2436,2025-03-08T1100,12,37,0.5,12,6,89,97,37,
汕头市,金平子站,116.6794,23.3667,2025-03-08T1100,14,28,0.5,17,7,73,32,28,
汕头市,龙湖子站,116.7244,23.3633,2025-03-08T1100,11,21,0.6,11,4,64,37,21,
汕头市,濠江子站,116.7258,23.2775,2025-03-08T1100,14,27,0.5,10,4,80,57,27,
汕头市,澄海子站,116.7519,23.4714,2025-03-08T1100,13,27,0.7,15,3,60,30,27,
汕头市,潮阳子站,116.6092,23.2539,2025-03-08T1100,11,22,0.4,9,8,75,39,24,
汕头市,潮南峡山,116.454,23.2684,2025-03-08T1100,15,24,0.7,12,10,58,28,24,
汕头市,潮南子站,116.4069,23.2533,2025-03-08T1100,14,30,0.7,9,9,56,24,30,
汕尾市,市环保局,115.3653,22.775,2025-03-08T1100,16,19,0.6,6,6,40,32,23,
汕尾市,市政府,115.3706,22.7898,2025-03-08T1100,11,15,0.6,9,5,38,30,16,
汕尾市,新城中学,115.3622,22.7925,2025-03-08T1100,12,17,0.6,5,8,39,32,18,
商洛市,监测站,109.9154,33.8715,2025-03-08T1100,37,99,0.6,22,,46,19,,
商洛市,商州区中学,109.9643,33.8471,2025-03-08T1100,33,100,0.6,20,6,45,17,75,颗粒物(PM10)
商丘市,环境监测站,115.6702,34.4285,2025-03-08T1100,69,80,0.7,15,6,105,87,93,细颗粒物(PM2.5)
商丘市,粮食局,115.6458,34.4045,2025-03-08T1100,71,83,0.6,18,6,106,94,95,细颗粒物(PM2.5)
商丘市,睢阳区环保局,115.6293,34.3948,2025-03-08T1100,71,98,0.5,14,5,88,80,95,细颗粒物(PM2.5)
商丘市,梁园区档案局,115.6071,34.4465,2025-03-08T1100,67,71,0.6,20,5,92,88,90,细颗粒物(PM2.5)
上海市,普陀,121.4,31.238,2025-03-08T1100,59,92,0.8,49,8,98,71,80,细颗粒物(PM2.5)
上海市,十五厂,121.478,31.2036,2025-03-08T1100,67,104,1.1,31,10,100,70,90,细颗粒物(PM2.5)
上海市,虹口,121.467,31.3008,2025-03-08T1100,,,1.1,52,,80,51,,
上海市,静安监测站,121.425,31.2261,2025-03-08T1100,62,91,0.7,36,9,94,79,84,细颗粒物(PM2.5)
上海市,浦东川沙,121.703,31.1907,2025-03-08T1100,49,100,1.0,41,10,,41,,
上海市,浦东新区监测站,121.533,31.2284,2025-03-08T1100,59,90,0.7,36,11,97,70,80,细颗粒物(PM2.5)
上海市,浦东张江,121.577,31.2071,2025-03-08T1100,57,97,0.9,28,8,95,58,78,细颗粒物(PM2.5)
上海市,宝山庙行,121.4316,31.3322,2025-03-08T1100,67,104,1.1,35,14,91,54,90,细颗粒物(PM2.5)
上海市,崇明上实东滩,121.8791,31.4662,2025-03-08T1100,45,64,0.6,17,6,116,63,63,细颗粒物(PM2.5)
上海市,嘉定南翔,121.3162,31.2838,2025-03-08T1100,63,91,0.7,38,9,87,27,85,细颗粒物(PM2.5)
上海市,金山新城,121.3359,30.7456,2025-03-08T1100,58,74,0.4,21,7,118,52,79,细颗粒物(PM2.5)
上海市,闵行浦江,121.4996,31.0739,2025-03-08T1100,54,89,0.6,42,7,92,46,74,细颗粒物(PM2.5)
上海市,青浦徐泾,121.2886,31.1663,2025-03-08T1100,57,89,0.5,30,6,103,34,78,细颗粒物(PM2.5)
上海市,松江图书馆,121.2186,31.0378,2025-03-08T1100,66,86,0.6,22,8,107,38,89,细颗粒物(PM2.5)
上海市,长宁仙霞,121.3902,31.2059,2025-03-08T1100,56,94,0.7,37,8,94,55,77,细颗粒物(PM2.5)
上海市,浦东惠南,121.7965,31.0507,2025-03-08T1100,53,85,0.7,23,8,102,38,73,细颗粒物(PM2.5)
上海市,奉贤南桥新城,121.4891,30.925,2025-03-08T1100,51,74,0.6,26,8,107,69,70,细颗粒物(PM2.5)
上海市,冠生园路458号,121.4174,31.16637,2025-03-08T1100,60,87,0.7,35,9,86,50,82,细颗粒物(PM2.5)
上海市,宁武路151号,121.5419,31.2683,2025-03-08T1100,57,112,0.7,35,9,95,47,81,颗粒物(PM10)
上饶市,百草园,118.005,28.4572,2025-03-08T1100,12,19,0.7,2,5,48,21,19,
上饶市,市监测站,117.9756,28.4436,2025-03-08T1100,22,36,0.6,15,6,46,22,36,
上饶市,凤凰光学,117.9519,28.4628,2025-03-08T1100,34,48,0.5,15,16,49,14,49,
上饶市,双创科技城,117.897,28.4315,2025-03-08T1100,34,47,0.7,20,10,36,17,49,
上饶市,裕丰大道,118.1904,28.4448,2025-03-08T1100,22,36,0.4,14,2,41,30,36,
韶关市,市八中,113.5824,24.7733,2025-03-08T1100,24,27,0.6,10,7,60,65,35,
韶关市,园林处,113.5917,24.7972,2025-03-08T1100,24,27,0.5,10,6,62,66,35,
韶关市,韶关学院,113.6735,24.7791,2025-03-08T1100,24,29,0.3,10,8,61,57,35,
韶关市,曲江监测站,113.5971,24.6863,2025-03-08T1100,22,26,0.5,12,9,58,56,32,
韶关市,碧湖山庄,113.5556,24.8082,2025-03-08T1100,28,37,0.4,10,7,56,61,40,
邵阳市,市水土所,111.5239,27.3033,2025-03-08T1100,,,,,,,,,
邵阳市,市化工厂,111.5283,27.2442,2025-03-08T1100,56,60,1.0,28,,27,24,,
邵阳市,市环保局,111.4328,27.2272,2025-03-08T1100,46,48,1.0,24,8,23,26,64,细颗粒物(PM2.5)
邵阳市,北塔二期4-26地块,111.4460,27.2472,2025-03-08T1100,45,,0.7,20,8,29,22,63,细颗粒物(PM2.5)
邵阳市,邵水西路287号,111.4739,27.2282,2025-03-08T1100,42,,0.9,27,7,25,26,59,细颗粒物(PM2.5)
绍兴市,城东开发委,120.6053,29.9928,2025-03-08T1100,62,91,0.7,22,7,70,28,84,细颗粒物(PM2.5)
绍兴市,树下王站,120.5483,30.0003,2025-03-08T1100,60,83,0.4,28,7,71,31,82,细颗粒物(PM2.5)
绍兴市,绍兴中专,120.5683,29.9361,2025-03-08T1100,44,71,0.6,18,6,86,28,62,细颗粒物(PM2.5)
绍兴市,柯桥区政府,120.4906,30.0861,2025-03-08T1100,62,98,0.5,23,8,70,36,84,细颗粒物(PM2.5)
绍兴市,重华小学,120.8752,30.0249,2025-03-08T1100,50,57,0.7,18,7,61,28,69,细颗粒物(PM2.5)
绍兴市,上虞中学,120.8369,30.0137,2025-03-08T1100,48,53,0.6,22,9,67,20,67,细颗粒物(PM2.5)
绍兴市,柯桥妇保,120.4722,30.0415,2025-03-08T1100,61,82,0.5,38,6,60,28,83,细颗粒物(PM2.5)
绍兴市,袍江中学,120.6153,30.0764,2025-03-08T1100,63,84,0.6,27,6,74,37,85,细颗粒物(PM2.5)
深圳市,通心岭子站,114.1063,22.5545,2025-03-08T1100,15,24,0.7,18,6,27,28,24,
深圳市,洪湖,114.117,22.5625,2025-03-08T1100,15,26,0.8,22,5,23,26,26,
深圳市,华侨城,113.987,22.5417,2025-03-08T1100,21,28,0.9,17,5,29,24,30,
深圳市,南海子站,113.9181,22.5171,2025-03-08T1100,18,38,0.7,16,5,34,25,38,
深圳市,盐田,114.2458,22.5689,2025-03-08T1100,14,27,0.6,36,7,16,24,27,
深圳市,龙岗,114.2283,22.7244,2025-03-08T1100,17,25,0.6,12,6,32,35,25,
深圳市,南澳,114.494,22.5422,2025-03-08T1100,9,13,0.7,10,6,44,33,14,
深圳市,葵涌,114.41,22.6342,2025-03-08T1100,18,25,0.6,16,6,24,30,26,
深圳市,梅沙,114.297,22.5978,2025-03-08T1100,14,26,0.6,16,6,31,36,26,
深圳市,观澜,114.0678,22.738,2025-03-08T1100,20,33,0.5,14,6,32,25,33,
深圳市,莲花,114.0731,22.559,2025-03-08T1100,17,26,0.6,23,7,25,26,26,
深圳市,民治,114.0261,22.6198,2025-03-08T1100,23,30,0.6,24,7,30,26,33,
深圳市,横岗,114.1871,22.6451,2025-03-08T1100,20,25,0.8,17,5,24,28,29,
深圳市,坪山,114.3551,22.7151,2025-03-08T1100,19,26,0.7,18,6,25,31,28,
深圳市,西乡,113.8953,22.5861,2025-03-08T1100,16,31,0.8,19,6,37,28,31,
沈阳市,森林路,123.6836,41.9339,2025-03-08T1100,,,,,,,,,
沈阳市,浑南东路,123.505,41.7406,2025-03-08T1100,44,70,0.7,24,21,102,76,62,细颗粒物(PM2.5)
沈阳市,新秀街,123.4231,41.6989,2025-03-08T1100,47,82,0.9,24,15,98,83,66,颗粒物(PM10)
沈阳市,东陵路,123.5903,41.8411,2025-03-08T1100,43,51,0.9,23,17,100,71,60,细颗粒物(PM2.5)
沈阳市,陵东街,123.4264,41.8467,2025-03-08T1100,54,75,0.8,26,16,96,81,74,细颗粒物(PM2.5)
沈阳市,文化路,123.4114,41.7653,2025-03-08T1100,69,92,0.9,21,14,100,88,93,细颗粒物(PM2.5)
沈阳市,小河沿,123.4678,41.7867,2025-03-08T1100,48,71,0.8,21,18,102,88,67,细颗粒物(PM2.5)
沈阳市,太原街,123.4017,41.7972,2025-03-08T1100,75,100,1.0,26,18,96,87,100,细颗粒物(PM2.5)
沈阳市,京沈街,123.3783,41.9228,2025-03-08T1100,72,,0.9,,23,87,79,,
沈阳市,沈辽西路,123.2444,41.7347,2025-03-08T1100,64,113,0.9,20,14,82,62,87,细颗粒物(PM2.5)
沈阳市,裕农路,123.5953,41.9086,2025-03-08T1100,42,67,0.8,29,17,100,76,59,"颗粒物(PM10),细颗粒物(PM2.5)"
十堰市,武当山,111.0419,32.395,2025-03-08T1100,32,61,0.8,19,11,104,89,56,颗粒物(PM10)
十堰市,滨河新村,110.78,32.6494,2025-03-08T1100,78,82,1.0,39,14,50,19,104,细颗粒物(PM2.5)
十堰市,刘家沟,110.7258,32.6389,2025-03-08T1100,74,98,0.5,25,14,47,20,99,细颗粒物(PM2.5)
十堰市,铁二处,110.8839,32.5714,2025-03-08T1100,,72,0.7,37,12,50,25,,
十堰市,郧阳区金沙路,110.8054,32.8401,2025-03-08T1100,35,43,0.5,10,20,45,36,50,
石河子市,艾青诗歌馆,86.0497,44.2967,2025-03-08T1100,3,22,0.3,13,7,83,88,26,
石河子市,南区管委会,86.047,44.2331,2025-03-08T1100,7,15,0.2,4,8,102,95,32,
石河子市,世纪广场,86.0791,44.3017,2025-03-08T1100,3,33,0.4,2,7,92,89,33,
石家庄市,职工医院,114.4422,38.0444,2025-03-08T1100,105,127,0.9,24,3,53,18,138,细颗粒物(PM2.5)
石家庄市,高新区,114.6063,38.0266,2025-03-08T1100,98,143,0.8,31,7,70,37,129,细颗粒物(PM2.5)
石家庄市,西北水源,114.4898,38.1328,2025-03-08T1100,139,182,1.0,32,4,37,11,185,细颗粒物(PM2.5)
石家庄市,西南高教,114.4586,38.0058,2025-03-08T1100,127,156,0.6,27,5,65,21,168,细颗粒物(PM2.5)
石家庄市,世纪公园,114.5331,38.0178,2025-03-08T1100,91,125,0.8,36,8,59,29,120,细颗粒物(PM2.5)
石家庄市,人民会堂,114.509,38.0457,2025-03-08T1100,135,,0.9,20,4,71,33,179,细颗粒物(PM2.5)
石家庄市,封龙山,114.3524,37.8911,2025-03-08T1100,46,49,0.6,16,11,83,78,64,细颗粒物(PM2.5)
石家庄市,22中南校区,114.5481,38.0378,2025-03-08T1100,104,122,0.9,30,7,70,36,137,细颗粒物(PM2.5)
石家庄市,鹿泉一中,114.289,38.0906,2025-03-08T1100,106,154,0.9,39,7,53,16,139,细颗粒物(PM2.5)
石家庄市,藁城区实验学校,114.8506765,38.0322033,2025-03-08T1100,106,145,0.9,23,7,79,28,139,细颗粒物(PM2.5)
石家庄市,井陉矿区区委大楼,114.0504658,38.0591645,2025-03-08T1100,66,100,0.8,26,19,57,11,89,细颗粒物(PM2.5)
石家庄市,栾城区星河路,114.6549,37.9020,2025-03-08T1100,124,126,0.8,22,7,73,25,163,细颗粒物(PM2.5)
石嘴山市,沙湖旅游区,106.3394,38.817,2025-03-08T1100,,,,,,,,,
石嘴山市,大武口朝阳西街,106.3668,39.0145,2025-03-08T1100,60,206,1.3,32,43,52,33,128,颗粒物(PM10)
石嘴山市,惠农南大街,106.7704,39.2282,2025-03-08T1100,32,176,0.5,17,9,68,32,113,颗粒物(PM10)
石嘴山市,红果子镇惠新街,106.7099,39.1325,2025-03-08T1100,34,153,0.7,13,6,65,36,102,颗粒物(PM10)
石嘴山市,妇女儿童医院,106.3495,38.9836,2025-03-08T1100,52,142,0.9,32,30,48,29,96,颗粒物(PM10)
石嘴山市,石大公路,106.7492,39.2069,2025-03-08T1100,39,144,0.3,14,6,74,29,97,颗粒物(PM10)
双鸭山市,双合村,131.1511,46.6937,2025-03-08T1100,36,68,0.9,19,17,62,41,59,颗粒物(PM10)
双鸭山市,南小市,131.1652,46.6191,2025-03-08T1100,52,92,0.6,24,17,50,42,72,细颗粒物(PM2.5)
双鸭山市,环保局,131.1524,46.6554,2025-03-08T1100,39,64,0.6,23,16,56,33,57,颗粒物(PM10)
双鸭山市,苗圃,131.12,46.5656,2025-03-08T1100,,,,,,,,,
朔州市,平朔,112.4397,39.3522,2025-03-08T1100,29,79,0.7,23,14,73,18,65,颗粒物(PM10)
朔州市,朔唯,112.4575,39.3617,2025-03-08T1100,35,88,0.6,30,11,65,20,69,颗粒物(PM10)
朔州市,区政府,112.4258,39.3197,2025-03-08T1100,48,91,0.9,28,13,68,24,71,颗粒物(PM10)
朔州市,市环保局,112.4072,39.3278,2025-03-08T1100,41,83,0.8,28,17,61,24,67,颗粒物(PM10)
朔州市,市二中,112.4272,39.3681,2025-03-08T1100,23,82,0.5,22,13,71,15,66,颗粒物(PM10)
朔州市,一水厂,112.2931,39.53,2025-03-08T1100,24,76,0.3,16,8,91,66,63,颗粒物(PM10)
四平市,一商场,124.4002,43.1713,2025-03-08T1100,53,90,0.6,20,11,79,67,73,细颗粒物(PM2.5)
四平市,境园,124.388,43.193,2025-03-08T1100,51,78,0.5,23,8,80,69,70,细颗粒物(PM2.5)
四平市,植物园,124.4036,43.1411,2025-03-08T1100,51,90,0.6,32,11,76,63,70,"颗粒物(PM10),细颗粒物(PM2.5)"
四平市,世纪城,124.3419,43.1666,2025-03-08T1100,40,78,0.7,24,11,76,68,64,颗粒物(PM10)
松原市,江南,124.8006,45.1214,2025-03-08T1100,29,52,0.4,16,8,54,35,51,颗粒物(PM10)
松原市,江北,124.7965,45.1722,2025-03-08T1100,32,46,0.5,10,5,56,34,46,
苏州市,上方山,120.561,31.2472,2025-03-08T1100,,,,,,,,,
苏州市,彩香,120.591,31.3019,2025-03-08T1100,77,100,0.6,38,9,83,21,103,细颗粒物(PM2.5)
苏州市,轧钢厂,120.596,31.3264,2025-03-08T1100,74,114,0.7,36,8,78,26,99,细颗粒物(PM2.5)
苏州市,吴中区,120.613,31.2703,2025-03-08T1100,76,104,0.6,40,7,71,18,102,细颗粒物(PM2.5)
苏州市,苏州新区,120.543,31.2994,2025-03-08T1100,76,108,0.5,41,8,83,23,102,细颗粒物(PM2.5)
苏州市,苏州工业园区,120.669,31.3097,2025-03-08T1100,89,111,0.7,35,8,79,27,118,细颗粒物(PM2.5)
苏州市,相城区,120.641,31.3708,2025-03-08T1100,73,97,0.4,35,7,94,33,98,细颗粒物(PM2.5)
苏州市,方洲路,120.743,31.3188,2025-03-08T1100,75,102,0.6,36,7,88,27,100,细颗粒物(PM2.5)
苏州市,木渎中学,120.5031,31.2774,2025-03-08T1100,75,85,0.8,36,7,80,34,100,细颗粒物(PM2.5)
苏州市,越秀幼儿园,120.624,31.1733,2025-03-08T1100,68,109,0.8,41,8,79,31,92,细颗粒物(PM2.5)
苏州市,高铁新城,120.6505,31.416,2025-03-08T1100,74,112,0.6,38,8,77,32,99,细颗粒物(PM2.5)
宿迁市,宿迁学院,118.293,33.9528,2025-03-08T1100,82,114,0.8,18,15,112,85,109,细颗粒物(PM2.5)
宿迁市,宿迁中学,118.2442,33.9592,2025-03-08T1100,82,109,0.8,21,9,104,90,109,细颗粒物(PM2.5)
宿迁市,市供电局,118.283,33.965,2025-03-08T1100,72,100,0.7,21,6,109,95,97,细颗粒物(PM2.5)
宿迁市,宿豫区政府,118.3225,33.9447,2025-03-08T1100,80,107,0.7,22,6,102,82,107,细颗粒物(PM2.5)
宿州市,远航博物馆,116.9509,33.666,2025-03-08T1100,73,85,0.3,27,7,97,73,98,细颗粒物(PM2.5)
宿州市,社会福利中心,116.9708,33.591,2025-03-08T1100,61,91,0.6,23,10,95,62,83,细颗粒物(PM2.5)
宿州市,宿州学院,116.9884,33.6305,2025-03-08T1100,65,93,0.6,26,9,91,76,88,细颗粒物(PM2.5)
宿州市,皖北煤电集团,116.9648,33.6252,2025-03-08T1100,75,97,0.8,21,10,93,79,100,细颗粒物(PM2.5)
绥化市,人和东街,126.9785,46.6365,2025-03-08T1100,35,69,0.6,20,6,72,68,60,颗粒物(PM10)
绥化市,党政办公中心,126.964,46.6528,2025-03-08T1100,42,70,0.6,18,6,84,72,60,颗粒物(PM10)
随州市,市委党校,113.3583,31.7275,2025-03-08T1100,102,131,0.8,33,11,67,44,134,细颗粒物(PM2.5)
随州市,市林业局,113.3833,31.6908,2025-03-08T1100,97,114,0.7,27,14,65,52,128,细颗粒物(PM2.5)
随州市,市立交桥水厂,113.3983,31.7308,2025-03-08T1100,90,110,0.7,25,12,68,47,119,细颗粒物(PM2.5)
遂宁市,石溪浩,105.5453,30.5678,2025-03-08T1100,29,34,0.6,28,3,8,33,42,
遂宁市,市监测站,105.5582,30.5232,2025-03-08T1100,34,60,0.5,36,7,23,36,55,颗粒物(PM10)
遂宁市,行政中心,105.5861,30.5366,2025-03-08T1100,29,40,0.3,25,8,39,42,42,
遂宁市,美宁食品公司,105.5918,30.4728,2025-03-08T1100,39,39,0.4,20,7,20,37,55,细颗粒物(PM2.5)
塔城地区,东门外小游园,82.9994,46.7432,2025-03-08T1100,9,,0.1,9,5,57,73,18,
台州市,黄岩环保大楼,121.273,28.6459,2025-03-08T1100,32,54,0.3,15,6,91,47,52,颗粒物(PM10)
台州市,台州环保大楼,121.419,28.6542,2025-03-08T1100,36,51,0.5,14,5,78,40,52,细颗粒物(PM2.5)
台州市,路桥田洋王,121.377,28.5773,2025-03-08T1100,39,55,0.5,12,3,84,34,55,细颗粒物(PM2.5)
台州市,台州科技职业学院,121.2568,28.6681,2025-03-08T1100,29,48,0.6,5,4,91,44,48,
太原市,尖草坪,112.522,37.8873,2025-03-08T1100,80,113,1.3,36,23,41,22,107,细颗粒物(PM2.5)
太原市,上兰,112.434,38.0108,2025-03-08T1100,50,64,0.4,24,10,54,43,69,细颗粒物(PM2.5)
太原市,晋源,112.469,37.7124,2025-03-08T1100,129,138,1.2,35,22,51,17,170,细颗粒物(PM2.5)
太原市,小店,112.5583,37.7394,2025-03-08T1100,126,141,1.4,44,23,47,17,166,细颗粒物(PM2.5)
太原市,桃园,112.5369,37.8692,2025-03-08T1100,84,105,1.0,27,8,50,28,112,细颗粒物(PM2.5)
太原市,坞城,112.57,37.8195,2025-03-08T1100,114,125,1.4,38,10,52,25,149,细颗粒物(PM2.5)
太原市,南寨,112.549,37.9854,2025-03-08T1100,139,158,2.3,41,10,30,12,185,细颗粒物(PM2.5)
太原市,金胜,112.4719,37.7831,2025-03-08T1100,106,134,1.3,30,14,54,30,139,细颗粒物(PM2.5)
太原市,育英中学,112.5608,37.8807,2025-03-08T1100,83,100,1.1,32,12,50,26,110,细颗粒物(PM2.5)
泰安市,监测站,117.1437,36.1937,2025-03-08T1100,70,97,0.7,29,12,112,91,94,细颗粒物(PM2.5)
泰安市,人口学校,117.0885,36.2017,2025-03-08T1100,76,107,0.6,20,11,110,99,102,细颗粒物(PM2.5)
泰安市,电力学校,117.1089,36.1758,2025-03-08T1100,84,97,0.6,20,10,114,84,112,细颗粒物(PM2.5)
泰安市,国网新校,117.1812,36.2275,2025-03-08T1100,70,95,0.8,24,9,120,101,94,细颗粒物(PM2.5)
泰安市,交通技校,117.0313,36.2018,2025-03-08T1100,79,88,0.7,22,7,118,102,105,细颗粒物(PM2.5)
泰安市,山东第一医科大学,117.0829,36.13,2025-03-08T1100,79,100,0.4,17,10,119,85,105,细颗粒物(PM2.5)
泰州市,公园路,119.905,32.4878,2025-03-08T1100,63,73,0.7,21,3,101,54,85,细颗粒物(PM2.5)
泰州市,莲花,119.9189,32.4625,2025-03-08T1100,66,81,0.7,24,11,100,53,89,细颗粒物(PM2.5)
泰州市,留学生创业园,119.888,32.4639,2025-03-08T1100,86,104,0.8,28,10,98,50,114,细颗粒物(PM2.5)
泰州市,王营,119.8767,32.3289,2025-03-08T1100,73,91,0.7,31,11,,19,,
泰州市,姜堰区政府广场,120.1259,32.5099,2025-03-08T1100,77,101,0.6,26,10,96,60,103,细颗粒物(PM2.5)
泰州市,周山河街区,119.9192,32.4322,2025-03-08T1100,77,113,0.9,18,11,101,46,103,细颗粒物(PM2.5)
唐山市,物资局,118.1725,39.6334,2025-03-08T1100,62,84,0.7,26,5,84,62,84,细颗粒物(PM2.5)
唐山市,十二中,118.1705,39.6506,2025-03-08T1100,56,88,0.6,18,6,88,59,77,细颗粒物(PM2.5)
唐山市,小山,118.1869,39.622,2025-03-08T1100,80,83,0.7,17,4,87,56,107,细颗粒物(PM2.5)
唐山市,冀东油田职工医院,118.4359,39.2762,2025-03-08T1100,77,78,0.9,26,17,89,76,103,细颗粒物(PM2.5)
唐山市,正泰大街热力站,118.09279,39.58089,2025-03-08T1100,64,82,0.6,21,5,86,31,87,细颗粒物(PM2.5)
唐山市,丰润区政府,118.1562,39.8322,2025-03-08T1100,67,90,0.8,22,10,79,30,90,细颗粒物(PM2.5)
唐山市,金山小学,118.43673,39.73809,2025-03-08T1100,59,88,0.6,25,9,81,53,80,细颗粒物(PM2.5)
唐山市,政府服务中心,118.24498,39.66941,2025-03-08T1100,61,76,0.6,17,6,85,37,83,细颗粒物(PM2.5)
唐山市,消防缸窑路中队,118.2059,39.6585,2025-03-08T1100,50,86,0.4,28,11,95,50,69,细颗粒物(PM2.5)
唐山市,路南电大,118.1436,39.6202,2025-03-08T1100,62,80,0.6,24,5,84,58,84,细颗粒物(PM2.5)
唐山市,友谊北路34号,118.1309,39.6360,2025-03-08T1100,81,105,0.6,24,6,91,60,108,细颗粒物(PM2.5)
天津市,勤俭道,117.1444,39.1661,2025-03-08T1100,114,124,1.0,34,6,77,41,149,细颗粒物(PM2.5)
天津市,前进道,117.202,39.0927,2025-03-08T1100,112,129,0.9,38,7,80,48,147,细颗粒物(PM2.5)
天津市,淮河道,117.1837,39.2133,2025-03-08T1100,114,133,1.0,32,7,82,32,149,细颗粒物(PM2.5)
天津市,跃进路,117.307,39.0877,2025-03-08T1100,106,125,0.8,34,7,79,31,139,细颗粒物(PM2.5)
天津市,第四大街,117.707,39.0343,2025-03-08T1100,95,109,1.2,62,7,53,25,125,细颗粒物(PM2.5)
天津市,永明路,117.457,38.8394,2025-03-08T1100,102,111,0.9,39,8,74,44,134,细颗粒物(PM2.5)
天津市,汉北路,117.764,39.1587,2025-03-08T1100,93,104,1.2,39,7,63,50,123,细颗粒物(PM2.5)
天津市,团泊洼,117.157,38.9194,2025-03-08T1100,,,,,,,,,
天津市,河西一经路,117.7918,39.2474,2025-03-08T1100,105,126,1.0,27,8,83,47,138,细颗粒物(PM2.5)
天津市,津沽路,117.3747,38.9846,2025-03-08T1100,102,122,0.9,,5,89,51,134,细颗粒物(PM2.5)
天津市,宾水西道,117.1589,39.0845,2025-03-08T1100,115,127,0.8,39,6,79,42,150,细颗粒物(PM2.5)
天津市,大理道,117.1941,39.1067,2025-03-08T1100,105,121,0.9,38,8,78,47,138,细颗粒物(PM2.5)
天津市,中山北路,117.2101,39.1699,2025-03-08T1100,104,122,0.9,36,6,78,32,137,细颗粒物(PM2.5)
天津市,西四道,117.3876,39.1488,2025-03-08T1100,99,118,1.0,51,10,54,28,130,细颗粒物(PM2.5)
天津市,雍阳西道,117.0365,39.3828,2025-03-08T1100,105,130,0.8,28,7,77,29,138,细颗粒物(PM2.5)
天津市,辛老路,117.0296,39.0605,2025-03-08T1100,109,138,1.0,43,6,66,34,143,细颗粒物(PM2.5)
天津市,地纬路,116.9638,38.9375,2025-03-08T1100,117,122,,36,8,73,22,153,细颗粒物(PM2.5)
天津市,北环路,117.4067,40.0583,2025-03-08T1100,107,142,0.8,29,6,69,48,140,细颗粒物(PM2.5)
天津市,建设路,117.3045,39.7169,2025-03-08T1100,106,136,0.9,24,9,88,38,139,细颗粒物(PM2.5)
天津市,滨水东路,117.8199,39.3521,2025-03-08T1100,92,118,1.3,37,12,69,31,122,细颗粒物(PM2.5)
天津市,光华路,117.2437,39.1029,2025-03-08T1100,114,133,0.9,31,7,90,41,149,细颗粒物(PM2.5)
天水市,麦积山,106.0055,34.343,2025-03-08T1100,,,,,,,,,
天水市,公园小学,105.7205,34.5786,2025-03-08T1100,20,61,0.6,24,19,54,30,56,颗粒物(PM10)
天水市,麦积国土局,105.8945,34.5538,2025-03-08T1100,35,82,0.7,18,12,57,27,66,颗粒物(PM10)
铁岭市,汇工街西,123.8139,42.3022,2025-03-08T1100,50,67,0.7,17,13,93,80,69,细颗粒物(PM2.5)
铁岭市,水上乐园,123.8649,42.2923,2025-03-08T1100,41,67,0.7,23,10,89,72,59,颗粒物(PM10)
铁岭市,银州路东段,123.8486,42.2867,2025-03-08T1100,,90,,,13,91,82,,
铁岭市,金沙江路北,123.7153,42.2217,2025-03-08T1100,52,60,0.5,22,18,93,71,72,细颗粒物(PM2.5)
通化市,光明,125.9358,41.7173,2025-03-08T1100,19,31,0.1,9,9,100,42,32,
通化市,铁路,125.9446,41.7325,2025-03-08T1100,22,32,0.3,10,4,104,38,33,
通辽市,艺术职业学校,122.2532,43.6801,2025-03-08T1100,68,76,0.3,11,15,76,65,92,细颗粒物(PM2.5)
通辽市,老干部活动中心,122.2584,43.6333,2025-03-08T1100,54,82,0.1,15,8,70,63,74,细颗粒物(PM2.5)
通辽市,东方明珠社区,122.2922,43.6189,2025-03-08T1100,61,92,0.3,17,9,72,63,83,细颗粒物(PM2.5)
铜川市,党校,109.0656,35.0994,2025-03-08T1100,,,,,,,,,
铜川市,王益区政府,109.0697,35.0697,2025-03-08T1100,68,102,0.9,37,7,52,15,92,细颗粒物(PM2.5)
铜川市,新区管委会,108.9344,34.9058,2025-03-08T1100,64,84,0.6,22,10,77,47,87,细颗粒物(PM2.5)
铜川市,旺旺集团,108.9543,34.8732,2025-03-08T1100,,,,,,,,,
铜陵市,市第四中学,117.8177,30.9412,2025-03-08T1100,52,108,1.1,21,16,80,40,79,颗粒物(PM10)
铜陵市,市公路局,117.8059,30.9273,2025-03-08T1100,8,75,1.1,23,16,85,52,63,颗粒物(PM10)
铜陵市,市新民污水厂,117.7807,30.9413,2025-03-08T1100,42,79,1.0,29,20,67,29,65,颗粒物(PM10)
铜陵市,市第九中学,117.7439,30.8792,2025-03-08T1100,46,79,0.7,40,8,51,32,65,颗粒物(PM10)
铜陵市,车站新区,117.846,30.9413,2025-03-08T1100,36,68,0.6,23,11,90,55,59,颗粒物(PM10)
铜陵市,市职教基地,117.8483,30.97,2025-03-08T1100,43,65,1.2,22,14,83,36,60,细颗粒物(PM2.5)
铜仁市,铜仁卫校,109.1839,27.7344,2025-03-08T1100,34,55,0.2,16,,29,28,,
铜仁市,铜仁七中,109.1753,27.6944,2025-03-08T1100,17,25,0.4,25,7,34,38,25,
吐鲁番市,市环保局,89.1904,42.9418,2025-03-08T1100,33,198,0.8,20,4,72,55,124,颗粒物(PM10)
吐鲁番市,地区环保局,89.1673,42.9559,2025-03-08T1100,34,174,0.7,16,8,75,51,112,颗粒物(PM10)
威海市,华夏技校,122.1214,37.4236,2025-03-08T1100,78,78,0.5,22,7,106,92,104,细颗粒物(PM2.5)
威海市,山大分校,122.0508,37.5236,2025-03-08T1100,61,83,0.3,16,9,112,100,83,细颗粒物(PM2.5)
威海市,市监测站,122.1067,37.5072,2025-03-08T1100,71,98,0.6,15,5,100,90,95,细颗粒物(PM2.5)
威海市,文登开发区,122.0693,37.2174,2025-03-08T1100,66,90,0.8,26,7,93,77,89,细颗粒物(PM2.5)
威海市,临港区管委会,122.1379,37.3414,2025-03-08T1100,56,85,0.7,27,9,88,86,77,细颗粒物(PM2.5)
潍坊市,环保局,119.1437,36.7023,2025-03-08T1100,71,95,0.6,32,13,97,58,95,细颗粒物(PM2.5)
潍坊市,坊子邮政,119.1641,36.6523,2025-03-08T1100,70,100,0.8,27,12,98,61,94,细颗粒物(PM2.5)
潍坊市,潍坊七中,119.0587,36.721,2025-03-08T1100,77,110,0.8,,,88,54,103,细颗粒物(PM2.5)
潍坊市,高新实验学校,119.1977,36.6872,2025-03-08T1100,66,105,0.5,24,15,102,65,89,细颗粒物(PM2.5)
潍坊市,潍坊学院,119.1755,36.7149,2025-03-08T1100,56,102,0.8,31,8,103,73,77,细颗粒物(PM2.5)
潍坊市,寒亭区实验一小,119.2041,36.7699,2025-03-08T1100,61,92,0.6,22,16,109,81,83,细颗粒物(PM2.5)
渭南市,农科所,109.5293,34.5101,2025-03-08T1100,,,,,,,,,
渭南市,体育馆,109.4636,34.493,2025-03-08T1100,73,107,0.9,20,9,53,31,98,细颗粒物(PM2.5)
渭南市,高新一小,109.4259,34.5023,2025-03-08T1100,85,92,1.0,22,9,53,33,113,细颗粒物(PM2.5)
渭南市,渭花路4号,109.5051,34.4921,2025-03-08T1100,79,95,0.9,22,10,48,27,105,细颗粒物(PM2.5)
温州市,瓯海,120.634,28.0089,2025-03-08T1100,31,44,0.2,21,8,70,27,45,
温州市,南浦,120.6748,27.9939,2025-03-08T1100,37,50,0.4,19,9,80,43,53,细颗粒物(PM2.5)
温州市,龙湾,120.76,27.9747,2025-03-08T1100,28,41,0.3,19,7,77,44,41,
温州市,市站,120.6709,28.0167,2025-03-08T1100,40,59,0.4,20,6,67,38,57,细颗粒物(PM2.5)
温州市,茶山,120.6985,27.9251,2025-03-08T1100,29,42,,,,,34,,
文山壮族苗族自治州,州水务局,104.2533,23.3594,2025-03-08T1100,27,36,0.5,12,8,47,55,39,
文山壮族苗族自治州,市便民服务中心,104.2319,23.3892,2025-03-08T1100,23,29,0.5,5,5,49,53,33,
乌海市,市林业局,106.8174,39.6973,2025-03-08T1100,43,180,0.9,40,31,61,37,115,颗粒物(PM10)
乌海市,中海勃湾学校,106.7907,39.6667,2025-03-08T1100,37,169,0.8,32,29,63,37,110,颗粒物(PM10)
乌海市,海北新区,106.813,39.7274,2025-03-08T1100,42,226,0.7,37,33,64,42,138,颗粒物(PM10)
乌海市,聚英学校,106.8288,39.6778,2025-03-08T1100,46,225,0.7,39,42,60,33,138,颗粒物(PM10)
乌兰察布市,集宁新区,113.1306,40.9923,2025-03-08T1100,35,61,0.8,32,9,54,34,56,颗粒物(PM10)
乌兰察布市,光明街小学,113.1076,41.0385,2025-03-08T1100,44,61,0.5,22,13,76,31,62,细颗粒物(PM2.5)
乌兰察布市,北京八中,113.1376,40.9509,2025-03-08T1100,40,74,1.0,22,15,62,27,62,颗粒物(PM10)
乌兰察布市,市委党校,113.1775,40.9779,2025-03-08T1100,39,78,0.5,19,11,67,38,64,颗粒物(PM10)
乌鲁木齐市,监测站,87.5801,43.8303,2025-03-08T1100,33,50,1.1,73,5,24,76,50,
乌鲁木齐市,收费所,87.6046,43.768,2025-03-08T1100,48,57,0.9,62,3,16,70,67,细颗粒物(PM2.5)
乌鲁木齐市,新疆农科院农场,87.4754,43.9469,2025-03-08T1100,21,44,0.9,50,9,49,76,44,
乌鲁木齐市,铁路局,87.5525,43.8711,2025-03-08T1100,37,46,0.8,74,3,34,78,53,细颗粒物(PM2.5)
乌鲁木齐市,三十一中学,87.6432,43.831,2025-03-08T1100,22,,0.1,19,7,82,83,32,
乌鲁木齐市,米东区环保局,87.7216,44.1747,2025-03-08T1100,11,23,0.4,13,8,86,88,27,
乌鲁木齐市,培训基地,87.4651,43.4569,2025-03-08T1100,3,,0.2,6,3,98,101,31,
乌鲁木齐市,达坂城区环保局,88.3118,43.3658,2025-03-08T1100,17,19,0.3,4,7,83,74,26,
乌鲁木齐市,红光山片区,87.6162,43.8801,2025-03-08T1100,12,38,0.3,39,6,62,79,38,
乌鲁木齐市,新师大温泉校区,87.7024,43.8004,2025-03-08T1100,3,14,0.2,6,2,91,90,29,
乌鲁木齐市,大绿谷,87.4921,43.8411,2025-03-08T1100,27,37,0.4,35,6,65,76,39,
无锡市,雪浪,120.269,31.4867,2025-03-08T1100,56,92,0.6,19,8,95,28,77,细颗粒物(PM2.5)
无锡市,黄巷,120.275,31.6219,2025-03-08T1100,61,95,0.8,41,7,68,20,83,细颗粒物(PM2.5)
无锡市,曹张,120.294,31.56,2025-03-08T1100,66,109,0.5,41,7,75,32,89,细颗粒物(PM2.5)
无锡市,漆塘,120.242,31.5031,2025-03-08T1100,66,92,0.7,28,7,83,30,89,细颗粒物(PM2.5)
无锡市,东亭,120.3489,31.5863,2025-03-08T1100,61,92,1.0,36,7,84,32,83,细颗粒物(PM2.5)
无锡市,旺庄,120.354,31.5475,2025-03-08T1100,70,97,0.7,49,4,67,27,94,细颗粒物(PM2.5)
无锡市,荣巷,120.245,31.5631,2025-03-08T1100,58,88,0.7,34,5,79,31,79,细颗粒物(PM2.5)
无锡市,堰桥,120.299,31.6817,2025-03-08T1100,56,78,0.8,34,8,83,36,77,细颗粒物(PM2.5)
无锡市,华庄,120.3142,31.4753,2025-03-08T1100,78,107,0.7,33,8,95,26,104,细颗粒物(PM2.5)
吴忠市,教育园区,106.1532,37.9648,2025-03-08T1100,47,143,0.6,17,8,56,36,97,颗粒物(PM10)
吴忠市,新区二泵站,106.1856,37.9956,2025-03-08T1100,46,152,0.6,19,7,62,41,101,颗粒物(PM10)
吴忠市,文卫南街,106.2112,37.9768,2025-03-08T1100,42,187,0.6,20,7,65,33,119,颗粒物(PM10)
芜湖市,监测站,118.3606,31.3519,2025-03-08T1100,61,120,1.4,47,15,60,40,85,颗粒物(PM10)
芜湖市,科创中心,118.3714,31.4134,2025-03-08T1100,76,110,1.0,40,15,61,23,102,细颗粒物(PM2.5)
芜湖市,四水厂,118.3673,31.3131,2025-03-08T1100,66,97,0.9,35,11,71,49,89,细颗粒物(PM2.5)
芜湖市,市气象局,118.4209,31.3707,2025-03-08T1100,73,99,1.2,32,18,63,36,98,细颗粒物(PM2.5)
