area,positionname,longitude,latitude,timepoint,pm2_5,pm10,co,no2,so2,o3,o3_8h,aqi,primarypollutant
阿坝藏族羌族自治州,州农科所,102.1879,31.914,2025-04-28T0000,17,24,0.5,4,12,69,104,25,
阿坝藏族羌族自治州,马师校,102.2502,31.8896,2025-04-28T0000,18,30,0.4,14,5,62,116,30,
阿坝藏族羌族自治州,马尔康中学西区,102.2165,31.9024,2025-04-28T0000,19,20,0.3,3,4,79,132,28,
阿克苏地区,电视台,80.292,41.1694,2025-04-28T0000,,,0.9,42,2,,112,,
阿克苏地区,艺术中心,80.2613,41.1551,2025-04-28T0000,116,428,1.0,83,4,8,114,310,颗粒物(PM10)
阿拉善盟,西城区西花园,105.6467,38.8363,2025-04-28T0000,9,38,0.6,14,5,86,116,38,
阿拉善盟,蒙二幼,105.6985,38.8411,2025-04-28T0000,11,25,0.6,6,7,79,100,25,
阿拉善盟,环保局新楼,105.724,38.8516,2025-04-28T0000,9,29,0.5,3,7,98,108,31,
阿勒泰地区,市站,88.1264,47.8517,2025-04-28T0000,8,34,0.4,2,3,95,103,34,
阿里地区,阿里监测站,80.1161,32.5,2025-04-28T0000,8,9,0.4,8,6,117,122,37,
阿里地区,阿里藏医院,80.0903,32.5028,2025-04-28T0000,7,12,0.3,1,5,132,131,42,
安康市,香溪洞,109.0318,32.6537,2025-04-28T0000,22,44,0.6,12,7,58,108,44,
安康市,汉滨区检察院,109.0072,32.6975,2025-04-28T0000,18,37,0.4,13,8,35,107,37,
安康市,市邮政管理局,109.0325,32.6913,2025-04-28T0000,12,33,0.3,8,20,43,107,33,
安庆市,环科院,117.0809,30.5177,2025-04-28T0000,25,32,0.8,39,4,24,81,36,
安庆市,马山宾馆,117.0331,30.5119,2025-04-28T0000,29,,0.8,48,5,10,72,42,
安庆市,安庆大学,116.9896,30.6145,2025-04-28T0000,33,35,0.6,40,6,29,81,48,
安庆市,市人大,117.0598,30.5351,2025-04-28T0000,28,32,0.5,41,9,25,83,40,
安顺市,伍家关,105.9606,26.2611,2025-04-28T0000,7,11,0.4,6,6,74,85,24,
安顺市,凤凰山,105.9408,26.2431,2025-04-28T0000,8,16,0.5,6,9,73,84,23,
安顺市,金钟山,105.9439,26.2564,2025-04-28T0000,9,16,0.6,6,8,73,85,23,
安顺市,娄家坡,105.8983,26.2481,2025-04-28T0000,10,16,0.5,8,10,74,87,24,
安阳市,棉研所,114.4839,36.0621,2025-04-28T0000,,,,,,,,,
安阳市,红庙街,114.3551,36.1017,2025-04-28T0000,22,72,0.3,9,2,70,95,61,颗粒物(PM10)
安阳市,银杏小区,114.361,36.0681,2025-04-28T0000,29,89,0.4,47,4,44,104,70,颗粒物(PM10)
安阳市,信访局,114.3922,36.0878,2025-04-28T0000,22,68,0.2,16,2,80,108,59,颗粒物(PM10)
安阳市,左辅环卫站,114.4705,36.0637,2025-04-28T0000,26,70,0.4,16,2,82,108,60,颗粒物(PM10)
安阳市,安钢职工学校,114.2917,36.0949,2025-04-28T0000,31,164,0.4,27,2,50,98,107,颗粒物(PM10)
鞍山市,深沟寺,123.044,41.1196,2025-04-28T0000,25,52,2.1,46,29,41,94,51,颗粒物(PM10)
鞍山市,太阳城,123.011,41.0931,2025-04-28T0000,30,65,0.9,30,10,47,89,58,颗粒物(PM10)
鞍山市,太平,123.0485,41.1442,2025-04-28T0000,20,50,1.6,33,32,49,82,50,
鞍山市,铁西三道街,122.9642,41.0971,2025-04-28T0000,29,60,0.8,36,10,47,93,55,颗粒物(PM10)
鞍山市,明达新区,123.022,41.0821,2025-04-28T0000,38,78,0.4,38,12,37,90,64,颗粒物(PM10)
鞍山市,千山,123.1289,41.0228,2025-04-28T0000,,,,,,,92,,
鞍山市,兴盛南路290号,122.9446,41.0826,2025-04-28T0000,33,86,0.7,58,7,25,90,68,颗粒物(PM10)
巴彦淖尔市,附二中,107.4212,40.761,2025-04-28T0000,14,43,0.5,12,5,87,103,43,
巴彦淖尔市,市环保大楼,107.37,40.7372,2025-04-28T0000,15,50,0.3,20,5,72,104,50,
巴音郭楞蒙古自治州,孔雀公园,86.1472,41.7538,2025-04-28T0000,14,38,0.1,13,5,86,100,38,
巴音郭楞蒙古自治州,棉纺厂,86.1972,41.7166,2025-04-28T0000,15,78,0.2,22,6,74,100,64,颗粒物(PM10)
巴音郭楞蒙古自治州,经济开发区,86.2357,41.7173,2025-04-28T0000,19,48,0.1,14,14,85,101,48,
巴中市,苏山坪,106.7677,31.8794,2025-04-28T0000,13,19,0.7,8,4,97,104,31,
巴中市,市五中,106.7768,31.8526,2025-04-28T0000,32,53,0.5,28,6,26,105,52,颗粒物(PM10)
巴中市,圣泉水务公司,106.7418,31.8654,2025-04-28T0000,22,40,0.6,47,5,18,103,40,
巴中市,市中心医院,106.7616,31.8344,2025-04-28T0000,27,52,0.7,34,4,19,102,51,颗粒物(PM10)
白城市,洮北区环保局,122.7911,45.6077,2025-04-28T0000,20,38,0.4,7,2,57,86,38,
白城市,市环保局,122.8738,45.5725,2025-04-28T0000,26,,0.4,3,4,64,90,38,
白山市,喜丰,126.4219,41.9171,2025-04-28T0000,22,64,0.7,40,12,22,128,57,颗粒物(PM10)
白山市,环保局,126.4077,41.9419,2025-04-28T0000,12,31,0.5,13,9,41,128,31,
白银市,第三小学,104.1724,36.5446,2025-04-28T0000,8,27,0.4,8,8,90,100,29,
白银市,动力公司,104.1465,36.5482,2025-04-28T0000,6,19,0.6,7,12,92,104,29,
百色市,市监测站,106.6103,23.9011,2025-04-28T0000,9,16,0.7,8,3,51,94,16,
百色市,市中心血站,106.6538,23.8859,2025-04-28T0000,10,19,0.8,15,5,37,98,19,
百色市,祈福高中,106.6085,23.8798,2025-04-28T0000,12,25,0.7,7,5,54,96,25,
蚌埠市,工人疗养院,117.396,32.939,2025-04-28T0000,46,103,0.6,40,6,96,167,77,颗粒物(PM10)
蚌埠市,百货大楼,117.3605,32.9427,2025-04-28T0000,57,113,0.7,62,6,55,166,82,颗粒物(PM10)
蚌埠市,蚌埠学院,117.4185,32.8911,2025-04-28T0000,48,75,0.7,45,4,81,164,67,细颗粒物(PM2.5)
蚌埠市,淮上区政府,117.3533,32.9673,2025-04-28T0000,53,90,0.6,61,5,45,167,73,细颗粒物(PM2.5)
蚌埠市,高新区,117.3145,32.8977,2025-04-28T0000,52,83,0.6,49,7,47,165,72,细颗粒物(PM2.5)
蚌埠市,蚌埠田家炳中学,117.3092,32.9314,2025-04-28T0000,51,108,0.5,53,6,63,177,79,颗粒物(PM10)
包头市,市环境监测站,109.8756,40.6532,2025-04-28T0000,11,22,0.4,34,8,39,92,22,
包头市,包头八中,109.9991,40.5842,2025-04-28T0000,16,35,0.4,63,11,17,95,35,
包头市,青山宾馆,109.8538,40.6821,2025-04-28T0000,12,37,0.4,51,9,19,93,37,
包头市,惠龙物流,109.8642,40.6288,2025-04-28T0000,3,22,0.3,34,9,46,94,22,
包头市,东河鸿龙湾,110.0377,40.5546,2025-04-28T0000,10,26,0.5,51,7,23,92,26,
包头市,滨河大厦,109.9154,40.5685,2025-04-28T0000,15,32,0.6,37,13,33,94,32,
包头市,包头市委党校,109.9447,40.6261,2025-04-28T0000,9,32,0.5,57,7,14,95,32,
包头市,昆区政府,109.8331,40.6576,2025-04-28T0000,24,,0.4,32,7,47,93,35,
宝鸡市,庙沟村,107.185,34.3063,2025-04-28T0000,24,47,0.4,15,7,78,110,47,
宝鸡市,竹园沟,107.0708,34.3017,2025-04-28T0000,15,43,0.3,13,8,61,103,43,
宝鸡市,三陆医院,107.1906,34.3672,2025-04-28T0000,43,49,0.5,27,7,39,101,60,细颗粒物(PM2.5)
宝鸡市,监测站,107.1431,34.3547,2025-04-28T0000,21,38,0.3,17,8,51,96,38,
宝鸡市,技工学校,107.1186,34.3739,2025-04-28T0000,25,50,0.5,15,7,50,100,50,
宝鸡市,陈仓区环保局家属楼,107.3906,34.3528,2025-04-28T0000,24,54,0.5,23,7,54,102,52,颗粒物(PM10)
宝鸡市,文理学院,107.2058,34.3497,2025-04-28T0000,21,56,0.4,22,6,49,105,53,颗粒物(PM10)
宝鸡市,三迪小学,107.2386,34.3622,2025-04-28T0000,26,56,0.4,22,6,47,101,53,颗粒物(PM10)
保定市,游泳馆,115.493,38.8632,2025-04-28T0000,27,82,0.1,30,4,56,108,66,颗粒物(PM10)
保定市,华电二区,115.5213,38.8959,2025-04-28T0000,29,64,0.4,16,4,69,112,57,颗粒物(PM10)
保定市,接待中心,115.4713,38.9108,2025-04-28T0000,31,64,0.6,16,4,67,112,57,颗粒物(PM10)
保定市,地表水厂,115.4612,38.8416,2025-04-28T0000,24,79,0.4,26,4,55,109,65,颗粒物(PM10)
保定市,满城区生态环境分局,115.31981,38.95208,2025-04-28T0000,31,90,0.3,20,4,70,112,70,颗粒物(PM10)
保定市,清苑区第二中学,115.47694,38.76408,2025-04-28T0000,19,81,0.3,19,5,64,115,66,颗粒物(PM10)
保定市,徐水物探局,115.62909,39.02311,2025-04-28T0000,17,79,0.1,16,1,73,111,65,颗粒物(PM10)
保定市,双鹰农机,115.4202,38.8656,2025-04-28T0000,26,50,0.1,25,6,56,107,50,
保定市,植保所站,115.5150,38.8590,2025-04-28T0000,33,77,0.5,15,1,70,107,64,颗粒物(PM10)
保山市,市环境监测站,99.1678,25.1081,2025-04-28T0000,36,72,0.5,12,7,98,143,61,颗粒物(PM10)
保山市,市环保局,99.1711,25.1328,2025-04-28T0000,35,69,0.5,4,10,132,154,60,颗粒物(PM10)
北海市,牛尾岭水库,109.2262,21.588,2025-04-28T0000,3,12,0.8,,6,20,58,,
北海市,海滩公园,109.1436,21.4086,2025-04-28T0000,10,21,0.4,14,5,41,73,21,
北海市,新市环保局,109.0981,21.4661,2025-04-28T0000,7,15,0.6,8,3,50,73,16,
北海市,北海工业园,109.1778,21.5233,2025-04-28T0000,7,15,0.6,16,8,36,76,15,
北海市,龙潭自来水厂,109.1911,21.4415,2025-04-28T0000,18,24,0.4,15,8,34,70,26,
北京市,万寿西宫,116.3621,39.8784,2025-04-28T0000,10,54,0.5,30,7,69,112,52,颗粒物(PM10)
北京市,定陵,116.2202,40.2915,2025-04-28T0000,,,,,,,,,
北京市,东四,116.4174,39.9289,2025-04-28T0000,14,62,0.3,26,3,71,104,56,颗粒物(PM10)
北京市,天坛,116.4072,39.8863,2025-04-28T0000,,,,,,,103,,
北京市,农展馆,116.462,39.9365,2025-04-28T0000,13,47,0.3,29,8,73,99,47,
北京市,官园,116.3392,39.9295,2025-04-28T0000,12,58,0.3,33,5,58,98,54,颗粒物(PM10)
北京市,海淀万柳,116.2878,39.9611,2025-04-28T0000,11,53,0.4,30,5,58,96,52,颗粒物(PM10)
北京市,顺义新城,116.6636,40.135,2025-04-28T0000,14,72,0.5,48,7,18,103,61,颗粒物(PM10)
北京市,怀柔镇,116.6275,40.3275,2025-04-28T0000,8,25,0.4,20,3,44,95,25,
北京市,昌平镇,116.2296,40.217,2025-04-28T0000,12,45,0.2,69,2,12,93,45,
北京市,奥体中心,116.3966,39.9821,2025-04-28T0000,9,48,0.2,37,3,62,98,48,
北京市,延庆夏都,115.9718,40.4529,2025-04-28T0000,6,17,0.3,14,3,72,103,23,
北京市,密云新城,116.8336,40.4095,2025-04-28T0000,9,33,0.4,12,3,42,95,33,
北京市,门头沟三家店,116.088,39.9726,2025-04-28T0000,21,125,0.3,60,3,4,94,88,颗粒物(PM10)
北京市,丰台云岗,116.1541,39.8204,2025-04-28T0000,18,103,0.3,52,3,34,103,77,颗粒物(PM10)
北京市,通州东关,116.6804,39.9081,2025-04-28T0000,13,67,0.6,30,5,76,106,59,颗粒物(PM10)
北京市,房山燕山,115.9577,39.7603,2025-04-28T0000,11,46,0.3,25,5,56,95,46,
北京市,大兴旧宫,116.4672,39.7733,2025-04-28T0000,18,106,0.2,20,3,73,104,78,颗粒物(PM10)
北京市,延庆石河营,115.986,40.4563,2025-04-28T0000,11,16,0.3,18,2,55,91,18,
北京市,怀柔新城,116.6151,40.3053,2025-04-28T0000,7,20,0.5,18,3,45,83,20,
北京市,丰台小屯,116.2545,39.8768,2025-04-28T0000,11,49,0.2,45,2,47,95,49,
北京市,密云镇,116.84,40.3844,2025-04-28T0000,11,35,0.4,48,5,20,94,35,
北京市,八角北路9号,116.1942,39.9158,2025-04-28T0000,16,100,0.3,58,5,42,103,75,颗粒物(PM10)
北京市,洳河巡河路,117.0790,40.1518,2025-04-28T0000,12,29,0.4,28,3,28,102,29,
本溪市,大峪,123.8275,41.3064,2025-04-28T0000,31,50,1.1,40,9,21,100,50,
本溪市,溪湖,123.7567,41.3325,2025-04-28T0000,18,59,0.7,18,9,68,98,55,颗粒物(PM10)
本溪市,彩屯,123.7169,41.3094,2025-04-28T0000,18,35,,20,13,67,97,,
本溪市,东明,123.7669,41.2864,2025-04-28T0000,28,73,2.3,60,28,25,95,62,颗粒物(PM10)
本溪市,新立屯,123.7992,41.2664,2025-04-28T0000,12,25,0.8,37,6,48,101,25,
本溪市,威宁,123.8142,41.3472,2025-04-28T0000,24,86,0.8,59,5,5,99,68,颗粒物(PM10)
毕节市,八中,105.2864,27.3125,2025-04-28T0000,9,13,0.6,7,4,75,81,24,
毕节市,师专,105.31,27.2944,2025-04-28T0000,10,15,0.5,7,7,82,83,26,
毕节市,工业大道,105.3688,27.3598,2025-04-28T0000,8,16,0.6,16,6,47,81,16,
滨州市,第二水厂,118.0018,37.3617,2025-04-28T0000,14,34,0.6,28,8,26,83,34,
滨州市,北中新校,117.9776,37.393,2025-04-28T0000,22,46,0.5,32,7,25,88,46,
滨州市,中海酒店,117.9378,37.3956,2025-04-28T0000,41,46,0.6,38,8,25,102,58,细颗粒物(PM2.5)
滨州市,开发区一中,117.9378,37.3553,2025-04-28T0000,27,36,0.4,38,2,20,91,39,
滨州市,金海六路,118.0917,37.694,2025-04-28T0000,19,34,0.2,56,6,18,85,34,
滨州市,滨州市西街道办事处,117.9956,37.3753,2025-04-28T0000,24,68,0.4,24,5,32,91,59,颗粒物(PM10)
亳州市,污水处理厂,115.8072,33.8399,2025-04-28T0000,35,80,0.4,13,3,96,161,65,颗粒物(PM10)
亳州市,三国揽胜宫,115.7789,33.8518,2025-04-28T0000,33,90,0.4,11,5,102,170,70,颗粒物(PM10)
亳州市,亳州学院,115.7633,33.8034,2025-04-28T0000,34,76,0.5,12,3,105,168,63,颗粒物(PM10)
博尔塔拉蒙古自治州,市党校,82.0485,44.8556,2025-04-28T0000,22,46,0.7,72,3,73,126,46,
博尔塔拉蒙古自治州,市环保局,82.0806,44.8969,2025-04-28T0000,22,92,1.1,74,5,16,128,71,颗粒物(PM10)
沧州市,沧县城建局,116.8842,38.2991,2025-04-28T0000,25,55,0.2,38,4,46,92,53,颗粒物(PM10)
沧州市,电视转播站,116.8584,38.3254,2025-04-28T0000,19,47,0.1,23,4,61,91,47,
沧州市,市环保局,116.8709,38.3228,2025-04-28T0000,27,52,0.3,18,4,76,97,51,颗粒物(PM10)
沧州市,河北水利电力学院,116.8136,38.3004,2025-04-28T0000,17,41,0.2,34,7,52,101,41,
昌都市,昌都监测站,97.1806,31.1273,2025-04-28T0000,9,,0.4,1,2,133,139,42,
昌都市,昌都会议中心,97.1714,31.1406,2025-04-28T0000,12,16,0.2,4,3,128,134,40,
昌吉回族自治州,天山天池,88.1236,43.8886,2025-04-28T0000,12,15,0.5,5,5,64,100,20,
昌吉回族自治州,新区政务中心,87.2717,44.0297,2025-04-28T0000,16,66,0.7,68,7,22,125,58,颗粒物(PM10)
昌吉回族自治州,亚心广场,87.3095,44.0142,2025-04-28T0000,14,56,0.4,45,7,50,116,53,颗粒物(PM10)
长春市,食品厂,125.3325,43.9166,2025-04-28T0000,16,40,0.3,7,6,68,84,40,
长春市,客车厂,125.2863,43.9027,2025-04-28T0000,23,33,0.3,8,4,72,86,33,
长春市,邮电学院,125.2841,43.8463,2025-04-28T0000,39,,0.3,3,5,74,93,,
长春市,劳动公园,125.3716,43.8772,2025-04-28T0000,14,33,0.2,6,6,70,92,33,
长春市,园林处,125.3297,43.8805,2025-04-28T0000,14,30,0.3,6,6,69,88,30,
长春市,净月潭,125.4605,43.79,2025-04-28T0000,10,28,0.1,7,6,70,90,28,
长春市,甩湾子,125.7194,43.515,2025-04-28T0000,,,,,,,,,
长春市,经开区环卫处,125.3863,43.8447,2025-04-28T0000,12,38,0.3,7,6,69,88,38,
长春市,高新区管委会,125.245,43.7783,2025-04-28T0000,18,36,0.2,8,7,71,90,36,
长春市,岱山公园,125.1761,43.8325,2025-04-28T0000,18,32,0.4,5,4,79,99,32,
长沙市,经开区环保局,113.0833,28.2325,2025-04-28T0000,62,62,0.9,61,5,14,74,84,细颗粒物(PM2.5)
长沙市,高开区环保局,112.8872,28.2189,2025-04-28T0000,45,45,1.1,22,4,35,77,63,细颗粒物(PM2.5)
长沙市,马坡岭,113.0792,28.2053,2025-04-28T0000,42,54,0.9,49,3,6,71,59,细颗粒物(PM2.5)
长沙市,湖南师范大学,112.9394,28.19,2025-04-28T0000,40,52,0.7,20,3,27,68,57,细颗粒物(PM2.5)
长沙市,雨花区环保局,113.0178,28.1322,2025-04-28T0000,32,44,0.6,35,3,22,61,46,
长沙市,伍家岭,112.9792,28.2597,2025-04-28T0000,48,71,0.9,49,2,9,77,67,细颗粒物(PM2.5)
长沙市,火车新站,113.0014,28.1944,2025-04-28T0000,31,52,0.8,42,5,25,68,51,颗粒物(PM10)
长沙市,天心区环保局,112.9844,28.1178,2025-04-28T0000,31,36,0.8,48,3,13,66,45,
长沙市,湖南中医药大学,112.8908,28.1308,2025-04-28T0000,27,41,0.9,33,2,1,55,41,
长沙市,沙坪,112.9581,28.3611,2025-04-28T0000,14,45,0.7,16,3,27,67,45,
长治市,清华站,113.1147,36.1547,2025-04-28T0000,14,72,0.8,24,7,60,110,61,颗粒物(PM10)
长治市,审计局,113.0886,36.2125,2025-04-28T0000,24,66,0.7,36,10,54,113,58,颗粒物(PM10)
长治市,长治八中,113.0844,36.1856,2025-04-28T0000,24,78,0.8,25,9,60,111,64,颗粒物(PM10)
长治市,德盛苑,113.1569,36.1911,2025-04-28T0000,17,64,1.0,13,6,76,112,57,颗粒物(PM10)
长治市,向阳小学,113.06,36.0464,2025-04-28T0000,15,83,0.4,32,11,49,115,67,颗粒物(PM10)
长治市,屯留一中,112.8792,36.3144,2025-04-28T0000,32,74,0.8,62,13,12,106,62,颗粒物(PM10)
长治市,英华南巷50号,113.1131,36.19948,2025-04-28T0000,19,94,0.7,53,6,34,113,72,颗粒物(PM10)
长治市,学府街1号,113.2367,36.3344,2025-04-28T0000,22,72,0.7,96,7,4,111,61,颗粒物(PM10)
常德市,市二中,111.6975,28.9703,2025-04-28T0000,42,,0.9,46,14,44,132,59,细颗粒物(PM2.5)
常德市,白鹤山,111.7158,29.1456,2025-04-28T0000,,,,,,,,,
常德市,武陵区永安,111.7153,29.0289,2025-04-28T0000,35,48,0.6,14,6,74,130,50,
常德市,鼎城区玉霞,111.6892,28.9881,2025-04-28T0000,36,47,0.8,11,19,65,126,52,细颗粒物(PM2.5)
常德市,武陵区长庚,111.6625,29.0531,2025-04-28T0000,35,46,0.8,15,15,77,134,50,
常州市,市监测站,119.9633,31.762,2025-04-28T0000,56,142,1.0,47,12,63,142,96,颗粒物(PM10)
常州市,武进监测站,119.9468,31.7069,2025-04-28T0000,56,99,1.0,70,19,54,148,77,细颗粒物(PM2.5)
常州市,安家,119.9255,31.9087,2025-04-28T0000,46,131,0.5,121,14,15,138,91,颗粒物(PM10)
常州市,行政中心,119.9805,31.8174,2025-04-28T0000,59,97,0.7,59,20,80,141,80,细颗粒物(PM2.5)
常州市,经开区,120.0522,31.7748,2025-04-28T0000,57,94,0.8,135,13,10,151,78,细颗粒物(PM2.5)
常州市,钟楼,119.9025,31.7964,2025-04-28T0000,63,134,0.7,72,10,25,140,92,颗粒物(PM10)
常州市,武进经发区,119.8598,31.7066,2025-04-28T0000,56,110,0.9,99,14,21,146,80,颗粒物(PM10)
常州市,金坛城区,119.5826,31.7245,2025-04-28T0000,40,90,0.8,49,18,56,141,70,颗粒物(PM10)
朝阳市,西梁,120.4318,41.5881,2025-04-28T0000,3,29,0.3,7,5,78,91,29,
朝阳市,河畔小区,120.4521,41.5646,2025-04-28T0000,9,35,0.2,6,5,80,95,35,
朝阳市,八里堡,120.4176,41.5648,2025-04-28T0000,9,35,0.2,15,6,68,88,35,
朝阳市,农业园区,120.3806,41.5969,2025-04-28T0000,9,27,0.3,8,6,70,94,27,
潮州市,西园路,116.6367,23.6719,2025-04-28T0000,45,,1.0,32,5,40,110,,
潮州市,市政府,116.6183,23.6608,2025-04-28T0000,84,87,1.2,44,12,30,104,112,细颗粒物(PM2.5)
潮州市,金山,116.6461,23.6761,2025-04-28T0000,45,53,0.9,35,8,37,103,63,细颗粒物(PM2.5)
郴州市,马头岭,113.0073,25.9061,2025-04-28T0000,7,19,0.5,12,6,5,9,19,
郴州市,市职中,113.0116,25.8226,2025-04-28T0000,18,,0.8,11,3,36,43,26,
郴州市,市审计局,113.0383,25.8071,2025-04-28T0000,11,16,0.7,9,2,50,47,16,
郴州市,市环保局,113.0348,25.7759,2025-04-28T0000,9,10,0.7,12,2,48,42,15,
郴州市,好美居路49号,113.0138,25.8011,2025-04-28T0000,10,12,0.8,11,4,48,50,15,
成都市,金泉两河,103.9728,30.7236,2025-04-28T0000,25,52,0.8,58,2,4,127,51,颗粒物(PM10)
成都市,十里店,104.176,30.6872,2025-04-28T0000,40,74,1.1,79,3,22,123,62,颗粒物(PM10)
成都市,三瓦窑,104.079,30.5706,2025-04-28T0000,30,43,0.7,62,4,36,145,43,
成都市,沙河铺,104.1114,30.63,2025-04-28T0000,32,51,0.8,59,6,20,126,51,颗粒物(PM10)
成都市,君平街,104.0786,30.6531,2025-04-28T0000,33,46,1.3,57,7,26,111,48,
成都市,灵岩寺,103.613,31.0283,2025-04-28T0000,,,,,,,,,
成都市,大石西路,104.0239,30.65639,2025-04-28T0000,30,55,0.7,68,5,15,139,53,颗粒物(PM10)
成都市,龙泉驿区区政府,104.2725,30.5589,2025-04-28T0000,17,31,0.7,20,4,50,98,31,
成都市,金博路,104.0106,30.6931,2025-04-28T0000,21,42,0.2,74,7,0,147,42,
成都市,华阳,104.0578,30.5225,2025-04-28T0000,36,46,0.6,72,5,14,133,52,细颗粒物(PM2.5)
成都市,青白江技师分院,104.3853,30.7453,2025-04-28T0000,26,39,0.3,55,3,46,127,39,
成都市,科学城,104.0789,30.4072,2025-04-28T0000,25,47,0.4,47,4,25,106,47,
成都市,光华大道三段,103.8506,30.6947,2025-04-28T0000,35,51,0.8,42,1,28,144,51,颗粒物(PM10)
成都市,鲸龙路1057号,104.2433,30.5353,2025-04-28T0000,33,49,0.7,65,4,23,117,49,
承德市,铁路,117.9531,40.9081,2025-04-28T0000,3,53,0.2,15,3,50,92,52,颗粒物(PM10)
承德市,中国银行,117.9392,40.9763,2025-04-28T0000,14,58,0.2,12,2,45,93,54,颗粒物(PM10)
承德市,开发区,117.9503,40.928,2025-04-28T0000,17,44,0.2,7,3,58,96,44,
承德市,文化中心,117.8051,40.9655,2025-04-28T0000,3,72,0.2,26,1,43,95,61,颗粒物(PM10)
承德市,离宫,117.9268,41.0026,2025-04-28T0000,22,48,0.2,4,3,68,92,48,
池州市,池州学院,117.47,30.6618,2025-04-28T0000,20,33,0.5,17,6,47,92,33,
池州市,展览馆,117.4918,30.6617,2025-04-28T0000,19,35,0.5,19,6,49,96,35,
池州市,第八中学,117.5627,30.695,2025-04-28T0000,16,29,0.5,16,5,49,98,29,
池州市,第十二中学,117.5038,30.6243,2025-04-28T0000,20,31,0.9,21,6,33,95,31,
赤峰市,松山一中,118.9233,42.2816,2025-04-28T0000,3,13,0.3,12,9,71,85,23,
赤峰市,哈达街,118.9576,42.2728,2025-04-28T0000,12,20,0.4,7,8,79,91,25,
赤峰市,天义路,118.8788,42.2554,2025-04-28T0000,8,20,0.5,9,6,80,91,25,
赤峰市,银河街,119.2658,42.0353,2025-04-28T0000,18,36,0.3,2,13,63,84,36,
赤峰市,桥北物流园区,118.9359,42.3147,2025-04-28T0000,10,22,0.6,13,6,66,84,22,
崇左市,市环保局江州分局,107.3476,22.4136,2025-04-28T0000,28,45,0.6,14,7,39,77,45,
崇左市,石景林东路7号,107.3750,22.3736,2025-04-28T0000,26,31,0.5,16,6,41,83,38,
滁州市,老年大学,118.3093,32.3153,2025-04-28T0000,35,56,0.4,24,3,122,140,53,颗粒物(PM10)
滁州市,人大宾馆,118.3244,32.2786,2025-04-28T0000,50,73,0.4,31,10,121,143,69,细颗粒物(PM2.5)
滁州市,市政府原办公楼,118.3118,32.3038,2025-04-28T0000,40,56,0.5,20,6,133,139,57,细颗粒物(PM2.5)
滁州市,图书馆,118.3267,32.2634,2025-04-28T0000,49,73,0.6,26,9,120,137,68,细颗粒物(PM2.5)
楚雄彝族自治州,州环境监测站,101.5482,25.0441,2025-04-28T0000,59,76,0.6,32,9,76,154,80,细颗粒物(PM2.5)
楚雄彝族自治州,市经济开发区,101.538,25.0492,2025-04-28T0000,54,95,0.7,36,11,76,155,74,细颗粒物(PM2.5)
达州市,达州职业技术学院,107.5277,31.2827,2025-04-28T0000,28,51,0.4,44,5,8,97,51,颗粒物(PM10)
达州市,市环境监测站,107.5086,31.2186,2025-04-28T0000,27,59,0.4,61,5,1,99,55,颗粒物(PM10)
达州市,凤凰小区,107.4988,31.2132,2025-04-28T0000,27,51,0.5,62,7,8,100,51,颗粒物(PM10)
达州市,达县机关宾馆,107.5082,31.1986,2025-04-28T0000,27,48,0.5,64,6,0,92,48,
达州市,市政中心,107.4644,31.2124,2025-04-28T0000,24,58,0.6,67,2,2,98,54,颗粒物(PM10)
大理白族自治州,大理市环境监测站,100.1542,25.7054,2025-04-28T0000,44,69,0.3,6,9,124,152,62,细颗粒物(PM2.5)
大理白族自治州,大理古城,100.2171,25.5811,2025-04-28T0000,41,69,0.7,14,9,119,144,60,颗粒物(PM10)
大连市,甘井子,121.612,38.9741,2025-04-28T0000,15,31,0.3,33,9,68,103,31,
大连市,周水子,121.565,38.9511,2025-04-28T0000,13,32,0.4,45,6,38,100,32,
大连市,星海三站,121.5637,38.8845,2025-04-28T0000,18,33,0.5,40,3,23,113,33,
大连市,青泥洼桥,121.6302,38.9117,2025-04-28T0000,12,26,0.4,33,6,48,113,26,
大连市,傅家庄,121.6251,38.8638,2025-04-28T0000,3,18,0.1,11,9,104,112,33,
大连市,七贤岭,121.5213,38.8661,2025-04-28T0000,3,15,0.5,11,5,58,110,19,
大连市,旅顺,121.2529,38.8061,2025-04-28T0000,10,20,0.3,34,7,53,94,20,
大连市,金州,121.7485,39.1311,2025-04-28T0000,14,22,0.4,33,7,62,96,22,
大连市,开发区,121.7811,39.0496,2025-04-28T0000,16,38,0.5,36,8,57,92,38,
大连市,双D港,121.9762,39.0631,2025-04-28T0000,12,25,0.3,25,10,71,106,25,
大庆市,大同区,124.81117,46.03138,2025-04-28T0000,78,82,0.6,8,4,64,86,104,细颗粒物(PM2.5)
大庆市,龙凤区,125.129,46.533,2025-04-28T0000,93,95,0.7,28,5,49,94,123,细颗粒物(PM2.5)
大庆市,红岗区,124.902,46.408,2025-04-28T0000,65,69,0.5,9,4,60,98,88,细颗粒物(PM2.5)
大庆市,萨尔图区,125.153,46.586,2025-04-28T0000,93,113,0.8,46,6,36,87,123,细颗粒物(PM2.5)
大庆市,让胡路区,124.9042,46.6215,2025-04-28T0000,76,83,0.5,10,6,59,89,102,细颗粒物(PM2.5)
大庆市,萨区政府监测点,125.141,46.634,2025-04-28T0000,85,119,0.8,39,6,37,101,113,细颗粒物(PM2.5)
大同市,果树场,113.3819,40.1097,2025-04-28T0000,3,20,0.6,34,9,38,98,20,
大同市,云冈宾馆,113.2994,40.0758,2025-04-28T0000,12,26,0.6,20,14,63,106,26,
大同市,大同大学,113.3444,40.0917,2025-04-28T0000,6,30,0.7,52,14,22,98,30,
大同市,安家小村,113.2661,40.1269,2025-04-28T0000,8,18,0.5,30,13,44,100,18,
大同市,教育学院,113.2711,40.0844,2025-04-28T0000,3,24,0.4,20,15,60,105,24,
大同市,大同市卫生学校,113.3397,40.0597,2025-04-28T0000,19,27,0.5,27,8,49,99,28,
大同市,云冈站,113.1367,40.1122,2025-04-28T0000,8,27,0.4,30,17,36,100,27,
大同市,图书馆,113.1186,40.2556,2025-04-28T0000,3,22,0.5,14,9,43,94,22,
大同市,区一中,113.5931,40.0461,2025-04-28T0000,8,13,0.4,47,10,27,103,24,
大同市,魏都大道141号,113.2798,40.0997,2025-04-28T0000,12,24,0.5,33,16,47,106,24,
大兴安岭地区,科技局,124.1069,50.4097,2025-04-28T0000,15,17,0.3,2,5,72,75,23,
大兴安岭地区,红旗社区,124.1164,50.4278,2025-04-28T0000,7,,0.3,3,4,61,76,20,
丹东市,江湾东路,124.3303,40.0625,2025-04-28T0000,41,65,0.8,17,8,46,109,58,"颗粒物(PM10),细颗粒物(PM2.5)"
丹东市,临江后街,124.4256,40.1503,2025-04-28T0000,50,88,1.4,24,7,38,97,69,"颗粒物(PM10),细颗粒物(PM2.5)"
丹东市,元宝山,124.3933,40.1461,2025-04-28T0000,34,68,1.1,18,8,48,100,59,颗粒物(PM10)
丹东市,民主桥,124.3633,40.1092,2025-04-28T0000,38,72,1.0,53,8,4,104,61,颗粒物(PM10)
儋州市,第一中学子站,109.5726,19.5167,2025-04-28T0000,13,25,0.3,4,4,66,73,25,
儋州市,东坡学校子站,109.5567,19.5187,2025-04-28T0000,12,24,0.5,4,5,64,77,24,
德宏傣族景颇族自治州,德宏州监测站,98.5842,24.428,2025-04-28T0000,58,80,0.8,12,8,75,138,79,细颗粒物(PM2.5)
德宏傣族景颇族自治州,芒市人民政府综合楼,98.5881,24.4368,2025-04-28T0000,61,116,0.6,13,8,87,158,83,"颗粒物(PM10),细颗粒物(PM2.5)"
德阳市,东山公园,104.4239,31.1208,2025-04-28T0000,33,45,0.7,21,4,60,130,48,
德阳市,西小区,104.3826,31.1317,2025-04-28T0000,46,61,0.8,61,4,7,128,64,细颗粒物(PM2.5)
德阳市,耐火材料厂,104.3553,31.1091,2025-04-28T0000,39,51,0.6,42,6,15,136,55,细颗粒物(PM2.5)
德阳市,市教育局,104.4019,31.1244,2025-04-28T0000,37,52,0.6,66,5,8,134,53,细颗粒物(PM2.5)
德州市,儿童乐园,116.3032,37.4674,2025-04-28T0000,14,41,0.5,15,6,72,104,41,
德州市,监理站,116.2991,37.4451,2025-04-28T0000,12,34,0.3,22,8,49,99,34,
德州市,九衢泉纯净水厂,116.2721,37.4379,2025-04-28T0000,27,41,0.6,57,5,5,98,41,
德州市,开发区人民医院,116.3728,37.4403,2025-04-28T0000,14,48,0.5,36,6,38,87,48,
德州市,太阳城中学,116.3572,37.4094,2025-04-28T0000,29,70,0.4,58,3,24,98,60,颗粒物(PM10)
德州市,陵城艺术中心,116.5652,37.3319,2025-04-28T0000,19,44,0.2,53,4,26,94,44,
迪庆藏族自治州,迪庆州站,99.7056,27.8317,2025-04-28T0000,31,56,0.8,19,10,70,121,53,颗粒物(PM10)
迪庆藏族自治州,质量技术监督局,99.7136,27.8094,2025-04-28T0000,21,32,0.7,12,4,102,126,32,
定西市,将台街,104.6092,35.5962,2025-04-28T0000,44,120,0.1,23,4,50,106,85,颗粒物(PM10)
定西市,正龙路62号,104.6159,35.5701,2025-04-28T0000,50,112,0.4,16,8,52,98,81,颗粒物(PM10)
东莞市,莞城梨川,113.7547,23.0494,2025-04-28T0000,46,76,0.7,48,6,10,87,64,细颗粒物(PM2.5)
东莞市,东城石井,113.7944,23.0128,2025-04-28T0000,28,53,0.7,35,4,4,86,52,颗粒物(PM10)
东莞市,南城西平,113.7383,22.9658,2025-04-28T0000,28,59,0.6,57,4,4,90,55,颗粒物(PM10)
东莞市,万江金泰,113.7338,23.0381,2025-04-28T0000,39,60,1.1,42,4,4,82,55,"颗粒物(PM10),细颗粒物(PM2.5)"
东莞市,南城元岭,113.7533,23.0202,2025-04-28T0000,33,53,0.8,38,6,16,84,52,颗粒物(PM10)
东莞市,东城主山,113.7875,23.0457,2025-04-28T0000,34,65,0.6,45,5,15,78,58,颗粒物(PM10)
东营市,市环保局,118.6614,37.4309,2025-04-28T0000,14,29,0.4,42,6,40,100,29,
东营市,开发区管委会,118.6904,37.4338,2025-04-28T0000,7,43,0.5,34,4,39,97,43,
东营市,垦利区民丰路,118.5719,37.565,2025-04-28T0000,19,36,0.5,40,4,36,80,36,
东营市,河口城区,118.5055,37.8612,2025-04-28T0000,10,34,0.6,27,4,36,86,34,
东营市,胜利站,118.4978,37.4623,2025-04-28T0000,19,40,0.6,40,10,34,85,40,
东营市,理想之城,118.35,37.26,2025-04-28T0000,14,51,0.5,47,7,23,75,51,颗粒物(PM10)
鄂尔多斯市,综合楼,110.0023,39.8129,2025-04-28T0000,3,31,0.2,19,3,82,103,31,
鄂尔多斯市,巴音孟克林场办事处,109.9486,39.8261,2025-04-28T0000,12,27,0.3,22,6,68,96,27,
鄂尔多斯市,康泽苑,109.7736,39.5986,2025-04-28T0000,7,22,0.2,8,6,76,105,24,
鄂尔多斯市,华泰汽车城,109.8119,39.5989,2025-04-28T0000,9,29,0.1,13,5,65,97,29,
鄂尔多斯市,奥林花园,109.9734,39.7884,2025-04-28T0000,3,24,0,14,3,82,99,26,
鄂州市,市政府,114.8938,30.3994,2025-04-28T0000,48,82,1.0,25,9,67,105,67,细颗粒物(PM2.5)
鄂州市,赵家坝,114.8989,30.3714,2025-04-28T0000,47,83,0.9,33,6,72,119,67,颗粒物(PM10)
鄂州市,精准医疗中心,114.8094,30.4089,2025-04-28T0000,56,68,0.9,36,4,56,117,77,细颗粒物(PM2.5)
恩施土家族苗族自治州,湖北民院,109.4978,30.2981,2025-04-28T0000,25,55,0.4,21,6,26,90,53,颗粒物(PM10)
恩施土家族苗族自治州,州电力总公司,109.4707,30.2798,2025-04-28T0000,39,52,0.3,34,4,10,101,55,细颗粒物(PM2.5)
恩施土家族苗族自治州,龙凤新区,109.5061,30.3772,2025-04-28T0000,25,41,0.5,15,6,14,75,41,
防城港市,沙万,108.3411,21.6158,2025-04-28T0000,16,60,0.5,23,2,15,46,55,颗粒物(PM10)
防城港市,防城档案局,108.3514,21.7731,2025-04-28T0000,12,24,0.5,9,5,23,51,24,
防城港市,大海花园,108.3506,21.6414,2025-04-28T0000,8,17,0.5,8,4,31,60,17,
佛山市,湾梁,113.1294,23.0067,2025-04-28T0000,10,17,0.6,21,7,45,76,17,
佛山市,华材职中,113.1083,23.0478,2025-04-28T0000,14,,0.6,30,7,34,78,20,
佛山市,南海气象局,113.144,23.0453,2025-04-28T0000,17,20,0.7,16,6,43,72,25,
佛山市,顺德苏岗,113.2881,22.8094,2025-04-28T0000,9,11,0.7,28,5,26,74,14,
佛山市,高明孔堂,112.8383,22.8678,2025-04-28T0000,13,,0.7,12,5,54,79,19,
佛山市,三水监测站,112.8836,23.1588,2025-04-28T0000,17,,0.6,51,4,18,72,26,
佛山市,三水云东海,112.867,23.185,2025-04-28T0000,22,29,0.5,76,2,0,80,38,
佛山市,容桂街道办,113.2544,22.7642,2025-04-28T0000,12,12,0.7,36,4,26,76,18,
福州市,鼓山,119.3903,26.0543,2025-04-28T0000,,,,,,,100,,
福州市,师大,119.2681,26.0504,2025-04-28T0000,31,33,0.6,23,4,49,107,45,
福州市,五四北路,119.2984,26.1028,2025-04-28T0000,36,,0.7,23,4,63,108,52,细颗粒物(PM2.5)
福州市,杨桥西路,119.2648,26.0768,2025-04-28T0000,35,,0.6,23,3,52,106,50,
福州市,紫阳,119.317,26.0746,2025-04-28T0000,35,,0.5,29,5,55,103,50,
福州市,九龙,119.5799,26.0936,2025-04-28T0000,21,24,0.5,12,4,47,112,30,
福州市,吴航,119.5189,25.9664,2025-04-28T0000,35,76,0.6,22,5,54,112,63,颗粒物(PM10)
抚顺市,望花区,123.7977,41.8491,2025-04-28T0000,13,83,0.4,9,6,78,107,67,颗粒物(PM10)
抚顺市,顺城区,123.9161,41.8822,2025-04-28T0000,15,71,0.2,11,6,76,102,61,颗粒物(PM10)
抚顺市,东洲区,124.0436,41.8611,2025-04-28T0000,13,54,0.4,16,7,73,103,52,颗粒物(PM10)
抚顺市,新抚区,123.9247,41.8642,2025-04-28T0000,13,68,0.3,10,6,73,97,59,颗粒物(PM10)
抚顺市,大伙房水库,124.0972,41.8961,2025-04-28T0000,14,74,0.4,19,9,60,104,62,颗粒物(PM10)
抚顺市,沈抚新城,123.7086,41.8391,2025-04-28T0000,11,67,0.2,12,5,71,96,59,颗粒物(PM10)
抚州市,桐源党溪,116.2127,28.0814,2025-04-28T0000,12,26,1.1,2,3,27,40,26,
抚州市,市站,116.3544,27.9831,2025-04-28T0000,3,11,1.0,8,5,34,52,11,
抚州市,血防站,116.3565,27.963,2025-04-28T0000,8,20,0.8,9,3,33,52,20,
抚州市,采茶剧团,116.3564,28.0007,2025-04-28T0000,6,16,1.0,4,2,31,53,16,
抚州市,医学分院,116.385,27.9647,2025-04-28T0000,7,10,1.1,6,4,29,50,11,
阜新市,工业园区,121.6094,41.998,2025-04-28T0000,12,54,0.3,6,8,82,95,52,颗粒物(PM10)
阜新市,长青街,121.6697,42.0279,2025-04-28T0000,12,28,0.3,8,5,79,95,28,
阜新市,农业园区,121.6673,42.0705,2025-04-28T0000,3,28,0.6,2,6,77,95,28,
阜新市,东苑,121.6717,42.0224,2025-04-28T0000,10,43,0.4,5,8,81,94,43,
阜新市,玉龙新城,121.6506,42.0498,2025-04-28T0000,10,36,0.3,9,7,76,94,36,
阜阳市,市监测站,115.8277,32.8929,2025-04-28T0000,53,106,0.4,17,9,111,152,78,颗粒物(PM10)
阜阳市,开发区,115.8554,32.8605,2025-04-28T0000,40,128,0.4,18,8,119,158,89,颗粒物(PM10)
阜阳市,阜阳职业技术学院,115.784,32.8892,2025-04-28T0000,44,115,0.4,12,7,113,150,83,颗粒物(PM10)
阜阳市,市规划展馆,115.7901,32.8613,2025-04-28T0000,70,116,0.6,13,9,124,161,94,细颗粒物(PM2.5)
阜阳市,枣园社区,115.836,32.9183,2025-04-28T0000,64,120,0.5,14,12,114,156,87,细颗粒物(PM2.5)
甘南藏族自治州,州政府,102.9099,34.9841,2025-04-28T0000,25,44,0.4,22,1,29,90,44,
甘南藏族自治州,甘肃民族师范学院,102.8914,34.9617,2025-04-28T0000,14,87,0.6,35,7,9,103,69,颗粒物(PM10)
甘孜藏族自治州,水桥子,101.9603,30.0475,2025-04-28T0000,3,13,0.4,22,4,37,73,13,
甘孜藏族自治州,州环保局,101.9533,29.9972,2025-04-28T0000,9,25,0.3,43,1,16,111,25,
赣江新区,桑海产业园,115.8347,28.932,2025-04-28T0000,24,27,0.6,14,6,31,44,35,
赣州市,通天岩,114.9017,25.9149,2025-04-28T0000,8,16,0.9,5,1,23,36,16,
赣州市,地委,114.9367,25.8664,2025-04-28T0000,13,29,1.1,27,6,18,35,29,
赣州市,气象台,114.9461,25.8481,2025-04-28T0000,14,27,0.7,32,9,8,30,27,
赣州市,市图书馆,114.9322,25.8333,2025-04-28T0000,15,21,1.2,27,4,11,31,22,
赣州市,华坚鞋城,114.8905,25.8471,2025-04-28T0000,16,22,0.8,26,6,21,37,23,
赣州市,赣县区卫计委,115.0093,25.8613,2025-04-28T0000,10,20,0.7,34,3,0,19,20,
固原市,马园,106.2319,36.1417,2025-04-28T0000,37,58,0.7,64,6,12,102,54,颗粒物(PM10)
固原市,监测站,106.2792,36.0022,2025-04-28T0000,41,60,0.6,31,9,42,101,58,细颗粒物(PM2.5)
固原市,新区,106.2375,36.0211,2025-04-28T0000,21,67,0.6,70,6,10,97,59,颗粒物(PM10)
固原市,原州区十五小,106.2177,35.9959,2025-04-28T0000,20,60,0.4,56,9,41,102,55,颗粒物(PM10)
广安市,小平旧居,106.6308,30.5278,2025-04-28T0000,,,,,,,,,
广安市,市委,106.6303,30.4576,2025-04-28T0000,44,64,0.5,33,3,50,101,62,细颗粒物(PM2.5)
广安市,友谊中学,106.6271,30.4663,2025-04-28T0000,41,68,1.3,35,3,19,109,59,颗粒物(PM10)
广安市,广电花园,106.6388,30.4551,2025-04-28T0000,39,49,0.4,29,4,51,105,55,细颗粒物(PM2.5)
广安市,北辰小学,106.6351,30.4865,2025-04-28T0000,35,57,0.6,27,4,24,109,54,颗粒物(PM10)
广元市,黑石坡,105.8945,32.4535,2025-04-28T0000,25,48,0.3,5,2,93,100,48,
广元市,老城,105.821,32.4444,2025-04-28T0000,11,62,0.4,24,3,66,98,56,颗粒物(PM10)
广元市,监测站,105.8628,32.4287,2025-04-28T0000,16,38,0.4,19,6,74,108,38,
广元市,经开区,105.8047,32.4166,2025-04-28T0000,18,38,0.5,19,4,83,98,38,
广州市,广雅中学,113.2347,23.1423,2025-04-28T0000,11,18,0.9,27,3,38,62,18,
广州市,市五中,113.2612,23.105,2025-04-28T0000,12,17,0.9,18,1,54,66,18,
广州市,广东商学院,113.3478,23.0916,2025-04-28T0000,14,20,0.6,50,3,29,65,25,
广州市,市八十六中,113.4332,23.1047,2025-04-28T0000,20,35,1.0,75,4,2,57,38,
广州市,番禺中学,113.3505,22.9483,2025-04-28T0000,18,36,0.7,28,5,33,78,36,
广州市,花都师范,113.2146,23.3916,2025-04-28T0000,17,29,0.8,30,4,28,57,29,
广州市,市监测站,113.2597,23.1331,2025-04-28T0000,13,19,0.5,30,4,42,61,19,
广州市,九龙镇镇龙,113.5618,23.312,2025-04-28T0000,19,34,0.5,31,5,21,56,34,
广州市,麓湖,113.2765,23.1544,2025-04-28T0000,12,21,0.6,25,4,31,69,21,
广州市,帽峰山森林公园,113.443,23.3035,2025-04-28T0000,7,10,0.6,10,5,58,62,19,
广州市,体育西,113.3221,23.1322,2025-04-28T0000,20,32,0.6,36,4,47,72,32,
广州市,从化街口,113.5717,23.5491,2025-04-28T0000,39,56,0.9,41,6,2,53,55,细颗粒物(PM2.5)
广州市,白云竹料,113.3472,23.3692,2025-04-28T0000,28,43,0.8,38,2,35,62,43,
广州市,白云嘉禾,113.2981,23.237,2025-04-28T0000,20,32,0.9,48,5,28,64,32,
广州市,黄埔科学城,113.4256,23.1716,2025-04-28T0000,17,30,0.6,24,2,38,51,30,
广州市,番禺大学城,113.3942,23.0483,2025-04-28T0000,15,39,0.7,34,5,37,72,39,
广州市,南沙黄阁,113.4922,22.8168,2025-04-28T0000,21,22,0.8,23,4,43,85,30,
广州市,南沙街,113.5342,22.7896,2025-04-28T0000,17,20,0.5,14,4,40,87,25,
广州市,花都梯面,113.2902,23.5544,2025-04-28T0000,28,48,0.6,27,4,25,54,48,
广州市,从化良口,113.7858,23.7478,2025-04-28T0000,18,22,0.4,23,6,11,60,26,
广州市,增城荔城,113.8051,23.2614,2025-04-28T0000,31,56,0.4,22,7,17,72,53,颗粒物(PM10)
贵港市,德智高中,109.568,23.1478,2025-04-28T0000,,,,,,,,,
贵港市,江南子站,109.6047,23.0666,2025-04-28T0000,21,24,0.8,11,4,38,74,30,
贵港市,荷城子站,109.5669,23.1065,2025-04-28T0000,7,28,0.6,12,8,38,64,28,
贵港市,新世纪学校,109.5886,23.1172,2025-04-28T0000,17,19,1.0,33,8,28,76,25,
贵港市,中山路155-3号,109.5933,23.0951,2025-04-28T0000,20,20,1.0,15,6,36,72,29,
贵阳市,马鞍山,106.6899,26.5998,2025-04-28T0000,9,22,0.5,,4,11,68,,
贵阳市,鉴湖路,106.6243,26.6266,2025-04-28T0000,7,27,0.4,20,6,41,70,27,
贵阳市,燕子冲,106.7487,26.6343,2025-04-28T0000,22,24,0.4,24,2,36,77,32,
贵阳市,碧云窝,106.6555,26.4365,2025-04-28T0000,24,41,0.5,24,3,16,77,41,
贵阳市,红边门,106.7109,26.6027,2025-04-28T0000,22,27,0.4,23,7,38,77,32,
贵阳市,新华路,106.7164,26.5699,2025-04-28T0000,31,36,0.6,23,6,39,81,45,
贵阳市,太慈桥,106.674,26.5424,2025-04-28T0000,17,27,0.4,35,6,11,78,27,
贵阳市,桐木岭,106.805,26.3003,2025-04-28T0000,22,36,0.8,3,3,71,81,36,
贵阳市,花果园大街66号,106.6882,26.5695,2025-04-28T0000,28,34,0.7,38,5,34,73,40,
贵阳市,漓江路57号,106.6873,26.5169,2025-04-28T0000,24,27,0.5,25,8,30,72,35,
桂林市,电子科大尧山校区,110.4144,25.3167,2025-04-28T0000,,,,,,,,,
桂林市,龙隐路小学,110.3089,25.2708,2025-04-28T0000,14,20,0.6,8,20,49,59,20,
桂林市,八中,110.2869,25.2178,2025-04-28T0000,19,27,0.6,14,9,44,57,28,
桂林市,旅游学院,110.296,25.1253,2025-04-28T0000,12,12,0.8,8,3,43,54,18,
桂林市,环湖路276号,110.1835,25.2444,2025-04-28T0000,12,19,0.4,6,6,55,54,19,
桂林市,信义路13号,110.2803,25.2773,2025-04-28T0000,17,,0.6,13,6,52,62,25,
果洛藏族自治州,玛沁县大武镇,100.2561,34.4714,2025-04-28T0000,28,55,0.3,4,11,83,129,53,颗粒物(PM10)
哈尔滨市,岭北,126.5422,45.755,2025-04-28T0000,24,28,0.7,16,11,76,107,35,
哈尔滨市,松北商大,126.561,45.8167,2025-04-28T0000,30,58,0.6,27,5,55,99,54,颗粒物(PM10)
哈尔滨市,阿城会宁,126.979,45.5419,2025-04-28T0000,16,23,0.4,11,5,74,104,24,
哈尔滨市,南岗学府路,126.599,45.7222,2025-04-28T0000,24,56,0.5,16,7,76,102,53,颗粒物(PM10)
哈尔滨市,太平宏伟公园,126.689,45.7733,2025-04-28T0000,37,63,0.5,27,5,67,105,57,颗粒物(PM10)
哈尔滨市,道外承德广场,126.635,45.7667,2025-04-28T0000,31,38,0.4,19,6,70,99,45,
哈尔滨市,香坊红旗大街,126.685,45.7319,2025-04-28T0000,38,56,0.5,25,7,72,104,54,细颗粒物(PM2.5)
哈尔滨市,动力和平路,126.6411,45.7258,2025-04-28T0000,31,52,0.5,21,8,71,94,51,颗粒物(PM10)
哈尔滨市,道里建国路,126.593,45.7478,2025-04-28T0000,26,38,0.4,14,10,78,100,38,
哈尔滨市,平房东轻厂,126.615,45.61,2025-04-28T0000,25,46,0.5,15,9,77,99,46,
哈尔滨市,呼兰师专,126.595,45.9855,2025-04-28T0000,26,32,0.3,17,5,59,88,38,
哈尔滨市,省农科院,126.6206,45.6842,2025-04-28T0000,50,61,0.6,53,6,33,95,69,细颗粒物(PM2.5)
哈密市,地区监测站,93.5128,42.8172,2025-04-28T0000,22,70,0.3,18,6,79,108,60,颗粒物(PM10)
哈密市,哈密师范学校,93.4961,42.8328,2025-04-28T0000,28,75,0.4,24,5,62,102,63,颗粒物(PM10)
海北藏族自治州,海晏县西海镇,100.9048,36.9639,2025-04-28T0000,16,19,0.3,5,10,90,118,29,
海东市,平安区公安北苑,102.0738,36.5056,2025-04-28T0000,42,47,0.9,16,8,58,99,59,细颗粒物(PM2.5)
海口市,东寨港,110.576,19.9507,2025-04-28T0000,14,,0.5,3,1,25,48,20,
海口市,海南大学,110.3232,20.0574,2025-04-28T0000,11,23,0.3,6,2,27,60,23,
海口市,秀英海南医院,110.283,20.0053,2025-04-28T0000,17,26,0.3,11,4,25,73,26,
海口市,海南师范大学,110.338,19.9969,2025-04-28T0000,12,23,0.3,6,4,30,73,23,
海口市,龙华路环保局宿舍,110.33,20.0356,2025-04-28T0000,11,26,0.3,8,4,30,68,26,
海口市,桂林洋子站,110.5111,19.9736,2025-04-28T0000,13,23,0.2,10,4,24,55,23,
海南藏族自治州,共和县恰卜恰镇,100.6188,36.2866,2025-04-28T0000,16,30,0.3,12,11,108,136,34,
海西蒙古族藏族自治州,德令哈市,97.3731,37.3753,2025-04-28T0000,20,46,0.3,1,14,129,132,46,
邯郸市,东污水处理厂,114.5302,36.6116,2025-04-28T0000,17,64,0.3,45,3,47,88,57,颗粒物(PM10)
邯郸市,矿院,114.4918,36.5713,2025-04-28T0000,14,71,0.3,82,6,8,83,61,颗粒物(PM10)
邯郸市,丛台公园,114.484,36.6133,2025-04-28T0000,16,58,0.4,25,1,65,94,54,颗粒物(PM10)
邯郸市,香泉濮院小区,114.7895,36.5593,2025-04-28T0000,22,46,0.2,31,4,52,95,46,
邯郸市,永年区实验高中,114.50634,36.77178,2025-04-28T0000,26,65,0.4,41,3,48,96,58,颗粒物(PM10)
邯郸市,峰峰矿区临水派出所,114.20016,36.44293,2025-04-28T0000,16,50,0.5,40,7,78,102,50,
汉中市,汉川机床厂子校,106.9893,33.1842,2025-04-28T0000,11,,0.6,11,6,59,103,,
汉中市,市监测站,107.0154,33.0706,2025-04-28T0000,20,52,0.7,24,5,35,102,51,颗粒物(PM10)
汉中市,鑫源开发区,107.0089,33.1138,2025-04-28T0000,18,46,0.8,37,9,31,100,46,
汉中市,南郑大河坎水厂,107.007,33.0323,2025-04-28T0000,19,40,0.5,17,5,49,98,40,
杭州市,滨江,120.2072,30.2111,2025-04-28T0000,15,32,0.6,20,6,56,116,32,
杭州市,西溪,120.0633,30.2747,2025-04-28T0000,36,52,0.7,37,5,14,88,52,细颗粒物(PM2.5)
杭州市,下沙,120.3417,30.3150,2025-04-28T0000,24,56,0.5,39,6,46,104,53,颗粒物(PM10)
杭州市,卧龙桥,120.1269,30.2456,2025-04-28T0000,22,38,0.7,28,6,9,111,38,
杭州市,浙江农大,120.1903,30.2692,2025-04-28T0000,11,25,0.4,19,2,54,102,25,
杭州市,和睦小学,120.1197,30.3119,2025-04-28T0000,23,45,0.6,38,6,36,108,45,
杭州市,临平镇,120.3019,30.4183,2025-04-28T0000,27,56,0.7,54,6,27,94,53,颗粒物(PM10)
杭州市,城厢镇,120.2753,30.1839,2025-04-28T0000,30,67,0.5,39,7,30,114,59,颗粒物(PM10)
杭州市,云栖,120.0883,30.1808,2025-04-28T0000,15,31,0.6,35,5,1,108,31,
杭州市,镇二中,119.9464,30.0494,2025-04-28T0000,28,32,0.6,22,2,49,96,40,
杭州市,市府大楼,119.7183,30.2367,2025-04-28T0000,14,32,0.4,15,7,48,96,32,
杭州市,消防大队,120.1556,30.2864,2025-04-28T0000,14,35,0.7,29,4,48,109,35,
合肥市,明珠广场,117.1959,31.7848,2025-04-28T0000,27,39,0.4,32,5,76,148,39,
合肥市,三里街,117.3072,31.8764,2025-04-28T0000,19,34,0.5,23,4,96,145,34,
合肥市,琥珀山庄,117.2588,31.8707,2025-04-28T0000,25,29,0.5,28,3,76,148,36,
合肥市,董铺水库,117.1604,31.9052,2025-04-28T0000,19,31,0.3,17,3,95,144,31,
合肥市,长江中路,117.25,31.8571,2025-04-28T0000,30,41,0.6,40,8,48,149,43,
合肥市,庐阳区,117.266,31.9436,2025-04-28T0000,24,36,0.4,25,6,80,150,36,
合肥市,瑶海区,117.3453,31.8616,2025-04-28T0000,22,36,0.4,27,6,96,137,36,
合肥市,包河区,117.3027,31.7964,2025-04-28T0000,34,63,0.6,85,6,4,140,57,颗粒物(PM10)
合肥市,滨湖新区,117.2776,31.7385,2025-04-28T0000,39,63,0.6,57,6,44,133,57,颗粒物(PM10)
合肥市,高新区,117.1318,31.8403,2025-04-28T0000,19,31,0.4,18,2,118,146,37,
合肥市,高教基地,117.3803,31.9147,2025-04-28T0000,26,44,0.4,32,5,71,145,44,
和田地区,地区环保局,79.924,37.0877,2025-04-28T0000,33,146,0.2,13,3,89,102,98,颗粒物(PM10)
和田地区,市环保局,79.9131,37.113,2025-04-28T0000,69,249,1.0,63,1,30,104,150,颗粒物(PM10)
河池市,东仁乐园,108.2011,24.715,2025-04-28T0000,,,,,,,,,
河池市,市环保站,108.0497,24.6947,2025-04-28T0000,30,34,0.7,8,10,29,50,43,
河池市,市疾控中心,108.0983,24.6989,2025-04-28T0000,34,45,0.7,27,8,6,55,49,
河源市,源西,114.6778,23.7569,2025-04-28T0000,24,30,1.1,50,3,3,56,35,
河源市,东埔,114.6944,23.7586,2025-04-28T0000,36,,0.9,22,4,36,57,52,细颗粒物(PM2.5)
河源市,老城,114.6892,23.7233,2025-04-28T0000,56,,0.7,27,4,28,56,77,细颗粒物(PM2.5)
菏泽市,气象局,115.4208,35.2464,2025-04-28T0000,25,45,0.3,12,3,80,145,45,
菏泽市,定陶老年大学,115.5564,35.0891,2025-04-28T0000,22,44,0.4,20,6,74,149,44,
菏泽市,永昌路1号,115.4797,35.24401,2025-04-28T0000,29,45,0.3,14,4,76,146,45,
菏泽市,长城路999号,115.4715,35.2800,2025-04-28T0000,20,48,0.3,18,5,69,138,48,
贺州市,环保小区,111.5264,24.4172,2025-04-28T0000,,20,0.9,13,6,38,44,,
贺州市,政协大楼,111.5608,24.4078,2025-04-28T0000,8,25,0.9,14,6,29,48,25,
贺州市,西湾,111.4744,24.4553,2025-04-28T0000,9,16,0.7,9,7,45,41,16,
鹤壁市,市监测站,114.17,35.9019,2025-04-28T0000,35,103,0.7,49,5,34,101,77,颗粒物(PM10)
鹤壁市,市交警支队,114.2956,35.7511,2025-04-28T0000,24,84,0.6,19,4,70,98,67,颗粒物(PM10)
鹤壁市,迎宾馆,114.2878,35.7306,2025-04-28T0000,24,69,0.5,16,4,71,103,60,颗粒物(PM10)
鹤壁市,大新区,114.2617,35.6822,2025-04-28T0000,27,58,0.5,26,6,56,101,54,颗粒物(PM10)
鹤壁市,南山宾馆,114.1572,35.9603,2025-04-28T0000,22,68,0.5,22,6,73,100,59,颗粒物(PM10)
鹤岗市,哈啤分公司,130.2537,47.3416,2025-04-28T0000,7,20,0.2,2,14,54,68,20,
鹤岗市,斯达机电,130.2684,47.3086,2025-04-28T0000,14,14,0.1,1,10,60,71,20,
鹤岗市,东山纸板厂,130.3114,47.3388,2025-04-28T0000,21,,0.2,5,11,57,70,30,
鹤岗市,五号水库,130.1097,47.3382,2025-04-28T0000,,,,,,,,,
黑河市,交通局,127.4833,50.2524,2025-04-28T0000,19,,0.3,4,7,64,84,28,
黑河市,环保局,127.5144,50.2341,2025-04-28T0000,13,,0.2,4,4,75,86,24,
黑河市,大黑河岛,127.5291,50.2472,2025-04-28T0000,3,10,0.3,3,1,78,75,25,
衡水市,电机北厂,115.6838,37.7541,2025-04-28T0000,19,43,0.1,20,4,79,110,43,
衡水市,市监测站,115.6303,37.7316,2025-04-28T0000,10,36,0.2,18,7,76,108,36,
衡水市,市城管局,115.6683,37.7217,2025-04-28T0000,20,52,0.3,21,6,64,109,51,颗粒物(PM10)
衡水市,地表水厂,115.5989,37.5491,2025-04-28T0000,12,39,0.2,41,6,39,101,39,
衡阳市,原169医院,112.5003,26.9167,2025-04-28T0000,15,28,0.9,32,4,10,70,28,
衡阳市,衡阳化工总厂,112.6194,26.9258,2025-04-28T0000,23,24,0.8,15,6,21,49,33,
衡阳市,珠晖区环保局,112.6211,26.8956,2025-04-28T0000,,28,0.8,27,20,12,49,,
衡阳市,市委党校,112.6197,26.8733,2025-04-28T0000,14,26,0.6,14,8,28,52,26,
衡阳市,市监测站,112.6006,26.8919,2025-04-28T0000,19,22,0.9,19,16,30,53,28,
衡阳市,真空机电公司,112.5664,26.9056,2025-04-28T0000,15,28,1.1,24,5,16,51,28,
衡阳市,师范学院,112.6703,26.882,2025-04-28T0000,15,26,0.8,14,11,27,53,26,
红河哈尼族彝族自治州,污水处理厂,103.3772,23.3993,2025-04-28T0000,46,67,0.7,13,10,102,148,64,细颗粒物(PM2.5)
红河哈尼族彝族自治州,监测站,103.3861,23.35,2025-04-28T0000,44,50,0.4,8,6,111,150,62,细颗粒物(PM2.5)
红河哈尼族彝族自治州,州图书馆,103.3758,23.368,2025-04-28T0000,51,82,0.4,8,2,107,146,70,细颗粒物(PM2.5)
呼和浩特市,呼市一监,111.6507,40.7517,2025-04-28T0000,17,53,0.5,46,3,23,103,52,颗粒物(PM10)
呼和浩特市,小召,111.6572,40.8033,2025-04-28T0000,10,27,0.4,46,6,30,94,27,
呼和浩特市,如意水处理厂,111.7516,40.8369,2025-04-28T0000,20,47,0.5,70,7,2,96,47,
呼和浩特市,二十九中,111.7276,40.8062,2025-04-28T0000,14,21,0.4,29,3,45,96,21,
呼和浩特市,工大金川校区,111.5512,40.7866,2025-04-28T0000,7,17,0.5,34,5,43,97,17,
呼和浩特市,化肥厂生活区,111.717,40.7612,2025-04-28T0000,24,68,0.5,56,8,20,96,59,颗粒物(PM10)
呼和浩特市,红旗小学,111.5968,40.8178,2025-04-28T0000,6,12,0.3,23,3,60,101,19,
呼和浩特市,海东办,111.6518,40.8389,2025-04-28T0000,8,17,0.4,21,6,58,100,19,
呼伦贝尔市,区环保局,119.7594,49.2261,2025-04-28T0000,22,27,0.3,13,5,61,79,32,
呼伦贝尔市,国华电力东,119.7512,49.1577,2025-04-28T0000,19,28,0.5,17,4,33,82,28,
湖州市,城西水厂,120.0751,30.8669,2025-04-28T0000,40,71,0.6,96,7,6,105,61,颗粒物(PM10)
湖州市,仁皇山新区,120.0830,30.8929,2025-04-28T0000,41,72,0.9,106,6,11,108,61,颗粒物(PM10)
湖州市,吴兴区站,120.1844,30.8596,2025-04-28T0000,38,64,0.6,88,8,16,105,57,颗粒物(PM10)
湖州市,南浔区站,120.4148,30.8538,2025-04-28T0000,47,82,0.7,37,5,64,110,66,颗粒物(PM10)
葫芦岛市,龙港区,120.9049,40.7211,2025-04-28T0000,7,16,0.4,16,8,66,101,21,
葫芦岛市,化工街,120.8392,40.7514,2025-04-28T0000,24,53,0.6,86,17,5,96,52,颗粒物(PM10)
葫芦岛市,新区,120.8341,40.7073,2025-04-28T0000,13,27,0.5,58,8,31,100,29,
葫芦岛市,东城区,120.8695,40.7677,2025-04-28T0000,18,31,0.5,71,12,18,93,36,
怀化市,林科所,109.5981,27.5721,2025-04-28T0000,14,25,0.5,12,9,38,84,25,
怀化市,河西地税局,109.9453,27.5444,2025-04-28T0000,13,30,0.7,15,3,6,86,30,
怀化市,市四医院,109.9781,27.5342,2025-04-28T0000,19,38,0.7,30,4,14,100,38,
怀化市,监测楼,109.9972,27.5578,2025-04-28T0000,24,41,0.9,25,2,16,100,41,
怀化市,市委党校,110.0394,27.583,2025-04-28T0000,24,31,0.8,27,4,5,97,35,
淮安市,钵池山,119.036,33.5981,2025-04-28T0000,39,68,0.5,46,10,52,116,59,颗粒物(PM10)
淮安市,北京南路,119.007,33.575,2025-04-28T0000,36,80,0.8,93,10,3,128,65,颗粒物(PM10)
淮安市,市监测站,118.989,33.6067,2025-04-28T0000,44,75,0.7,99,10,4,120,63,颗粒物(PM10)
淮安市,楚州区监测站,119.135,33.5039,2025-04-28T0000,37,71,0.8,79,9,16,101,61,颗粒物(PM10)
淮安市,新华书店,118.8755,33.2894,2025-04-28T0000,42,58,0.7,31,10,67,145,59,细颗粒物(PM2.5)
淮安市,承德北路606号,119.0288,33.6319,2025-04-28T0000,41,83,0.6,68,10,28,116,67,颗粒物(PM10)
淮北市,监测站,116.8004,33.975,2025-04-28T0000,45,99,0.8,19,9,84,171,75,颗粒物(PM10)
淮北市,烈山区政府,116.8091,33.9007,2025-04-28T0000,43,102,0.8,20,6,86,176,76,颗粒物(PM10)
淮北市,杜集区检察院,116.8873,33.9836,2025-04-28T0000,46,96,0.9,23,8,79,172,73,颗粒物(PM10)
淮北市,市博物馆,116.7923,33.9535,2025-04-28T0000,43,82,0.8,18,10,85,172,66,颗粒物(PM10)
淮南市,潘集区政府,116.8305,32.7727,2025-04-28T0000,45,81,0.4,26,6,67,136,66,颗粒物(PM10)
淮南市,谢家集区政府,116.8569,32.5951,2025-04-28T0000,39,61,0.4,26,6,76,132,56,颗粒物(PM10)
淮南市,八公山区政府,116.8281,32.633,2025-04-28T0000,37,69,0.4,11,4,85,134,60,颗粒物(PM10)
淮南市,焦岗湖风景区管理处,116.6325,32.6201,2025-04-28T0000,,,,,,,,,
淮南市,经济技术开发区消防队,117.0566,32.6531,2025-04-28T0000,37,60,0.5,28,8,74,138,55,颗粒物(PM10)
淮南市,山南新区,117.0108,32.5893,2025-04-28T0000,36,65,0.7,21,10,102,144,58,颗粒物(PM10)
淮南市,国庆中路369号,117.0031,32.6445,2025-04-28T0000,33,56,0.6,31,12,63,141,53,颗粒物(PM10)
黄冈市,职工中心,114.9028,30.4742,2025-04-28T0000,50,62,0.8,18,7,93,121,69,细颗粒物(PM2.5)
黄冈市,红卫路,114.8858,30.4519,2025-04-28T0000,61,85,0.8,14,9,88,123,83,细颗粒物(PM2.5)
黄冈市,市林业局,114.9136,30.4445,2025-04-28T0000,46,73,0.7,28,8,69,121,64,细颗粒物(PM2.5)
黄南藏族自治州,同仁县隆务镇,102.0199,35.5102,2025-04-28T0000,17,37,0.1,3,4,56,102,37,
黄山市,延安路89号,118.2903,29.6963,2025-04-28T0000,11,17,0.5,11,5,17,80,17,
黄山市,黄山区政府5号楼,118.1371,30.2756,2025-04-28T0000,19,28,0.5,4,3,21,80,28,
黄山市,滨江东路7-2号,118.3354,29.7203,2025-04-28T0000,3,27,0.6,7,4,26,88,27,
黄石市,沈家营,115.0601,30.2313,2025-04-28T0000,44,84,0.9,20,7,82,114,67,颗粒物(PM10)
黄石市,铁山,114.8988,30.2019,2025-04-28T0000,44,82,0.2,18,6,57,104,66,颗粒物(PM10)
黄石市,团城山,115.0307,30.2092,2025-04-28T0000,40,84,0.8,33,9,58,110,67,颗粒物(PM10)
黄石市,笔架山北路,115.0235,30.1578,2025-04-28T0000,36,69,0.9,11,6,59,105,60,颗粒物(PM10)
黄石市,磁湖东路29号,115.0780,30.21118,2025-04-28T0000,46,74,0.7,10,6,86,116,64,细颗粒物(PM2.5)
惠州市,河南岸金山湖子站,114.4183,23.0528,2025-04-28T0000,28,40,0.4,19,8,53,81,40,
惠州市,下埔横江三路子站,114.4053,23.0822,2025-04-28T0000,29,46,0.7,20,8,58,89,46,
惠州市,江北云山西路子站,114.4103,23.1142,2025-04-28T0000,27,49,0.5,18,9,56,90,49,
惠州市,惠阳区承修路船湖子站,114.4645,22.7833,2025-04-28T0000,21,36,0.6,12,8,78,93,36,
惠州市,大亚湾管委会子站,114.5317,22.7422,2025-04-28T0000,18,33,0.6,11,7,90,97,33,
惠州市,惠阳秋长,114.4338,22.8134,2025-04-28T0000,21,31,0.6,14,6,82,100,31,
惠州市,大亚湾霞涌,114.6517,22.775,2025-04-28T0000,18,26,0.6,23,7,57,106,26,
鸡西市,环保局,130.9762,45.3001,2025-04-28T0000,25,30,0.4,8,5,83,98,36,
鸡西市,第一中学,130.9429,45.3039,2025-04-28T0000,25,29,0.4,10,8,71,96,36,
鸡西市,欧美日汽修厂,131.0207,45.3073,2025-04-28T0000,32,38,0.6,18,6,58,93,46,
鸡西市,市政设施管理处,130.9967,45.3106,2025-04-28T0000,27,36,0.4,18,6,67,90,39,
吉安市,红声器材厂,114.9754,27.0803,2025-04-28T0000,12,25,0.6,18,14,33,39,25,
吉安市,市森林工业局,114.9658,27.0999,2025-04-28T0000,15,21,0.4,17,11,35,41,22,
吉安市,市环境监测站,114.99,27.1312,2025-04-28T0000,10,17,0.6,13,19,32,40,17,
吉安市,青原区法院,115.0093,27.0968,2025-04-28T0000,14,18,0.4,18,12,20,36,20,
吉林市,哈达湾,126.54,43.8622,2025-04-28T0000,10,16,0.3,11,6,73,94,23,
吉林市,东局子,126.5844,43.8358,2025-04-28T0000,10,38,0.5,9,5,71,91,38,
吉林市,电力学院,126.5052,43.8245,2025-04-28T0000,11,15,0.4,11,5,72,96,23,
吉林市,江北,126.6133,43.8972,2025-04-28T0000,8,21,0.6,14,7,64,92,21,
吉林市,江南公园,126.555,43.8306,2025-04-28T0000,10,20,0.3,9,5,71,95,23,
吉林市,丰满,126.7061,43.7133,2025-04-28T0000,,,,,,,,,
吉林市,九站,126.4739,43.953,2025-04-28T0000,11,19,0.5,11,6,70,93,22,
济南市,科干所,116.9862,36.6114,2025-04-28T0000,20,48,0.4,23,2,28,128,48,
济南市,农科所,116.9376,36.665,2025-04-28T0000,17,46,0.4,46,5,2,121,46,
济南市,开发区,117.1265,36.6734,2025-04-28T0000,22,37,0.6,28,6,32,130,37,
济南市,省种子仓库,117.0624,36.6868,2025-04-28T0000,31,58,0.5,49,4,13,121,54,颗粒物(PM10)
济南市,机床二厂,116.9489,36.6447,2025-04-28T0000,27,59,0.6,44,6,15,121,55,颗粒物(PM10)
济南市,市监测站,117.0495,36.663,2025-04-28T0000,29,46,0.6,44,7,20,124,46,
济南市,长清党校,116.7675,36.5484,2025-04-28T0000,29,49,0.6,47,3,16,127,49,
济南市,技术学院,117.6795,36.229,2025-04-28T0000,44,51,0.6,29,8,51,144,62,细颗粒物(PM2.5)
济南市,东山小学,117.532,36.6868,2025-04-28T0000,22,49,0.3,35,5,19,131,49,
济南市,泰兴公司,117.7161,36.2049,2025-04-28T0000,46,66,0.6,36,7,39,148,64,细颗粒物(PM2.5)
济南市,莱芜战役纪念馆,117.6867,36.2171,2025-04-28T0000,41,51,0.6,34,4,46,148,58,细颗粒物(PM2.5)
济南市,济阳区政府,117.1673,36.9782,2025-04-28T0000,27,59,0.4,52,4,8,103,55,颗粒物(PM10)
济南市,锦屏中学,117.1171,36.63,2025-04-28T0000,10,15,0.3,16,4,36,131,15,
济南市,济南四建,116.9814,36.6819,2025-04-28T0000,29,90,0.5,63,4,4,125,70,颗粒物(PM10)
济宁市,火炬城,116.6251,35.4302,2025-04-28T0000,27,48,0.5,19,6,41,141,48,
济宁市,电化厂,116.5491,35.4042,2025-04-28T0000,39,63,0.6,29,6,37,142,57,颗粒物(PM10)
济宁市,北湖一中,116.5814,35.3707,2025-04-28T0000,24,46,0.4,27,5,47,149,46,
济宁市,服务中心,116.8249,35.5593,2025-04-28T0000,26,56,0.6,33,3,31,121,53,颗粒物(PM10)
济宁市,市第七中学,116.5907,35.4054,2025-04-28T0000,27,50,0.4,28,12,45,142,50,
佳木斯市,佳纺,130.2751,46.8028,2025-04-28T0000,3,6,0.3,6,4,61,82,20,
佳木斯市,发电厂,130.3995,46.8307,2025-04-28T0000,3,6,0.3,6,3,61,82,20,
佳木斯市,环保局,130.3258,46.7975,2025-04-28T0000,3,7,0.3,6,4,63,80,20,
佳木斯市,十一中,130.3648,46.8032,2025-04-28T0000,3,6,0.3,4,4,65,81,21,
佳木斯市,四丰,130.3794,46.7588,2025-04-28T0000,7,9,0.2,9,1,51,70,16,
嘉兴市,清河小学,120.7436,30.778,2025-04-28T0000,42,88,0.9,57,5,39,100,69,颗粒物(PM10)
嘉兴市,嘉兴学院,120.726,30.7478,2025-04-28T0000,50,78,0.9,93,6,14,100,69,细颗粒物(PM2.5)
嘉兴市,南湖区残联,120.7846,30.7525,2025-04-28T0000,46,59,0.7,63,6,39,106,64,细颗粒物(PM2.5)
嘉兴市,秀洲住建,120.6916,30.7739,2025-04-28T0000,38,112,0.7,80,8,13,105,81,颗粒物(PM10)
嘉峪关市,气象局,98.2908,39.7711,2025-04-28T0000,3,27,0.2,12,3,95,106,30,
嘉峪关市,酒钢宾馆,98.2672,39.7978,2025-04-28T0000,14,27,0.2,9,18,99,102,31,
嘉峪关市,雄关区,98.2643,39.7724,2025-04-28T0000,13,42,0.4,12,9,94,104,42,
江门市,北街,113.1064,22.6058,2025-04-28T0000,19,44,0.4,19,2,40,83,44,
江门市,西区,113.0731,22.5835,2025-04-28T0000,18,34,0.5,21,5,43,88,34,
江门市,圭峰西,113.0219,22.5311,2025-04-28T0000,22,44,0.6,17,4,45,83,44,
江门市,东湖,113.0828,22.5947,2025-04-28T0000,19,57,0.5,18,7,43,86,54,颗粒物(PM10)
江门市,江海富民,113.1075,22.5647,2025-04-28T0000,23,78,0.4,14,7,52,87,64,颗粒物(PM10)
江门市,新会银湖,113.05,22.4667,2025-04-28T0000,31,38,0.5,20,2,38,91,45,
焦作市,影视城,113.1992,35.2590,2025-04-28T0000,,,,,,,,,
焦作市,太极体育中心,113.2725,35.2067,2025-04-28T0000,28,103,0.4,26,5,25,115,77,颗粒物(PM10)
焦作市,马村街道办,113.3137,35.2641,2025-04-28T0000,16,70,0.3,29,8,44,115,60,颗粒物(PM10)
焦作市,焦作技师学院,113.2465,35.2373,2025-04-28T0000,17,86,0.5,28,9,45,120,68,颗粒物(PM10)
焦作市,中站许衡医院,113.1656,35.2539,2025-04-28T0000,32,63,0.5,30,6,57,129,57,颗粒物(PM10)
焦作市,原李万街道办,113.2449,35.1803,2025-04-28T0000,19,99,0.4,44,11,28,120,75,颗粒物(PM10)
焦作市,新安路1731号,113.2340,35.2190,2025-04-28T0000,85,122,1.0,46,20,29,123,113,细颗粒物(PM2.5)
揭阳市,新兴,116.3701,23.5345,2025-04-28T0000,54,98,1.1,47,6,17,91,74,"颗粒物(PM10),细颗粒物(PM2.5)"
揭阳市,西马,116.3264,23.5443,2025-04-28T0000,49,68,1.1,22,7,34,89,68,细颗粒物(PM2.5)
揭阳市,东兴,116.3611,23.5626,2025-04-28T0000,73,87,1.1,29,4,24,95,98,细颗粒物(PM2.5)
揭阳市,渔湖,116.4151,23.5294,2025-04-28T0000,38,67,1.0,30,6,40,97,59,颗粒物(PM10)
揭阳市,曲溪,116.403,23.5699,2025-04-28T0000,35,61,1.0,30,2,39,101,56,颗粒物(PM10)
金昌市,天庆家园,102.1692,38.5167,2025-04-28T0000,21,31,0.9,11,11,88,112,31,
金昌市,金川区人防中心,102.1647,38.5371,2025-04-28T0000,23,56,0.6,15,23,82,111,53,颗粒物(PM10)
金昌市,长春路96号,102.1930,38.5319,2025-04-28T0000,21,68,0.5,17,8,85,117,59,颗粒物(PM10)
金华市,十五中,119.647,29.077,2025-04-28T0000,58,75,0.9,48,2,16,82,79,细颗粒物(PM2.5)
金华市,监测站,119.686,29.1029,2025-04-28T0000,46,67,0.8,39,4,20,81,64,细颗粒物(PM2.5)
金华市,气象局,119.656,29.1131,2025-04-28T0000,34,57,0.7,35,2,23,83,54,颗粒物(PM10)
锦州市,南山,121.1115,41.0879,2025-04-28T0000,21,36,0.7,62,12,22,94,36,
锦州市,开发区,121.0604,40.8428,2025-04-28T0000,16,99,0.5,54,18,40,92,75,颗粒物(PM10)
锦州市,百股街道,121.1836,41.1119,2025-04-28T0000,17,30,0.6,43,22,32,94,30,
锦州市,天安街道,121.1178,41.1222,2025-04-28T0000,19,45,1.2,41,41,39,91,45,
锦州市,北湖公园,121.1303,41.1386,2025-04-28T0000,28,45,1.7,34,58,41,93,45,
晋城市,自来水公司,112.85,35.5051,2025-04-28T0000,14,56,0.6,33,8,52,120,53,颗粒物(PM10)
晋城市,白云商贸,112.8318,35.4936,2025-04-28T0000,17,58,0.7,38,8,44,119,54,颗粒物(PM10)
晋城市,市环保局,112.8508,35.4887,2025-04-28T0000,12,83,0.2,33,8,48,112,67,颗粒物(PM10)
晋城市,技术学院,112.8676,35.4897,2025-04-28T0000,9,60,0.8,37,9,49,113,55,颗粒物(PM10)
晋城市,白马寺,112.8453,35.546,2025-04-28T0000,83,,0.4,10,7,89,122,110,细颗粒物(PM2.5)
晋城市,泽州一中,112.8271,35.4828,2025-04-28T0000,12,76,0.5,36,5,44,120,63,颗粒物(PM10)
晋中市,南都小区,112.7249,37.7067,2025-04-28T0000,6,55,0.2,40,6,49,109,53,颗粒物(PM10)
晋中市,榆次区政府,112.6991,37.6982,2025-04-28T0000,14,56,0.2,49,7,44,110,53,颗粒物(PM10)
晋中市,榆次三中,112.7195,37.6828,2025-04-28T0000,12,66,0.2,50,5,39,113,58,颗粒物(PM10)
晋中市,迎宾街26号,112.7478,37.6954,2025-04-28T0000,9,58,0.2,42,5,38,108,54,颗粒物(PM10)
荆门市,竹园小学,112.2014,31.0481,2025-04-28T0000,38,91,0.4,10,7,150,165,71,颗粒物(PM10)
荆门市,掇刀,112.1969,30.9891,2025-04-28T0000,36,71,0.4,11,12,142,162,61,颗粒物(PM10)
荆门市,石化一小,112.2213,31.0386,2025-04-28T0000,34,96,0.5,10,6,143,167,73,颗粒物(PM10)
荆门市,西山林语,112.1849,31.0362,2025-04-28T0000,37,70,0.5,7,8,152,160,60,颗粒物(PM10)
荆门市,龙泉中学南校,112.1632,31.0138,2025-04-28T0000,31,83,0.4,9,8,150,157,67,颗粒物(PM10)
荆州市,市图书馆,112.2494,30.3197,2025-04-28T0000,35,64,0.6,27,6,84,156,57,颗粒物(PM10)
荆州市,市委党校,112.2008,30.3544,2025-04-28T0000,38,64,0.5,29,8,81,143,57,颗粒物(PM10)
荆州市,管委会,112.2747,30.3122,2025-04-28T0000,46,62,0.8,21,8,79,152,64,细颗粒物(PM2.5)
荆州市,学苑路85号,112.1722,30.3366,2025-04-28T0000,50,69,0.5,48,4,62,148,69,细颗粒物(PM2.5)
景德镇市,王港中学,117.3102,29.3867,2025-04-28T0000,,,,,,,,,
景德镇市,老干部活动中心,117.2117,29.2933,2025-04-28T0000,11,16,0.5,8,7,49,76,16,
景德镇市,兽医站,117.1894,29.2789,2025-04-28T0000,8,19,0.5,8,4,38,72,19,
景德镇市,台达陶瓷,117.1547,29.2617,2025-04-28T0000,20,21,1.1,28,64,44,70,29,
景德镇市,陶研所,117.2461,29.2956,2025-04-28T0000,20,,0.5,17,6,39,75,29,
九江市,十里,115.9872,29.6815,2025-04-28T0000,25,34,0.6,31,2,18,50,36,
九江市,茅山头,115.9584,29.7046,2025-04-28T0000,30,34,0.6,29,4,16,51,43,
九江市,西园,115.9877,29.7295,2025-04-28T0000,21,32,1.0,41,7,34,47,32,
九江市,综合工业园,115.9114,29.6038,2025-04-28T0000,21,36,0.8,44,8,8,53,36,
九江市,石化总厂,116.0721,29.7535,2025-04-28T0000,28,41,0.9,21,8,24,63,41,
九江市,庐山气象台,115.9773,29.5698,2025-04-28T0000,23,33,0.6,8,6,100,106,33,
九江市,外国语学校,116.0254,29.6994,2025-04-28T0000,29,,1.0,41,4,9,50,42,
九江市,莲花大道8号,116.0102,29.6594,2025-04-28T0000,29,38,0.7,11,3,26,52,42,
酒泉市,玉门东路5号,98.4958,39.7339,2025-04-28T0000,31,39,0.2,6,7,100,106,45,
酒泉市,北大街108号,98.5099,39.7506,2025-04-28T0000,22,24,0.1,8,8,100,111,32,
喀什地区,巡警大队,76.0072,39.4467,2025-04-28T0000,43,188,1.0,83,4,37,126,119,颗粒物(PM10)
喀什地区,吾办,75.9755,39.4694,2025-04-28T0000,70,190,1.1,84,5,14,122,120,颗粒物(PM10)
喀什地区,老干局,75.9483,39.4689,2025-04-28T0000,61,164,1.1,76,4,30,124,107,颗粒物(PM10)
开封市,肿瘤医院,114.3389,34.7781,2025-04-28T0000,26,63,0.6,10,8,80,122,57,颗粒物(PM10)
开封市,世纪星幼儿园,114.2885,34.7965,2025-04-28T0000,22,49,0.7,12,9,93,128,49,
开封市,龙亭公园,114.3438,34.8106,2025-04-28T0000,19,60,0.8,15,2,78,122,55,颗粒物(PM10)
开封市,汴京公园,114.3644,34.7964,2025-04-28T0000,25,82,0.8,10,3,90,129,66,颗粒物(PM10)
开封市,技师学院,114.2485,34.8306,2025-04-28T0000,45,53,0.9,20,4,68,114,63,细颗粒物(PM2.5)
开封市,祥符区生态环境局,114.4644,34.7556,2025-04-28T0000,22,73,0.5,15,7,75,123,62,颗粒物(PM10)
克拉玛依市,长征新村,84.895,45.6094,2025-04-28T0000,36,60,0.7,58,7,35,110,55,颗粒物(PM10)
克拉玛依市,南林小区,84.8988,45.5893,2025-04-28T0000,25,61,1.4,76,6,6,118,56,颗粒物(PM10)
克拉玛依市,独山子区,84.905,44.3396,2025-04-28T0000,19,40,0.3,6,8,116,140,40,
克拉玛依市,乌尔禾区商贸楼,85.6979,46.098,2025-04-28T0000,8,32,0.4,23,7,65,120,32,
克拉玛依市,白碱滩区新站,85.1045,45.6899,2025-04-28T0000,8,32,0.1,18,10,74,112,32,
克孜勒苏柯尔克孜自治州,市人民政府,76.1454,39.7142,2025-04-28T0000,43,156,0.4,60,6,56,124,103,颗粒物(PM10)
克孜勒苏柯尔克孜自治州,克州文化中心,76.1658,39.7157,2025-04-28T0000,,378,0.4,31,7,82,119,,
昆明市,呈贡新区,102.8204,24.8886,2025-04-28T0000,76,113,0.9,78,9,36,153,102,细颗粒物(PM2.5)
昆明市,西山森林公园,102.6251,24.9608,2025-04-28T0000,,,,,,,,,
昆明市,龙泉镇,102.7252,25.0902,2025-04-28T0000,47,92,0.7,106,9,2,147,71,颗粒物(PM10)
昆明市,东风东路,102.7266,25.0375,2025-04-28T0000,51,94,0.7,34,15,87,147,72,颗粒物(PM10)
昆明市,金鼎山,102.6742,25.0669,2025-04-28T0000,50,89,0.6,44,4,83,150,70,颗粒物(PM10)
昆明市,碧鸡广场,102.6644,25.0401,2025-04-28T0000,49,94,0.5,37,7,84,145,72,颗粒物(PM10)
昆明市,官渡区博物馆,102.7494,25.0119,2025-04-28T0000,54,89,0.8,98,10,24,152,74,细颗粒物(PM2.5)
昆明市,青年创业园,102.8017,24.8336,2025-04-28T0000,43,101,0.8,98,14,9,162,76,颗粒物(PM10)
昆明市,昆明学院,102.7997,24.9786,2025-04-28T0000,56,116,0.7,103,10,14,159,83,颗粒物(PM10)
昆明市,晋宁区生态环境分局,102.5967,24.6736,2025-04-28T0000,53,75,0.4,26,8,89,149,73,细颗粒物(PM2.5)
昆明市,云天化总部,102.6678,24.9856,2025-04-28T0000,61,93,0.6,66,12,53,147,83,细颗粒物(PM2.5)
拉萨市,八廓街,91.1319,29.6514,2025-04-28T0000,14,33,0.3,7,5,152,158,48,
拉萨市,市环保局,91.1221,29.6747,2025-04-28T0000,17,40,0.4,7,2,155,156,49,
拉萨市,区监测站,91.0874,29.6475,2025-04-28T0000,12,39,0.3,10,5,147,149,46,
拉萨市,西藏大学,91.1774,29.6541,2025-04-28T0000,20,31,0.3,6,5,152,153,48,
拉萨市,区辐射站,90.9798,29.6588,2025-04-28T0000,16,23,0.4,14,8,138,148,44,
拉萨市,拉萨火车站,91.0834,29.6292,2025-04-28T0000,14,35,0.4,6,3,148,148,47,
来宾市,来宾技工学校,109.2203,23.7256,2025-04-28T0000,6,11,0.5,12,8,52,65,17,
来宾市,兴宾区政府,109.1781,23.7297,2025-04-28T0000,6,15,0.6,10,5,43,57,15,
来宾市,中南小学,109.2416,23.7461,2025-04-28T0000,11,16,0.5,9,6,49,62,16,
兰州市,榆中兰大校区,104.1373,35.9454,2025-04-28T0000,,,,,,,,,
兰州市,铁路设计院,103.831,36.0464,2025-04-28T0000,34,61,0.5,34,8,45,86,56,颗粒物(PM10)
兰州市,百合公园,103.7439,36.0842,2025-04-28T0000,38,71,0.3,33,2,36,85,61,颗粒物(PM10)
兰州市,和平,103.9611,35.998,2025-04-28T0000,32,65,0.7,17,10,50,94,58,颗粒物(PM10)
兰州市,庄浪东路808号,103.6293,36.0938,2025-04-28T0000,41,73,0.3,31,10,49,93,62,颗粒物(PM10)
兰州市,安宁西路88号,103.7251,36.1043,2025-04-28T0000,38,94,0.3,33,8,55,100,72,颗粒物(PM10)
兰州市,北滨河东路1号,103.8470,36.0676,2025-04-28T0000,44,86,0.7,46,10,29,93,68,颗粒物(PM10)
兰州新区,新区管委会,103.6633,36.533,2025-04-28T0000,26,39,0.3,12,4,80,107,39,
兰州新区,舟曲中学,103.6975,36.4789,2025-04-28T0000,20,49,0.3,13,6,87,109,49,
廊坊市,药材公司,116.6708,39.5111,2025-04-28T0000,23,58,0.4,18,2,74,104,54,颗粒物(PM10)
廊坊市,开发区,116.7214,39.5589,2025-04-28T0000,26,81,0.4,15,1,81,107,66,颗粒物(PM10)
廊坊市,北华航天学院,116.7244,39.5269,2025-04-28T0000,,99,0.3,20,4,75,103,,
廊坊市,河北工业大学,116.7022,39.5453,2025-04-28T0000,22,99,0.3,13,5,78,106,75,颗粒物(PM10)
乐山市,花湖湾,103.7723,29.5462,2025-04-28T0000,35,56,0.8,36,8,54,129,53,颗粒物(PM10)
乐山市,牛耳桥,103.7627,29.5844,2025-04-28T0000,23,44,1.1,54,7,16,121,44,
乐山市,市第三水厂,103.7508,29.6006,2025-04-28T0000,39,55,0.8,49,4,17,121,55,细颗粒物(PM2.5)
乐山市,市监测站,103.7571,29.5664,2025-04-28T0000,33,54,0.9,44,7,29,112,52,颗粒物(PM10)
乐山市,理工大学,103.7311,29.5628,2025-04-28T0000,39,48,0.8,48,5,27,122,55,细颗粒物(PM2.5)
丽江市,西南郊,100.2143,26.8576,2025-04-28T0000,18,40,0.3,1,5,131,128,41,
丽江市,丽江古城,100.2497,26.8802,2025-04-28T0000,22,41,0.5,9,8,114,119,41,
丽江市,市中心,100.2203,26.8906,2025-04-28T0000,20,29,0.7,5,6,104,109,33,
丽水市,监测站大楼,119.914,28.4514,2025-04-28T0000,15,15,0.4,20,3,31,85,22,
丽水市,莲都小学,119.93,28.4586,2025-04-28T0000,23,44,0.4,25,3,38,87,44,
丽水市,余庄前,119.879,28.4231,2025-04-28T0000,14,25,0.5,12,3,4,72,25,
连云港市,市环境监测站,119.176,34.5885,2025-04-28T0000,22,51,0.5,20,9,77,127,51,颗粒物(PM10)
连云港市,德源药业,119.3581,34.6972,2025-04-28T0000,31,53,0.5,18,9,86,102,52,颗粒物(PM10)
连云港市,新城一中,119.178,34.844,2025-04-28T0000,19,129,1.0,39,12,50,105,90,颗粒物(PM10)
连云港市,胡沟管理处,119.3608,34.7519,2025-04-28T0000,22,51,0.7,20,13,69,88,51,颗粒物(PM10)
连云港市,矿山设计院,119.1478,34.5911,2025-04-28T0000,19,51,0.6,24,10,76,126,51,颗粒物(PM10)
连云港市,工贸学校,119.2413,34.6539,2025-04-28T0000,35,,0.5,25,10,79,126,50,
连云港市,连云街道,119.4172,34.7341,2025-04-28T0000,35,77,0.5,34,8,65,93,64,颗粒物(PM10)
凉山彝族自治州,青龙寺,102.3431,27.8099,2025-04-28T0000,3,21,0.5,10,2,84,122,27,
凉山彝族自治州,邛海宾馆,102.2721,27.8415,2025-04-28T0000,6,17,0.4,7,6,101,119,32,
凉山彝族自治州,西昌市政府,102.2625,27.898,2025-04-28T0000,8,22,0.4,6,10,87,114,28,
凉山彝族自治州,凉山州政府,102.2685,27.8851,2025-04-28T0000,8,19,0.4,8,5,92,115,29,
凉山彝族自治州,凯乐南路30号,102.2342,27.8859,2025-04-28T0000,3,18,0.4,6,8,94,106,30,
辽阳市,宏伟区,123.2,41.1953,2025-04-28T0000,35,118,1.1,42,16,41,101,84,颗粒物(PM10)
辽阳市,新华园,123.1683,41.2495,2025-04-28T0000,25,52,0.6,22,15,57,103,51,颗粒物(PM10)
辽阳市,滨河路,123.2354,41.2639,2025-04-28T0000,16,35,0.4,18,7,70,95,35,
辽阳市,铁西工业园,123.149,41.2991,2025-04-28T0000,28,50,0.5,21,11,51,95,50,
辽源市,环保局,125.1358,42.8845,2025-04-28T0000,3,43,0.2,11,12,80,104,43,
辽源市,银鹰制药,125.0764,42.9078,2025-04-28T0000,12,27,0.2,6,5,84,109,27,
聊城市,区政府,115.9848,36.4372,2025-04-28T0000,16,35,0.6,16,5,63,95,35,
聊城市,聊大东校,116.0072,36.4343,2025-04-28T0000,23,48,0.3,12,6,65,94,48,
聊城市,监控中心,115.9819,36.4978,2025-04-28T0000,24,45,0.5,36,5,32,93,45,
聊城市,九州社区,116.0445,36.4361,2025-04-28T0000,16,35,0.4,17,6,68,96,35,
聊城市,星美广场,116.0567,36.4608,2025-04-28T0000,18,45,0.6,20,9,58,89,45,
林芝市,林芝监测站,94.3681,29.6376,2025-04-28T0000,6,6,0.2,5,5,83,118,26,
林芝市,林芝人民医院,94.3616,29.6616,2025-04-28T0000,7,10,0.3,3,5,83,117,26,
临沧市,市环保局,100.0781,23.8982,2025-04-28T0000,88,92,0.8,13,7,98,155,117,细颗粒物(PM2.5)
临沧市,市气象局,100.0894,23.8822,2025-04-28T0000,59,88,0.8,17,9,101,164,80,细颗粒物(PM2.5)
临汾市,临钢医院,111.5531,36.0783,2025-04-28T0000,3,44,0.3,18,2,70,100,44,
临汾市,技工学校,111.5028,36.0714,2025-04-28T0000,20,55,0.2,31,6,47,104,53,颗粒物(PM10)
临汾市,市委,111.5018,36.0855,2025-04-28T0000,,27,0.1,9,5,87,105,,
临汾市,唐尧大酒店,111.505,36.1014,2025-04-28T0000,7,36,0.2,15,2,84,102,36,
临汾市,启星学校,111.4879,36.0530,2025-04-28T0000,14,47,0.4,33,5,37,102,47,
临夏回族自治州,滨河东路1号,103.2464,35.6123,2025-04-28T0000,46,85,0.7,19,3,5,92,68,颗粒物(PM10)
临夏回族自治州,新华街21号,103.2093,35.5995,2025-04-28T0000,45,66,0.7,28,2,23,85,63,细颗粒物(PM2.5)
临沂市,沂河小区,118.3429,35.0532,2025-04-28T0000,39,46,0.3,16,8,87,179,55,细颗粒物(PM2.5)
临沂市,鲁南制药厂,118.295,35.0583,2025-04-28T0000,27,41,0.4,19,5,93,191,41,
临沂市,新光毛纺厂,118.2794,34.9976,2025-04-28T0000,31,36,0.3,20,7,97,185,45,
临沂市,河东保险公司,118.3956,35.0888,2025-04-28T0000,32,46,0.3,18,5,99,193,46,
临沂市,十里堡居委,118.3564,35.0215,2025-04-28T0000,24,36,0.4,21,2,97,191,36,
临沂市,南坊新区,118.3604,35.1084,2025-04-28T0000,29,44,0.2,19,6,81,168,44,
临沂市,皇山花园小区,118.3920,35.0300,2025-04-28T0000,32,51,0.6,20,6,97,184,51,颗粒物(PM10)
柳州市,柳东小学,109.4856,24.3895,2025-04-28T0000,14,23,0.6,16,22,43,46,23,
柳州市,环保监测站,109.4157,24.3277,2025-04-28T0000,14,28,1.1,19,19,37,42,28,
柳州市,河西水厂,109.389,24.341,2025-04-28T0000,16,28,0.6,15,24,41,40,28,
柳州市,市四中,109.4311,24.2921,2025-04-28T0000,11,14,0.8,14,8,44,47,16,
柳州市,市九中,109.4006,24.3631,2025-04-28T0000,12,28,1.2,17,29,40,41,28,
柳州市,古亭山,109.4958,24.3134,2025-04-28T0000,10,20,0.8,9,10,29,42,20,
柳州市,市二中,109.5422,24.3996,2025-04-28T0000,11,16,0.5,14,14,32,44,16,
六安市,监测大楼,116.5079,31.737,2025-04-28T0000,19,27,0.4,9,4,130,140,41,
六安市,皖西学院,116.4738,31.7643,2025-04-28T0000,23,41,0.4,12,4,130,144,41,
六安市,朝阳厂,116.4996,31.7905,2025-04-28T0000,21,31,0.3,14,3,113,131,36,
六安市,开发区,116.5567,31.7886,2025-04-28T0000,17,36,0.4,58,4,131,138,41,
六盘水市,窑上,104.8,26.5892,2025-04-28T0000,20,32,0.3,5,4,52,82,32,
六盘水市,黄土坡,104.83,26.5917,2025-04-28T0000,24,,0.4,11,7,64,90,35,
六盘水市,水钢,104.89,26.5939,2025-04-28T0000,11,23,0.5,18,8,57,90,23,
六盘水市,民中,104.8475,26.5894,2025-04-28T0000,9,18,0.3,11,7,64,87,20,
六盘水市,双水,104.9544,26.5506,2025-04-28T0000,12,17,0.3,11,8,71,94,23,
龙岩市,龙岩师专,117.0189,25.1181,2025-04-28T0000,,,,,,,,,
龙岩市,龙岩市监测站,117.0217,25.1033,2025-04-28T0000,20,20,0.8,27,3,13,48,29,
龙岩市,闽西职业技术学院,117.0258,25.0661,2025-04-28T0000,14,16,0.7,24,6,14,42,20,
龙岩市,龙岩学院,117.0196,25.0306,2025-04-28T0000,14,20,0.6,17,10,16,46,20,
陇南市,汉王镇固水子,105.0822,33.3261,2025-04-28T0000,,,,,,,,,
陇南市,滨江中学,104.9339,33.3826,2025-04-28T0000,25,56,0.5,7,8,71,110,53,颗粒物(PM10)
陇南市,市总工会,104.955,33.371,2025-04-28T0000,21,48,0.2,6,6,79,118,48,
娄底市,电视发射台,111.9589,27.8901,2025-04-28T0000,13,38,0.4,1,4,7,60,38,
娄底市,市监测站,111.9975,27.725,2025-04-28T0000,23,44,1.0,23,6,26,74,44,
娄底市,市委党校,112.0194,27.7314,2025-04-28T0000,26,42,0.6,11,3,38,80,42,
娄底市,涟钢,111.9561,27.7569,2025-04-28T0000,26,42,0.5,17,10,15,73,42,
娄底市,市政府,111.9892,27.7044,2025-04-28T0000,26,35,0.5,13,3,16,82,38,
泸州市,九狮山,105.4324,28.9634,2025-04-28T0000,,,,,,,,,
泸州市,小市上码头,105.4427,28.9063,2025-04-28T0000,29,62,0.7,29,12,62,116,56,颗粒物(PM10)
泸州市,兰田宪桥,105.4241,28.8573,2025-04-28T0000,31,44,0.8,29,7,20,111,45,
泸州市,市环监站,105.4379,28.8833,2025-04-28T0000,,,,,,,,,
泸州市,纳溪中医医院,105.3689,28.7783,2025-04-28T0000,33,75,0.9,39,6,9,93,63,颗粒物(PM10)
吕梁市,环保局,111.1406,37.5211,2025-04-28T0000,13,88,0.4,56,2,12,99,69,颗粒物(PM10)
吕梁市,自来水公司,111.1297,37.5136,2025-04-28T0000,3,60,0.3,33,2,39,96,55,颗粒物(PM10)
吕梁市,马茂庄小学,111.1283,37.51,2025-04-28T0000,16,106,0.2,74,2,3,99,78,颗粒物(PM10)
洛阳市,市委党校,112.3931,34.6516,2025-04-28T0000,24,69,0.5,58,4,26,115,60,颗粒物(PM10)
洛阳市,河南林校,112.494,34.6886,2025-04-28T0000,22,66,0.4,32,6,47,124,58,颗粒物(PM10)
洛阳市,开发区管委会,112.3844,34.623,2025-04-28T0000,23,70,0.4,54,4,32,132,60,颗粒物(PM10)
洛阳市,市委新办公区,112.4267,34.6258,2025-04-28T0000,20,63,0.4,27,5,54,124,57,颗粒物(PM10)
洛阳市,伊滨,112.6005,34.6326,2025-04-28T0000,23,85,0.6,34,6,42,136,68,颗粒物(PM10)
洛阳市,中移产业园,112.4951,34.6332,2025-04-28T0000,23,73,0.4,27,7,58,132,62,颗粒物(PM10)
洛阳市,吉利监测站,112.5736,34.8993,2025-04-28T0000,20,78,0.5,39,8,35,127,64,颗粒物(PM10)
洛阳市,河科大西苑校区,112.3677,34.662,2025-04-28T0000,21,67,0.5,48,7,35,130,59,颗粒物(PM10)
洛阳市,英才小学,112.4388,34.6781,2025-04-28T0000,16,64,0.7,34,5,57,131,57,颗粒物(PM10)
洛阳市,春都路1号院,112.4600,34.6949,2025-04-28T0000,16,72,0.5,36,4,44,133,61,颗粒物(PM10)
漯河市,三五一五工厂,114.051,33.5699,2025-04-28T0000,32,81,0.7,13,6,83,163,66,颗粒物(PM10)
漯河市,漯河大学,114.0055,33.5698,2025-04-28T0000,36,83,0.5,14,6,81,164,67,颗粒物(PM10)
漯河市,市水利局,114.0138,33.5828,2025-04-28T0000,36,85,0.4,13,5,80,161,68,颗粒物(PM10)
漯河市,市广电局,114.0261,33.5698,2025-04-28T0000,41,83,0.5,8,4,82,164,67,颗粒物(PM10)
漯河市,市图书馆,113.9749,33.5664,2025-04-28T0000,31,94,0.6,15,4,82,160,72,颗粒物(PM10)
漯河市,韶山路11号,114.0892,33.5882,2025-04-28T0000,29,85,0.5,20,4,68,160,68,颗粒物(PM10)
马鞍山市,湖东路四小,118.5092,31.6837,2025-04-28T0000,42,55,0.7,27,10,60,127,59,细颗粒物(PM2.5)
马鞍山市,开发区,118.5024,31.6449,2025-04-28T0000,49,64,0.7,43,8,36,118,68,细颗粒物(PM2.5)
马鞍山市,濮塘,118.6245,31.7241,2025-04-28T0000,33,58,0.7,26,8,66,130,54,颗粒物(PM10)
马鞍山市,雨山,118.4918,31.6809,2025-04-28T0000,30,54,0.6,25,8,58,122,52,颗粒物(PM10)
马鞍山市,慈湖高新区,118.5274,31.72227,2025-04-28T0000,35,86,0.9,46,10,42,112,68,颗粒物(PM10)
茂名市,电白南海,111.0286,21.4688,2025-04-28T0000,24,29,0.7,12,2,36,83,35,
茂名市,茂石化七小,110.9294,21.6533,2025-04-28T0000,19,36,0.9,14,2,15,65,36,
茂名市,健康路,110.9107,21.6687,2025-04-28T0000,,,0.7,10,1,15,72,,
茂名市,高岭,110.8592,21.6828,2025-04-28T0000,9,34,0.6,14,4,17,64,34,
茂名市,电白水东,111.01,21.5165,2025-04-28T0000,9,14,0.9,10,3,33,74,14,
眉山市,黑龙滩水库,104.0308,30.0478,2025-04-28T0000,16,23,0.4,16,3,54,125,23,
眉山市,气象局,103.8416,30.0874,2025-04-28T0000,51,94,0.8,74,6,10,129,72,颗粒物(PM10)
眉山市,市委党校,103.8578,30.0744,2025-04-28T0000,36,58,0.7,75,7,10,120,54,颗粒物(PM10)
眉山市,区人社局,103.8291,30.0564,2025-04-28T0000,36,69,0.6,82,7,13,123,60,颗粒物(PM10)
梅州市,梅江月梅,116.1231,24.3284,2025-04-28T0000,22,28,0.7,12,4,24,65,32,
梅州市,梅县新城,116.0797,24.2719,2025-04-28T0000,17,17,0.6,15,5,27,78,25,
梅州市,环境监控中心,116.1248,24.2654,2025-04-28T0000,16,16,0.7,16,8,30,67,23,
梅州市,梅龙,116.1233,24.2991,2025-04-28T0000,16,17,0.8,24,6,20,70,23,
绵阳市,富乐山,104.7778,31.4741,2025-04-28T0000,26,42,0.4,24,8,60,119,42,
绵阳市,高新区自来水公司,104.6697,31.4668,2025-04-28T0000,31,88,0.6,78,5,3,131,69,颗粒物(PM10)
绵阳市,三水厂,104.7287,31.5075,2025-04-28T0000,36,69,0.8,70,6,4,132,60,颗粒物(PM10)
绵阳市,西科大附属小学,104.69,31.5322,2025-04-28T0000,29,56,0.6,66,7,19,129,53,颗粒物(PM10)
绵阳市,安州区旅游局,104.5648,31.5343,2025-04-28T0000,24,37,0.4,22,11,50,123,37,
绵阳市,绵阳市气象局,104.7651,31.4531,2025-04-28T0000,33,60,0.7,61,6,26,118,55,颗粒物(PM10)
牡丹江市,环保大楼,129.61,44.561,2025-04-28T0000,26,36,0.3,14,5,63,102,38,
牡丹江市,文化广场,129.6115,44.5782,2025-04-28T0000,29,47,0.8,32,18,46,101,47,
牡丹江市,第一医院,129.5904,44.5963,2025-04-28T0000,33,42,0.3,10,6,69,106,48,
牡丹江市,机车工厂,129.6364,44.6075,2025-04-28T0000,36,52,0.5,45,195,49,101,57,二氧化硫
牡丹江市,第一中学,129.6386,44.5462,2025-04-28T0000,16,42,0.4,10,6,55,107,42,
内江市,市监测站,105.0703,29.61,2025-04-28T0000,29,38,1.2,48,8,27,113,42,
内江市,东兴区政府,105.0717,29.5947,2025-04-28T0000,22,44,0.9,46,11,24,107,44,
内江市,内江二中,105.0653,29.5817,2025-04-28T0000,37,,0.6,32,5,42,105,53,细颗粒物(PM2.5)
内江市,内江日报社,105.0406,29.5822,2025-04-28T0000,31,,0.4,42,10,45,114,45,
那曲市,那曲监测站,92.0657,31.4846,2025-04-28T0000,14,24,0.6,18,7,94,121,30,
那曲市,那曲市委宣传部,92.0515,31.4787,2025-04-28T0000,16,31,0.3,8,7,105,136,33,
南昌市,省外办,115.8931,28.6843,2025-04-28T0000,22,31,0.8,47,6,5,34,32,
南昌市,省林业公司,115.8886,28.7003,2025-04-28T0000,19,29,0.9,39,7,0,42,29,
南昌市,林科所,115.8126,28.7442,2025-04-28T0000,19,27,0.4,25,4,32,26,28,
南昌市,建工学校,115.8518,28.687,2025-04-28T0000,21,39,0.8,50,2,6,37,39,
南昌市,象湖,115.8921,28.6424,2025-04-28T0000,22,34,1.0,35,6,9,39,34,
南昌市,武术学校,115.7423,28.7996,2025-04-28T0000,12,17,0.5,1,3,25,38,18,
南昌市,机电学校,115.9084,28.6062,2025-04-28T0000,27,40,0.8,31,3,10,37,40,
南昌市,外国语学校,115.9721,28.7031,2025-04-28T0000,14,23,0.6,28,7,18,48,23,
南昌市,南京东路235号,115.9316,28.68677,2025-04-28T0000,29,49,1.1,46,9,9,45,49,
南充市,西山风景区,106.056,30.8064,2025-04-28T0000,,,,,,,,,
南充市,南充市委,106.0789,30.8023,2025-04-28T0000,28,50,0.7,50,3,5,104,50,
南充市,南充炼油厂,106.1031,30.8217,2025-04-28T0000,38,65,0.9,68,3,7,102,58,颗粒物(PM10)
南充市,梨树横街98号,106.1083,30.7884,2025-04-28T0000,35,62,0.3,33,4,47,103,56,颗粒物(PM10)
南充市,清泉寺北路188号,106.1172,30.843,2025-04-28T0000,27,59,0.5,44,4,27,102,55,颗粒物(PM10)
南充市,同庆路1号,106.067,30.7616,2025-04-28T0000,27,60,0.8,53,3,9,104,55,颗粒物(PM10)
南京市,迈皋桥,118.8086,32.1065,2025-04-28T0000,36,57,0.7,104,4,37,122,54,颗粒物(PM10)
南京市,草场门,118.7538,32.0551,2025-04-28T0000,29,58,0.2,40,2,94,125,54,颗粒物(PM10)
南京市,山西路,118.7794,32.0745,2025-04-28T0000,24,58,0.4,33,5,110,130,54,颗粒物(PM10)
南京市,中华门,118.7752,32.0023,2025-04-28T0000,29,66,0.4,50,8,77,130,58,颗粒物(PM10)
南京市,瑞金路,118.8109,32.0309,2025-04-28T0000,34,68,0.4,37,7,74,126,59,颗粒物(PM10)
南京市,玄武湖,118.7997,32.0754,2025-04-28T0000,25,59,0.7,21,12,81,113,55,颗粒物(PM10)
南京市,浦口,118.6414,32.0931,2025-04-28T0000,32,57,0.5,20,6,124,125,54,颗粒物(PM10)
南京市,奥体中心,118.7356,31.9996,2025-04-28T0000,31,58,0.8,55,8,18,130,54,颗粒物(PM10)
南京市,仙林大学城,118.9125,32.1028,2025-04-28T0000,29,56,0.6,50,10,71,130,53,颗粒物(PM10)
南京市,江宁彩虹桥,118.8436,31.9198,2025-04-28T0000,31,54,0.7,94,3,8,139,52,颗粒物(PM10)
南京市,六合雄州,118.8554,32.3578,2025-04-28T0000,30,72,0.6,45,8,84,146,61,颗粒物(PM10)
南京市,汶溪路181号,118.8708,31.3402,2025-04-28T0000,21,,1.0,28,7,65,133,30,
南京市,中山西路1号,119.019,31.6512,2025-04-28T0000,22,39,0.7,20,3,84,139,39,
南宁市,二十一中,108.3103,22.7881,2025-04-28T0000,17,,0.9,9,4,53,73,25,
南宁市,北湖,108.3141,22.8528,2025-04-28T0000,31,32,0.7,14,6,49,76,45,
南宁市,市监测站,108.3206,22.8225,2025-04-28T0000,22,29,0.6,16,6,43,65,32,
南宁市,大自然花园,108.3829,22.8037,2025-04-28T0000,18,32,0.7,8,6,59,78,32,
南宁市,仙葫,108.4394,22.7904,2025-04-28T0000,22,23,0.7,10,5,50,66,32,
南宁市,区农职院,108.2397,22.8467,2025-04-28T0000,25,,0.5,11,4,52,79,36,
南宁市,英华嘉园,108.3275,22.735,2025-04-28T0000,18,24,0.5,12,8,55,71,26,
南宁市,红星社区,108.4834,22.7618,2025-04-28T0000,13,26,0.5,7,10,62,78,26,
南宁市,乐贤路16号,108.2177,22.7774,2025-04-28T0000,20,38,0.4,19,4,40,68,38,
南平市,茫荡山,118.0966,26.6761,2025-04-28T0000,,,,,,,,,
南平市,南平市监测站,118.1681,26.6369,2025-04-28T0000,22,31,0.7,13,3,30,72,32,
南平市,南平铝业有限公司,118.1825,26.6489,2025-04-28T0000,24,,0.8,12,3,30,71,35,
南平市,南平七中,118.1756,26.6272,2025-04-28T0000,17,23,0.8,14,4,20,71,25,
南通市,狼山街道,120.9098,31.9663,2025-04-28T0000,35,60,0.7,57,3,19,126,55,颗粒物(PM10)
南通市,虹桥,120.86,32.0005,2025-04-28T0000,40,55,0.8,51,3,47,131,57,细颗粒物(PM2.5)
南通市,城中,120.87,32.02,2025-04-28T0000,20,59,0.4,41,4,45,135,55,颗粒物(PM10)
南通市,星湖花园,120.94,31.93,2025-04-28T0000,37,62,0.8,46,2,44,131,56,颗粒物(PM10)
南通市,紫琅学院,120.81,32.0417,2025-04-28T0000,35,57,0.7,49,4,28,104,54,颗粒物(PM10)
南通市,通州监测站,121.067,32.062,2025-04-28T0000,19,48,0.5,20,4,46,143,48,
南通市,环境教育馆,120.9348,31.9883,2025-04-28T0000,36,56,0.4,67,2,22,140,53,颗粒物(PM10)
南阳市,瓦房庄,112.5224,33.0122,2025-04-28T0000,23,90,0.5,13,6,98,161,70,颗粒物(PM10)
南阳市,汉画馆,112.5003,32.9735,2025-04-28T0000,24,73,0.5,12,6,93,153,62,颗粒物(PM10)
南阳市,气象站,112.5573,33.027,2025-04-28T0000,27,89,0.5,10,5,91,160,70,颗粒物(PM10)
南阳市,理工学院,112.5481,32.9689,2025-04-28T0000,3,84,0.5,10,4,99,162,67,颗粒物(PM10)
南阳市,卧龙区政府,112.5234,32.9922,2025-04-28T0000,31,88,0.5,14,5,98,157,69,颗粒物(PM10)
宁波市,区环保大楼,121.8358,29.911,2025-04-28T0000,15,56,0.5,47,9,4,81,53,颗粒物(PM10)
宁波市,万里学院,121.56,29.82,2025-04-28T0000,34,47,0.8,57,7,0,88,49,
宁波市,龙赛医院,121.713,29.9572,2025-04-28T0000,23,66,0.7,55,6,2,88,58,颗粒物(PM10)
宁波市,钱湖水厂,121.633,29.7733,2025-04-28T0000,22,38,0.7,14,8,30,93,38,
宁波市,太古小学,121.5856,29.8635,2025-04-28T0000,28,63,0.9,62,6,2,90,57,颗粒物(PM10)
宁波市,市环境监测中心,121.524,29.8674,2025-04-28T0000,26,59,0.7,71,13,0,87,55,颗粒物(PM10)
宁波市,万里国际学校,121.6147,29.9017,2025-04-28T0000,26,45,0.8,69,9,1,96,45,
宁波市,白沙活动中心,121.5594,29.8975,2025-04-28T0000,24,37,0.6,66,8,0,90,37,
宁德市,金涵水库,119.5001,26.6946,2025-04-28T0000,,,,,,,,,
宁德市,宁德市监测站,119.5388,26.6612,2025-04-28T0000,36,,0.8,30,5,68,108,52,细颗粒物(PM2.5)
宁德市,宁德一中,119.5231,26.6562,2025-04-28T0000,35,,0.5,22,6,64,104,50,
怒江傈僳族自治州,州监测站,98.8601,25.8567,2025-04-28T0000,14,33,0.3,4,7,103,128,33,
怒江傈僳族自治州,泸水一中,98.8546,25.8417,2025-04-28T0000,3,21,0.4,6,7,91,99,29,
攀枝花市,弄弄坪,101.6891,26.571,2025-04-28T0000,28,64,0.9,19,19,102,137,57,颗粒物(PM10)
攀枝花市,河门口,101.5769,26.5928,2025-04-28T0000,25,52,0.6,19,12,92,140,51,颗粒物(PM10)
攀枝花市,炳草岗,101.7169,26.585,2025-04-28T0000,26,49,0.5,19,18,102,144,49,
攀枝花市,仁和,101.7369,26.5008,2025-04-28T0000,25,54,0.5,13,9,82,140,52,颗粒物(PM10)
攀枝花市,四十中小,101.7227,26.567,2025-04-28T0000,30,56,1.1,19,8,107,146,53,颗粒物(PM10)
盘锦市,开发区,122.0303,41.1489,2025-04-28T0000,10,22,0.3,24,11,66,103,22,
盘锦市,兴隆台,122.0485,41.0883,2025-04-28T0000,6,16,0.4,27,11,64,96,20,
盘锦市,新生街道,121.8297,41.1028,2025-04-28T0000,8,16,0.4,42,22,58,109,21,
平顶山市,新华旅馆,113.3257,33.742,2025-04-28T0000,35,91,0.6,18,8,81,156,71,颗粒物(PM10)
平顶山市,规划设计院,113.2919,33.737,2025-04-28T0000,28,76,0.4,17,9,80,151,63,颗粒物(PM10)
平顶山市,平顶山工学院,113.182,33.774,2025-04-28T0000,29,75,0.4,27,6,62,137,63,颗粒物(PM10)
平顶山市,规划局,113.3025,33.73,2025-04-28T0000,23,78,0.4,18,9,73,156,64,颗粒物(PM10)
平顶山市,石龙区,112.8867,33.9116,2025-04-28T0000,35,80,0.4,78,7,3,156,65,颗粒物(PM10)
平凉市,聚贤嘉苑,106.6692,35.5461,2025-04-28T0000,26,48,0.4,49,13,35,103,48,
平凉市,博物馆,106.7021,35.5307,2025-04-28T0000,18,54,0.4,33,11,55,105,52,颗粒物(PM10)
萍乡市,武功山,114.0997,27.5002,2025-04-28T0000,7,,1.3,6,13,21,40,13,
萍乡市,中医院,113.8385,27.6434,2025-04-28T0000,23,30,0.7,16,8,20,42,33,
萍乡市,市政府车库,113.8493,27.6253,2025-04-28T0000,12,14,0.6,14,4,27,46,18,
萍乡市,市环保局,113.8676,27.6435,2025-04-28T0000,10,21,0.7,20,3,26,45,21,
萍乡市,安源区政府,113.866,27.6198,2025-04-28T0000,15,19,0.6,11,5,24,39,22,
莆田市,荔城区仓后路,119.0141,25.4325,2025-04-28T0000,46,,0.7,24,4,72,113,64,细颗粒物(PM2.5)
莆田市,莆田市监测站,119.0015,25.4553,2025-04-28T0000,47,,0.6,15,5,52,120,65,细颗粒物(PM2.5)
莆田市,涵江区六中,119.1119,25.4561,2025-04-28T0000,50,,0.5,25,6,89,119,69,细颗粒物(PM2.5)
莆田市,秀屿区政府,119.1013,25.3215,2025-04-28T0000,33,,0.6,11,5,107,128,48,
莆田市,东圳水库,118.981,25.4792,2025-04-28T0000,,,,,,,,,
濮阳市,环保局,115.0312,35.7636,2025-04-28T0000,21,44,0.6,16,9,80,111,44,
濮阳市,油田运输公司,115.0574,35.7609,2025-04-28T0000,24,52,0.8,23,7,73,120,51,颗粒物(PM10)
濮阳市,濮水河管理处,115,35.7668,2025-04-28T0000,24,44,0.7,24,4,54,115,44,
濮阳市,任丘路479号,115.0924,35.7686,2025-04-28T0000,26,54,0.7,19,9,76,118,52,颗粒物(PM10)
普洱市,市环保局,100.98,22.7633,2025-04-28T0000,56,96,0.7,16,8,83,157,77,细颗粒物(PM2.5)
普洱市,普洱第二中学,100.9817,22.8322,2025-04-28T0000,40,84,0.8,68,8,35,166,67,颗粒物(PM10)
七台河市,新一中,131.0518,45.8751,2025-04-28T0000,13,20,0.7,8,10,76,109,24,
七台河市,中波台,131.0577,45.7879,2025-04-28T0000,15,18,0.5,10,5,73,86,23,
七台河市,人民广场,131.0176,45.7761,2025-04-28T0000,22,25,0.5,16,10,70,103,32,
七台河市,新建矿广场,130.8781,45.8222,2025-04-28T0000,20,,0.6,25,3,37,91,29,
齐齐哈尔市,安居小区,123.9305,47.3636,2025-04-28T0000,10,14,0.3,8,1,49,91,16,
齐齐哈尔市,中心广场,123.9488,47.3386,2025-04-28T0000,7,22,0.2,6,6,59,92,22,
齐齐哈尔市,农牧车辆厂,123.9483,47.3227,2025-04-28T0000,23,,0.2,6,4,57,93,33,
齐齐哈尔市,市环境监测站,123.945,47.2988,2025-04-28T0000,11,21,0.3,7,2,58,92,21,
齐齐哈尔市,富区青少年活动中心,123.6333,47.2075,2025-04-28T0000,14,23,0.4,8,2,45,82,23,
黔东南苗族侗族自治州,市环境监测站,107.9783,26.5747,2025-04-28T0000,18,29,0.6,33,3,11,61,29,
黔东南苗族侗族自治州,凯里学院,107.8908,26.5311,2025-04-28T0000,11,17,0.6,28,1,3,66,17,
黔南布依族苗族自治州,小围寨,107.5228,26.2403,2025-04-28T0000,14,24,0.3,12,2,21,64,24,
黔南布依族苗族自治州,沙坝,107.5175,26.2978,2025-04-28T0000,14,27,0.5,12,4,19,67,27,
黔西南布依族苗族自治州,场坝街,104.9022,25.0925,2025-04-28T0000,18,36,0.5,12,6,86,92,36,
黔西南布依族苗族自治州,坪东大道,104.8811,25.0992,2025-04-28T0000,33,34,0.3,10,6,87,93,48,
钦州市,市环保站,108.6236,21.9667,2025-04-28T0000,9,22,0.8,31,2,13,58,22,
钦州市,沙埠小学,108.6549,21.9481,2025-04-28T0000,21,70,0.9,43,7,0,62,60,颗粒物(PM10)
钦州市,港区一小,108.5989,21.7431,2025-04-28T0000,16,49,0.6,30,8,16,45,49,
钦州市,北职校,108.5959,21.9633,2025-04-28T0000,24,58,0.7,36,6,3,57,54,颗粒物(PM10)
秦皇岛市,第一关,119.7493,40.0116,2025-04-28T0000,29,52,0.7,54,10,40,99,51,颗粒物(PM10)
秦皇岛市,监测站,119.5897,39.9499,2025-04-28T0000,12,72,0.9,21,11,70,98,61,颗粒物(PM10)
秦皇岛市,建设大厦,119.5251,39.9041,2025-04-28T0000,16,50,1.0,29,13,66,99,50,
秦皇岛市,文明里,119.610547,39.943889,2025-04-28T0000,15,51,0.8,25,11,66,91,51,颗粒物(PM10)
秦皇岛市,北戴河轮滑馆,119.5090,39.8253,2025-04-28T0000,13,49,0.4,33,8,44,98,49,
青岛市,仰口,120.6659,36.2403,2025-04-28T0000,22,31,0.4,12,6,78,144,32,
青岛市,市南区东部子站,120.4134,36.0658,2025-04-28T0000,27,66,0.5,28,8,43,95,58,颗粒物(PM10)
青岛市,四方区子站,120.3664,36.1032,2025-04-28T0000,31,61,0.7,29,7,48,114,56,颗粒物(PM10)
青岛市,市南区西部子站,120.2994,36.054,2025-04-28T0000,34,53,0.8,32,7,48,93,52,颗粒物(PM10)
青岛市,崂山区子站,120.4581,36.0858,2025-04-28T0000,7,19,0.4,14,8,81,103,26,
青岛市,城阳区子站,120.3999,36.3083,2025-04-28T0000,34,73,0.5,28,5,38,136,62,颗粒物(PM10)
青岛市,黄岛区4号,120.0405,35.8735,2025-04-28T0000,17,,0.7,20,8,69,96,,
青岛市,即墨2号,120.5014,36.4034,2025-04-28T0000,28,56,0.5,15,8,79,141,53,颗粒物(PM10)
青岛市,市北区南部,120.3503,36.0736,2025-04-28T0000,36,72,0.7,26,7,42,102,61,颗粒物(PM10)
青岛市,李沧区北部,120.3948,36.1805,2025-04-28T0000,44,68,0.7,44,8,23,106,62,细颗粒物(PM2.5)
青岛市,珠江路669号,120.1969,35.9546,2025-04-28T0000,37,56,0.8,30,7,56,101,53,"颗粒物(PM10),细颗粒物(PM2.5)"
清远市,环保大楼,113.0426,23.691,2025-04-28T0000,26,81,0.9,30,6,18,36,66,颗粒物(PM10)
清远市,凤城街办,113.0208,23.7106,2025-04-28T0000,26,36,0.8,47,4,7,29,38,
清远市,技师学院,113.0477,23.6344,2025-04-28T0000,28,48,0.8,35,7,11,36,48,
清远市,清新太和,112.9903,23.7403,2025-04-28T0000,15,22,0.7,30,6,18,40,22,
清远市,清城东城,113.076,23.7198,2025-04-28T0000,32,51,0.9,18,7,22,36,51,颗粒物(PM10)
庆阳市,庆阳五中,107.6325,35.7357,2025-04-28T0000,3,32,0.2,4,2,94,94,32,
庆阳市,市环保局,107.6364,35.7067,2025-04-28T0000,8,39,0.4,6,5,94,98,39,
曲靖市,环境监测站,103.7897,25.5035,2025-04-28T0000,33,69,0.5,13,3,73,160,60,颗粒物(PM10)
曲靖市,烟厂办公区,103.8,25.5364,2025-04-28T0000,38,65,0.6,11,5,85,162,58,颗粒物(PM10)
曲靖市,南苑二区,103.7947,25.462,2025-04-28T0000,37,84,0.5,13,5,84,160,67,颗粒物(PM10)
曲靖市,曲靖师范学院,103.7444,25.5261,2025-04-28T0000,52,56,0.5,17,7,72,150,72,细颗粒物(PM2.5)
衢州市,环保大楼,118.8692,28.9398,2025-04-28T0000,22,35,0.6,15,3,36,65,35,
衢州市,实验学校,118.8709,28.9666,2025-04-28T0000,23,32,0.4,23,4,28,61,33,
衢州市,衢州学院,118.8621,28.9808,2025-04-28T0000,27,37,0.5,35,4,15,62,39,
泉州市,涂山街,118.5819,24.9117,2025-04-28T0000,52,,0.7,43,9,50,136,72,细颗粒物(PM2.5)
泉州市,津头埔,118.5972,24.8978,2025-04-28T0000,52,,0.7,45,4,55,137,72,细颗粒物(PM2.5)
泉州市,万安,118.6663,24.9424,2025-04-28T0000,38,40,0.7,38,4,46,142,54,细颗粒物(PM2.5)
泉州市,清源山,118.6117,24.9604,2025-04-28T0000,,,,,,,,,
泉州市,城华南路,118.6333,24.9264,2025-04-28T0000,49,55,0.6,33,3,49,100,68,细颗粒物(PM2.5)
日喀则市,日喀则监测站,88.8876,29.2718,2025-04-28T0000,11,24,0.4,8,5,140,152,44,
日喀则市,林业技术推广中心,88.8781,29.2426,2025-04-28T0000,13,28,0.5,3,6,127,142,40,
日照市,监测站,119.471,35.4209,2025-04-28T0000,21,44,0.5,16,6,86,97,44,
日照市,市政府广场,119.523,35.4216,2025-04-28T0000,26,44,0.5,15,4,78,85,44,
日照市,港务局,119.5587,35.4044,2025-04-28T0000,35,46,0.7,16,6,82,78,50,
日照市,职业技术学院,119.5328,35.4625,2025-04-28T0000,22,46,0.6,12,5,77,93,46,
日照市,岚山环保分局,119.3266,35.1044,2025-04-28T0000,37,61,1.2,30,16,71,123,56,颗粒物(PM10)
三门峡市,市政府,111.1922,34.7752,2025-04-28T0000,23,64,0.9,32,11,71,124,57,颗粒物(PM10)
三门峡市,开发区,111.1587,34.7942,2025-04-28T0000,39,70,0.7,15,7,98,122,60,颗粒物(PM10)
三门峡市,风景区,111.143,34.7955,2025-04-28T0000,17,64,0.5,11,9,99,126,57,颗粒物(PM10)
三门峡市,三门峡市第一小学,111.1911,34.7829,2025-04-28T0000,18,58,0.6,12,8,98,131,54,颗粒物(PM10)
三门峡市,富达温泉假日酒店,111.1,34.7167,2025-04-28T0000,17,68,0.6,36,7,54,129,59,颗粒物(PM10)
三明市,三钢,117.6211,26.2625,2025-04-28T0000,18,25,0.9,23,3,19,64,26,
三明市,三明二中,117.635,26.2714,2025-04-28T0000,30,,0.9,24,2,19,64,43,
三明市,三元区政府,117.6028,26.2378,2025-04-28T0000,34,,1.0,26,2,19,62,49,
三明市,洋溪,117.7275,26.3108,2025-04-28T0000,,,,,,,,,
三亚市,河东子站,109.5078,18.2489,2025-04-28T0000,9,,0.1,5,4,26,45,13,
三亚市,河西子站,109.4964,18.2681,2025-04-28T0000,6,13,0.2,10,2,22,46,13,
三亚市,君悦子站,109.7348,18.3443,2025-04-28T0000,18,25,0.3,18,4,12,50,26,
山南市,山南监测站,91.7608,29.2313,2025-04-28T0000,6,9,0.4,4,3,131,142,41,
山南市,山南人民医院,91.7706,29.2436,2025-04-28T0000,9,16,0.4,4,4,143,148,45,
汕头市,金平子站,116.6794,23.3667,2025-04-28T0000,16,17,0.7,11,6,97,123,31,
汕头市,龙湖子站,116.7244,23.3633,2025-04-28T0000,14,18,0.4,8,4,99,124,31,
汕头市,濠江子站,116.7258,23.2775,2025-04-28T0000,18,,1.0,10,4,108,128,34,
汕头市,澄海子站,116.7519,23.4714,2025-04-28T0000,24,30,0.9,24,3,71,122,35,
汕头市,潮阳子站,116.6092,23.2539,2025-04-28T0000,17,,0.5,11,6,103,115,33,
汕头市,潮南峡山,116.454,23.2684,2025-04-28T0000,22,29,0.6,8,4,98,118,32,
汕头市,潮南子站,116.4069,23.2533,2025-04-28T0000,32,43,0.7,12,5,72,97,46,
汕尾市,市环保局,115.3653,22.775,2025-04-28T0000,18,26,0.8,13,7,75,104,26,
汕尾市,市政府,115.3706,22.7898,2025-04-28T0000,26,32,0.6,17,4,62,90,38,
汕尾市,新城中学,115.3622,22.7925,2025-04-28T0000,20,25,0.8,15,7,69,95,29,
商洛市,监测站,109.9154,33.8715,2025-04-28T0000,27,82,0.4,23,10,66,118,66,颗粒物(PM10)
商洛市,商州区中学,109.9643,33.8471,2025-04-28T0000,18,37,0.3,38,3,55,115,37,
商丘市,环境监测站,115.6702,34.4285,2025-04-28T0000,28,41,0.3,17,2,75,154,41,
商丘市,粮食局,115.6458,34.4045,2025-04-28T0000,27,42,0.5,13,2,81,156,42,
商丘市,睢阳区环保局,115.6293,34.3948,2025-04-28T0000,29,,0.3,14,3,84,161,,
商丘市,梁园区档案局,115.6071,34.4465,2025-04-28T0000,33,35,0.4,13,4,73,147,48,
上海市,普陀,121.4,31.238,2025-04-28T0000,48,79,0.8,110,6,5,114,67,细颗粒物(PM2.5)
上海市,十五厂,121.478,31.2036,2025-04-28T0000,45,79,0.8,81,8,14,106,65,颗粒物(PM10)
上海市,虹口,121.467,31.3008,2025-04-28T0000,26,73,1.1,113,8,2,108,62,颗粒物(PM10)
上海市,静安监测站,121.425,31.2261,2025-04-28T0000,38,78,1.1,87,8,13,118,64,颗粒物(PM10)
上海市,浦东川沙,121.703,31.1907,2025-04-28T0000,37,72,0.7,42,6,50,99,61,颗粒物(PM10)
上海市,浦东新区监测站,121.533,31.2284,2025-04-28T0000,40,69,0.6,50,6,38,102,60,颗粒物(PM10)
上海市,浦东张江,121.577,31.2071,2025-04-28T0000,37,78,0.9,58,6,24,106,64,颗粒物(PM10)
上海市,宝山庙行,121.4316,31.3322,2025-04-28T0000,32,79,0.8,109,8,0,117,65,颗粒物(PM10)
上海市,崇明上实东滩,121.8791,31.4662,2025-04-28T0000,24,34,0.5,34,2,19,99,35,
上海市,嘉定南翔,121.3162,31.2838,2025-04-28T0000,48,89,0.8,113,7,8,110,70,颗粒物(PM10)
上海市,金山新城,121.3359,30.7456,2025-04-28T0000,26,49,0.6,24,2,67,104,49,
上海市,闵行浦江,121.4996,31.0739,2025-04-28T0000,49,72,0.8,50,4,33,102,68,细颗粒物(PM2.5)
上海市,青浦徐泾,121.2886,31.1663,2025-04-28T0000,41,75,0.9,96,6,6,114,63,颗粒物(PM10)
上海市,松江图书馆,121.2186,31.0378,2025-04-28T0000,47,92,0.6,58,9,47,115,71,颗粒物(PM10)
上海市,长宁仙霞,121.3902,31.2059,2025-04-28T0000,40,75,1.1,89,8,7,109,63,颗粒物(PM10)
上海市,浦东惠南,121.7965,31.0507,2025-04-28T0000,36,56,0.6,59,8,26,92,53,颗粒物(PM10)
上海市,奉贤南桥新城,121.4891,30.925,2025-04-28T0000,52,55,0.8,45,3,44,99,72,细颗粒物(PM2.5)
上海市,冠生园路458号,121.4174,31.16637,2025-04-28T0000,40,65,0.8,82,7,8,120,58,颗粒物(PM10)
上海市,宁武路151号,121.5419,31.2683,2025-04-28T0000,26,85,0.9,88,8,6,91,68,颗粒物(PM10)
上饶市,百草园,118.005,28.4572,2025-04-28T0000,,,,,,,,,
上饶市,市监测站,117.9756,28.4436,2025-04-28T0000,7,20,0.6,11,3,27,55,20,
上饶市,凤凰光学,117.9519,28.4628,2025-04-28T0000,13,21,0.8,18,5,32,55,21,
上饶市,双创科技城,117.897,28.4315,2025-04-28T0000,20,24,0.6,40,4,14,63,29,
上饶市,裕丰大道,118.1904,28.4448,2025-04-28T0000,11,11,0.3,8,5,47,78,16,
韶关市,市八中,113.5824,24.7733,2025-04-28T0000,18,28,0.8,29,6,7,24,28,
韶关市,园林处,113.5917,24.7972,2025-04-28T0000,17,24,0.9,17,4,13,25,25,
韶关市,曲江监测站,113.5971,24.6863,2025-04-28T0000,15,26,1.0,34,8,2,32,26,
韶关市,大学路288号,113.6668,24.7756,2025-04-28T0000,20,26,0.8,23,5,1,16,29,
韶关市,碧湖山庄,113.5556,24.8082,2025-04-28T0000,15,22,0.7,15,4,8,23,22,
邵阳市,市水土所,111.5239,27.3033,2025-04-28T0000,,,,,,,,,
邵阳市,市化工厂,111.5283,27.2442,2025-04-28T0000,17,42,0.6,29,5,3,73,42,
邵阳市,市环保局,111.4328,27.2272,2025-04-28T0000,20,28,0.7,17,2,23,72,29,
邵阳市,北塔二期4-26地块,111.4460,27.2472,2025-04-28T0000,17,28,0.6,12,3,12,69,28,
邵阳市,邵水西路287号,111.4739,27.2282,2025-04-28T0000,33,47,1.1,32,7,3,64,48,
绍兴市,城东开发委,120.6053,29.9928,2025-04-28T0000,17,23,0.2,12,6,61,93,25,
绍兴市,树下王站,120.5483,30.0003,2025-04-28T0000,24,36,0.6,14,6,59,100,36,
绍兴市,绍兴中专,120.5683,29.9361,2025-04-28T0000,6,22,0.4,11,5,57,89,22,
绍兴市,柯桥区政府,120.4906,30.0861,2025-04-28T0000,23,45,0.3,18,6,51,102,45,
绍兴市,重华小学,120.8752,30.0249,2025-04-28T0000,27,37,0.6,22,9,42,87,39,
绍兴市,上虞中学,120.8369,30.0137,2025-04-28T0000,29,43,0.8,37,17,25,89,43,
绍兴市,柯桥妇保,120.4722,30.0415,2025-04-28T0000,25,47,0.4,19,6,51,101,47,
绍兴市,袍江中学,120.6153,30.0764,2025-04-28T0000,23,37,0.5,12,3,57,102,37,
深圳市,通心岭子站,114.1063,22.5545,2025-04-28T0000,18,31,0.5,7,5,77,107,31,
深圳市,洪湖,114.117,22.5625,2025-04-28T0000,22,35,0.5,11,6,73,103,35,
深圳市,华侨城,113.987,22.5417,2025-04-28T0000,25,46,0.7,21,6,49,98,46,
深圳市,南海子站,113.9181,22.5171,2025-04-28T0000,30,43,0.7,28,6,48,106,43,
深圳市,盐田,114.2458,22.5689,2025-04-28T0000,25,44,0.6,25,8,58,86,44,
深圳市,龙岗,114.2283,22.7244,2025-04-28T0000,29,44,0.8,16,6,71,105,44,
深圳市,南澳,114.494,22.5422,2025-04-28T0000,17,39,0.6,6,6,77,95,39,
深圳市,葵涌,114.41,22.6342,2025-04-28T0000,25,44,0.7,9,7,88,100,44,
深圳市,梅沙,114.297,22.5978,2025-04-28T0000,28,56,0.8,27,8,61,104,53,颗粒物(PM10)
深圳市,观澜,114.0678,22.738,2025-04-28T0000,34,71,0.8,36,6,25,88,61,颗粒物(PM10)
深圳市,莲花,114.0731,22.559,2025-04-28T0000,17,27,0.3,14,6,37,104,27,
深圳市,民治,114.0261,22.6198,2025-04-28T0000,23,34,0.7,20,6,46,97,34,
深圳市,横岗,114.1871,22.6451,2025-04-28T0000,34,45,0.7,47,6,34,94,49,
深圳市,坪山,114.3551,22.7151,2025-04-28T0000,24,42,0.5,10,7,82,98,42,
深圳市,西乡,113.8953,22.5861,2025-04-28T0000,31,76,0.8,36,8,33,100,63,颗粒物(PM10)
沈阳市,森林路,123.6836,41.9339,2025-04-28T0000,,,,,,,,,
沈阳市,浑南东路,123.505,41.7406,2025-04-28T0000,13,39,0.3,6,6,78,98,39,
沈阳市,新秀街,123.4231,41.6989,2025-04-28T0000,13,44,0.4,14,11,69,94,44,
沈阳市,东陵路,123.5903,41.8411,2025-04-28T0000,14,69,0.4,16,8,72,98,60,颗粒物(PM10)
沈阳市,陵东街,123.4264,41.8467,2025-04-28T0000,11,39,0.7,11,7,77,97,39,
沈阳市,文化路,123.4114,41.7653,2025-04-28T0000,10,50,0.5,11,7,73,97,50,
沈阳市,小河沿,123.4678,41.7867,2025-04-28T0000,12,40,0.3,7,8,79,100,40,
沈阳市,太原街,123.4017,41.7972,2025-04-28T0000,7,50,0.4,12,6,74,96,50,
沈阳市,京沈街,123.3783,41.9228,2025-04-28T0000,15,71,0.5,7,8,71,95,61,颗粒物(PM10)
沈阳市,沈辽西路,123.2444,41.7347,2025-04-28T0000,12,55,0.4,10,9,74,104,53,颗粒物(PM10)
沈阳市,裕农路,123.5953,41.9086,2025-04-28T0000,15,58,0.4,14,8,75,101,54,颗粒物(PM10)
十堰市,武当山,111.0419,32.395,2025-04-28T0000,14,32,0.6,13,10,139,164,44,
十堰市,滨河新村,110.78,32.6494,2025-04-28T0000,27,40,0.4,25,6,49,115,40,
十堰市,刘家沟,110.7258,32.6389,2025-04-28T0000,26,33,0.5,9,6,62,121,38,
十堰市,铁二处,110.8839,32.5714,2025-04-28T0000,24,40,0.5,8,7,69,134,40,
十堰市,郧阳区金沙路,110.8054,32.8401,2025-04-28T0000,22,27,0.5,8,6,42,110,32,
石河子市,艾青诗歌馆,86.0497,44.2967,2025-04-28T0000,9,43,0.4,18,6,82,136,43,
石河子市,南区管委会,86.047,44.2331,2025-04-28T0000,16,52,0.3,6,8,94,132,51,颗粒物(PM10)
石河子市,世纪广场,86.0791,44.3017,2025-04-28T0000,10,39,0.4,19,8,73,131,39,
石家庄市,职工医院,114.4422,38.0444,2025-04-28T0000,29,60,0.3,16,10,66,98,55,颗粒物(PM10)
石家庄市,高新区,114.6063,38.0266,2025-04-28T0000,38,83,0.3,28,9,60,111,67,颗粒物(PM10)
石家庄市,西北水源,114.4898,38.1328,2025-04-28T0000,24,72,0.3,27,17,74,108,61,颗粒物(PM10)
石家庄市,西南高教,114.4586,38.0058,2025-04-28T0000,24,88,0.1,22,11,66,109,69,颗粒物(PM10)
石家庄市,世纪公园,114.5331,38.0178,2025-04-28T0000,32,84,0.3,30,10,54,102,67,颗粒物(PM10)
石家庄市,人民会堂,114.509,38.0457,2025-04-28T0000,22,78,0.3,21,18,77,111,64,颗粒物(PM10)
石家庄市,封龙山,114.3524,37.8911,2025-04-28T0000,27,91,0.3,4,2,109,107,71,颗粒物(PM10)
石家庄市,22中南校区,114.5481,38.0378,2025-04-28T0000,52,73,0.1,28,12,58,106,72,细颗粒物(PM2.5)
石家庄市,鹿泉一中,114.289,38.0906,2025-04-28T0000,35,83,0.2,25,2,48,110,67,颗粒物(PM10)
石家庄市,藁城区实验学校,114.8506765,38.0322033,2025-04-28T0000,18,56,0.3,26,2,54,112,53,颗粒物(PM10)
石家庄市,栾城区星河路,114.6549,37.9020,2025-04-28T0000,32,47,0.4,38,6,50,107,47,
石家庄市,矿区区委大楼,114.0494,38.059,2025-04-28T0000,8,84,0.3,45,3,32,109,67,颗粒物(PM10)
石嘴山市,沙湖旅游区,106.3394,38.817,2025-04-28T0000,,,,,,,,,
石嘴山市,大武口朝阳西街,106.3668,39.0145,2025-04-28T0000,14,54,0.8,48,16,48,109,52,颗粒物(PM10)
石嘴山市,惠农南大街,106.7704,39.2282,2025-04-28T0000,20,65,0.6,68,18,22,92,58,颗粒物(PM10)
石嘴山市,红果子镇惠新街,106.7099,39.1325,2025-04-28T0000,38,95,0.7,72,8,13,100,73,颗粒物(PM10)
石嘴山市,妇女儿童医院,106.3495,38.9836,2025-04-28T0000,20,59,0.5,31,18,60,109,55,颗粒物(PM10)
石嘴山市,石大公路,106.7492,39.2069,2025-04-28T0000,29,70,0.6,72,12,18,103,60,颗粒物(PM10)
双鸭山市,双合村,131.1511,46.6937,2025-04-28T0000,17,20,0.3,9,6,58,79,25,
双鸭山市,南小市,131.1652,46.6191,2025-04-28T0000,13,,0.7,6,6,74,79,24,
双鸭山市,环保局,131.1524,46.6554,2025-04-28T0000,40,,0.3,7,6,68,74,57,细颗粒物(PM2.5)
双鸭山市,苗圃,131.12,46.5656,2025-04-28T0000,,,,,,,,,
朔州市,平朔,112.4397,39.3522,2025-04-28T0000,17,55,0.4,19,7,76,94,53,颗粒物(PM10)
朔州市,朔唯,112.4575,39.3617,2025-04-28T0000,23,75,0.5,70,14,27,86,63,颗粒物(PM10)
朔州市,区政府,112.4258,39.3197,2025-04-28T0000,18,37,0.8,14,8,73,88,37,
朔州市,市环保局,112.4072,39.3278,2025-04-28T0000,13,37,0.5,23,8,67,84,37,
朔州市,市二中,112.4272,39.3681,2025-04-28T0000,9,56,0.4,20,9,73,90,53,颗粒物(PM10)
朔州市,一水厂,112.2931,39.53,2025-04-28T0000,12,33,0.4,10,64,90,107,33,
四平市,一商场,124.4002,43.1713,2025-04-28T0000,22,54,1.9,6,15,56,85,52,颗粒物(PM10)
四平市,境园,124.388,43.193,2025-04-28T0000,22,59,2.6,10,14,58,88,55,颗粒物(PM10)
四平市,植物园,124.4036,43.1411,2025-04-28T0000,8,45,1.2,8,10,71,97,45,
四平市,世纪城,124.3419,43.1666,2025-04-28T0000,21,38,0,18,3,58,95,38,
松原市,江南,124.8006,45.1214,2025-04-28T0000,20,28,0.6,10,2,77,88,29,
松原市,江北,124.7965,45.1722,2025-04-28T0000,22,32,0.5,11,2,71,90,32,
苏州市,上方山,120.561,31.2472,2025-04-28T0000,,,,,,,,,
苏州市,彩香,120.591,31.3019,2025-04-28T0000,55,87,0.7,66,6,50,123,75,细颗粒物(PM2.5)
苏州市,轧钢厂,120.596,31.3264,2025-04-28T0000,61,107,0.9,60,8,2,128,83,细颗粒物(PM2.5)
苏州市,吴中区,120.613,31.2703,2025-04-28T0000,59,100,0.8,76,7,53,130,80,细颗粒物(PM2.5)
苏州市,苏州新区,120.543,31.2994,2025-04-28T0000,63,95,0.6,43,4,99,140,85,细颗粒物(PM2.5)
苏州市,苏州工业园区,120.669,31.3097,2025-04-28T0000,54,96,0.7,73,7,46,120,74,细颗粒物(PM2.5)
苏州市,相城区,120.641,31.3708,2025-04-28T0000,59,88,0.7,84,9,56,138,80,细颗粒物(PM2.5)
苏州市,方洲路,120.743,31.3188,2025-04-28T0000,50,78,0.6,79,6,10,117,69,细颗粒物(PM2.5)
苏州市,木渎中学,120.5031,31.2774,2025-04-28T0000,38,60,0.8,15,6,145,145,55,颗粒物(PM10)
苏州市,越秀幼儿园,120.624,31.1733,2025-04-28T0000,51,71,0.7,68,5,59,129,70,细颗粒物(PM2.5)
苏州市,高铁新城,120.6505,31.416,2025-04-28T0000,68,121,0.7,132,7,2,122,92,细颗粒物(PM2.5)
宿迁市,宿迁学院,118.293,33.9528,2025-04-28T0000,57,84,0.6,55,6,60,165,78,细颗粒物(PM2.5)
宿迁市,宿迁中学,118.2442,33.9592,2025-04-28T0000,49,69,0.6,53,6,58,176,68,细颗粒物(PM2.5)
宿迁市,市供电局,118.283,33.965,2025-04-28T0000,66,68,0.8,41,6,78,175,89,细颗粒物(PM2.5)
宿迁市,宿豫区政府,118.3225,33.9447,2025-04-28T0000,63,105,0.8,28,6,98,164,85,细颗粒物(PM2.5)
宿州市,远航博物馆,116.9509,33.666,2025-04-28T0000,42,128,0.5,16,5,93,181,89,颗粒物(PM10)
宿州市,社会福利中心,116.9708,33.591,2025-04-28T0000,50,132,0.7,20,8,102,188,91,颗粒物(PM10)
宿州市,宿州学院,116.9884,33.6305,2025-04-28T0000,50,144,0.7,20,7,96,186,97,颗粒物(PM10)
宿州市,皖北煤电集团,116.9648,33.6252,2025-04-28T0000,45,107,0.7,16,5,91,175,79,颗粒物(PM10)
绥化市,人和东街,126.9785,46.6365,2025-04-28T0000,152,179,0.9,26,3,76,96,202,细颗粒物(PM2.5)
绥化市,党政办公中心,126.964,46.6528,2025-04-28T0000,148,173,0.9,28,5,72,96,198,细颗粒物(PM2.5)
随州市,市委党校,113.3583,31.7275,2025-04-28T0000,64,128,1.0,18,5,94,139,89,颗粒物(PM10)
随州市,市林业局,113.3833,31.6908,2025-04-28T0000,,,,,,,146,,
随州市,市立交桥水厂,113.3983,31.7308,2025-04-28T0000,63,117,0.8,13,7,93,151,85,细颗粒物(PM2.5)
遂宁市,石溪浩,105.5453,30.5678,2025-04-28T0000,27,67,0.2,29,3,32,102,59,颗粒物(PM10)
遂宁市,市监测站,105.5582,30.5232,2025-04-28T0000,22,46,0.4,39,6,35,110,46,
遂宁市,行政中心,105.5861,30.5366,2025-04-28T0000,24,58,0.6,65,9,1,113,54,颗粒物(PM10)
遂宁市,美宁食品公司,105.5918,30.4728,2025-04-28T0000,29,58,0.4,50,7,8,122,54,颗粒物(PM10)
塔城地区,东门外小游园,82.9994,46.7432,2025-04-28T0000,7,80,0.0,23,6,37,121,65,颗粒物(PM10)
台州市,黄岩环保大楼,121.273,28.6459,2025-04-28T0000,21,33,0.4,17,4,32,45,33,
台州市,台州环保大楼,121.419,28.6542,2025-04-28T0000,45,59,0.6,54,3,11,62,63,细颗粒物(PM2.5)
台州市,路桥田洋王,121.377,28.5773,2025-04-28T0000,53,64,0.6,39,2,5,55,73,细颗粒物(PM2.5)
台州市,台州科技职业学院,121.2568,28.6681,2025-04-28T0000,37,60,0.6,28,2,13,46,55,颗粒物(PM10)
太原市,尖草坪,112.522,37.8873,2025-04-28T0000,9,48,0.5,34,8,54,104,48,
太原市,上兰,112.434,38.0108,2025-04-28T0000,7,36,0.3,26,5,83,102,36,
太原市,晋源,112.469,37.7124,2025-04-28T0000,24,49,0.3,19,9,81,102,49,
太原市,小店,112.5583,37.7394,2025-04-28T0000,11,46,0.3,31,6,69,111,46,
太原市,桃园,112.5369,37.8692,2025-04-28T0000,11,55,0.3,31,6,54,106,53,颗粒物(PM10)
太原市,坞城,112.57,37.8195,2025-04-28T0000,25,63,0.8,34,6,56,108,57,颗粒物(PM10)
太原市,南寨,112.549,37.9854,2025-04-28T0000,16,49,0.3,37,6,23,108,49,
太原市,金胜,112.4719,37.7831,2025-04-28T0000,11,50,0.3,12,7,86,102,50,
太原市,育英中学,112.5608,37.8807,2025-04-28T0000,20,54,0.6,45,7,38,110,52,颗粒物(PM10)
泰安市,监测站,117.1437,36.1937,2025-04-28T0000,48,73,0.7,32,10,41,148,67,细颗粒物(PM2.5)
泰安市,人口学校,117.0885,36.2017,2025-04-28T0000,47,75,0.5,22,7,52,149,65,细颗粒物(PM2.5)
泰安市,电力学校,117.1089,36.1758,2025-04-28T0000,58,63,0.5,26,6,46,146,79,细颗粒物(PM2.5)
泰安市,国网新校,117.1812,36.2275,2025-04-28T0000,39,54,0.9,27,4,43,150,55,细颗粒物(PM2.5)
泰安市,交通技校,117.0313,36.2018,2025-04-28T0000,42,51,0.5,30,7,60,150,59,细颗粒物(PM2.5)
泰安市,山东第一医科大学,117.0829,36.13,2025-04-28T0000,72,,0.5,32,3,46,151,97,细颗粒物(PM2.5)
泰州市,公园路,119.905,32.4878,2025-04-28T0000,29,51,0.7,26,8,63,158,51,颗粒物(PM10)
泰州市,莲花,119.9189,32.4625,2025-04-28T0000,36,54,0.7,24,10,71,169,52,"颗粒物(PM10),细颗粒物(PM2.5)"
泰州市,留学生创业园,119.888,32.4639,2025-04-28T0000,38,81,0.7,28,7,59,145,66,颗粒物(PM10)
泰州市,王营,119.8767,32.3289,2025-04-28T0000,39,67,0.6,34,11,62,147,59,颗粒物(PM10)
泰州市,姜堰区政府广场,120.1259,32.5099,2025-04-28T0000,17,35,0.5,21,11,66,155,35,
泰州市,周山河街区,119.9192,32.4322,2025-04-28T0000,43,70,0.5,23,8,67,165,60,"颗粒物(PM10),细颗粒物(PM2.5)"
唐山市,物资局,118.1725,39.6334,2025-04-28T0000,9,36,0.5,32,7,56,100,36,
唐山市,十二中,118.1705,39.6506,2025-04-28T0000,23,32,0.3,29,6,50,98,33,
唐山市,小山,118.1869,39.622,2025-04-28T0000,7,42,0.7,28,3,51,100,42,
唐山市,冀东油田职工医院,118.4359,39.2762,2025-04-28T0000,3,34,0.3,33,10,55,92,34,
唐山市,正泰大街热力站,118.09279,39.58089,2025-04-28T0000,16,40,0.4,31,5,44,96,40,
唐山市,丰润区政府,118.1562,39.8322,2025-04-28T0000,30,44,0.4,58,6,22,101,44,
唐山市,金山小学,118.43673,39.73809,2025-04-28T0000,3,58,0.5,47,5,37,99,54,颗粒物(PM10)
唐山市,政府服务中心,118.24498,39.66941,2025-04-28T0000,7,24,0.4,27,6,52,96,24,
唐山市,消防缸窑路中队,118.2059,39.6585,2025-04-28T0000,13,43,0.3,28,5,58,103,43,
唐山市,路南电大,118.1436,39.6202,2025-04-28T0000,17,52,0.4,32,3,52,98,51,颗粒物(PM10)
唐山市,友谊北路34号,118.1309,39.6360,2025-04-28T0000,6,36,0.3,33,4,50,101,36,
天津市,勤俭道,117.1444,39.1661,2025-04-28T0000,19,50,0.6,28,7,58,98,50,
天津市,前进道,117.202,39.0927,2025-04-28T0000,24,62,0.5,36,7,46,91,56,颗粒物(PM10)
天津市,淮河道,117.1837,39.2133,2025-04-28T0000,22,61,0.4,30,8,62,102,56,颗粒物(PM10)
天津市,跃进路,117.3083,39.0884,2025-04-28T0000,24,,0.4,36,8,49,98,,
天津市,第四大街,117.707,39.0343,2025-04-28T0000,23,58,0.5,30,7,54,83,54,颗粒物(PM10)
天津市,永明路,117.457,38.8394,2025-04-28T0000,21,53,0.4,29,7,51,85,52,颗粒物(PM10)
天津市,汉北路,117.764,39.1587,2025-04-28T0000,18,68,1.2,38,10,45,79,59,颗粒物(PM10)
天津市,团泊洼,117.157,38.9194,2025-04-28T0000,,,,,,,,,
天津市,河西一经路,117.7918,39.2474,2025-04-28T0000,16,62,0.4,35,7,51,84,56,颗粒物(PM10)
天津市,津沽路,117.3747,38.9846,2025-04-28T0000,22,67,0.1,35,4,37,78,59,颗粒物(PM10)
天津市,宾水西道,117.1589,39.0845,2025-04-28T0000,23,75,0.5,41,7,45,102,63,颗粒物(PM10)
天津市,大理道,117.1941,39.1067,2025-04-28T0000,22,70,0.4,31,6,54,95,60,颗粒物(PM10)
天津市,中山北路,117.2101,39.1699,2025-04-28T0000,18,58,0.4,28,8,67,98,54,颗粒物(PM10)
天津市,西四道,117.3876,39.1488,2025-04-28T0000,17,62,0.4,42,8,47,92,56,颗粒物(PM10)
天津市,雍阳西道,117.0365,39.3828,2025-04-28T0000,18,73,0.5,21,5,46,75,62,颗粒物(PM10)
天津市,辛老路,117.0296,39.0605,2025-04-28T0000,20,73,0.5,27,7,50,101,62,颗粒物(PM10)
天津市,地纬路,116.9638,38.9375,2025-04-28T0000,32,84,0.4,24,12,54,95,67,颗粒物(PM10)
天津市,北环路,117.4067,40.0583,2025-04-28T0000,10,32,0.4,49,5,34,91,32,
天津市,建设路,117.3045,39.7169,2025-04-28T0000,26,80,0.5,29,9,64,98,65,颗粒物(PM10)
天津市,滨水东路,117.8199,39.3521,2025-04-28T0000,15,70,0.5,43,8,45,80,60,颗粒物(PM10)
天津市,光华路,117.2437,39.1029,2025-04-28T0000,24,79,0.6,36,8,48,98,65,颗粒物(PM10)
天水市,麦积山,106.0055,34.343,2025-04-28T0000,,,,,,,,,
天水市,公园小学,105.7205,34.5786,2025-04-28T0000,33,59,0.4,30,6,27,103,55,颗粒物(PM10)
天水市,麦积国土局,105.8945,34.5538,2025-04-28T0000,36,66,0.5,14,5,39,97,58,颗粒物(PM10)
铁岭市,汇工街西,123.8139,42.3022,2025-04-28T0000,14,,0.3,7,5,75,106,,
铁岭市,水上乐园,123.8649,42.2923,2025-04-28T0000,12,96,0.4,6,4,69,92,73,颗粒物(PM10)
铁岭市,银州路东段,123.8486,42.2867,2025-04-28T0000,17,51,0.3,8,7,74,96,51,颗粒物(PM10)
铁岭市,金沙江路北,123.7153,42.2217,2025-04-28T0000,15,152,0.5,8,10,69,99,101,颗粒物(PM10)
通化市,光明,125.9358,41.7173,2025-04-28T0000,12,27,0.5,22,20,50,149,27,
通化市,铁路,125.9446,41.7325,2025-04-28T0000,17,30,0.5,18,15,51,144,30,
通辽市,艺术职业学校,122.2532,43.6801,2025-04-28T0000,18,49,0.2,5,7,73,76,49,
通辽市,老干部活动中心,122.2584,43.6333,2025-04-28T0000,37,46,0.4,7,5,78,92,53,细颗粒物(PM2.5)
通辽市,东方明珠社区,122.2922,43.6189,2025-04-28T0000,39,58,0.4,6,6,72,90,55,细颗粒物(PM2.5)
铜川市,党校,109.0656,35.0994,2025-04-28T0000,,,,,,,,,
铜川市,王益区政府,109.0697,35.0697,2025-04-28T0000,12,50,0.5,32,5,34,96,50,
铜川市,新区管委会,108.9344,34.9058,2025-04-28T0000,17,40,0.4,18,10,66,90,40,
铜川市,大唐三路,108.9497,34.8705,2025-04-28T0000,17,45,0.5,17,6,58,95,45,
铜陵市,市第四中学,117.8177,30.9412,2025-04-28T0000,31,41,1.4,20,18,48,106,45,
铜陵市,市公路局,117.8059,30.9273,2025-04-28T0000,26,58,0.9,14,14,55,106,54,颗粒物(PM10)
铜陵市,市新民污水厂,117.7807,30.9413,2025-04-28T0000,21,67,0.7,24,30,40,100,59,颗粒物(PM10)
铜陵市,市第九中学,117.7439,30.8792,2025-04-28T0000,23,45,0.6,36,6,25,88,45,
铜陵市,车站新区,117.846,30.9413,2025-04-28T0000,26,66,0.5,15,11,51,100,58,颗粒物(PM10)
铜陵市,市职教基地,117.8483,30.97,2025-04-28T0000,25,48,0.8,25,6,45,104,48,
铜仁市,铜仁卫校,109.1839,27.7344,2025-04-28T0000,19,40,0.4,30,2,6,69,40,
铜仁市,铜仁七中,109.1753,27.6944,2025-04-28T0000,10,13,0.4,15,3,25,81,15,
吐鲁番市,市环保局,89.1904,42.9418,2025-04-28T0000,39,145,1.0,25,5,61,112,98,颗粒物(PM10)
吐鲁番市,地区环保局,89.1673,42.9559,2025-04-28T0000,48,150,0.7,36,5,49,105,100,颗粒物(PM10)
威海市,华夏技校,122.1214,37.4236,2025-04-28T0000,28,41,0.3,26,6,55,136,41,
威海市,山大分校,122.0508,37.5236,2025-04-28T0000,15,29,0.3,22,13,58,150,29,
威海市,市监测站,122.1067,37.5072,2025-04-28T0000,22,39,0.3,23,5,47,137,39,
威海市,文登开发区,122.0693,37.2174,2025-04-28T0000,34,45,0.5,22,6,49,106,49,
威海市,临港区管委会,122.1379,37.3414,2025-04-28T0000,26,46,0.5,22,6,46,116,46,
潍坊市,环保局,119.1437,36.7023,2025-04-28T0000,11,41,0.3,23,7,52,127,41,
潍坊市,坊子邮政,119.1641,36.6523,2025-04-28T0000,14,46,0.5,26,10,43,120,46,
潍坊市,潍坊七中,119.0587,36.721,2025-04-28T0000,23,48,0.5,40,18,31,119,48,
潍坊市,高新实验学校,119.1977,36.6872,2025-04-28T0000,14,61,0.4,20,9,57,124,56,颗粒物(PM10)
潍坊市,潍坊学院,119.1755,36.7149,2025-04-28T0000,7,36,0.4,19,7,59,127,36,
潍坊市,寒亭区实验一小,119.2041,36.7699,2025-04-28T0000,12,31,0.4,20,4,47,132,31,
渭南市,农科所,109.5293,34.5101,2025-04-28T0000,,,,,,,,,
渭南市,体育馆,109.4636,34.493,2025-04-28T0000,17,41,0.4,25,5,66,95,41,
渭南市,高新一小,109.4259,34.5023,2025-04-28T0000,22,40,0.4,38,5,52,91,40,
渭南市,渭花路4号,109.5051,34.4921,2025-04-28T0000,25,39,0.4,22,5,62,96,39,
温州市,瓯海,120.634,28.0089,2025-04-28T0000,59,77,0.8,61,10,3,70,80,细颗粒物(PM2.5)
温州市,南浦,120.6748,27.9939,2025-04-28T0000,62,85,0.6,71,7,9,85,84,细颗粒物(PM2.5)
温州市,龙湾,120.76,27.9747,2025-04-28T0000,57,96,0.8,80,6,3,76,78,细颗粒物(PM2.5)
温州市,市站,120.6709,28.0167,2025-04-28T0000,55,80,0.8,65,4,2,75,75,细颗粒物(PM2.5)
温州市,茶山,120.6985,27.9251,2025-04-28T0000,54,86,0.6,49,6,20,75,74,细颗粒物(PM2.5)
文山壮族苗族自治州,州水务局,104.2533,23.3594,2025-04-28T0000,43,58,0.4,10,9,86,140,60,细颗粒物(PM2.5)
文山壮族苗族自治州,市便民服务中心,104.2319,23.3892,2025-04-28T0000,27,60,0.6,14,9,78,134,55,颗粒物(PM10)
乌海市,市林业局,106.8174,39.6973,2025-04-28T0000,15,36,0.6,26,13,56,100,36,
乌海市,中海勃湾学校,106.7907,39.6667,2025-04-28T0000,10,37,0.6,67,1,27,106,37,
乌海市,海北新区,106.813,39.7274,2025-04-28T0000,65,91,0.5,79,10,2,108,88,细颗粒物(PM2.5)
乌海市,聚英学校,106.8288,39.6778,2025-04-28T0000,21,35,0.4,26,7,48,102,35,
乌兰察布市,集宁新区,113.1306,40.9923,2025-04-28T0000,11,22,0.0,4,8,84,97,27,
乌兰察布市,光明街小学,113.1076,41.0385,2025-04-28T0000,19,28,0.3,10,8,76,98,28,
乌兰察布市,北京八中,113.1376,40.9509,2025-04-28T0000,9,17,0.3,21,13,58,98,19,
乌兰察布市,市委党校,113.1775,40.9779,2025-04-28T0000,12,16,0.3,42,8,31,103,21,
乌鲁木齐市,监测站,87.5801,43.8303,2025-04-28T0000,15,32,0.5,51,3,47,116,32,
乌鲁木齐市,收费所,87.6046,43.768,2025-04-28T0000,26,80,0.3,56,4,16,97,65,颗粒物(PM10)
乌鲁木齐市,新疆农科院农场,87.4754,43.9469,2025-04-28T0000,16,47,0.8,56,8,42,104,47,
乌鲁木齐市,铁路局,87.5525,43.8711,2025-04-28T0000,16,47,0.3,28,2,74,119,47,
乌鲁木齐市,三十一中学,87.6432,43.831,2025-04-28T0000,20,50,0.3,34,2,55,115,50,
乌鲁木齐市,米东区环保局,87.7216,44.1747,2025-04-28T0000,14,51,0.3,46,8,44,123,51,颗粒物(PM10)
乌鲁木齐市,培训基地,87.4651,43.4569,2025-04-28T0000,3,19,0.2,3,3,108,115,34,
乌鲁木齐市,达坂城区环保局,88.3118,43.3658,2025-04-28T0000,14,27,0.2,7,5,66,104,27,
乌鲁木齐市,红光山片区,87.6162,43.8801,2025-04-28T0000,3,45,0.4,39,5,63,109,45,
乌鲁木齐市,新师大温泉校区,87.7024,43.8004,2025-04-28T0000,11,78,0.1,23,1,87,114,64,颗粒物(PM10)
乌鲁木齐市,大绿谷,87.4921,43.8411,2025-04-28T0000,22,46,0.3,29,4,70,111,46,
无锡市,雪浪,120.269,31.4867,2025-04-28T0000,39,58,0.7,17,6,114,148,55,细颗粒物(PM2.5)
无锡市,黄巷,120.275,31.6219,2025-04-28T0000,44,90,1.2,132,8,22,136,70,颗粒物(PM10)
无锡市,曹张,120.294,31.56,2025-04-28T0000,44,61,0.9,122,6,25,131,62,细颗粒物(PM2.5)
无锡市,漆塘,120.242,31.5031,2025-04-28T0000,29,46,0.5,24,6,81,126,46,
无锡市,东亭,120.3489,31.5863,2025-04-28T0000,44,90,1.1,134,7,9,139,70,颗粒物(PM10)
无锡市,旺庄,120.354,31.5475,2025-04-28T0000,56,78,0.9,76,6,56,137,77,细颗粒物(PM2.5)
无锡市,荣巷,120.245,31.5631,2025-04-28T0000,36,48,0.7,25,7,90,133,52,细颗粒物(PM2.5)
无锡市,堰桥,120.299,31.6817,2025-04-28T0000,51,100,0.9,118,4,12,142,75,颗粒物(PM10)
无锡市,华庄,120.3142,31.4753,2025-04-28T0000,45,80,0.8,43,8,90,141,65,颗粒物(PM10)
吴忠市,教育园区,106.1532,37.9648,2025-04-28T0000,48,82,0.7,70,7,12,110,67,细颗粒物(PM2.5)
吴忠市,新区二泵站,106.1856,37.9956,2025-04-28T0000,30,85,0.8,80,8,16,109,68,颗粒物(PM10)
吴忠市,文卫南街,106.2112,37.9768,2025-04-28T0000,25,69,0.6,63,18,22,113,60,颗粒物(PM10)
芜湖市,监测站,118.3606,31.3519,2025-04-28T0000,29,34,0.9,53,9,20,103,42,
芜湖市,科创中心,118.3714,31.4134,2025-04-28T0000,27,37,0.5,40,9,35,108,39,
芜湖市,四水厂,118.3673,31.3131,2025-04-28T0000,24,45,1.9,60,12,16,103,45,
芜湖市,市气象局,118.4209,31.3707,2025-04-28T0000,28,40,0.8,37,10,35,115,40,
芜湖市,清苑社区,118.4781,31.3225,2025-04-28T0000,30,47,1.5,32,18,52,125,47,
芜湖市,扬子职业技术学院,118.2746,31.2326,2025-04-28T0000,25,37,1.4,19,14,56,125,37,
梧州市,市逸夫小学,111.3014,23.4832,2025-04-28T0000,20,20,0.4,17,10,46,62,29,
梧州市,市十一中,111.3239,23.4794,2025-04-28T0000,18,22,0.4,22,8,35,59,26,
梧州市,龙新,111.2711,23.4835,2025-04-28T0000,21,,0.3,8,10,57,48,30,
梧州市,政贤路18号,111.2419,23.4154,2025-04-28T0000,14,,0.5,12,8,54,75,20,
五家渠市,农水大厦,87.5475,44.1756,2025-04-28T0000,17,,0.0,13,5,76,18,,
五家渠市,经开区管委会,87.546,44.1912,2025-04-28T0000,14,42,0.4,21,9,78,115,42,
武汉市,东湖梨园,114.3677,30.5584,2025-04-28T0000,37,52,0.8,19,6,80,108,53,细颗粒物(PM2.5)
武汉市,汉阳月湖,114.2529,30.558,2025-04-28T0000,39,127,0.5,29,6,52,98,89,颗粒物(PM10)
武汉市,汉口花桥,114.282,30.6189,2025-04-28T0000,37,77,0.6,24,8,80,103,64,颗粒物(PM10)
武汉市,武昌紫阳,114.3025,30.5332,2025-04-28T0000,35,72,0.4,42,9,58,100,61,颗粒物(PM10)
武汉市,青山钢花,114.3646,30.6217,2025-04-28T0000,48,72,0.8,40,9,82,122,67,细颗粒物(PM2.5)
武汉市,沌口新区,114.1566,30.4825,2025-04-28T0000,42,71,0.6,54,8,48,112,61,颗粒物(PM10)
武汉市,汉口江滩,114.3014,30.5944,2025-04-28T0000,43,67,0.6,93,7,19,106,60,细颗粒物(PM2.5)
武汉市,吴家山,114.135,30.6319,2025-04-28T0000,34,83,0.5,43,8,62,121,67,颗粒物(PM10)
武汉市,沉湖七壕,113.8454,30.2917,2025-04-28T0000,,,,,,,115,,
武汉市,民族大道182号,114.3877,30.4908,2025-04-28T0000,37,72,0.9,33,5,67,122,61,颗粒物(PM10)
武威市,监测站,102.6201,37.9251,2025-04-28T0000,25,51,0.2,21,4,56,100,51,颗粒物(PM10)
武威市,钟楼街149号,102.6447,37.9293,2025-04-28T0000,33,57,0.2,17,3,67,103,54,颗粒物(PM10)
西安市,兴庆小区,108.993,34.2629,2025-04-28T0000,18,60,0.6,41,6,38,81,55,颗粒物(PM10)
西安市,纺织城,109.06,34.2572,2025-04-28T0000,21,74,0.6,85,6,3,78,62,颗粒物(PM10)
西安市,小寨,108.9356,34.2173,2025-04-28T0000,24,60,0.6,85,6,2,78,55,颗粒物(PM10)
西安市,市人民体育场,108.954,34.2713,2025-04-28T0000,24,88,1.3,78,6,2,75,69,颗粒物(PM10)
西安市,高新西区,108.8922,34.2322,2025-04-28T0000,24,40,0.7,47,4,30,76,40,
西安市,经开区,108.935,34.3474,2025-04-28T0000,19,78,0.8,90,5,3,82,64,颗粒物(PM10)
西安市,长安区,108.906,34.1546,2025-04-28T0000,18,64,0.4,48,8,25,88,57,颗粒物(PM10)
西安市,临潼区,109.2186,34.3731,2025-04-28T0000,22,60,0.6,29,7,46,88,55,颗粒物(PM10)
西安市,草滩,108.869,34.378,2025-04-28T0000,71,,0.2,51,1,12,68,95,细颗粒物(PM2.5)
西安市,曲江文化产业集团,108.985,34.1978,2025-04-28T0000,21,74,0.7,78,6,12,86,62,颗粒物(PM10)
西安市,广运潭,109.051,34.3213,2025-04-28T0000,21,52,0.7,36,6,44,77,51,颗粒物(PM10)
西安市,无线电监控中心,109.09,34.5236,2025-04-28T0000,28,97,0.6,73,4,1,83,74,颗粒物(PM10)
西安市,行知小学,108.8869,34.2662,2025-04-28T0000,26,74,0.7,67,4,25,76,62,颗粒物(PM10)
西安市,西苑北路977号,108.5962,34.1188,2025-04-28T0000,13,79,0.4,31,7,52,85,65,颗粒物(PM10)
西宁市,第五水厂,101.524,36.6867,2025-04-28T0000,,,,,,,,,
西宁市,城北区政府,101.7775,36.6428,2025-04-28T0000,24,48,0.2,27,5,66,100,48,
西宁市,世纪职校,101.8305,36.5786,2025-04-28T0000,30,42,0.5,45,8,36,94,43,
西宁市,师大城西校区,101.7413,36.6397,2025-04-28T0000,36,52,0.3,20,6,71,95,52,细颗粒物(PM2.5)
西双版纳傣族自治州,景洪市江南,100.8018,21.9995,2025-04-28T0000,75,108,1.0,21,4,68,159,100,细颗粒物(PM2.5)
西双版纳傣族自治州,景洪市江北,100.8017,22.0225,2025-04-28T0000,51,75,0.6,15,7,76,165,70,细颗粒物(PM2.5)
西咸新区,北杜,108.7108,34.46,2025-04-28T0000,20,52,0.5,47,7,24,75,51,颗粒物(PM10)
西咸新区,同德佳苑,108.7096,34.2956,2025-04-28T0000,38,67,0.4,73,5,5,86,59,颗粒物(PM10)
西咸新区,崇文塔,108.8558,34.4978,2025-04-28T0000,28,67,0.7,61,5,9,86,59,颗粒物(PM10)
锡林郭勒盟,市环保监测站,116.1042,43.9317,2025-04-28T0000,3,24,0.3,34,1,25,86,24,
锡林郭勒盟,市政府,116.0781,43.9311,2025-04-28T0000,13,29,0.3,28,3,41,93,29,
厦门市,溪东,118.1608,24.8169,2025-04-28T0000,,,,,,,,,
厦门市,洪文,118.1514,24.4767,2025-04-28T0000,29,46,0.5,21,1,60,123,46,
厦门市,鼓浪屿,118.0661,24.4444,2025-04-28T0000,34,58,0.4,33,3,20,133,54,颗粒物(PM10)
厦门市,湖里中学,118.0936,24.5058,2025-04-28T0000,40,66,0.5,34,1,36,101,58,颗粒物(PM10)
厦门市,集美中学,118.0958,24.5688,2025-04-28T0000,42,45,0.5,44,2,46,109,59,细颗粒物(PM2.5)
厦门市,同安二实小,118.1493,24.7245,2025-04-28T0000,32,47,0.3,25,2,62,106,47,
咸宁市,森林公园,114.3175,29.8142,2025-04-28T0000,21,41,0.5,2,5,110,120,41,
咸宁市,长江产业园,114.3375,29.8683,2025-04-28T0000,40,65,0.8,33,1,23,106,58,颗粒物(PM10)
咸宁市,双鹤路18号,114.3182,29.8447,2025-04-28T0000,39,59,1.3,10,4,46,106,55,"颗粒物(PM10),细颗粒物(PM2.5)"
咸宁市,碧桂路,114.284,29.8595,2025-04-28T0000,37,72,0.7,13,4,54,109,61,颗粒物(PM10)
咸阳市,气象站,108.7197,34.3956,2025-04-28T0000,,,,,,,,,
咸阳市,实验中学,108.673,34.3155,2025-04-28T0000,26,52,0.4,33,8,54,89,51,颗粒物(PM10)
咸阳市,师范学院,108.7233,34.3617,2025-04-28T0000,27,78,0.6,40,2,43,93,64,颗粒物(PM10)
