area,positionname,longitude,latitude,timepoint,pm2_5,pm10,co,no2,so2,o3,o3_8h,aqi,primarypollutant
阿坝藏族羌族自治州,州农科所,102.1879,31.914,2025-01-23T0600,8,18,0.9,8,5,45,,18,
阿坝藏族羌族自治州,马师校,102.2502,31.8896,2025-01-23T0600,11,13,0.4,18,6,37,,16,
阿坝藏族羌族自治州,马尔康中学西区,102.2165,31.9024,2025-01-23T0600,9,15,0.3,8,5,38,,15,
阿克苏地区,电视台,80.292,41.1694,2025-01-23T0600,77,87,1.1,35,3,32,,103,细颗粒物(PM2.5)
阿克苏地区,艺术中心,80.2613,41.1551,2025-01-23T0600,81,107,1.5,37,4,29,,108,细颗粒物(PM2.5)
阿拉善盟,西城区西花园,105.6467,38.8363,2025-01-23T0600,11,24,0.7,16,10,79,,25,
阿拉善盟,蒙二幼,105.6985,38.8411,2025-01-23T0600,14,,0.7,12,7,87,,28,
阿拉善盟,环保局新楼,105.724,38.8516,2025-01-23T0600,12,24,0.5,6,8,100,,32,
阿勒泰地区,市站,88.1264,47.8517,2025-01-23T0600,20,20,0.5,10,8,71,,29,
阿里地区,阿里监测站,80.1161,32.5,2025-01-23T0600,3,6,0.6,1,7,98,,31,
阿里地区,阿里藏医院,80.0903,32.5028,2025-01-23T0600,3,7,0.5,1,5,87,,28,
安康市,香溪洞,109.0318,32.6537,2025-01-23T0600,138,,1.0,16,14,124,,183,细颗粒物(PM2.5)
安康市,汉滨区检察院,109.0072,32.6975,2025-01-23T0600,107,131,1.1,24,6,20,,140,细颗粒物(PM2.5)
安康市,市邮政管理局,109.0325,32.6913,2025-01-23T0600,129,155,1.4,42,6,4,,170,细颗粒物(PM2.5)
安庆市,环科院,117.0809,30.5177,2025-01-23T0600,193,236,1.2,27,14,93,,243,细颗粒物(PM2.5)
安庆市,马山宾馆,117.0331,30.5119,2025-01-23T0600,194,236,1.3,28,16,93,,244,细颗粒物(PM2.5)
安庆市,安庆大学,116.9896,30.6145,2025-01-23T0600,184,221,1.2,31,10,97,,234,细颗粒物(PM2.5)
安庆市,市人大,117.0598,30.5351,2025-01-23T0600,196,245,1.2,34,14,91,,246,细颗粒物(PM2.5)
安顺市,伍家关,105.9606,26.2611,2025-01-23T0600,34,54,0.8,10,12,140,,52,颗粒物(PM10)
安顺市,凤凰山,105.9408,26.2431,2025-01-23T0600,46,59,0.6,13,15,127,,64,细颗粒物(PM2.5)
安顺市,金钟山,105.9439,26.2564,2025-01-23T0600,41,54,0.8,12,18,127,,58,细颗粒物(PM2.5)
安顺市,娄家坡,105.8983,26.2481,2025-01-23T0600,44,54,0.7,12,10,127,,62,细颗粒物(PM2.5)
安阳市,棉研所,114.4839,36.0621,2025-01-23T0600,54,74,0.9,45,13,15,,74,细颗粒物(PM2.5)
安阳市,红庙街,114.3551,36.1017,2025-01-23T0600,57,65,0.8,17,9,33,,78,细颗粒物(PM2.5)
安阳市,银杏小区,114.361,36.0681,2025-01-23T0600,58,68,0.9,24,10,34,,79,细颗粒物(PM2.5)
安阳市,信访局,114.3922,36.0878,2025-01-23T0600,49,67,0.6,24,13,34,,68,细颗粒物(PM2.5)
安阳市,左辅环卫站,114.4705,36.0637,2025-01-23T0600,60,87,0.8,35,8,24,,82,细颗粒物(PM2.5)
安阳市,安钢职工学校,114.2917,36.0949,2025-01-23T0600,61,74,1.8,42,21,28,,83,细颗粒物(PM2.5)
鞍山市,深沟寺,123.044,41.1196,2025-01-23T0600,36,50,0.6,16,8,39,,52,细颗粒物(PM2.5)
鞍山市,太阳城,123.011,41.0931,2025-01-23T0600,44,65,0.7,31,5,32,,62,细颗粒物(PM2.5)
鞍山市,太平,123.0485,41.1442,2025-01-23T0600,56,82,1.1,30,8,26,,77,细颗粒物(PM2.5)
鞍山市,铁西三道街,122.9642,41.0971,2025-01-23T0600,55,100,1.3,46,11,8,,75,"颗粒物(PM10),细颗粒物(PM2.5)"
鞍山市,明达新区,123.022,41.0821,2025-01-23T0600,36,53,0.7,23,9,39,,52,"颗粒物(PM10),细颗粒物(PM2.5)"
鞍山市,千山,123.1289,41.0228,2025-01-23T0600,,,,,,,38,,
鞍山市,兴盛南路290号,122.9446,41.0826,2025-01-23T0600,59,99,1.4,42,11,10,,80,细颗粒物(PM2.5)
巴彦淖尔市,附二中,107.4212,40.761,2025-01-23T0600,43,82,0.9,64,18,8,,66,颗粒物(PM10)
巴彦淖尔市,市环保大楼,107.37,40.7372,2025-01-23T0600,25,56,0.5,31,7,38,,53,颗粒物(PM10)
巴音郭楞蒙古自治州,孔雀公园,86.1472,41.7538,2025-01-23T0600,69,99,1.1,76,4,1,,93,细颗粒物(PM2.5)
巴音郭楞蒙古自治州,棉纺厂,86.1972,41.7166,2025-01-23T0600,66,111,1.3,71,3,6,,89,细颗粒物(PM2.5)
巴音郭楞蒙古自治州,经济开发区,86.2357,41.7173,2025-01-23T0600,54,78,0.8,47,3,28,,74,细颗粒物(PM2.5)
巴中市,苏山坪,106.7677,31.8794,2025-01-23T0600,131,148,0.9,16,4,34,,173,细颗粒物(PM2.5)
巴中市,丽阳花园,106.7656,31.8545,2025-01-23T0600,153,188,1.6,23,4,2,,203,细颗粒物(PM2.5)
巴中市,圣泉水务公司,106.7418,31.8654,2025-01-23T0600,122,140,1.2,25,4,3,,160,细颗粒物(PM2.5)
巴中市,市中心医院,106.7616,31.8344,2025-01-23T0600,171,194,1.7,27,4,3,,221,细颗粒物(PM2.5)
白城市,洮北区环保局,122.7911,45.6077,2025-01-23T0600,87,,0.9,35,4,13,,115,细颗粒物(PM2.5)
白城市,市环保局,122.8738,45.5725,2025-01-23T0600,63,75,0.6,46,3,14,,85,细颗粒物(PM2.5)
白山市,喜丰,126.4219,41.9171,2025-01-23T0600,40,70,0.8,26,50,35,,60,颗粒物(PM10)
白山市,环保局,126.4077,41.9419,2025-01-23T0600,22,60,0.8,17,10,30,,55,颗粒物(PM10)
白银市,第三小学,104.1724,36.5446,2025-01-23T0600,81,88,1.6,31,50,40,,108,细颗粒物(PM2.5)
白银市,动力公司,104.1465,36.5482,2025-01-23T0600,57,64,1.1,21,16,55,,78,细颗粒物(PM2.5)
百色市,市监测站,106.6103,23.9011,2025-01-23T0600,59,66,1.0,20,10,62,,80,细颗粒物(PM2.5)
百色市,市中心血站,106.6538,23.8859,2025-01-23T0600,71,78,1.0,30,11,55,,95,细颗粒物(PM2.5)
百色市,祈福高中,106.6085,23.8798,2025-01-23T0600,52,75,1.2,36,6,34,,72,细颗粒物(PM2.5)
蚌埠市,工人疗养院,117.396,32.939,2025-01-23T0600,45,65,0.6,18,3,45,,63,细颗粒物(PM2.5)
蚌埠市,百货大楼,117.3605,32.9427,2025-01-23T0600,44,67,0.3,12,4,47,,62,细颗粒物(PM2.5)
蚌埠市,蚌埠学院,117.4185,32.8911,2025-01-23T0600,54,63,0.4,20,5,39,,74,细颗粒物(PM2.5)
蚌埠市,淮上区政府,117.3533,32.9673,2025-01-23T0600,47,61,0.6,13,7,49,,65,细颗粒物(PM2.5)
蚌埠市,高新区,117.3145,32.8977,2025-01-23T0600,49,53,0.6,18,5,53,,68,细颗粒物(PM2.5)
蚌埠市,蚌埠田家炳中学,117.3092,32.9314,2025-01-23T0600,44,64,0.3,10,5,53,,62,细颗粒物(PM2.5)
包头市,市环境监测站,109.8756,40.6532,2025-01-23T0600,37,62,1.3,45,16,15,,56,颗粒物(PM10)
包头市,包头八中,109.9991,40.5842,2025-01-23T0600,70,100,3.9,60,31,7,,94,细颗粒物(PM2.5)
包头市,青山宾馆,109.8538,40.6821,2025-01-23T0600,52,52,1.5,42,12,16,,72,细颗粒物(PM2.5)
包头市,惠龙物流,109.8642,40.6288,2025-01-23T0600,42,75,1.5,57,19,12,,63,颗粒物(PM10)
包头市,东河鸿龙湾,110.0377,40.5546,2025-01-23T0600,75,137,2.1,51,9,7,,100,细颗粒物(PM2.5)
包头市,滨河大厦,109.9154,40.5685,2025-01-23T0600,72,113,2.3,69,16,5,,97,细颗粒物(PM2.5)
包头市,包头市委党校,109.9447,40.6261,2025-01-23T0600,52,96,2.7,67,19,6,,73,颗粒物(PM10)
包头市,昆区政府,109.8331,40.6576,2025-01-23T0600,49,69,1.4,44,19,19,,68,细颗粒物(PM2.5)
宝鸡市,庙沟村,107.185,34.3063,2025-01-23T0600,234,251,1.7,61,14,35,,284,细颗粒物(PM2.5)
宝鸡市,竹园沟,107.0708,34.3017,2025-01-23T0600,176,188,1.5,31,8,35,,226,细颗粒物(PM2.5)
宝鸡市,三陆医院,107.1906,34.3672,2025-01-23T0600,225,247,1.7,55,14,43,,275,细颗粒物(PM2.5)
宝鸡市,监测站,107.1431,34.3547,2025-01-23T0600,242,280,1.8,50,15,27,,292,细颗粒物(PM2.5)
宝鸡市,技工学校,107.1186,34.3739,2025-01-23T0600,200,238,1.6,44,14,41,,250,细颗粒物(PM2.5)
宝鸡市,陈仓区环保局家属楼,107.3906,34.3528,2025-01-23T0600,239,268,1.8,79,14,11,,289,细颗粒物(PM2.5)
宝鸡市,文理学院,107.2058,34.3497,2025-01-23T0600,231,279,1.7,52,14,41,,281,细颗粒物(PM2.5)
宝鸡市,三迪小学,107.2386,34.3622,2025-01-23T0600,221,242,1.7,46,16,41,,271,细颗粒物(PM2.5)
保定市,游泳馆,115.493,38.8632,2025-01-23T0600,44,61,0.8,58,6,8,,62,细颗粒物(PM2.5)
保定市,华电二区,115.5213,38.8959,2025-01-23T0600,21,55,0.6,66,2,1,,53,颗粒物(PM10)
保定市,接待中心,115.4713,38.9108,2025-01-23T0600,77,95,0.6,64,2,6,,103,细颗粒物(PM2.5)
保定市,地表水厂,115.4612,38.8416,2025-01-23T0600,48,60,0.5,63,2,13,,67,细颗粒物(PM2.5)
保定市,满城区生态环境分局,115.31981,38.95208,2025-01-23T0600,68,83,1.5,45,5,11,,92,细颗粒物(PM2.5)
保定市,清苑区第二中学,115.47694,38.76408,2025-01-23T0600,55,81,0.6,59,5,5,,75,细颗粒物(PM2.5)
保定市,徐水物探局,115.62909,39.02311,2025-01-23T0600,58,58,0.7,61,8,4,,79,细颗粒物(PM2.5)
保定市,双鹰农机,115.4202,38.8656,2025-01-23T0600,80,96,1.0,51,3,10,,107,细颗粒物(PM2.5)
保定市,植保所站,115.5150,38.8590,2025-01-23T0600,54,65,0.5,62,5,5,,74,细颗粒物(PM2.5)
保山市,市环境监测站,99.1678,25.1081,2025-01-23T0600,18,27,0.3,4,5,61,,27,
保山市,市环保局,99.1711,25.1328,2025-01-23T0600,28,,0.3,3,6,67,,40,
北海市,牛尾岭水库,109.2262,21.588,2025-01-23T0600,59,,0.5,,5,9,,,
北海市,海滩公园,109.1436,21.4086,2025-01-23T0600,29,40,0.8,13,8,106,,42,
北海市,新市环保局,109.0981,21.4661,2025-01-23T0600,36,44,0.6,18,8,99,,52,细颗粒物(PM2.5)
北海市,北海工业园,109.1778,21.5233,2025-01-23T0600,63,88,0.8,15,10,75,,85,细颗粒物(PM2.5)
北海市,龙潭自来水厂,109.1911,21.4415,2025-01-23T0600,57,58,0.8,10,6,71,,78,细颗粒物(PM2.5)
北京市,万寿西宫,116.3621,39.8784,2025-01-23T0600,41,56,0.7,50,6,19,,58,细颗粒物(PM2.5)
北京市,定陵,116.2202,40.2915,2025-01-23T0600,,,,,,,,,
北京市,东四,116.4174,39.9289,2025-01-23T0600,46,66,0.7,47,5,15,,64,细颗粒物(PM2.5)
北京市,天坛,116.4072,39.8863,2025-01-23T0600,41,56,0.5,29,1,16,,58,细颗粒物(PM2.5)
北京市,农展馆,116.462,39.9365,2025-01-23T0600,51,75,1.0,68,3,5,,70,细颗粒物(PM2.5)
北京市,官园,116.3392,39.9295,2025-01-23T0600,46,71,0.8,55,5,8,,64,细颗粒物(PM2.5)
北京市,海淀万柳,116.2878,39.9611,2025-01-23T0600,45,64,1.0,58,4,2,,63,细颗粒物(PM2.5)
北京市,顺义新城,116.6636,40.135,2025-01-23T0600,54,88,1.1,56,1,2,,74,细颗粒物(PM2.5)
北京市,怀柔镇,116.6275,40.3275,2025-01-23T0600,41,55,0.7,22,2,26,,58,细颗粒物(PM2.5)
北京市,昌平镇,116.2296,40.217,2025-01-23T0600,47,72,1.1,37,3,16,,65,细颗粒物(PM2.5)
北京市,奥体中心,116.3966,39.9821,2025-01-23T0600,57,86,1.1,67,5,1,,78,细颗粒物(PM2.5)
北京市,延庆夏都,115.9718,40.4529,2025-01-23T0600,40,59,0.8,37,3,8,,57,细颗粒物(PM2.5)
北京市,平谷新城,117.0709,40.1465,2025-01-23T0600,49,64,1.3,21,3,13,,68,细颗粒物(PM2.5)
北京市,密云新城,116.8336,40.4095,2025-01-23T0600,44,67,0.8,24,3,28,,62,细颗粒物(PM2.5)
北京市,门头沟三家店,116.088,39.9726,2025-01-23T0600,43,66,0.6,26,3,16,,60,细颗粒物(PM2.5)
北京市,丰台云岗,116.1541,39.8204,2025-01-23T0600,51,82,0.6,33,5,18,,70,细颗粒物(PM2.5)
北京市,通州东关,116.6804,39.9081,2025-01-23T0600,81,119,0.9,28,1,1,,108,细颗粒物(PM2.5)
北京市,房山燕山,115.9577,39.7603,2025-01-23T0600,58,71,0.8,39,1,11,,79,细颗粒物(PM2.5)
北京市,大兴旧宫,116.4672,39.7733,2025-01-23T0600,53,82,0.6,44,3,0,,73,细颗粒物(PM2.5)
北京市,延庆石河营,115.986,40.4563,2025-01-23T0600,40,55,0.9,38,3,5,,57,细颗粒物(PM2.5)
北京市,怀柔新城,116.6151,40.3053,2025-01-23T0600,43,59,0.6,19,3,23,,60,细颗粒物(PM2.5)
北京市,丰台小屯,116.2545,39.8768,2025-01-23T0600,83,87,0.8,64,4,1,,110,细颗粒物(PM2.5)
北京市,密云镇,116.84,40.3844,2025-01-23T0600,49,68,0.9,50,1,0,,68,细颗粒物(PM2.5)
北京市,八角,116.1942,39.91583,2025-01-23T0600,53,85,0.8,44,1,6,,73,细颗粒物(PM2.5)
本溪市,大峪,123.8275,41.3064,2025-01-23T0600,52,92,2.0,45,5,8,,72,细颗粒物(PM2.5)
本溪市,溪湖,123.7567,41.3325,2025-01-23T0600,63,107,1.4,44,7,6,,85,细颗粒物(PM2.5)
本溪市,彩屯,123.7169,41.3094,2025-01-23T0600,67,86,1.4,43,6,9,,90,细颗粒物(PM2.5)
本溪市,东明,123.7669,41.2864,2025-01-23T0600,75,83,2.0,45,7,3,,100,细颗粒物(PM2.5)
本溪市,新立屯,123.7992,41.2664,2025-01-23T0600,40,70,2.5,55,5,10,,60,颗粒物(PM10)
本溪市,威宁,123.8142,41.3472,2025-01-23T0600,59,101,1.4,34,2,8,,80,细颗粒物(PM2.5)
毕节市,八中,105.2864,27.3125,2025-01-23T0600,29,39,1.0,11,6,30,,42,
毕节市,师专,105.31,27.2944,2025-01-23T0600,27,43,1.1,13,6,30,,43,
毕节市,长征村,105.3631,27.3533,2025-01-23T0600,27,36,1.1,9,6,32,,39,
滨州市,第二水厂,118.0018,37.3617,2025-01-23T0600,29,48,0.6,20,7,34,,48,
滨州市,北中新校,117.9776,37.393,2025-01-23T0600,17,34,0,25,4,31,,34,
滨州市,中海酒店,117.9378,37.3956,2025-01-23T0600,24,31,0.4,23,3,33,,35,
滨州市,开发区一中,117.9378,37.3553,2025-01-23T0600,27,44,0.4,26,8,36,,44,
滨州市,金海六路,118.0917,37.694,2025-01-23T0600,17,24,0.4,17,4,47,,25,
滨州市,滨州市西街道办事处,117.9956,37.3753,2025-01-23T0600,27,34,0,23,4,28,,39,
亳州市,污水处理厂,115.8072,33.8399,2025-01-23T0600,92,117,1.0,35,7,13,,122,细颗粒物(PM2.5)
亳州市,三国揽胜宫,115.7789,33.8518,2025-01-23T0600,74,131,0.9,34,4,26,,99,细颗粒物(PM2.5)
亳州市,亳州学院,115.7633,33.8034,2025-01-23T0600,78,96,1.1,27,4,30,,104,细颗粒物(PM2.5)
博尔塔拉蒙古自治州,市党校,82.0485,44.8556,2025-01-23T0600,17,35,0.3,10,7,83,,35,
博尔塔拉蒙古自治州,市环保局,82.0806,44.8969,2025-01-23T0600,14,30,0.5,12,8,71,,30,
沧州市,沧县城建局,116.8842,38.2991,2025-01-23T0600,32,60,0.4,41,2,23,,55,颗粒物(PM10)
沧州市,电视转播站,116.8584,38.3254,2025-01-23T0600,46,64,0.7,57,6,2,,64,细颗粒物(PM2.5)
沧州市,市环保局,116.8709,38.3228,2025-01-23T0600,42,57,0.4,51,4,4,,59,细颗粒物(PM2.5)
沧州市,河北水利电力学院,116.8136,38.3004,2025-01-23T0600,38,46,0.3,32,8,26,,54,细颗粒物(PM2.5)
昌都市,昌都监测站,97.1806,31.1273,2025-01-23T0600,3,16,0.5,5,6,39,,16,
昌都市,昌都会议中心,97.1714,31.1406,2025-01-23T0600,6,153,0.3,1,4,50,,102,颗粒物(PM10)
昌吉回族自治州,天山天池,88.1236,43.8886,2025-01-23T0600,11,17,0.6,5,5,85,,27,
昌吉回族自治州,新区政务中心,87.2717,44.0297,2025-01-23T0600,61,73,0.8,29,3,64,,83,细颗粒物(PM2.5)
昌吉回族自治州,亚心广场,87.3095,44.0142,2025-01-23T0600,61,68,0.8,10,7,78,,83,细颗粒物(PM2.5)
长春市,食品厂,125.3325,43.9166,2025-01-23T0600,123,149,1.4,62,11,7,,162,细颗粒物(PM2.5)
长春市,客车厂,125.2863,43.9027,2025-01-23T0600,101,118,1.3,69,8,12,,133,细颗粒物(PM2.5)
长春市,邮电学院,125.2841,43.8463,2025-01-23T0600,128,,1.3,60,9,7,,169,细颗粒物(PM2.5)
长春市,劳动公园,125.3716,43.8772,2025-01-23T0600,99,106,1.1,54,7,8,,130,细颗粒物(PM2.5)
长春市,园林处,125.3297,43.8805,2025-01-23T0600,117,119,1.0,54,8,12,,153,细颗粒物(PM2.5)
长春市,净月潭,125.4605,43.79,2025-01-23T0600,58,73,0.6,18,6,37,,79,细颗粒物(PM2.5)
长春市,甩湾子,125.7194,43.515,2025-01-23T0600,,,,,,,,,
长春市,经开区环卫处,125.3863,43.8447,2025-01-23T0600,75,104,1.2,51,10,4,,100,细颗粒物(PM2.5)
长春市,高新区管委会,125.245,43.7783,2025-01-23T0600,122,,1.6,40,7,10,,160,细颗粒物(PM2.5)
长春市,岱山公园,125.1761,43.8325,2025-01-23T0600,143,143,1.7,66,10,10,,190,细颗粒物(PM2.5)
长沙市,经开区环保局,113.0833,28.2325,2025-01-23T0600,189,224,1.1,27,8,32,,239,细颗粒物(PM2.5)
长沙市,高开区环保局,112.8872,28.2189,2025-01-23T0600,205,224,1.3,26,11,42,,255,细颗粒物(PM2.5)
长沙市,马坡岭,113.0792,28.2053,2025-01-23T0600,184,220,1.1,29,8,34,,234,细颗粒物(PM2.5)
长沙市,湖南师范大学,112.9394,28.19,2025-01-23T0600,178,218,1.4,27,12,39,,228,细颗粒物(PM2.5)
长沙市,雨花区环保局,113.0178,28.1322,2025-01-23T0600,186,204,1.3,29,10,36,,236,细颗粒物(PM2.5)
长沙市,伍家岭,112.9792,28.2597,2025-01-23T0600,150,234,1.4,27,10,36,,200,细颗粒物(PM2.5)
长沙市,火车新站,113.0014,28.1944,2025-01-23T0600,175,222,1.2,29,8,38,,225,细颗粒物(PM2.5)
长沙市,天心区环保局,112.9844,28.1178,2025-01-23T0600,163,206,1.4,29,6,36,,213,细颗粒物(PM2.5)
长沙市,湖南中医药大学,112.8908,28.1308,2025-01-23T0600,184,214,1.4,22,12,45,,234,细颗粒物(PM2.5)
长沙市,沙坪,112.9581,28.3611,2025-01-23T0600,184,266,1.6,23,12,33,,234,细颗粒物(PM2.5)
长治市,清华站,113.1147,36.1547,2025-01-23T0600,75,115,1.8,50,29,10,,100,细颗粒物(PM2.5)
长治市,审计局,113.0886,36.2125,2025-01-23T0600,73,88,1.3,56,19,2,,98,细颗粒物(PM2.5)
长治市,长治八中,113.0844,36.1856,2025-01-23T0600,76,115,1.5,46,23,10,,102,细颗粒物(PM2.5)
长治市,德盛苑,113.1569,36.1911,2025-01-23T0600,56,82,1.3,28,9,41,,77,细颗粒物(PM2.5)
长治市,向阳小学,113.06,36.0464,2025-01-23T0600,84,112,2.7,34,26,32,,112,细颗粒物(PM2.5)
长治市,屯留一中,112.8792,36.3144,2025-01-23T0600,67,87,1.5,68,23,9,,90,细颗粒物(PM2.5)
长治市,英华南巷50号,113.1131,36.19948,2025-01-23T0600,58,66,1.4,43,15,28,,79,细颗粒物(PM2.5)
长治市,学府街1号,113.2367,36.3344,2025-01-23T0600,35,63,1.2,46,17,18,,57,颗粒物(PM10)
常德市,市二中,111.6975,28.9703,2025-01-23T0600,240,257,1.2,21,8,46,,290,细颗粒物(PM2.5)
常德市,白鹤山,111.7158,29.1456,2025-01-23T0600,,,,,,,,,
常德市,武陵区永安,111.7153,29.0289,2025-01-23T0600,213,256,1.0,24,10,76,,263,细颗粒物(PM2.5)
常德市,鼎城区玉霞,111.6892,28.9881,2025-01-23T0600,232,,1.4,38,10,26,,282,细颗粒物(PM2.5)
常德市,武陵区长庚,111.6625,29.0531,2025-01-23T0600,232,286,1.1,27,5,49,,282,细颗粒物(PM2.5)
常州市,市监测站,119.9633,31.762,2025-01-23T0600,47,71,1.0,64,8,11,,65,细颗粒物(PM2.5)
常州市,武进监测站,119.9468,31.7069,2025-01-23T0600,41,68,1.0,39,14,10,,59,颗粒物(PM10)
常州市,安家,119.9255,31.9087,2025-01-23T0600,50,74,1.1,54,14,2,,69,细颗粒物(PM2.5)
常州市,行政中心,119.9805,31.8174,2025-01-23T0600,46,65,0.7,38,14,14,,64,细颗粒物(PM2.5)
常州市,经开区,120.0522,31.7748,2025-01-23T0600,45,83,0.7,64,9,3,,67,颗粒物(PM10)
常州市,钟楼,119.9025,31.7964,2025-01-23T0600,49,80,1.0,43,10,17,,68,细颗粒物(PM2.5)
常州市,武进经发区,119.8598,31.7066,2025-01-23T0600,52,72,1.0,67,7,1,,72,细颗粒物(PM2.5)
常州市,金坛城区,119.5826,31.7245,2025-01-23T0600,59,84,0.7,50,7,2,,80,细颗粒物(PM2.5)
朝阳市,西梁,120.4318,41.5881,2025-01-23T0600,73,97,2.1,45,17,10,,98,细颗粒物(PM2.5)
朝阳市,河畔小区,120.4521,41.5646,2025-01-23T0600,65,72,1.4,28,11,15,,88,细颗粒物(PM2.5)
朝阳市,八里堡,120.4176,41.5648,2025-01-23T0600,62,70,1.6,35,12,15,,84,细颗粒物(PM2.5)
朝阳市,农业园区,120.3806,41.5969,2025-01-23T0600,78,82,1.4,42,10,9,,104,细颗粒物(PM2.5)
潮州市,西园路,116.6367,23.6719,2025-01-23T0600,49,49,0.4,19,4,12,,68,细颗粒物(PM2.5)
潮州市,市政府,116.6183,23.6608,2025-01-23T0600,44,50,0.5,18,3,14,,62,细颗粒物(PM2.5)
潮州市,金山,116.6461,23.6761,2025-01-23T0600,44,,0.6,19,4,7,,62,细颗粒物(PM2.5)
郴州市,马头岭,113.0073,25.9061,2025-01-23T0600,40,64,0.9,28,17,68,,57,"颗粒物(PM10),细颗粒物(PM2.5)"
郴州市,市职中,113.0116,25.8226,2025-01-23T0600,63,78,1.0,31,9,17,,85,细颗粒物(PM2.5)
郴州市,兴隆步行街,113.0161,25.8001,2025-01-23T0600,,,,,,,,,
郴州市,市审计局,113.0383,25.8071,2025-01-23T0600,59,83,1.6,54,8,7,,80,细颗粒物(PM2.5)
郴州市,市环保局,113.0348,25.7759,2025-01-23T0600,59,91,0.6,56,8,14,,80,细颗粒物(PM2.5)
成都市,金泉两河,103.9728,30.7236,2025-01-23T0600,170,196,1.3,51,2,1,,220,细颗粒物(PM2.5)
成都市,十里店,104.176,30.6872,2025-01-23T0600,162,175,1.0,54,2,4,,212,细颗粒物(PM2.5)
成都市,三瓦窑,104.079,30.5706,2025-01-23T0600,167,184,1.0,48,1,1,,217,细颗粒物(PM2.5)
成都市,沙河铺,104.1114,30.63,2025-01-23T0600,164,166,1.1,40,3,6,,214,细颗粒物(PM2.5)
成都市,君平街,104.0786,30.6531,2025-01-23T0600,177,188,1.2,70,5,1,,227,细颗粒物(PM2.5)
成都市,灵岩寺,103.613,31.0283,2025-01-23T0600,,,,,,,,,
成都市,大石西路,104.0239,30.65639,2025-01-23T0600,150,169,1.2,56,4,0,,200,细颗粒物(PM2.5)
成都市,龙泉驿区区政府,104.2725,30.5589,2025-01-23T0600,119,134,1.0,20,3,39,,156,细颗粒物(PM2.5)
成都市,金博路,104.0106,30.6931,2025-01-23T0600,158,199,1.3,50,2,1,,208,细颗粒物(PM2.5)
成都市,华阳,104.0578,30.5225,2025-01-23T0600,153,173,1.2,40,1,6,,203,细颗粒物(PM2.5)
成都市,青白江技师分院,104.3853,30.7453,2025-01-23T0600,153,160,1.0,33,4,2,,203,细颗粒物(PM2.5)
成都市,科学城,104.0789,30.4072,2025-01-23T0600,144,162,1.1,26,4,5,,192,细颗粒物(PM2.5)
成都市,光华大道三段,103.8506,30.6947,2025-01-23T0600,143,188,1.2,45,2,0,,190,细颗粒物(PM2.5)
成都市,鲸龙路1057号,104.2433,30.5353,2025-01-23T0600,141,178,1.1,42,1,5,,188,细颗粒物(PM2.5)
承德市,铁路,117.9531,40.9081,2025-01-23T0600,38,55,1.1,40,7,5,,54,细颗粒物(PM2.5)
承德市,中国银行,117.9392,40.9763,2025-01-23T0600,36,65,0.9,35,2,3,,58,颗粒物(PM10)
承德市,开发区,117.9503,40.928,2025-01-23T0600,46,64,1.0,42,5,8,,64,细颗粒物(PM2.5)
承德市,文化中心,117.8051,40.9655,2025-01-23T0600,43,71,1.1,42,5,6,,61,颗粒物(PM10)
承德市,离宫,117.9268,41.0026,2025-01-23T0600,37,62,0.7,35,4,8,,56,颗粒物(PM10)
池州市,池州学院,117.47,30.6618,2025-01-23T0600,219,248,1.3,47,12,48,,269,细颗粒物(PM2.5)
池州市,展览馆,117.4918,30.6617,2025-01-23T0600,196,243,1.3,45,7,46,,246,细颗粒物(PM2.5)
池州市,第八中学,117.5627,30.695,2025-01-23T0600,213,255,1.2,49,14,43,,263,细颗粒物(PM2.5)
池州市,第十二中学,117.5038,30.6243,2025-01-23T0600,209,246,1.2,46,17,58,,259,细颗粒物(PM2.5)
赤峰市,松山一中,118.9233,42.2816,2025-01-23T0600,34,50,1.1,39,13,12,,50,
赤峰市,哈达街,118.9576,42.2728,2025-01-23T0600,49,67,1.3,45,14,9,,68,细颗粒物(PM2.5)
赤峰市,天义路,118.8788,42.2554,2025-01-23T0600,35,58,0.9,32,9,8,,54,颗粒物(PM10)
赤峰市,银河街,119.2658,42.0353,2025-01-23T0600,56,85,2.6,42,28,8,,77,细颗粒物(PM2.5)
赤峰市,桥北物流园区,118.9359,42.3147,2025-01-23T0600,52,,1.0,40,10,9,,72,细颗粒物(PM2.5)
崇左市,市环保局江州分局,107.3476,22.4136,2025-01-23T0600,55,71,1.0,17,5,71,,75,细颗粒物(PM2.5)
崇左市,城南新区,107.3702,22.3707,2025-01-23T0600,69,74,1.0,22,7,71,,93,细颗粒物(PM2.5)
滁州市,老年大学,118.3093,32.3153,2025-01-23T0600,59,69,0.3,26,2,36,,80,细颗粒物(PM2.5)
滁州市,人大宾馆,118.3244,32.2786,2025-01-23T0600,62,,0.6,29,6,41,,84,细颗粒物(PM2.5)
滁州市,市政府原办公楼,118.3118,32.3038,2025-01-23T0600,56,62,0.2,20,3,40,,77,细颗粒物(PM2.5)
滁州市,图书馆,118.3267,32.2634,2025-01-23T0600,56,66,0.4,18,5,39,,77,细颗粒物(PM2.5)
楚雄彝族自治州,州环境监测站,101.5482,25.0441,2025-01-23T0600,24,32,0.5,26,7,13,,35,
楚雄彝族自治州,市经济开发区,101.538,25.0492,2025-01-23T0600,26,30,0.5,32,5,7,,38,
达州市,达州职业技术学院,107.5277,31.2827,2025-01-23T0600,198,231,1.6,24,5,2,,248,细颗粒物(PM2.5)
达州市,市环境监测站,107.5086,31.2186,2025-01-23T0600,202,230,1.9,35,7,4,,252,细颗粒物(PM2.5)
达州市,凤凰小区,107.4988,31.2132,2025-01-23T0600,200,237,1.7,36,9,5,,250,细颗粒物(PM2.5)
达州市,达县机关宾馆,107.5082,31.1986,2025-01-23T0600,198,241,2.0,42,7,4,,248,细颗粒物(PM2.5)
达州市,市政中心,107.4644,31.2124,2025-01-23T0600,193,234,1.8,44,5,2,,243,细颗粒物(PM2.5)
大理白族自治州,大理市环境监测站,100.1542,25.7054,2025-01-23T0600,21,30,0.6,5,7,80,,30,
大理白族自治州,大理古城,100.2171,25.5811,2025-01-23T0600,21,27,0.8,6,5,71,,30,
大连市,甘井子,121.612,38.9741,2025-01-23T0600,31,38,0.5,29,16,34,,45,
大连市,周水子,121.565,38.9511,2025-01-23T0600,37,38,1.0,34,13,30,,53,细颗粒物(PM2.5)
大连市,星海三站,121.5637,38.8845,2025-01-23T0600,29,36,1.0,28,18,35,,42,
大连市,青泥洼桥,121.6302,38.9117,2025-01-23T0600,26,42,0.9,31,13,22,,42,
大连市,傅家庄,121.6251,38.8638,2025-01-23T0600,27,36,0.7,28,12,36,,39,
大连市,七贤岭,121.5213,38.8661,2025-01-23T0600,25,32,0.8,25,8,36,,36,
大连市,旅顺,121.2529,38.8061,2025-01-23T0600,19,27,0.9,24,14,48,,28,
大连市,金州,121.7485,39.1311,2025-01-23T0600,38,43,0.9,24,8,42,,54,细颗粒物(PM2.5)
大连市,开发区,121.7811,39.0496,2025-01-23T0600,23,35,0.6,30,13,46,,35,
大连市,双D港,121.9762,39.0631,2025-01-23T0600,19,26,0.9,12,13,69,,28,
大庆市,大同区,124.81117,46.03138,2025-01-23T0600,139,160,1.6,42,8,15,,185,细颗粒物(PM2.5)
大庆市,龙凤区,125.129,46.533,2025-01-23T0600,92,122,1.1,62,5,13,,122,细颗粒物(PM2.5)
大庆市,红岗区,124.902,46.408,2025-01-23T0600,58,69,0.8,42,5,22,,79,细颗粒物(PM2.5)
大庆市,萨尔图区,125.153,46.586,2025-01-23T0600,85,110,1.2,65,5,17,,113,细颗粒物(PM2.5)
大庆市,让胡路区,124.9042,46.6215,2025-01-23T0600,77,90,1.5,60,7,16,,103,细颗粒物(PM2.5)
大庆市,萨区政府监测点,125.141,46.634,2025-01-23T0600,70,91,0.9,49,4,23,,94,细颗粒物(PM2.5)
大同市,果树场,113.3819,40.1097,2025-01-23T0600,,,,,,,,,
大同市,云冈宾馆,113.2994,40.0758,2025-01-23T0600,57,106,1.1,47,35,6,,78,"颗粒物(PM10),细颗粒物(PM2.5)"
大同市,大同大学,113.3444,40.0917,2025-01-23T0600,46,67,1.0,52,29,7,,64,细颗粒物(PM2.5)
大同市,安家小村,113.2661,40.1269,2025-01-23T0600,65,128,2.8,49,41,8,,89,颗粒物(PM10)
大同市,教育学院,113.2711,40.0844,2025-01-23T0600,73,156,4.1,57,36,3,,103,颗粒物(PM10)
大同市,大同市卫生学校,113.3397,40.0597,2025-01-23T0600,53,81,1.5,50,40,8,,73,细颗粒物(PM2.5)
大同市,云冈站,113.1367,40.1122,2025-01-23T0600,59,127,1.5,41,25,7,,89,颗粒物(PM10)
大同市,图书馆,113.1186,40.2556,2025-01-23T0600,59,104,1.3,30,8,7,,80,细颗粒物(PM2.5)
大同市,区一中,113.5931,40.0461,2025-01-23T0600,48,93,1.0,23,10,37,,72,颗粒物(PM10)
大同市,魏都大道141号,113.2798,40.0997,2025-01-23T0600,72,152,2.4,50,42,7,,101,颗粒物(PM10)
大兴安岭地区,科技局,124.1069,50.4097,2025-01-23T0600,21,,0.4,7,6,50,,30,
大兴安岭地区,红旗社区,124.1164,50.4278,2025-01-23T0600,14,,0.5,18,2,37,,20,
丹东市,江湾东路,124.3303,40.0625,2025-01-23T0600,46,55,0.9,37,20,32,,64,细颗粒物(PM2.5)
丹东市,临江后街,124.4256,40.1503,2025-01-23T0600,85,104,1.3,26,8,28,,113,细颗粒物(PM2.5)
丹东市,元宝山,124.3933,40.1461,2025-01-23T0600,32,47,1.1,19,10,36,,47,
丹东市,民主桥,124.3633,40.1092,2025-01-23T0600,31,51,0.9,25,12,41,,51,颗粒物(PM10)
儋州市,第一中学子站,109.5726,19.5167,2025-01-23T0600,15,21,0.7,6,5,95,,30,
儋州市,东坡学校子站,109.5567,19.5187,2025-01-23T0600,19,27,0.6,5,6,99,,31,
德宏傣族景颇族自治州,德宏州监测站,98.5842,24.428,2025-01-23T0600,45,65,0.9,34,6,10,,63,细颗粒物(PM2.5)
德宏傣族景颇族自治州,芒市人民政府综合楼,98.5881,24.4368,2025-01-23T0600,45,50,0.6,22,6,12,,63,细颗粒物(PM2.5)
德阳市,东山公园,104.4239,31.1208,2025-01-23T0600,171,186,1.3,35,2,14,,221,细颗粒物(PM2.5)
德阳市,西小区,104.3826,31.1317,2025-01-23T0600,170,200,1.3,36,4,2,,220,细颗粒物(PM2.5)
德阳市,耐火材料厂,104.3553,31.1091,2025-01-23T0600,180,180,1.2,33,6,5,,230,细颗粒物(PM2.5)
德阳市,市教育局,104.4019,31.1244,2025-01-23T0600,173,,1.3,39,5,2,,223,细颗粒物(PM2.5)
德州市,儿童乐园,116.3032,37.4674,2025-01-23T0600,36,48,0.7,32,7,22,,52,细颗粒物(PM2.5)
德州市,监理站,116.2991,37.4451,2025-01-23T0600,29,44,0.7,32,13,33,,44,
德州市,九衢泉纯净水厂,116.2721,37.4379,2025-01-23T0600,36,41,0.6,28,12,35,,52,细颗粒物(PM2.5)
德州市,开发区人民医院,116.3728,37.4403,2025-01-23T0600,36,53,0,40,11,22,,52,"颗粒物(PM10),细颗粒物(PM2.5)"
德州市,太阳城中学,116.3572,37.4094,2025-01-23T0600,34,46,1.1,30,11,33,,49,
德州市,陵城艺术中心,116.5652,37.3319,2025-01-23T0600,41,58,0.8,33,9,21,,58,细颗粒物(PM2.5)
迪庆藏族自治州,迪庆州站,99.7056,27.8317,2025-01-23T0600,16,23,0.4,9,9,37,,23,
迪庆藏族自治州,质量技术监督局,99.7136,27.8094,2025-01-23T0600,18,21,0.5,12,8,41,,26,
定西市,东关小学,104.6241,35.5734,2025-01-23T0600,54,72,1.1,14,10,27,,74,细颗粒物(PM2.5)
定西市,供电公司,104.6194,35.5934,2025-01-23T0600,,,,,,,,,
东莞市,莞城梨川,113.7547,23.0494,2025-01-23T0600,36,59,0.6,25,5,47,,55,颗粒物(PM10)
东莞市,东城石井,113.7944,23.0128,2025-01-23T0600,34,47,0.4,21,5,20,,49,
东莞市,南城西平,113.7383,22.9658,2025-01-23T0600,25,48,0.6,43,3,21,,48,
东莞市,万江金泰,113.7338,23.0381,2025-01-23T0600,30,57,0.4,22,1,48,,54,颗粒物(PM10)
东莞市,南城元岭,113.7533,23.0202,2025-01-23T0600,30,45,0.6,16,5,43,,45,
东莞市,东城主山,113.7875,23.0457,2025-01-23T0600,,,,,,,104,,
东营市,市环保局,118.6614,37.4309,2025-01-23T0600,24,31,0.5,29,3,44,,35,
东营市,开发区管委会,118.6904,37.4338,2025-01-23T0600,24,33,0.6,18,1,42,,35,
东营市,垦利区民丰路,118.5719,37.565,2025-01-23T0600,12,17,0.2,18,8,37,,18,
东营市,河口城区,118.5055,37.8612,2025-01-23T0600,15,29,0.9,16,3,52,,29,
东营市,胜利站,118.4978,37.4623,2025-01-23T0600,14,27,0.8,15,5,41,,27,
东营市,理想之城,118.35,37.26,2025-01-23T0600,14,31,0.4,21,3,39,,31,
鄂尔多斯市,综合楼,110.0023,39.8129,2025-01-23T0600,63,102,1.5,67,25,10,,85,细颗粒物(PM2.5)
鄂尔多斯市,巴音孟克林场办事处,109.9486,39.8261,2025-01-23T0600,58,88,1.3,67,19,13,,79,细颗粒物(PM2.5)
鄂尔多斯市,康泽苑,109.7736,39.5986,2025-01-23T0600,41,68,1.0,40,8,15,,59,颗粒物(PM10)
鄂尔多斯市,华泰汽车城,109.8119,39.5989,2025-01-23T0600,44,63,0.7,36,3,8,,62,细颗粒物(PM2.5)
鄂尔多斯市,奥林花园,109.9734,39.7884,2025-01-23T0600,68,119,1.4,67,12,6,,92,细颗粒物(PM2.5)
鄂州市,市政府,114.8938,30.3994,2025-01-23T0600,201,208,1.7,46,9,45,,251,细颗粒物(PM2.5)
鄂州市,赵家坝,114.8989,30.3714,2025-01-23T0600,188,203,1.8,20,8,73,,238,细颗粒物(PM2.5)
鄂州市,精准医疗中心,114.8094,30.4089,2025-01-23T0600,226,,1.1,53,10,61,,276,细颗粒物(PM2.5)
恩施土家族苗族自治州,湖北民院,109.4978,30.2981,2025-01-23T0600,122,,1.4,30,8,2,,160,细颗粒物(PM2.5)
恩施土家族苗族自治州,州电力总公司,109.4707,30.2798,2025-01-23T0600,103,110,1.3,37,8,6,,135,细颗粒物(PM2.5)
恩施土家族苗族自治州,龙凤新区,109.5061,30.3772,2025-01-23T0600,82,98,1.3,11,6,6,,109,细颗粒物(PM2.5)
防城港市,沙万,108.3411,21.6158,2025-01-23T0600,64,70,0.9,14,8,77,,87,细颗粒物(PM2.5)
防城港市,防城档案局,108.3514,21.7731,2025-01-23T0600,52,73,1.0,36,6,15,,72,细颗粒物(PM2.5)
防城港市,大海花园,108.3506,21.6414,2025-01-23T0600,58,83,1.0,18,4,52,,79,细颗粒物(PM2.5)
佛山市,湾梁,113.1294,23.0067,2025-01-23T0600,30,61,0.5,37,6,25,,56,颗粒物(PM10)
佛山市,华材职中,113.1083,23.0478,2025-01-23T0600,42,48,0.5,31,6,39,,59,细颗粒物(PM2.5)
佛山市,南海气象局,113.144,23.0453,2025-01-23T0600,40,,0.7,28,6,27,,57,细颗粒物(PM2.5)
佛山市,顺德苏岗,113.2881,22.8094,2025-01-23T0600,22,,0.5,21,7,45,,32,
佛山市,高明孔堂,112.8383,22.8678,2025-01-23T0600,57,64,0.6,35,4,38,,78,细颗粒物(PM2.5)
佛山市,三水监测站,112.8836,23.1588,2025-01-23T0600,60,78,0.9,50,7,18,,82,细颗粒物(PM2.5)
佛山市,三水云东海,112.867,23.185,2025-01-23T0600,63,65,0.9,58,7,9,,85,细颗粒物(PM2.5)
佛山市,容桂街道办,113.2544,22.7642,2025-01-23T0600,19,19,0.5,24,6,52,,28,
福州市,鼓山,119.3903,26.0543,2025-01-23T0600,,,,,,,102,,
福州市,师大,119.2681,26.0504,2025-01-23T0600,39,50,0.6,30,3,21,,55,细颗粒物(PM2.5)
福州市,五四北路,119.2984,26.1028,2025-01-23T0600,43,51,0.7,44,3,5,,60,细颗粒物(PM2.5)
福州市,杨桥西路,119.2648,26.0768,2025-01-23T0600,39,53,0.6,32,1,22,,55,细颗粒物(PM2.5)
福州市,紫阳,119.317,26.0746,2025-01-23T0600,48,60,0.6,41,4,12,,67,细颗粒物(PM2.5)
福州市,九龙,119.5799,26.0936,2025-01-23T0600,28,43,0.6,38,2,16,,43,
福州市,吴航,119.5189,25.9664,2025-01-23T0600,38,58,0.9,52,1,2,,54,"颗粒物(PM10),细颗粒物(PM2.5)"
抚顺市,望花区,123.7977,41.8491,2025-01-23T0600,115,172,1.5,43,4,9,,150,细颗粒物(PM2.5)
抚顺市,顺城区,123.9161,41.8822,2025-01-23T0600,75,124,1.2,48,6,11,,100,细颗粒物(PM2.5)
抚顺市,东洲区,124.0436,41.8611,2025-01-23T0600,92,94,1.1,27,9,18,,122,细颗粒物(PM2.5)
抚顺市,新抚区,123.9247,41.8642,2025-01-23T0600,103,135,1.3,38,4,11,,135,细颗粒物(PM2.5)
抚顺市,大伙房水库,124.0972,41.8961,2025-01-23T0600,82,98,1.1,46,7,7,,109,细颗粒物(PM2.5)
抚顺市,沈抚新城,123.7086,41.8391,2025-01-23T0600,107,157,1.6,41,3,9,,140,细颗粒物(PM2.5)
抚州市,桐源党溪,116.2127,28.0814,2025-01-23T0600,46,76,0.6,12,1,19,,64,细颗粒物(PM2.5)
抚州市,市站,116.3544,27.9831,2025-01-23T0600,54,80,0.9,33,15,35,,74,细颗粒物(PM2.5)
抚州市,血防站,116.3565,27.963,2025-01-23T0600,55,87,1.3,64,7,4,,75,细颗粒物(PM2.5)
抚州市,采茶剧团,116.3564,28.0007,2025-01-23T0600,49,75,1.9,25,7,29,,68,细颗粒物(PM2.5)
抚州市,医学分院,116.385,27.9647,2025-01-23T0600,48,81,1.1,44,4,7,,67,细颗粒物(PM2.5)
阜新市,工业园区,121.6094,41.998,2025-01-23T0600,75,94,1.5,27,13,11,,100,细颗粒物(PM2.5)
阜新市,长青街,121.6697,42.0279,2025-01-23T0600,106,145,3.3,41,63,8,,139,细颗粒物(PM2.5)
阜新市,农业园区,121.6673,42.0705,2025-01-23T0600,78,102,0.8,21,52,41,,104,细颗粒物(PM2.5)
阜新市,东苑,121.6717,42.0224,2025-01-23T0600,106,135,3.2,44,70,14,,139,细颗粒物(PM2.5)
阜新市,玉龙新城,121.6506,42.0498,2025-01-23T0600,71,153,1.8,37,9,9,,102,颗粒物(PM10)
阜阳市,市监测站,115.8277,32.8929,2025-01-23T0600,86,86,0.6,22,5,37,,114,细颗粒物(PM2.5)
阜阳市,开发区,115.8554,32.8605,2025-01-23T0600,102,111,0.7,21,7,37,,134,细颗粒物(PM2.5)
阜阳市,阜阳职业技术学院,115.784,32.8892,2025-01-23T0600,80,102,0.7,20,5,36,,107,细颗粒物(PM2.5)
阜阳市,市规划展馆,115.7901,32.8613,2025-01-23T0600,72,112,0.7,16,6,48,,97,细颗粒物(PM2.5)
阜阳市,枣园社区,115.836,32.9183,2025-01-23T0600,99,143,0.8,21,6,37,,130,细颗粒物(PM2.5)
甘南藏族自治州,州政府,102.9099,34.9841,2025-01-23T0600,47,83,1.0,22,11,22,,67,颗粒物(PM10)
甘南藏族自治州,甘肃民族师范学院,102.8914,34.9617,2025-01-23T0600,32,64,0.7,26,4,29,,57,颗粒物(PM10)
甘孜藏族自治州,水桥子,101.9603,30.0475,2025-01-23T0600,11,19,0.6,6,3,43,,19,
甘孜藏族自治州,州环保局,101.9533,29.9972,2025-01-23T0600,3,20,0.4,3,3,53,,20,
赣江新区,桑海产业园,115.8347,28.932,2025-01-23T0600,71,100,0.9,71,16,10,,95,细颗粒物(PM2.5)
赣州市,通天岩,114.9017,25.9149,2025-01-23T0600,10,27,0.5,16,7,52,,27,
赣州市,地委,114.9367,25.8664,2025-01-23T0600,38,56,1.2,37,4,27,,54,细颗粒物(PM2.5)
赣州市,气象台,114.9461,25.8481,2025-01-23T0600,35,63,0.7,50,7,19,,57,颗粒物(PM10)
赣州市,市图书馆,114.9322,25.8333,2025-01-23T0600,40,66,1.0,59,5,8,,58,颗粒物(PM10)
赣州市,华坚鞋城,114.8905,25.8471,2025-01-23T0600,46,76,0.6,46,7,11,,64,细颗粒物(PM2.5)
赣州市,赣县区卫计委,115.0093,25.8613,2025-01-23T0600,34,38,0.7,34,3,25,,49,
固原市,马园,106.2319,36.1417,2025-01-23T0600,54,83,0.9,16,11,96,,74,细颗粒物(PM2.5)
固原市,监测站,106.2792,36.0022,2025-01-23T0600,64,69,0.8,17,10,91,,87,细颗粒物(PM2.5)
固原市,新区,106.2375,36.0211,2025-01-23T0600,54,78,0.7,17,8,87,,74,细颗粒物(PM2.5)
固原市,原州区十五小,106.2177,35.9959,2025-01-23T0600,48,70,0.9,18,9,90,,67,细颗粒物(PM2.5)
广安市,小平旧居,106.6308,30.5278,2025-01-23T0600,,,,,,,,,
广安市,市委,106.6303,30.4576,2025-01-23T0600,239,268,1.5,35,7,9,,289,细颗粒物(PM2.5)
广安市,友谊中学,106.6271,30.4663,2025-01-23T0600,222,252,1.4,36,7,4,,272,细颗粒物(PM2.5)
广安市,广电花园,106.6388,30.4551,2025-01-23T0600,225,250,1.5,34,5,4,,275,细颗粒物(PM2.5)
广安市,北辰小学,106.6351,30.4865,2025-01-23T0600,182,234,1.7,36,8,4,,232,细颗粒物(PM2.5)
广元市,黑石坡,105.8945,32.4535,2025-01-23T0600,84,114,1.3,50,5,0,,112,细颗粒物(PM2.5)
广元市,老城,105.821,32.4444,2025-01-23T0600,63,78,1.0,46,3,1,,85,细颗粒物(PM2.5)
广元市,监测站,105.8628,32.4287,2025-01-23T0600,59,76,1.0,51,5,4,,80,细颗粒物(PM2.5)
广元市,经开区,105.8047,32.4166,2025-01-23T0600,87,127,1.6,42,7,4,,115,细颗粒物(PM2.5)
广州市,广雅中学,113.2347,23.1423,2025-01-23T0600,73,88,1.0,72,3,5,,98,细颗粒物(PM2.5)
广州市,市五中,113.2612,23.105,2025-01-23T0600,38,60,0.9,38,3,35,,55,颗粒物(PM10)
广州市,广东商学院,113.3478,23.0916,2025-01-23T0600,38,46,0.9,49,4,25,,54,细颗粒物(PM2.5)
广州市,市八十六中,113.4332,23.1047,2025-01-23T0600,31,51,0.8,79,3,5,,51,颗粒物(PM10)
广州市,番禺中学,113.3505,22.9483,2025-01-23T0600,35,,0.7,31,2,40,,50,
广州市,花都师范,113.2146,23.3916,2025-01-23T0600,66,99,0.8,68,6,10,,89,细颗粒物(PM2.5)
广州市,市监测站,113.2597,23.1331,2025-01-23T0600,36,49,0.8,49,5,37,,52,细颗粒物(PM2.5)
广州市,九龙镇镇龙,113.5618,23.312,2025-01-23T0600,48,70,0.8,52,3,6,,67,细颗粒物(PM2.5)
广州市,麓湖,113.2765,23.1544,2025-01-23T0600,35,46,0.9,72,2,2,,50,
广州市,帽峰山森林公园,113.443,23.3035,2025-01-23T0600,35,42,0.6,40,6,28,,50,
广州市,体育西,113.3221,23.1322,2025-01-23T0600,42,59,0.7,31,5,28,,59,细颗粒物(PM2.5)
广州市,从化街口,113.5717,23.5491,2025-01-23T0600,55,73,0.8,50,6,2,,75,细颗粒物(PM2.5)
广州市,白云竹料,113.3472,23.3692,2025-01-23T0600,46,75,0.9,63,6,3,,64,细颗粒物(PM2.5)
广州市,白云嘉禾,113.2981,23.237,2025-01-23T0600,57,94,1.6,81,7,5,,78,细颗粒物(PM2.5)
广州市,黄埔科学城,113.4256,23.1716,2025-01-23T0600,45,70,1.0,71,6,7,,63,细颗粒物(PM2.5)
广州市,番禺大学城,113.3942,23.0483,2025-01-23T0600,34,108,1.4,49,8,15,,79,颗粒物(PM10)
广州市,南沙黄阁,113.4922,22.8168,2025-01-23T0600,33,34,0.8,33,3,34,,48,
广州市,南沙街,113.5342,22.7896,2025-01-23T0600,22,26,0.7,23,4,50,,32,
广州市,花都梯面,113.2902,23.5544,2025-01-23T0600,33,45,0.8,43,4,7,,48,
广州市,从化良口,113.7858,23.7478,2025-01-23T0600,22,29,0.6,20,4,34,,32,
广州市,增城荔城,113.8051,23.2614,2025-01-23T0600,49,66,0.5,25,4,19,,68,细颗粒物(PM2.5)
贵港市,德智高中,109.568,23.1478,2025-01-23T0600,,,,,,,,,
贵港市,江南子站,109.6047,23.0666,2025-01-23T0600,70,88,1.0,25,10,76,,94,细颗粒物(PM2.5)
贵港市,贵城子站,109.6014,23.0948,2025-01-23T0600,75,129,0.9,47,18,48,,100,细颗粒物(PM2.5)
贵港市,荷城子站,109.5669,23.1065,2025-01-23T0600,56,83,0.7,26,14,80,,77,细颗粒物(PM2.5)
贵港市,新世纪学校,109.5886,23.1172,2025-01-23T0600,65,105,0.9,34,10,72,,88,细颗粒物(PM2.5)
贵阳市,马鞍山,106.6899,26.5998,2025-01-23T0600,51,75,0.8,22,3,44,,70,细颗粒物(PM2.5)
贵阳市,鉴湖路,106.6243,26.6266,2025-01-23T0600,51,68,0.7,21,10,106,,70,细颗粒物(PM2.5)
贵阳市,燕子冲,106.7487,26.6343,2025-01-23T0600,73,78,0.8,16,14,73,,98,细颗粒物(PM2.5)
贵阳市,碧云窝,106.6555,26.4365,2025-01-23T0600,46,73,0.7,17,20,118,,64,细颗粒物(PM2.5)
贵阳市,红边门,106.7109,26.6027,2025-01-23T0600,61,73,0.8,32,19,93,,83,细颗粒物(PM2.5)
贵阳市,新华路,106.7164,26.5699,2025-01-23T0600,53,78,0.8,21,8,114,,73,细颗粒物(PM2.5)
贵阳市,太慈桥,106.674,26.5424,2025-01-23T0600,58,83,0.7,32,10,43,,79,细颗粒物(PM2.5)
贵阳市,桐木岭,106.805,26.3003,2025-01-23T0600,48,70,0.8,1,8,121,,67,细颗粒物(PM2.5)
贵阳市,花果园大街66号,106.6882,26.5695,2025-01-23T0600,61,75,0.3,38,14,92,,83,细颗粒物(PM2.5)
贵阳市,漓江路57号,106.6873,26.5169,2025-01-23T0600,78,85,0.7,40,26,63,,104,细颗粒物(PM2.5)
桂林市,电子科大尧山校区,110.4144,25.3167,2025-01-23T0600,52,65,0.8,16,6,74,,72,细颗粒物(PM2.5)
桂林市,监测站,110.2819,25.2697,2025-01-23T0600,66,80,1.3,20,10,90,,89,细颗粒物(PM2.5)
桂林市,龙隐路小学,110.3089,25.2708,2025-01-23T0600,79,90,0.7,17,21,98,,105,细颗粒物(PM2.5)
桂林市,八中,110.2869,25.2178,2025-01-23T0600,75,80,0.9,19,12,89,,100,细颗粒物(PM2.5)
桂林市,创业大厦,110.1764,25.2381,2025-01-23T0600,66,83,0.9,32,14,69,,89,细颗粒物(PM2.5)
桂林市,旅游学院,110.296,25.1253,2025-01-23T0600,70,85,1.1,45,10,44,,94,细颗粒物(PM2.5)
果洛藏族自治州,玛沁县大武镇,100.2561,34.4714,2025-01-23T0600,14,53,0.6,3,16,31,,52,颗粒物(PM10)
哈尔滨市,岭北,126.5422,45.755,2025-01-23T0600,155,178,1.1,66,21,17,,205,细颗粒物(PM2.5)
哈尔滨市,松北商大,126.561,45.8167,2025-01-23T0600,121,129,1.2,52,2,24,,159,细颗粒物(PM2.5)
哈尔滨市,阿城会宁,126.979,45.5419,2025-01-23T0600,158,,1.0,41,11,25,,208,细颗粒物(PM2.5)
哈尔滨市,南岗学府路,126.599,45.7222,2025-01-23T0600,98,126,0.8,50,4,34,,129,细颗粒物(PM2.5)
哈尔滨市,太平宏伟公园,126.689,45.7733,2025-01-23T0600,170,200,1.8,72,6,3,,220,细颗粒物(PM2.5)
哈尔滨市,道外承德广场,126.635,45.7667,2025-01-23T0600,117,160,1.2,66,5,11,,153,细颗粒物(PM2.5)
哈尔滨市,香坊红旗大街,126.685,45.7319,2025-01-23T0600,108,119,1.0,62,11,14,,142,细颗粒物(PM2.5)
哈尔滨市,动力和平路,126.6411,45.7258,2025-01-23T0600,104,116,1.0,50,1,21,,137,细颗粒物(PM2.5)
哈尔滨市,道里建国路,126.593,45.7478,2025-01-23T0600,133,,1.4,67,9,9,,176,细颗粒物(PM2.5)
哈尔滨市,平房东轻厂,126.615,45.61,2025-01-23T0600,114,130,1.1,66,5,7,,149,细颗粒物(PM2.5)
哈尔滨市,呼兰师专,126.595,45.9855,2025-01-23T0600,150,164,1.4,58,16,12,,200,细颗粒物(PM2.5)
哈尔滨市,省农科院,126.6206,45.6842,2025-01-23T0600,109,117,1.2,76,10,10,,143,细颗粒物(PM2.5)
哈密市,地区监测站,93.5128,42.8172,2025-01-23T0600,37,88,1.0,50,3,20,,69,颗粒物(PM10)
哈密市,哈密师范学校,93.4961,42.8328,2025-01-23T0600,39,62,0.7,54,6,11,,56,颗粒物(PM10)
海北藏族自治州,海晏县西海镇,100.9048,36.9639,2025-01-23T0600,14,31,0.6,5,14,57,,31,
海东市,平安区公安北苑,102.0738,36.5056,2025-01-23T0600,70,,1.0,27,12,33,,94,细颗粒物(PM2.5)
海口市,东寨港,110.576,19.9507,2025-01-23T0600,27,49,0.4,5,9,96,,49,
海口市,海南大学,110.3232,20.0574,2025-01-23T0600,33,66,0.5,9,5,110,,58,颗粒物(PM10)
海口市,秀英海南医院,110.283,20.0053,2025-01-23T0600,27,56,0.4,7,2,112,,53,颗粒物(PM10)
海口市,海南师范大学,110.338,19.9969,2025-01-23T0600,29,62,0.5,6,5,113,,56,颗粒物(PM10)
海口市,龙华路环保局宿舍,110.33,20.0356,2025-01-23T0600,30,56,0.4,9,5,112,,53,颗粒物(PM10)
海口市,桂林洋子站,110.5111,19.9736,2025-01-23T0600,26,56,0.3,6,4,108,,53,颗粒物(PM10)
海南藏族自治州,共和县恰卜恰镇,100.6188,36.2866,2025-01-23T0600,10,35,0.5,14,13,42,,35,
海西蒙古族藏族自治州,德令哈市,97.3731,37.3753,2025-01-23T0600,16,26,0.3,2,16,68,,26,
邯郸市,东污水处理厂,114.5302,36.6116,2025-01-23T0600,46,59,0.7,32,8,24,,64,细颗粒物(PM2.5)
邯郸市,矿院,114.4918,36.5713,2025-01-23T0600,46,62,0.7,26,4,23,,64,细颗粒物(PM2.5)
邯郸市,丛台公园,114.484,36.6133,2025-01-23T0600,46,78,0.7,37,5,21,,64,"颗粒物(PM10),细颗粒物(PM2.5)"
邯郸市,香泉濮院小区,114.7895,36.5593,2025-01-23T0600,56,75,0.7,51,7,27,,77,细颗粒物(PM2.5)
邯郸市,永年区实验高中,114.50634,36.77178,2025-01-23T0600,49,84,1.0,55,8,8,,68,细颗粒物(PM2.5)
邯郸市,峰峰矿区临水派出所,114.20016,36.44293,2025-01-23T0600,43,67,1.2,25,15,37,,60,细颗粒物(PM2.5)
汉中市,汉川机床厂子校,106.9893,33.1842,2025-01-23T0600,173,177,2.2,30,6,7,,223,细颗粒物(PM2.5)
汉中市,市监测站,107.0154,33.0706,2025-01-23T0600,223,,3.1,56,7,13,,273,细颗粒物(PM2.5)
汉中市,鑫源开发区,107.0089,33.1138,2025-01-23T0600,255,,2.3,39,6,12,,305,细颗粒物(PM2.5)
汉中市,南郑大河坎水厂,107.007,33.0323,2025-01-23T0600,229,246,2.2,35,6,13,,279,细颗粒物(PM2.5)
杭州市,滨江,120.2072,30.2111,2025-01-23T0600,81,113,0.9,65,6,9,,108,细颗粒物(PM2.5)
杭州市,西溪,120.0633,30.2747,2025-01-23T0600,68,92,0.8,36,6,2,,92,细颗粒物(PM2.5)
杭州市,下沙,120.3461,30.3153,2025-01-23T0600,50,64,0.8,60,7,1,,69,细颗粒物(PM2.5)
杭州市,卧龙桥,120.1269,30.2456,2025-01-23T0600,72,85,0.7,41,6,8,,97,细颗粒物(PM2.5)
杭州市,浙江农大,120.1903,30.2692,2025-01-23T0600,102,134,0.9,63,6,2,,134,细颗粒物(PM2.5)
杭州市,和睦小学,120.1197,30.3119,2025-01-23T0600,100,124,0.9,77,7,5,,132,细颗粒物(PM2.5)
杭州市,临平镇,120.3019,30.4183,2025-01-23T0600,72,103,0.8,56,6,10,,97,细颗粒物(PM2.5)
杭州市,城厢镇,120.2697,30.1819,2025-01-23T0600,88,121,1.2,63,6,8,,117,细颗粒物(PM2.5)
杭州市,云栖,120.0883,30.1808,2025-01-23T0600,64,88,0.8,54,6,4,,87,细颗粒物(PM2.5)
杭州市,镇二中,119.9464,30.0494,2025-01-23T0600,75,,1.0,43,7,16,,100,细颗粒物(PM2.5)
杭州市,市府大楼,119.7183,30.2367,2025-01-23T0600,92,95,0.9,37,7,30,,122,细颗粒物(PM2.5)
杭州市,消防大队,120.1556,30.2864,2025-01-23T0600,95,125,0.9,66,9,12,,125,细颗粒物(PM2.5)
合肥市,明珠广场,117.1959,31.7848,2025-01-23T0600,180,207,1.2,58,10,20,,230,细颗粒物(PM2.5)
合肥市,三里街,117.3072,31.8764,2025-01-23T0600,92,114,0.7,39,4,25,,122,细颗粒物(PM2.5)
合肥市,琥珀山庄,117.2588,31.8707,2025-01-23T0600,128,144,0.9,47,7,29,,169,细颗粒物(PM2.5)
合肥市,董铺水库,117.1604,31.9052,2025-01-23T0600,202,272,1.0,54,5,20,,252,细颗粒物(PM2.5)
合肥市,长江中路,117.25,31.8571,2025-01-23T0600,139,161,1.0,51,7,24,,185,细颗粒物(PM2.5)
合肥市,庐阳区,117.266,31.9436,2025-01-23T0600,110,139,0.7,35,3,27,,144,细颗粒物(PM2.5)
合肥市,瑶海区,117.336,31.8586,2025-01-23T0600,92,110,0.6,26,6,32,,122,细颗粒物(PM2.5)
合肥市,包河区,117.3027,31.7964,2025-01-23T0600,144,173,1.0,66,5,14,,192,细颗粒物(PM2.5)
合肥市,滨湖新区,117.2776,31.7385,2025-01-23T0600,202,266,1.2,78,9,17,,252,细颗粒物(PM2.5)
合肥市,高新区,117.1318,31.8403,2025-01-23T0600,155,180,1.4,54,7,24,,205,细颗粒物(PM2.5)
合肥市,高教基地,117.3803,31.9147,2025-01-23T0600,85,108,0.6,34,5,32,,113,细颗粒物(PM2.5)
和田地区,地区环保局,79.924,37.0877,2025-01-23T0600,42,109,0.5,12,1,56,,80,颗粒物(PM10)
和田地区,市环保局,79.9131,37.113,2025-01-23T0600,53,122,1.8,55,8,14,,86,颗粒物(PM10)
河池市,东仁乐园,108.2011,24.715,2025-01-23T0600,94,122,1.2,62,7,23,,124,细颗粒物(PM2.5)
河池市,市环保站,108.0497,24.6947,2025-01-23T0600,85,89,1.0,34,11,34,,113,细颗粒物(PM2.5)
河池市,市疾控中心,108.0983,24.6989,2025-01-23T0600,92,109,1.1,63,4,5,,122,细颗粒物(PM2.5)
河源市,源西,114.6778,23.7569,2025-01-23T0600,21,39,0.4,19,4,35,,39,
河源市,东埔,114.6944,23.7586,2025-01-23T0600,29,38,0.6,27,3,39,,42,
河源市,老城,114.6892,23.7233,2025-01-23T0600,26,28,0.6,24,3,22,,38,
菏泽市,气象局,115.4208,35.2464,2025-01-23T0600,53,84,0.6,30,10,30,,73,细颗粒物(PM2.5)
菏泽市,定陶老年大学,115.5564,35.0891,2025-01-23T0600,51,75,0.6,37,21,24,,70,细颗粒物(PM2.5)
菏泽市,永昌路1号,115.4797,35.24401,2025-01-23T0600,53,80,0.6,30,12,32,,73,细颗粒物(PM2.5)
菏泽市,长城路999号,115.4715,35.2800,2025-01-23T0600,42,74,1.0,28,8,29,,62,颗粒物(PM10)
贺州市,环保小区,111.5264,24.4172,2025-01-23T0600,59,82,1.1,31,7,49,,80,细颗粒物(PM2.5)
贺州市,政协大楼,111.5608,24.4078,2025-01-23T0600,38,64,0.7,20,6,64,,57,颗粒物(PM10)
贺州市,西湾,111.4744,24.4553,2025-01-23T0600,70,84,0.9,30,6,44,,94,细颗粒物(PM2.5)
鹤壁市,市监测站,114.17,35.9019,2025-01-23T0600,45,82,1.3,16,11,36,,66,颗粒物(PM10)
鹤壁市,市交警支队,114.2956,35.7511,2025-01-23T0600,44,80,1.2,34,10,30,,65,颗粒物(PM10)
鹤壁市,迎宾馆,114.2878,35.7306,2025-01-23T0600,36,84,1.2,35,8,32,,67,颗粒物(PM10)
鹤壁市,大新区,114.2617,35.6822,2025-01-23T0600,41,57,0.8,29,13,38,,58,细颗粒物(PM2.5)
鹤壁市,南山宾馆,114.1572,35.9603,2025-01-23T0600,58,79,2.0,22,14,42,,79,细颗粒物(PM2.5)
鹤岗市,哈啤分公司,130.2537,47.3416,2025-01-23T0600,19,25,0.9,17,13,28,,28,
鹤岗市,斯达机电,130.2684,47.3086,2025-01-23T0600,20,28,0.6,9,15,50,,29,
鹤岗市,东山纸板厂,130.3114,47.3388,2025-01-23T0600,19,179,3.6,26,15,24,,115,颗粒物(PM10)
鹤岗市,五号水库,130.1097,47.3382,2025-01-23T0600,17,21,0.3,4,6,66,,25,
黑河市,交通局,127.4833,50.2524,2025-01-23T0600,17,29,0.6,16,7,33,,29,
黑河市,环保局,127.5144,50.2341,2025-01-23T0600,25,33,0.7,22,6,25,,36,
黑河市,大黑河岛,127.5291,50.2472,2025-01-23T0600,14,,,7,1,5,,,
衡水市,电机北厂,115.6838,37.7541,2025-01-23T0600,36,63,0.5,39,9,14,,57,颗粒物(PM10)
衡水市,市监测站,115.6303,37.7316,2025-01-23T0600,30,51,0.6,51,7,12,,51,颗粒物(PM10)
衡水市,市城管局,115.6683,37.7217,2025-01-23T0600,39,49,0.5,35,10,22,,55,细颗粒物(PM2.5)
衡水市,地表水厂,115.5989,37.5491,2025-01-23T0600,28,33,0.5,38,7,20,,40,
衡阳市,原169医院,112.5003,26.9167,2025-01-23T0600,75,89,0.9,22,12,72,,100,细颗粒物(PM2.5)
衡阳市,衡阳化工总厂,112.6194,26.9258,2025-01-23T0600,106,117,1.1,26,10,56,,139,细颗粒物(PM2.5)
衡阳市,珠晖区环保局,112.6211,26.8956,2025-01-23T0600,92,113,1.3,38,10,51,,122,细颗粒物(PM2.5)
衡阳市,市委党校,112.6197,26.8733,2025-01-23T0600,96,102,1.1,31,12,60,,127,细颗粒物(PM2.5)
衡阳市,市监测站,112.6006,26.8919,2025-01-23T0600,106,126,1.1,27,13,56,,139,细颗粒物(PM2.5)
衡阳市,真空机电公司,112.5664,26.9056,2025-01-23T0600,100,126,1.4,36,10,40,,132,细颗粒物(PM2.5)
衡阳市,师范学院,112.6703,26.882,2025-01-23T0600,74,114,1.0,26,15,72,,99,细颗粒物(PM2.5)
红河哈尼族彝族自治州,污水处理厂,103.3772,23.3993,2025-01-23T0600,50,54,0.5,8,7,88,,69,细颗粒物(PM2.5)
红河哈尼族彝族自治州,监测站,103.3861,23.35,2025-01-23T0600,49,,0.5,6,8,96,,68,细颗粒物(PM2.5)
红河哈尼族彝族自治州,州图书馆,103.3758,23.368,2025-01-23T0600,41,,0.5,8,7,90,,58,细颗粒物(PM2.5)
呼和浩特市,呼市一监,111.6507,40.7517,2025-01-23T0600,49,,0.9,34,9,29,,68,细颗粒物(PM2.5)
呼和浩特市,小召,111.6572,40.8033,2025-01-23T0600,51,51,1.1,56,10,14,,70,细颗粒物(PM2.5)
呼和浩特市,如意水处理厂,111.7516,40.8369,2025-01-23T0600,37,56,0.8,65,10,4,,53,"颗粒物(PM10),细颗粒物(PM2.5)"
呼和浩特市,二十九中,111.7276,40.8062,2025-01-23T0600,38,46,0.8,37,3,24,,54,细颗粒物(PM2.5)
呼和浩特市,工大金川校区,111.5512,40.7866,2025-01-23T0600,40,44,0.7,56,9,13,,57,细颗粒物(PM2.5)
呼和浩特市,化肥厂生活区,111.717,40.7612,2025-01-23T0600,41,58,1.2,36,8,33,,58,细颗粒物(PM2.5)
呼和浩特市,红旗小学,111.5968,40.8178,2025-01-23T0600,53,56,1.0,65,10,9,,73,细颗粒物(PM2.5)
呼和浩特市,海东办,111.6518,40.8389,2025-01-23T0600,67,,1.1,62,6,3,,90,细颗粒物(PM2.5)
呼伦贝尔市,区环保局,119.7594,49.2261,2025-01-23T0600,29,37,0.4,28,9,34,,42,
呼伦贝尔市,国华电力东,119.7512,49.1577,2025-01-23T0600,30,41,0.4,26,4,29,,43,
湖州市,城西水厂,120.0751,30.8669,2025-01-23T0600,79,106,0.4,73,10,9,,105,细颗粒物(PM2.5)
湖州市,仁皇山新区,120.0875,30.8955,2025-01-23T0600,42,57,0.6,52,6,14,,59,细颗粒物(PM2.5)
湖州市,吴兴区站,120.1844,30.8596,2025-01-23T0600,42,65,0.3,54,5,14,,59,细颗粒物(PM2.5)
湖州市,南浔区站,120.4148,30.8538,2025-01-23T0600,37,56,0.4,60,6,4,,53,"颗粒物(PM10),细颗粒物(PM2.5)"
葫芦岛市,龙港区,120.9092,40.7136,2025-01-23T0600,61,71,0.8,52,14,11,,83,细颗粒物(PM2.5)
葫芦岛市,化工街,120.8392,40.7514,2025-01-23T0600,56,85,1.4,49,31,6,,77,细颗粒物(PM2.5)
葫芦岛市,新区,120.8341,40.7073,2025-01-23T0600,48,59,1.8,57,6,5,,67,细颗粒物(PM2.5)
葫芦岛市,东城区,120.8695,40.7677,2025-01-23T0600,50,66,0.8,44,40,8,,69,细颗粒物(PM2.5)
怀化市,林科所,109.5981,27.5721,2025-01-23T0600,84,109,1.2,16,13,87,,112,细颗粒物(PM2.5)
怀化市,河西地税局,109.9453,27.5444,2025-01-23T0600,131,145,1.0,20,10,62,,173,细颗粒物(PM2.5)
怀化市,市四医院,109.9781,27.5342,2025-01-23T0600,134,142,1.8,22,6,58,,178,细颗粒物(PM2.5)
怀化市,监测楼,109.9972,27.5578,2025-01-23T0600,111,146,1.4,37,2,21,,145,细颗粒物(PM2.5)
怀化市,市委党校,110.0394,27.583,2025-01-23T0600,108,140,1.4,28,7,53,,142,细颗粒物(PM2.5)
淮安市,钵池山,119.036,33.5981,2025-01-23T0600,35,,0.6,17,6,56,,50,
淮安市,北京南路,119.007,33.575,2025-01-23T0600,29,29,0.7,15,6,56,,42,
淮安市,市监测站,118.989,33.6067,2025-01-23T0600,31,,0.5,17,6,56,,45,
淮安市,楚州区监测站,119.135,33.5039,2025-01-23T0600,27,29,0.4,15,6,55,,39,
淮安市,淮阴区监测站,119.0186,33.6297,2025-01-23T0600,36,,0.5,22,6,47,,52,细颗粒物(PM2.5)
淮安市,新华书店,118.8755,33.2894,2025-01-23T0600,30,35,0.5,18,7,62,,43,
淮北市,监测站,116.8004,33.975,2025-01-23T0600,66,67,0.4,9,4,58,,89,细颗粒物(PM2.5)
淮北市,烈山区政府,116.8091,33.9007,2025-01-23T0600,51,58,0.5,14,3,68,,70,细颗粒物(PM2.5)
淮北市,杜集区检察院,116.8873,33.9836,2025-01-23T0600,59,71,0.6,9,2,66,,80,细颗粒物(PM2.5)
淮北市,市博物馆,116.7923,33.9535,2025-01-23T0600,63,64,0.6,16,6,63,,85,细颗粒物(PM2.5)
淮南市,潘集区政府,116.8305,32.7727,2025-01-23T0600,59,79,0.5,17,7,35,,80,细颗粒物(PM2.5)
淮南市,谢家集区政府,116.8569,32.5951,2025-01-23T0600,54,71,0.5,24,4,34,,74,细颗粒物(PM2.5)
淮南市,八公山区政府,116.8281,32.633,2025-01-23T0600,61,87,0.4,17,12,34,,83,细颗粒物(PM2.5)
淮南市,焦岗湖风景区管理处,116.6325,32.6201,2025-01-23T0600,55,74,0.2,23,7,10,,75,细颗粒物(PM2.5)
淮南市,经济技术开发区消防队,117.0566,32.6531,2025-01-23T0600,64,77,0.4,21,4,32,,87,细颗粒物(PM2.5)
淮南市,山南新区,117.0108,32.5893,2025-01-23T0600,53,62,0.5,20,5,37,,73,细颗粒物(PM2.5)
淮南市,国庆中路369号,117.0031,32.6445,2025-01-23T0600,72,92,0.4,23,9,30,,97,细颗粒物(PM2.5)
黄冈市,职工中心,114.9028,30.4742,2025-01-23T0600,185,224,1.0,36,10,73,,235,细颗粒物(PM2.5)
黄冈市,红卫路,114.8858,30.4519,2025-01-23T0600,183,222,1.3,28,9,71,,233,细颗粒物(PM2.5)
黄冈市,市林业局,114.9136,30.4445,2025-01-23T0600,179,206,1.1,27,11,71,,229,细颗粒物(PM2.5)
黄南藏族自治州,同仁县隆务镇,102.0199,35.5102,2025-01-23T0600,24,42,0.5,2,7,57,,42,
黄山市,延安路89号,118.2903,29.6963,2025-01-23T0600,24,38,0.5,14,4,7,,38,
黄山市,黄山东路89号,118.327,29.7178,2025-01-23T0600,51,55,0.6,20,4,7,,70,细颗粒物(PM2.5)
黄山市,黄山区政府5号楼,118.1371,30.2756,2025-01-23T0600,34,37,0.7,10,7,16,,49,
黄石市,沈家营,115.0601,30.2313,2025-01-23T0600,167,185,1.2,83,11,12,,217,细颗粒物(PM2.5)
黄石市,铁山,114.8988,30.2019,2025-01-23T0600,170,213,1.2,85,10,10,,220,细颗粒物(PM2.5)
黄石市,团城山,115.0307,30.2092,2025-01-23T0600,157,190,1.2,60,11,23,,207,细颗粒物(PM2.5)
黄石市,笔架山北路,115.0235,30.1578,2025-01-23T0600,112,151,1.1,38,11,73,,147,细颗粒物(PM2.5)
黄石市,磁湖东路29号,115.0780,30.21118,2025-01-23T0600,193,229,1.3,76,7,19,,243,细颗粒物(PM2.5)
惠州市,河南岸金山湖子站,114.4183,23.0528,2025-01-23T0600,29,38,0.6,16,6,34,,42,
惠州市,下埔横江三路子站,114.4053,23.0822,2025-01-23T0600,35,46,0.6,15,5,43,,50,
惠州市,江北云山西路子站,114.4103,23.1142,2025-01-23T0600,38,54,0.9,22,5,34,,54,细颗粒物(PM2.5)
惠州市,惠阳区承修路船湖子站,114.4645,22.7833,2025-01-23T0600,28,40,0.7,18,7,28,,40,
惠州市,大亚湾管委会子站,114.5317,22.7422,2025-01-23T0600,27,40,0.6,37,5,16,,40,
惠州市,惠阳秋长,114.4338,22.8134,2025-01-23T0600,25,34,0.7,22,10,40,,36,
惠州市,大亚湾霞涌,114.6517,22.775,2025-01-23T0600,18,19,0.2,16,5,31,,26,
鸡西市,环保局,130.9762,45.3001,2025-01-23T0600,99,114,0.9,36,6,47,,130,细颗粒物(PM2.5)
鸡西市,第一中学,130.9429,45.3039,2025-01-23T0600,86,105,0.6,10,5,69,,114,细颗粒物(PM2.5)
鸡西市,欧美日汽修厂,131.0207,45.3073,2025-01-23T0600,122,138,1.5,34,66,67,,160,细颗粒物(PM2.5)
鸡西市,市政设施管理处,130.9967,45.3106,2025-01-23T0600,108,128,0.8,25,6,63,,142,细颗粒物(PM2.5)
吉安市,红声器材厂,114.9754,27.0803,2025-01-23T0600,44,71,0.4,18,13,75,,62,细颗粒物(PM2.5)
吉安市,市森林工业局,114.9658,27.0999,2025-01-23T0600,48,80,0.6,4,15,83,,67,细颗粒物(PM2.5)
吉安市,市环境监测站,114.99,27.1312,2025-01-23T0600,46,69,0.5,22,14,84,,64,细颗粒物(PM2.5)
吉安市,青原区法院,115.0093,27.0968,2025-01-23T0600,46,65,0.6,23,15,91,,64,细颗粒物(PM2.5)
吉林市,哈达湾,126.54,43.8622,2025-01-23T0600,71,92,1.1,36,8,38,,95,细颗粒物(PM2.5)
吉林市,东局子,126.5844,43.8358,2025-01-23T0600,62,82,0.6,30,5,29,,84,细颗粒物(PM2.5)
吉林市,电力学院,126.5052,43.8245,2025-01-23T0600,72,79,1.3,37,8,15,,97,细颗粒物(PM2.5)
吉林市,江北,126.6133,43.8972,2025-01-23T0600,82,112,1.3,49,9,20,,109,细颗粒物(PM2.5)
吉林市,江南公园,126.555,43.8306,2025-01-23T0600,78,91,0.9,44,4,14,,104,细颗粒物(PM2.5)
吉林市,丰满,126.7061,43.7133,2025-01-23T0600,,,,,,,,,
吉林市,九站,126.4739,43.953,2025-01-23T0600,100,134,1.4,57,16,9,,132,细颗粒物(PM2.5)
济南市,科干所,116.9862,36.6114,2025-01-23T0600,54,83,1.1,59,11,4,,74,细颗粒物(PM2.5)
济南市,农科所,116.9376,36.665,2025-01-23T0600,32,68,0.8,58,10,7,,59,颗粒物(PM10)
济南市,开发区,117.1265,36.6734,2025-01-23T0600,54,78,1.1,50,13,7,,74,细颗粒物(PM2.5)
济南市,省种子仓库,117.0624,36.6868,2025-01-23T0600,51,90,1.2,49,16,5,,70,"颗粒物(PM10),细颗粒物(PM2.5)"
济南市,机床二厂,116.9489,36.6447,2025-01-23T0600,42,73,1.1,52,16,8,,62,颗粒物(PM10)
济南市,市监测站,117.0495,36.663,2025-01-23T0600,42,76,1.0,54,17,7,,63,颗粒物(PM10)
济南市,长清党校,116.7675,36.5484,2025-01-23T0600,32,66,0.9,61,7,8,,58,颗粒物(PM10)
济南市,技术学院,117.6795,36.229,2025-01-23T0600,105,124,1.1,54,9,17,,138,细颗粒物(PM2.5)
济南市,东山小学,117.532,36.6868,2025-01-23T0600,83,127,1.2,56,7,9,,110,细颗粒物(PM2.5)
济南市,泰兴公司,117.7161,36.2049,2025-01-23T0600,102,136,1.2,62,10,7,,134,细颗粒物(PM2.5)
济南市,莱芜战役纪念馆,117.6867,36.2171,2025-01-23T0600,100,136,1.1,54,8,19,,132,细颗粒物(PM2.5)
济南市,济阳区政府,117.1673,36.9782,2025-01-23T0600,37,66,0.8,47,10,8,,58,颗粒物(PM10)
济南市,锦屏中学,117.1171,36.63,2025-01-23T0600,78,107,0.9,53,5,8,,104,细颗粒物(PM2.5)
济南市,济南四建,116.9814,36.6819,2025-01-23T0600,,,,,,,,,
济宁市,火炬城,116.6251,35.4302,2025-01-23T0600,85,117,1.4,59,14,4,,113,细颗粒物(PM2.5)
济宁市,电化厂,116.5491,35.4042,2025-01-23T0600,68,128,1.1,60,13,2,,92,细颗粒物(PM2.5)
济宁市,北湖一中,116.5814,35.3707,2025-01-23T0600,73,107,1.9,78,8,3,,98,细颗粒物(PM2.5)
济宁市,服务中心,116.8249,35.5593,2025-01-23T0600,67,114,1.1,57,5,10,,90,细颗粒物(PM2.5)
济宁市,市第七中学,116.5907,35.4054,2025-01-23T0600,90,128,1.5,59,8,7,,119,细颗粒物(PM2.5)
佳木斯市,佳纺,130.2751,46.8028,2025-01-23T0600,129,139,1.2,35,6,36,,170,细颗粒物(PM2.5)
佳木斯市,发电厂,130.3995,46.8307,2025-01-23T0600,170,174,1.5,62,6,9,,220,细颗粒物(PM2.5)
佳木斯市,环保局,130.3258,46.7975,2025-01-23T0600,110,120,1.3,24,9,47,,144,细颗粒物(PM2.5)
佳木斯市,十一中,130.3648,46.8032,2025-01-23T0600,133,,1.6,82,8,18,,176,细颗粒物(PM2.5)
佳木斯市,四丰,130.3794,46.7588,2025-01-23T0600,73,123,1.3,16,1,60,,98,细颗粒物(PM2.5)
嘉兴市,清河小学,120.7436,30.778,2025-01-23T0600,21,40,0.3,58,2,2,,40,
嘉兴市,嘉兴学院,120.726,30.7478,2025-01-23T0600,30,52,0.6,42,6,1,,51,颗粒物(PM10)
嘉兴市,南湖区残联,120.7846,30.7525,2025-01-23T0600,30,44,0.6,50,7,6,,44,
嘉兴市,秀洲住建,120.6916,30.7739,2025-01-23T0600,26,54,,34,5,1,,,
嘉峪关市,气象局,98.2908,39.7711,2025-01-23T0600,27,68,0.5,22,3,45,,59,颗粒物(PM10)
嘉峪关市,酒钢宾馆,98.2672,39.7978,2025-01-23T0600,27,75,0.6,20,6,48,,63,颗粒物(PM10)
嘉峪关市,雄关区,98.2643,39.7724,2025-01-23T0600,27,55,0.4,34,8,38,,53,颗粒物(PM10)
江门市,北街,113.1064,22.6058,2025-01-23T0600,34,,0.6,18,2,49,,49,
江门市,西区,113.0731,22.5835,2025-01-23T0600,28,,0.6,16,5,52,,40,
江门市,圭峰西,113.0219,22.5311,2025-01-23T0600,24,,0.4,17,3,42,,35,
江门市,东湖,113.0828,22.5947,2025-01-23T0600,17,35,0.4,13,4,38,,35,
江门市,江海富民,113.1075,22.5647,2025-01-23T0600,40,43,0.7,18,4,53,,57,细颗粒物(PM2.5)
江门市,新会银湖,113.05,22.4667,2025-01-23T0600,49,,0.8,33,5,12,,68,细颗粒物(PM2.5)
焦作市,市环保局,113.227,35.2125,2025-01-23T0600,79,121,0.7,51,43,17,,105,细颗粒物(PM2.5)
焦作市,影视城,113.1992,35.2590,2025-01-23T0600,97,123,1.1,25,13,48,,128,细颗粒物(PM2.5)
焦作市,太极体育中心,113.2725,35.2067,2025-01-23T0600,53,74,0.8,42,12,27,,73,细颗粒物(PM2.5)
焦作市,马村街道办,113.3137,35.2641,2025-01-23T0600,89,106,1.0,44,18,20,,118,细颗粒物(PM2.5)
焦作市,焦作技师学院,113.2465,35.2373,2025-01-23T0600,73,130,1.1,39,36,24,,98,细颗粒物(PM2.5)
焦作市,中站许衡医院,113.1656,35.2539,2025-01-23T0600,89,115,1.4,42,13,30,,118,细颗粒物(PM2.5)
焦作市,原李万街道办,113.2449,35.1803,2025-01-23T0600,51,104,0.8,35,12,20,,77,颗粒物(PM10)
揭阳市,新兴,116.3701,23.5345,2025-01-23T0600,78,,0.9,31,5,33,,104,细颗粒物(PM2.5)
揭阳市,西马,116.3264,23.5443,2025-01-23T0600,99,,1.1,40,6,7,,130,细颗粒物(PM2.5)
揭阳市,东兴,116.3611,23.5626,2025-01-23T0600,64,72,0.9,33,4,21,,87,细颗粒物(PM2.5)
揭阳市,渔湖,116.4151,23.5294,2025-01-23T0600,53,79,0.7,26,6,35,,73,细颗粒物(PM2.5)
揭阳市,曲溪,116.403,23.5699,2025-01-23T0600,51,60,0.9,46,3,17,,70,细颗粒物(PM2.5)
金昌市,天庆家园,102.1692,38.5167,2025-01-23T0600,38,40,0.8,12,14,56,,54,细颗粒物(PM2.5)
金昌市,金川区人防中心,102.1647,38.5371,2025-01-23T0600,33,39,0.8,8,12,67,,48,
金昌市,长春路96号,102.1930,38.5319,2025-01-23T0600,38,49,0.6,15,14,61,,54,细颗粒物(PM2.5)
金华市,十五中,119.647,29.077,2025-01-23T0600,43,72,0.7,48,3,7,,61,颗粒物(PM10)
金华市,监测站,119.686,29.1029,2025-01-23T0600,51,83,0.7,54,4,1,,70,细颗粒物(PM2.5)
金华市,气象局,119.656,29.1131,2025-01-23T0600,66,110,1.2,85,6,1,,89,细颗粒物(PM2.5)
锦州市,南山,121.1115,41.0879,2025-01-23T0600,106,,2.7,43,7,16,,139,细颗粒物(PM2.5)
锦州市,开发区,121.0533,40.8434,2025-01-23T0600,100,121,2.3,58,16,7,,132,细颗粒物(PM2.5)
锦州市,百股街道,121.1836,41.1119,2025-01-23T0600,73,90,1.2,42,10,10,,98,细颗粒物(PM2.5)
锦州市,天安街道,121.1178,41.1222,2025-01-23T0600,107,122,1.0,52,18,12,,140,细颗粒物(PM2.5)
锦州市,北湖公园,121.1303,41.1386,2025-01-23T0600,108,117,0.9,44,22,21,,142,细颗粒物(PM2.5)
晋城市,自来水公司,112.85,35.5051,2025-01-23T0600,171,196,2.0,63,22,4,,221,细颗粒物(PM2.5)
晋城市,白云商贸,112.8318,35.4936,2025-01-23T0600,117,164,1.5,47,10,22,,153,细颗粒物(PM2.5)
晋城市,市环保局,112.8508,35.4887,2025-01-23T0600,168,216,1.9,67,21,7,,218,细颗粒物(PM2.5)
晋城市,技术学院,112.8676,35.4897,2025-01-23T0600,178,189,2.0,70,29,8,,228,细颗粒物(PM2.5)
晋城市,白马寺,112.8453,35.546,2025-01-23T0600,,,,,,,35,,
晋城市,泽州一中,112.8271,35.4828,2025-01-23T0600,134,162,1.4,55,10,17,,178,细颗粒物(PM2.5)
晋中市,南都小区,112.7249,37.7067,2025-01-23T0600,37,62,0.7,48,8,30,,56,颗粒物(PM10)
晋中市,榆次区政府,112.6991,37.6982,2025-01-23T0600,,,,,,,,,
晋中市,榆次三中,112.7195,37.6828,2025-01-23T0600,44,70,0.8,42,10,29,,62,细颗粒物(PM2.5)
晋中市,榆次一中,112.7478,37.6954,2025-01-23T0600,41,73,0.5,42,8,32,,62,颗粒物(PM10)
荆门市,竹园小学,112.2014,31.0481,2025-01-23T0600,172,235,1.3,27,10,62,,222,细颗粒物(PM2.5)
荆门市,掇刀,112.1969,30.9891,2025-01-23T0600,172,231,1.1,28,18,75,,222,细颗粒物(PM2.5)
荆门市,石化一小,112.2213,31.0386,2025-01-23T0600,156,237,1.2,27,12,64,,206,细颗粒物(PM2.5)
荆门市,西山林语,112.1849,31.0362,2025-01-23T0600,167,232,1.3,26,7,72,,217,细颗粒物(PM2.5)
荆门市,龙泉中学南校,112.1632,31.0138,2025-01-23T0600,187,240,1.2,24,18,84,,237,细颗粒物(PM2.5)
荆州市,市图书馆,112.2494,30.3197,2025-01-23T0600,196,,1.5,32,11,58,,246,细颗粒物(PM2.5)
荆州市,市委党校,112.2008,30.3544,2025-01-23T0600,196,216,1.1,32,13,60,,246,细颗粒物(PM2.5)
荆州市,管委会,112.2747,30.3122,2025-01-23T0600,211,223,1.3,31,12,70,,261,细颗粒物(PM2.5)
荆州市,学苑路,112.1655,30.3364,2025-01-23T0600,203,212,1.7,30,12,63,,253,细颗粒物(PM2.5)
景德镇市,王港中学,117.3102,29.3867,2025-01-23T0600,,,,,,,,,
景德镇市,老干部活动中心,117.2117,29.2933,2025-01-23T0600,36,44,0.6,32,4,7,,52,细颗粒物(PM2.5)
景德镇市,兽医站,117.1894,29.2789,2025-01-23T0600,34,50,0.8,22,4,31,,50,
景德镇市,台达陶瓷,117.1547,29.2617,2025-01-23T0600,24,39,0.3,22,2,42,,39,
景德镇市,陶研所,117.2461,29.2956,2025-01-23T0600,31,47,0.6,33,4,7,,47,
九江市,十里,115.9872,29.6815,2025-01-23T0600,110,156,1.1,28,10,84,,144,细颗粒物(PM2.5)
九江市,茅山头,115.9584,29.7046,2025-01-23T0600,109,143,1.2,57,4,46,,143,细颗粒物(PM2.5)
九江市,西园,115.9877,29.7295,2025-01-23T0600,123,142,0.9,52,12,46,,162,细颗粒物(PM2.5)
九江市,综合工业园,115.9114,29.6038,2025-01-23T0600,99,106,1.0,47,7,33,,130,细颗粒物(PM2.5)
九江市,石化总厂,116.0721,29.7535,2025-01-23T0600,128,158,1.3,52,13,50,,169,细颗粒物(PM2.5)
九江市,庐山气象台,115.9773,29.5698,2025-01-23T0600,24,28,0.6,7,6,131,,41,
九江市,外国语学校,116.0254,29.6994,2025-01-23T0600,125,161,0.7,26,16,75,,165,细颗粒物(PM2.5)
九江市,莲花大道8号,116.0102,29.6594,2025-01-23T0600,149,172,0.8,28,12,94,,199,细颗粒物(PM2.5)
酒泉市,仓门街子站,98.5061,39.7443,2025-01-23T0600,31,63,0.4,9,10,56,,57,颗粒物(PM10)
酒泉市,玉门东路5号,98.4958,39.7339,2025-01-23T0600,26,78,0.5,9,8,54,,64,颗粒物(PM10)
喀什地区,巡警大队,76.0072,39.4467,2025-01-23T0600,91,187,4.5,81,6,9,,120,细颗粒物(PM2.5)
喀什地区,吾办,75.9755,39.4694,2025-01-23T0600,95,146,2.5,62,2,17,,125,细颗粒物(PM2.5)
喀什地区,老干局,75.9483,39.4689,2025-01-23T0600,93,189,5.6,64,3,6,,123,细颗粒物(PM2.5)
开封市,肿瘤医院,114.3389,34.7781,2025-01-23T0600,44,61,0.7,16,3,38,,62,细颗粒物(PM2.5)
开封市,世纪星幼儿园,114.2885,34.7965,2025-01-23T0600,46,57,0.6,23,7,35,,64,细颗粒物(PM2.5)
开封市,龙亭公园,114.3438,34.8106,2025-01-23T0600,39,57,0.3,25,4,33,,55,细颗粒物(PM2.5)
开封市,汴京公园,114.3644,34.7964,2025-01-23T0600,42,64,0.7,21,6,37,,59,细颗粒物(PM2.5)
开封市,技师学院,114.2485,34.8306,2025-01-23T0600,44,62,0.9,26,4,33,,62,细颗粒物(PM2.5)
开封市,祥符区生态环境局,114.4644,34.7556,2025-01-23T0600,50,73,0.6,19,4,25,,69,细颗粒物(PM2.5)
克拉玛依市,长征新村,84.895,45.6094,2025-01-23T0600,80,106,1.0,31,8,73,,107,细颗粒物(PM2.5)
克拉玛依市,南林小区,84.8988,45.5893,2025-01-23T0600,75,100,1.3,17,4,64,,100,细颗粒物(PM2.5)
克拉玛依市,独山子区,84.905,44.3396,2025-01-23T0600,14,21,0.3,12,5,85,,27,
克拉玛依市,乌尔禾区商贸楼,85.6979,46.098,2025-01-23T0600,153,154,1.5,32,6,82,,203,细颗粒物(PM2.5)
克拉玛依市,白碱滩区新站,85.1045,45.6899,2025-01-23T0600,92,108,1.3,18,6,72,,122,细颗粒物(PM2.5)
克孜勒苏柯尔克孜自治州,市人民政府,76.1454,39.7142,2025-01-23T0600,57,98,1.2,16,4,68,,78,细颗粒物(PM2.5)
克孜勒苏柯尔克孜自治州,克州文化中心,76.1658,39.7157,2025-01-23T0600,59,69,0.8,15,9,73,,80,细颗粒物(PM2.5)
昆明市,呈贡新区,102.8204,24.8886,2025-01-23T0600,23,36,0.6,37,4,28,,36,
昆明市,西山森林公园,102.6251,24.9608,2025-01-23T0600,,,,,,,,,
昆明市,龙泉镇,102.7252,25.0902,2025-01-23T0600,29,34,1.0,24,6,16,,42,
昆明市,东风东路,102.7266,25.0375,2025-01-23T0600,33,42,0.6,39,5,4,,48,
昆明市,金鼎山,102.6742,25.0669,2025-01-23T0600,33,42,0.7,39,7,12,,48,
昆明市,碧鸡广场,102.6644,25.0401,2025-01-23T0600,30,41,0.5,26,5,26,,43,
昆明市,官渡区博物馆,102.7494,25.0119,2025-01-23T0600,31,42,1.1,53,7,1,,45,
昆明市,青年创业园,102.8017,24.8336,2025-01-23T0600,20,31,0.5,12,5,60,,31,
昆明市,昆明学院,102.7997,24.9786,2025-01-23T0600,39,62,0.6,49,10,3,,56,颗粒物(PM10)
昆明市,晋宁区生态环境分局,102.5967,24.6736,2025-01-23T0600,22,37,0.7,23,4,38,,37,
昆明市,云天化总部,102.6678,24.9856,2025-01-23T0600,26,42,0.5,42,6,17,,42,
拉萨市,八廓街,91.1319,29.6514,2025-01-23T0600,9,11,0.6,27,6,49,,16,
拉萨市,市环保局,91.1221,29.6747,2025-01-23T0600,6,15,0.9,27,5,57,,18,
拉萨市,区监测站,91.0874,29.6475,2025-01-23T0600,3,10,0.4,7,6,85,,27,
拉萨市,西藏大学,91.1774,29.6541,2025-01-23T0600,7,17,0.8,18,6,68,,22,
拉萨市,区辐射站,90.9798,29.6588,2025-01-23T0600,10,14,0.8,18,6,60,,19,
拉萨市,拉萨火车站,91.0834,29.6292,2025-01-23T0600,6,12,0.5,6,4,88,,28,
来宾市,来宾技工学校,109.2203,23.7256,2025-01-23T0600,114,143,1.3,40,7,20,,149,细颗粒物(PM2.5)
来宾市,兴宾区政府,109.1781,23.7297,2025-01-23T0600,120,130,1.1,17,7,56,,158,细颗粒物(PM2.5)
来宾市,中南小学,109.2416,23.7461,2025-01-23T0600,103,144,1.2,72,15,2,,135,细颗粒物(PM2.5)
兰州市,榆中兰大校区,104.1373,35.9454,2025-01-23T0600,,,,,,,,,
兰州市,生物制品所,103.8412,36.0726,2025-01-23T0600,,,,,,,,,
兰州市,铁路设计院,103.831,36.0464,2025-01-23T0600,71,102,1.6,79,13,10,,95,细颗粒物(PM2.5)
兰州市,百合公园,103.7439,36.0842,2025-01-23T0600,72,95,1.7,68,17,9,,97,细颗粒物(PM2.5)
兰州市,和平,103.9611,35.998,2025-01-23T0600,66,85,1.7,49,15,35,,89,细颗粒物(PM2.5)
兰州市,庄浪东路808号,103.6293,36.0938,2025-01-23T0600,76,115,1.5,59,31,21,,102,细颗粒物(PM2.5)
兰州市,安宁西路88号,103.7251,36.1043,2025-01-23T0600,79,118,1.3,73,28,2,,105,细颗粒物(PM2.5)
兰州新区,新区管委会,103.6633,36.533,2025-01-23T0600,52,64,1.0,15,10,39,,72,细颗粒物(PM2.5)
兰州新区,舟曲中学,103.6975,36.4789,2025-01-23T0600,74,113,1.3,33,12,33,,99,细颗粒物(PM2.5)
廊坊市,药材公司,116.6708,39.5111,2025-01-23T0600,52,65,0.6,63,4,1,,72,细颗粒物(PM2.5)
廊坊市,开发区,116.7214,39.5589,2025-01-23T0600,58,71,0.8,65,3,3,,79,细颗粒物(PM2.5)
廊坊市,北华航天学院,116.7244,39.5269,2025-01-23T0600,61,85,0.5,60,5,3,,83,细颗粒物(PM2.5)
廊坊市,河北工业大学,116.7022,39.5453,2025-01-23T0600,55,76,0.6,69,7,2,,75,细颗粒物(PM2.5)
乐山市,花湖湾,103.7723,29.5462,2025-01-23T0600,176,193,1.1,19,6,17,,226,细颗粒物(PM2.5)
乐山市,牛耳桥,103.7627,29.5844,2025-01-23T0600,177,185,1.0,23,5,8,,227,细颗粒物(PM2.5)
乐山市,市第三水厂,103.7508,29.6006,2025-01-23T0600,148,190,1.3,30,4,9,,198,细颗粒物(PM2.5)
乐山市,市监测站,103.7571,29.5664,2025-01-23T0600,116,147,1.0,15,5,23,,152,细颗粒物(PM2.5)
乐山市,理工大学,103.7311,29.5628,2025-01-23T0600,142,157,1.2,20,9,16,,189,细颗粒物(PM2.5)
丽江市,西南郊,100.2143,26.8576,2025-01-23T0600,18,29,0.5,2,5,77,,29,
丽江市,丽江古城,100.2497,26.8802,2025-01-23T0600,15,20,0.9,7,8,70,,22,
丽江市,市中心,100.2203,26.8906,2025-01-23T0600,12,18,0.5,5,8,69,,22,
丽水市,监测站大楼,119.914,28.4514,2025-01-23T0600,29,33,0.6,24,4,18,,42,
丽水市,莲都小学,119.93,28.4586,2025-01-23T0600,30,49,0.7,33,11,17,,49,
丽水市,余庄前,119.879,28.4231,2025-01-23T0600,36,47,0.6,21,3,4,,52,细颗粒物(PM2.5)
连云港市,市环境监测站,119.176,34.5885,2025-01-23T0600,39,48,0.6,20,6,47,,55,细颗粒物(PM2.5)
连云港市,德源药业,119.3581,34.6972,2025-01-23T0600,29,46,0.5,21,5,63,,46,
连云港市,新城一中,119.178,34.844,2025-01-23T0600,32,54,0.5,35,7,52,,52,颗粒物(PM10)
连云港市,胡沟管理处,119.3608,34.7519,2025-01-23T0600,19,36,0.7,24,6,52,,36,
连云港市,矿山设计院,119.1478,34.5911,2025-01-23T0600,39,58,0.6,21,6,44,,55,细颗粒物(PM2.5)
连云港市,工贸学校,119.2413,34.6539,2025-01-23T0600,46,65,0.9,18,7,54,,64,细颗粒物(PM2.5)
连云港市,连云街道,119.4172,34.7341,2025-01-23T0600,39,59,0.6,17,5,64,,55,"颗粒物(PM10),细颗粒物(PM2.5)"
凉山彝族自治州,青龙寺,102.3431,27.8099,2025-01-23T0600,21,46,1.1,10,8,33,,46,
凉山彝族自治州,邛海宾馆,102.2721,27.8415,2025-01-23T0600,47,55,0.8,14,9,34,,65,细颗粒物(PM2.5)
凉山彝族自治州,西昌市政府,102.2625,27.898,2025-01-23T0600,36,38,0.8,12,9,38,,52,细颗粒物(PM2.5)
凉山彝族自治州,凉山州政府,102.2685,27.8851,2025-01-23T0600,36,42,0.8,11,8,38,,52,细颗粒物(PM2.5)
凉山彝族自治州,长安,102.237,27.8914,2025-01-23T0600,38,46,0.9,22,8,29,,54,细颗粒物(PM2.5)
辽阳市,宏伟区,123.2,41.1953,2025-01-23T0600,77,88,1.1,30,37,17,,103,细颗粒物(PM2.5)
辽阳市,新华园,123.1683,41.2495,2025-01-23T0600,63,82,1.4,46,28,12,,85,细颗粒物(PM2.5)
辽阳市,滨河路,123.2354,41.2639,2025-01-23T0600,64,74,0.9,42,5,12,,87,细颗粒物(PM2.5)
辽阳市,铁西工业园,123.149,41.2991,2025-01-23T0600,147,178,2.4,41,4,8,,196,细颗粒物(PM2.5)
辽源市,环保局,125.1358,42.8845,2025-01-23T0600,63,106,1.5,38,12,6,,85,细颗粒物(PM2.5)
辽源市,银鹰制药,125.0764,42.9078,2025-01-23T0600,72,80,1.9,31,6,6,,97,细颗粒物(PM2.5)
聊城市,区政府,115.9848,36.4372,2025-01-23T0600,36,55,0.8,24,16,34,,53,颗粒物(PM10)
聊城市,聊大东校,116.0072,36.4343,2025-01-23T0600,48,68,0.9,37,13,22,,67,细颗粒物(PM2.5)
聊城市,监控中心,115.9819,36.4978,2025-01-23T0600,41,69,1.0,32,13,26,,60,颗粒物(PM10)
聊城市,九州社区,116.0445,36.4361,2025-01-23T0600,48,60,0.6,31,13,25,,67,细颗粒物(PM2.5)
聊城市,星美广场,116.0567,36.4608,2025-01-23T0600,45,66,0.8,30,30,21,,63,细颗粒物(PM2.5)
林芝市,林芝监测站,94.3681,29.6376,2025-01-23T0600,7,,0.2,2,6,71,,,
林芝市,林芝人民医院,94.3616,29.6616,2025-01-23T0600,6,10,0.2,2,6,68,,22,
临沧市,市环保局,100.0781,23.8982,2025-01-23T0600,17,28,0.6,11,8,31,,28,
临沧市,市气象局,100.0894,23.8822,2025-01-23T0600,34,35,0.5,14,7,30,,49,
临汾市,临钢医院,111.5531,36.0783,2025-01-23T0600,110,202,2.5,71,50,2,,144,细颗粒物(PM2.5)
临汾市,技工学校,111.5028,36.0714,2025-01-23T0600,126,189,2.7,71,54,2,,166,细颗粒物(PM2.5)
临汾市,市委,111.5018,36.0855,2025-01-23T0600,110,186,1.9,71,53,4,,144,细颗粒物(PM2.5)
临汾市,唐尧大酒店,111.505,36.1014,2025-01-23T0600,108,175,2.2,71,48,4,,142,细颗粒物(PM2.5)
临汾市,启星学校,111.4879,36.0530,2025-01-23T0600,129,185,2.5,74,49,0,,170,细颗粒物(PM2.5)
临夏回族自治州,环保局,103.2069,35.5993,2025-01-23T0600,51,143,1.9,26,11,24,,97,颗粒物(PM10)
临夏回族自治州,建设大厦,103.2417,35.6057,2025-01-23T0600,47,101,1.4,15,16,46,,76,颗粒物(PM10)
临沂市,沂河小区,118.3429,35.0532,2025-01-23T0600,63,75,0.8,24,10,46,,85,细颗粒物(PM2.5)
临沂市,鲁南制药厂,118.295,35.0583,2025-01-23T0600,49,66,0.6,16,7,57,,68,细颗粒物(PM2.5)
临沂市,新光毛纺厂,118.2794,34.9976,2025-01-23T0600,50,63,0.8,18,8,57,,69,细颗粒物(PM2.5)
临沂市,河东保险公司,118.3956,35.0888,2025-01-23T0600,61,75,0.8,33,5,32,,83,细颗粒物(PM2.5)
临沂市,十里堡居委,118.3564,35.0215,2025-01-23T0600,53,68,1.0,24,8,44,,73,细颗粒物(PM2.5)
临沂市,南坊新区,118.3604,35.1084,2025-01-23T0600,56,66,0.8,29,5,48,,77,细颗粒物(PM2.5)
临沂市,皇山花园小区,118.3920,35.0300,2025-01-23T0600,52,75,1.1,44,5,29,,72,细颗粒物(PM2.5)
柳州市,柳东小学,109.4856,24.3895,2025-01-23T0600,99,119,1.2,49,15,42,,130,细颗粒物(PM2.5)
柳州市,环保监测站,109.4157,24.3277,2025-01-23T0600,112,144,1.3,46,13,19,,147,细颗粒物(PM2.5)
柳州市,河西水厂,109.389,24.341,2025-01-23T0600,138,228,1.6,53,12,18,,183,细颗粒物(PM2.5)
柳州市,市四中,109.4311,24.2921,2025-01-23T0600,88,126,1.4,62,13,7,,117,细颗粒物(PM2.5)
柳州市,市九中,109.4006,24.3631,2025-01-23T0600,120,,1.2,40,9,34,,158,细颗粒物(PM2.5)
柳州市,古亭山,109.4958,24.3134,2025-01-23T0600,53,74,1.0,52,26,32,,73,细颗粒物(PM2.5)
柳州市,市二中,109.5422,24.3996,2025-01-23T0600,91,118,1.2,47,10,15,,120,细颗粒物(PM2.5)
六安市,监测大楼,116.5079,31.737,2025-01-23T0600,288,,1.4,38,8,43,,338,细颗粒物(PM2.5)
六安市,皖西学院,116.4738,31.7643,2025-01-23T0600,270,303,1.5,54,6,30,,320,细颗粒物(PM2.5)
六安市,朝阳厂,116.4996,31.7905,2025-01-23T0600,278,286,1.4,49,4,37,,328,细颗粒物(PM2.5)
六安市,开发区,116.5567,31.7886,2025-01-23T0600,256,342,1.7,56,6,31,,306,细颗粒物(PM2.5)
六盘水市,窑上,104.8,26.5892,2025-01-23T0600,25,55,0.9,12,4,92,,53,颗粒物(PM10)
六盘水市,黄土坡,104.83,26.5917,2025-01-23T0600,34,,0.9,15,8,100,,49,
六盘水市,水钢,104.89,26.5939,2025-01-23T0600,54,,0.8,12,6,108,,74,细颗粒物(PM2.5)
六盘水市,民中,104.8475,26.5894,2025-01-23T0600,41,47,1.0,15,11,94,,58,细颗粒物(PM2.5)
六盘水市,双水,104.9544,26.5506,2025-01-23T0600,48,,0.7,8,8,122,,67,细颗粒物(PM2.5)
龙岩市,龙岩师专,117.0189,25.1181,2025-01-23T0600,,,,,,,,,
龙岩市,龙岩市监测站,117.0217,25.1033,2025-01-23T0600,32,38,0.6,22,8,62,,46,
龙岩市,闽西职业技术学院,117.0258,25.0661,2025-01-23T0600,28,45,0.6,37,2,24,,45,
龙岩市,龙岩学院,117.0196,25.0306,2025-01-23T0600,28,40,0.5,20,3,31,,40,
陇南市,汉王镇固水子,105.0822,33.3261,2025-01-23T0600,,,,,,,,,
陇南市,滨江中学,104.9339,33.3826,2025-01-23T0600,54,74,1.5,40,14,18,,74,细颗粒物(PM2.5)
陇南市,市总工会,104.955,33.371,2025-01-23T0600,46,54,0.8,22,10,44,,64,细颗粒物(PM2.5)
娄底市,电视发射台,111.9589,27.8901,2025-01-23T0600,102,,1.0,19,8,80,,134,细颗粒物(PM2.5)
娄底市,市监测站,111.9975,27.725,2025-01-23T0600,,,,,,,60,,
娄底市,市委党校,112.0194,27.7314,2025-01-23T0600,137,170,0.9,30,6,78,,182,细颗粒物(PM2.5)
娄底市,涟钢,111.9561,27.7569,2025-01-23T0600,132,153,1.0,18,15,70,,175,细颗粒物(PM2.5)
娄底市,市政府,111.9892,27.7044,2025-01-23T0600,118,135,0.9,28,8,42,,155,细颗粒物(PM2.5)
泸州市,九狮山,105.4324,28.9634,2025-01-23T0600,,,,,,,,,
泸州市,小市上码头,105.4427,28.9063,2025-01-23T0600,125,162,0.9,27,3,28,,165,细颗粒物(PM2.5)
泸州市,兰田宪桥,105.4241,28.8573,2025-01-23T0600,113,127,1.0,14,3,35,,148,细颗粒物(PM2.5)
泸州市,市环监站,105.4379,28.8833,2025-01-23T0600,113,134,0.8,14,6,53,,148,细颗粒物(PM2.5)
泸州市,纳溪区环保局,105.3617,28.7703,2025-01-23T0600,96,121,1.0,25,4,21,,127,细颗粒物(PM2.5)
吕梁市,环保局,111.1406,37.5211,2025-01-23T0600,69,161,0.9,56,5,1,,106,颗粒物(PM10)
吕梁市,自来水公司,111.1297,37.5136,2025-01-23T0600,72,135,1.0,56,16,4,,97,细颗粒物(PM2.5)
吕梁市,马茂庄小学,111.1283,37.51,2025-01-23T0600,76,142,1.1,59,22,2,,102,细颗粒物(PM2.5)
洛阳市,市委党校,112.3931,34.6516,2025-01-23T0600,50,78,0.7,40,7,25,,69,细颗粒物(PM2.5)
洛阳市,河南林校,112.494,34.6886,2025-01-23T0600,50,59,0.6,25,5,35,,69,细颗粒物(PM2.5)
洛阳市,开发区管委会,112.3844,34.623,2025-01-23T0600,73,91,0.7,40,6,29,,98,细颗粒物(PM2.5)
洛阳市,市委新办公区,112.4267,34.6258,2025-01-23T0600,100,134,0.9,59,5,6,,132,细颗粒物(PM2.5)
洛阳市,伊滨,112.6005,34.6326,2025-01-23T0600,47,83,0.5,27,6,29,,67,颗粒物(PM10)
洛阳市,中移产业园,112.4951,34.6332,2025-01-23T0600,40,58,0.7,33,7,37,,57,细颗粒物(PM2.5)
洛阳市,吉利监测站,112.5736,34.8993,2025-01-23T0600,39,84,0.5,33,6,32,,67,颗粒物(PM10)
洛阳市,河科大西苑校区,112.3677,34.662,2025-01-23T0600,53,81,0.9,39,8,28,,73,细颗粒物(PM2.5)
洛阳市,英才小学,112.4388,34.6781,2025-01-23T0600,58,84,0.8,46,11,20,,79,细颗粒物(PM2.5)
洛阳市,春都路1号院,112.4600,34.6949,2025-01-23T0600,34,65,0.9,38,9,42,,58,颗粒物(PM10)
漯河市,三五一五工厂,114.051,33.5699,2025-01-23T0600,67,88,0.6,23,6,35,,90,细颗粒物(PM2.5)
漯河市,漯河大学,114.0055,33.5698,2025-01-23T0600,56,86,0.7,23,8,36,,77,细颗粒物(PM2.5)
漯河市,市水利局,114.0138,33.5828,2025-01-23T0600,56,88,0.6,20,6,34,,77,细颗粒物(PM2.5)
漯河市,市广电局,114.0261,33.5698,2025-01-23T0600,56,85,0.6,21,10,34,,77,细颗粒物(PM2.5)
漯河市,市图书馆,113.9749,33.5664,2025-01-23T0600,61,92,0.6,29,6,35,,83,细颗粒物(PM2.5)
漯河市,召陵区卫健委,114.0967,33.5906,2025-01-23T0600,59,92,0.6,19,5,31,,80,细颗粒物(PM2.5)
马鞍山市,湖东路四小,118.5092,31.6837,2025-01-23T0600,89,139,1.0,88,4,5,,118,细颗粒物(PM2.5)
马鞍山市,开发区,118.5024,31.6449,2025-01-23T0600,102,128,0.9,78,7,5,,134,细颗粒物(PM2.5)
马鞍山市,濮塘,118.6245,31.7241,2025-01-23T0600,84,98,0.8,74,4,11,,112,细颗粒物(PM2.5)
马鞍山市,雨山,118.4918,31.6809,2025-01-23T0600,92,155,1.1,84,6,2,,122,细颗粒物(PM2.5)
马鞍山市,慈湖高新区,118.5274,31.72227,2025-01-23T0600,77,130,1.1,75,8,3,,103,细颗粒物(PM2.5)
茂名市,电白南海,111.0286,21.4688,2025-01-23T0600,24,39,0.4,9,7,91,,39,
茂名市,茂石化七小,110.9294,21.6533,2025-01-23T0600,24,53,0.6,13,9,71,,52,颗粒物(PM10)
茂名市,健康路,110.9107,21.6687,2025-01-23T0600,44,51,0.9,15,14,70,,62,细颗粒物(PM2.5)
茂名市,高岭,110.8592,21.6828,2025-01-23T0600,39,70,1.0,23,13,47,,60,颗粒物(PM10)
茂名市,电白水东,111.01,21.5165,2025-01-23T0600,19,31,0.6,9,6,79,,31,
眉山市,黑龙滩水库,104.0308,30.0478,2025-01-23T0600,117,142,0.8,7,3,20,,153,细颗粒物(PM2.5)
眉山市,气象局,103.8416,30.0874,2025-01-23T0600,171,208,1.3,24,6,4,,221,细颗粒物(PM2.5)
眉山市,市委党校,103.8578,30.0744,2025-01-23T0600,163,180,1.2,31,7,5,,213,细颗粒物(PM2.5)
眉山市,区人社局,103.8291,30.0564,2025-01-23T0600,185,,1.4,42,8,5,,235,细颗粒物(PM2.5)
梅州市,梅江月梅,116.1231,24.3284,2025-01-23T0600,33,40,0.9,28,8,27,,48,
梅州市,梅县新城,116.0797,24.2719,2025-01-23T0600,39,56,0.7,42,4,5,,55,细颗粒物(PM2.5)
梅州市,环境监控中心,116.1248,24.2654,2025-01-23T0600,39,44,0.6,22,46,28,,55,细颗粒物(PM2.5)
梅州市,梅龙,116.1233,24.2991,2025-01-23T0600,35,39,0.7,23,10,32,,50,
绵阳市,富乐山,104.7778,31.4741,2025-01-23T0600,107,134,1.5,33,3,2,,140,细颗粒物(PM2.5)
绵阳市,高新区自来水公司,104.6697,31.4668,2025-01-23T0600,114,165,1.3,37,6,2,,149,细颗粒物(PM2.5)
绵阳市,三水厂,104.7287,31.5075,2025-01-23T0600,128,164,1.3,26,4,3,,169,细颗粒物(PM2.5)
绵阳市,西科大附属小学,104.69,31.5322,2025-01-23T0600,128,160,1.2,21,6,7,,169,细颗粒物(PM2.5)
绵阳市,安州区旅游局,104.5648,31.5343,2025-01-23T0600,119,143,1.3,21,9,5,,156,细颗粒物(PM2.5)
绵阳市,绵阳市气象局,104.7651,31.4531,2025-01-23T0600,105,165,1.1,35,3,2,,138,细颗粒物(PM2.5)
牡丹江市,环保大楼,129.61,44.561,2025-01-23T0600,64,103,1.1,46,7,22,,87,细颗粒物(PM2.5)
牡丹江市,文化广场,129.6115,44.5782,2025-01-23T0600,75,99,0.9,37,8,34,,100,细颗粒物(PM2.5)
牡丹江市,第一医院,129.5904,44.5963,2025-01-23T0600,73,82,0.8,30,7,38,,98,细颗粒物(PM2.5)
牡丹江市,机车工厂,129.6364,44.6075,2025-01-23T0600,99,204,1.2,38,8,19,,130,细颗粒物(PM2.5)
牡丹江市,第一中学,129.6386,44.5462,2025-01-23T0600,57,68,0.9,33,7,27,,78,细颗粒物(PM2.5)
内江市,市监测站,105.0703,29.61,2025-01-23T0600,173,,0.9,29,6,4,,223,细颗粒物(PM2.5)
内江市,东兴区政府,105.0717,29.5947,2025-01-23T0600,162,,1.4,26,5,7,,212,细颗粒物(PM2.5)
内江市,内江二中,105.0653,29.5817,2025-01-23T0600,173,,1.4,30,10,6,,223,细颗粒物(PM2.5)
内江市,内江日报社,105.0406,29.5822,2025-01-23T0600,176,,1.3,28,9,3,,226,细颗粒物(PM2.5)
那曲市,那曲监测站,92.0657,31.4846,2025-01-23T0600,13,17,1.3,6,6,29,,19,
那曲市,那曲会议中心,92.0506,31.4797,2025-01-23T0600,3,20,1.0,8,3,31,,20,
南昌市,省外办,115.8931,28.6843,2025-01-23T0600,73,90,0.6,37,10,47,,98,细颗粒物(PM2.5)
南昌市,省林业公司,115.8886,28.7003,2025-01-23T0600,68,83,0.6,42,12,56,,92,细颗粒物(PM2.5)
南昌市,林科所,115.8126,28.7442,2025-01-23T0600,44,63,1.8,79,4,30,,62,细颗粒物(PM2.5)
南昌市,建工学校,115.8518,28.687,2025-01-23T0600,56,95,1.0,44,16,63,,77,细颗粒物(PM2.5)
南昌市,象湖,115.8921,28.6424,2025-01-23T0600,66,77,0.9,41,9,66,,89,细颗粒物(PM2.5)
南昌市,武术学校,115.7423,28.7996,2025-01-23T0600,24,,0.4,13,3,19,,35,
南昌市,机电学校,115.9084,28.6062,2025-01-23T0600,56,98,0.8,46,7,51,,77,细颗粒物(PM2.5)
南昌市,外国语学校,115.9721,28.7031,2025-01-23T0600,54,92,0.7,28,11,62,,74,细颗粒物(PM2.5)
南昌市,南京东路235号,115.9316,28.68677,2025-01-23T0600,66,89,0.6,46,8,50,,89,细颗粒物(PM2.5)
南充市,西山风景区,106.056,30.8064,2025-01-23T0600,131,,1.4,27,3,0,,173,细颗粒物(PM2.5)
南充市,南充市委,106.0789,30.8023,2025-01-23T0600,117,153,1.0,21,3,2,,153,细颗粒物(PM2.5)
南充市,南充炼油厂,106.1031,30.8217,2025-01-23T0600,150,162,1.2,34,4,1,,200,细颗粒物(PM2.5)
南充市,嘉陵区环保局,106.0642,30.7636,2025-01-23T0600,117,144,1.2,34,3,2,,153,细颗粒物(PM2.5)
南充市,市环境监测站,106.1087,30.8388,2025-01-23T0600,135,175,1.1,30,6,2,,179,细颗粒物(PM2.5)
南充市,梨树横街98号,106.1083,30.7884,2025-01-23T0600,136,165,1.2,36,8,1,,180,细颗粒物(PM2.5)
南京市,迈皋桥,118.8086,32.1065,2025-01-23T0600,34,47,0.3,42,4,25,,49,
南京市,草场门,118.7538,32.0551,2025-01-23T0600,44,51,0.4,30,5,13,,62,细颗粒物(PM2.5)
南京市,山西路,118.7794,32.0745,2025-01-23T0600,51,61,0.3,17,4,39,,70,细颗粒物(PM2.5)
南京市,中华门,118.7752,32.0023,2025-01-23T0600,46,66,0.7,54,8,4,,64,细颗粒物(PM2.5)
南京市,瑞金路,118.8109,32.0309,2025-01-23T0600,46,73,0.2,32,4,4,,64,细颗粒物(PM2.5)
南京市,玄武湖,118.7997,32.0754,2025-01-23T0600,47,64,0.6,25,7,12,,65,细颗粒物(PM2.5)
南京市,浦口,118.6414,32.0931,2025-01-23T0600,45,79,0.9,20,6,19,,65,颗粒物(PM10)
南京市,奥体中心,118.7356,31.9996,2025-01-23T0600,,,,,,,82,,
南京市,仙林大学城,118.9125,32.1028,2025-01-23T0600,34,36,0.6,28,6,18,,49,
南京市,江宁彩虹桥,118.8436,31.9198,2025-01-23T0600,53,87,0.7,57,3,5,,73,细颗粒物(PM2.5)
南京市,溧水永阳,119.0138,31.6494,2025-01-23T0600,69,83,1.0,65,4,1,,93,细颗粒物(PM2.5)
南京市,高淳老职中,118.879,31.3302,2025-01-23T0600,,,,,,,75,,
南京市,六合雄州,118.8554,32.3578,2025-01-23T0600,25,62,0.5,9,4,34,,56,颗粒物(PM10)
南宁市,二十一中,108.3103,22.7881,2025-01-23T0600,58,80,0.9,20,6,89,,79,细颗粒物(PM2.5)
南宁市,北湖,108.3141,22.8528,2025-01-23T0600,65,88,1.1,57,7,26,,88,细颗粒物(PM2.5)
南宁市,市监测站,108.3206,22.8225,2025-01-23T0600,54,79,1.1,17,10,85,,74,细颗粒物(PM2.5)
南宁市,大自然花园,108.3829,22.8037,2025-01-23T0600,60,80,1.2,16,7,87,,82,细颗粒物(PM2.5)
南宁市,仙葫,108.4394,22.7904,2025-01-23T0600,69,71,0.8,22,4,70,,93,细颗粒物(PM2.5)
南宁市,区农职院,108.2397,22.8467,2025-01-23T0600,58,89,0.8,58,6,10,,79,细颗粒物(PM2.5)
南宁市,英华嘉园,108.3275,22.735,2025-01-23T0600,51,52,1.0,18,7,72,,70,细颗粒物(PM2.5)
南宁市,红星社区,108.4834,22.7618,2025-01-23T0600,63,90,1.1,71,8,4,,85,细颗粒物(PM2.5)
南宁市,乐贤路16号,108.2177,22.7774,2025-01-23T0600,41,58,0.9,50,3,47,,58,细颗粒物(PM2.5)
南平市,茫荡山,118.0966,26.6761,2025-01-23T0600,,,,,,,,,
南平市,南平市监测站,118.1681,26.6369,2025-01-23T0600,35,44,0.5,27,3,4,,50,
南平市,南平铝业有限公司,118.1825,26.6489,2025-01-23T0600,31,,0.5,29,4,4,,45,
南平市,南平七中,118.1756,26.6272,2025-01-23T0600,32,,0.7,26,4,6,,46,
南通市,狼山街道,120.9098,31.9663,2025-01-23T0600,9,20,0.5,10,4,56,,20,
南通市,虹桥,120.86,32.0005,2025-01-23T0600,14,25,0.5,11,3,57,,25,
南通市,城中,120.87,32.02,2025-01-23T0600,16,31,0.5,21,5,53,,31,
南通市,星湖花园,120.94,31.93,2025-01-23T0600,13,21,0.4,11,4,60,,21,
南通市,紫琅学院,120.81,32.0417,2025-01-23T0600,20,26,0.8,25,2,41,,29,
南通市,通州监测站,121.067,32.062,2025-01-23T0600,17,29,0.7,19,3,60,,29,
南通市,环境教育馆,120.9348,31.9883,2025-01-23T0600,,,,,,,56,,
南阳市,瓦房庄,112.5224,33.0122,2025-01-23T0600,69,96,0.8,15,8,49,,93,细颗粒物(PM2.5)
南阳市,汉画馆,112.5003,32.9735,2025-01-23T0600,63,88,0.6,18,7,52,,85,细颗粒物(PM2.5)
南阳市,气象站,112.5573,33.027,2025-01-23T0600,61,106,0.8,15,8,54,,83,细颗粒物(PM2.5)
南阳市,理工学院,112.5481,32.9689,2025-01-23T0600,60,86,0.6,19,7,52,,82,细颗粒物(PM2.5)
南阳市,卧龙区政府,112.5234,32.9922,2025-01-23T0600,60,95,0.7,18,7,50,,82,细颗粒物(PM2.5)
宁波市,区环保大楼,121.8358,29.911,2025-01-23T0600,14,31,1.0,55,8,0,,31,
宁波市,万里学院,121.56,29.82,2025-01-23T0600,20,35,0.5,61,5,0,,35,
宁波市,龙赛医院,121.713,29.9572,2025-01-23T0600,21,31,0.4,56,8,10,,31,
宁波市,钱湖水厂,121.633,29.7733,2025-01-23T0600,18,23,0.8,20,4,29,,26,
宁波市,太古小学,121.5856,29.8635,2025-01-23T0600,19,30,0.8,64,8,2,,32,
宁波市,市环境监测中心,121.524,29.8674,2025-01-23T0600,20,39,0.7,60,5,2,,39,
宁波市,万里国际学校,121.6147,29.9017,2025-01-23T0600,17,34,0.6,48,6,8,,34,
宁波市,白沙活动中心,121.5594,29.8975,2025-01-23T0600,16,40,0.6,43,5,4,,40,
宁德市,金涵水库,119.5001,26.6946,2025-01-23T0600,,,,,,,,,
宁德市,宁德市监测站,119.5388,26.6612,2025-01-23T0600,46,51,0.5,17,3,3,,64,细颗粒物(PM2.5)
宁德市,宁德一中,119.5231,26.6562,2025-01-23T0600,38,44,0.3,12,2,25,,54,细颗粒物(PM2.5)
怒江傈僳族自治州,州监测站,98.8601,25.8567,2025-01-23T0600,25,39,0.5,13,5,30,,39,
怒江傈僳族自治州,泸水一中,98.8546,25.8417,2025-01-23T0600,23,31,0.5,11,7,24,,33,
攀枝花市,弄弄坪,101.6891,26.571,2025-01-23T0600,69,78,1.3,35,19,12,,93,细颗粒物(PM2.5)
攀枝花市,河门口,101.5769,26.5928,2025-01-23T0600,52,70,1.7,29,11,20,,72,细颗粒物(PM2.5)
攀枝花市,炳草岗,101.7169,26.585,2025-01-23T0600,75,95,1.0,50,12,2,,100,细颗粒物(PM2.5)
攀枝花市,仁和,101.7369,26.5008,2025-01-23T0600,57,71,0.8,21,6,17,,78,细颗粒物(PM2.5)
攀枝花市,四十中小,101.7227,26.567,2025-01-23T0600,64,103,1.7,60,14,0,,87,细颗粒物(PM2.5)
盘锦市,开发区,122.0303,41.1489,2025-01-23T0600,,,,,,,54,,
盘锦市,兴隆台,122.0485,41.0883,2025-01-23T0600,138,,1.6,46,16,25,,183,细颗粒物(PM2.5)
盘锦市,新生街道,121.8297,41.1028,2025-01-23T0600,182,,2.0,56,11,13,,232,细颗粒物(PM2.5)
平顶山市,新华旅馆,113.3257,33.742,2025-01-23T0600,38,62,0.3,13,6,55,,56,颗粒物(PM10)
平顶山市,规划设计院,113.2919,33.737,2025-01-23T0600,36,65,0.4,12,8,60,,58,颗粒物(PM10)
平顶山市,平顶山工学院,113.182,33.774,2025-01-23T0600,34,76,0.4,20,8,51,,63,颗粒物(PM10)
平顶山市,规划局,113.3025,33.73,2025-01-23T0600,41,61,1.0,10,5,57,,58,细颗粒物(PM2.5)
平顶山市,石龙区,112.8867,33.9116,2025-01-23T0600,72,122,1.4,32,11,31,,97,细颗粒物(PM2.5)
平凉市,聚贤嘉苑,106.6692,35.5461,2025-01-23T0600,99,131,1.5,45,25,65,,130,细颗粒物(PM2.5)
平凉市,博物馆,106.7021,35.5307,2025-01-23T0600,89,134,1.2,52,31,76,,118,细颗粒物(PM2.5)
萍乡市,武功山,114.0997,27.5002,2025-01-23T0600,22,25,0.8,13,13,55,,32,
萍乡市,中医院,113.8385,27.6434,2025-01-23T0600,49,97,0.9,23,13,70,,74,颗粒物(PM10)
萍乡市,市政府车库,113.8493,27.6253,2025-01-23T0600,84,107,1.9,47,18,24,,112,细颗粒物(PM2.5)
萍乡市,市环保局,113.8676,27.6435,2025-01-23T0600,70,95,0.9,36,17,58,,94,细颗粒物(PM2.5)
萍乡市,安源区政府,113.866,27.6198,2025-01-23T0600,57,90,1.1,28,15,62,,78,细颗粒物(PM2.5)
莆田市,荔城区仓后路,119.0141,25.4325,2025-01-23T0600,27,34,0.7,14,3,17,,39,
莆田市,莆田市监测站,119.0015,25.4553,2025-01-23T0600,15,20,0.3,7,2,20,,22,
莆田市,涵江区六中,119.1119,25.4561,2025-01-23T0600,18,28,0.5,15,2,22,,28,
莆田市,秀屿区政府,119.1013,25.3215,2025-01-23T0600,55,60,0.8,35,3,4,,75,细颗粒物(PM2.5)
莆田市,东圳水库,118.981,25.4792,2025-01-23T0600,,,,,,,,,
濮阳市,环保局,115.0312,35.7636,2025-01-23T0600,39,58,0.7,29,6,32,,55,细颗粒物(PM2.5)
濮阳市,油田运输公司,115.0574,35.7609,2025-01-23T0600,42,58,0.6,27,5,26,,59,细颗粒物(PM2.5)
濮阳市,濮水河管理处,115,35.7668,2025-01-23T0600,50,74,0.9,38,4,13,,69,细颗粒物(PM2.5)
濮阳市,任丘路479号,115.0924,35.7686,2025-01-23T0600,43,70,1.1,23,6,24,,60,"颗粒物(PM10),细颗粒物(PM2.5)"
普洱市,市环保局,100.98,22.7633,2025-01-23T0600,3,31,0.5,5,6,32,,31,
普洱市,普洱第二中学,100.9817,22.8322,2025-01-23T0600,20,37,0.6,26,5,6,,37,
七台河市,新一中,131.0518,45.8751,2025-01-23T0600,89,99,2.2,25,15,75,,118,细颗粒物(PM2.5)
七台河市,中波台,131.0577,45.7879,2025-01-23T0600,123,133,1.3,48,8,46,,162,细颗粒物(PM2.5)
七台河市,人民广场,131.0176,45.7761,2025-01-23T0600,127,170,,58,9,40,,168,细颗粒物(PM2.5)
七台河市,新建矿广场,130.8781,45.8222,2025-01-23T0600,93,144,1.0,39,5,40,,123,细颗粒物(PM2.5)
齐齐哈尔市,安居小区,123.9305,47.3636,2025-01-23T0600,122,,0.9,41,7,27,,160,细颗粒物(PM2.5)
齐齐哈尔市,中心广场,123.9488,47.3386,2025-01-23T0600,130,155,1.6,60,3,6,,172,细颗粒物(PM2.5)
齐齐哈尔市,农牧车辆厂,123.9483,47.3227,2025-01-23T0600,112,129,2.1,79,8,4,,147,细颗粒物(PM2.5)
齐齐哈尔市,市环境监测站,123.945,47.2988,2025-01-23T0600,171,216,1.1,62,1,8,,221,细颗粒物(PM2.5)
齐齐哈尔市,富区青少年活动中心,123.6333,47.2075,2025-01-23T0600,121,157,1.7,38,7,16,,159,细颗粒物(PM2.5)
黔东南苗族侗族自治州,市环境监测站,107.9783,26.5747,2025-01-23T0600,83,118,0.7,16,5,51,,110,细颗粒物(PM2.5)
黔东南苗族侗族自治州,凯里学院,107.8908,26.5311,2025-01-23T0600,80,97,1.0,14,5,44,,107,细颗粒物(PM2.5)
黔南布依族苗族自治州,小围寨,107.5228,26.2403,2025-01-23T0600,66,73,0.9,30,11,24,,89,细颗粒物(PM2.5)
黔南布依族苗族自治州,沙坝,107.5175,26.2978,2025-01-23T0600,66,75,0.8,28,9,32,,89,细颗粒物(PM2.5)
黔西南布依族苗族自治州,场坝街,104.9022,25.0925,2025-01-23T0600,43,52,0.5,11,3,121,,60,细颗粒物(PM2.5)
黔西南布依族苗族自治州,坪东大道,104.8811,25.0992,2025-01-23T0600,41,55,0.3,11,6,123,,58,细颗粒物(PM2.5)
钦州市,市环保站,108.6236,21.9667,2025-01-23T0600,56,95,1.0,53,9,33,,77,细颗粒物(PM2.5)
钦州市,沙埠小学,108.6549,21.9481,2025-01-23T0600,56,84,0.9,68,5,1,,77,细颗粒物(PM2.5)
钦州市,港区一小,108.5989,21.7431,2025-01-23T0600,46,68,1.0,41,8,37,,64,细颗粒物(PM2.5)
钦州市,北职校,108.5959,21.9633,2025-01-23T0600,58,72,0.9,36,9,41,,79,细颗粒物(PM2.5)
秦皇岛市,北戴河环保局,119.5134,39.8207,2025-01-23T0600,,,,,,,9,,
秦皇岛市,第一关,119.7493,40.0116,2025-01-23T0600,30,40,0.7,43,5,12,,43,
秦皇岛市,监测站,119.5897,39.9499,2025-01-23T0600,32,48,0.9,51,4,4,,48,
秦皇岛市,建设大厦,119.5251,39.9041,2025-01-23T0600,39,49,0.9,47,5,6,,55,细颗粒物(PM2.5)
秦皇岛市,文明里,119.610547,39.943889,2025-01-23T0600,24,77,0.8,48,5,3,,64,颗粒物(PM10)
青岛市,仰口,120.6659,36.2403,2025-01-23T0600,20,23,0.5,10,2,58,,29,
青岛市,市南区东部子站,120.4134,36.0658,2025-01-23T0600,27,53,0.7,22,9,60,,52,颗粒物(PM10)
青岛市,四方区子站,120.3664,36.1032,2025-01-23T0600,,,,,,,10,,
青岛市,市南区西部子站,120.2994,36.054,2025-01-23T0600,78,110,1.4,71,5,6,,104,细颗粒物(PM2.5)
青岛市,崂山区子站,120.4581,36.0858,2025-01-23T0600,27,36,0.6,23,8,54,,39,
青岛市,黄岛区子站,120.1983,35.9608,2025-01-23T0600,34,44,0.7,60,7,28,,49,
青岛市,城阳区子站,120.3999,36.3083,2025-01-23T0600,17,29,0.8,27,6,43,,29,
青岛市,黄岛区4号,120.0405,35.8735,2025-01-23T0600,29,51,1.0,67,11,19,,51,颗粒物(PM10)
青岛市,即墨2号,120.5014,36.4034,2025-01-23T0600,23,28,0.7,17,6,55,,33,
青岛市,市北区南部,120.3503,36.0736,2025-01-23T0600,88,,1.3,65,7,5,,117,细颗粒物(PM2.5)
青岛市,李沧区北部,120.3948,36.1805,2025-01-23T0600,73,90,1.2,67,11,9,,98,细颗粒物(PM2.5)
清远市,环保大楼,113.0426,23.691,2025-01-23T0600,46,70,0.8,29,5,48,,64,细颗粒物(PM2.5)
清远市,凤城街办,113.0208,23.7106,2025-01-23T0600,37,58,0.9,34,8,40,,54,颗粒物(PM10)
清远市,技师学院,113.0477,23.6344,2025-01-23T0600,57,96,0.6,53,6,15,,78,细颗粒物(PM2.5)
清远市,清新太和,112.9903,23.7403,2025-01-23T0600,32,52,0.7,45,7,39,,51,颗粒物(PM10)
清远市,清城东城,113.076,23.7198,2025-01-23T0600,37,56,1.1,23,10,47,,53,"颗粒物(PM10),细颗粒物(PM2.5)"
庆阳市,庆阳五中,107.6325,35.7357,2025-01-23T0600,132,141,1.5,30,17,109,,175,细颗粒物(PM2.5)
庆阳市,市环保局,107.6364,35.7067,2025-01-23T0600,127,139,1.2,21,11,113,,168,细颗粒物(PM2.5)
曲靖市,环境监测站,103.7897,25.5035,2025-01-23T0600,56,80,1.0,15,9,80,,77,细颗粒物(PM2.5)
曲靖市,烟厂办公区,103.8,25.5364,2025-01-23T0600,57,77,0.6,14,4,77,,78,细颗粒物(PM2.5)
曲靖市,南苑二区,103.7947,25.462,2025-01-23T0600,60,78,0.7,13,6,80,,82,细颗粒物(PM2.5)
曲靖市,曲靖师范学院,103.7444,25.5261,2025-01-23T0600,65,70,0.6,24,17,28,,88,细颗粒物(PM2.5)
衢州市,环保大楼,118.8692,28.9398,2025-01-23T0600,67,98,0.6,62,4,2,,90,细颗粒物(PM2.5)
衢州市,实验学校,118.8709,28.9666,2025-01-23T0600,57,70,0.5,58,3,8,,78,细颗粒物(PM2.5)
衢州市,衢州学院,118.8621,28.9808,2025-01-23T0600,42,56,0.4,66,4,4,,59,细颗粒物(PM2.5)
泉州市,涂山街,118.5819,24.9117,2025-01-23T0600,53,59,0.8,28,3,7,,73,细颗粒物(PM2.5)
泉州市,津头埔,118.5972,24.8978,2025-01-23T0600,58,63,0.9,27,1,10,,79,细颗粒物(PM2.5)
泉州市,万安,118.6663,24.9424,2025-01-23T0600,36,40,0.6,24,2,21,,52,细颗粒物(PM2.5)
泉州市,清源山,118.6117,24.9604,2025-01-23T0600,,,,,,,,,
泉州市,城华南路,118.6333,24.9264,2025-01-23T0600,42,67,0.6,30,2,10,,59,"颗粒物(PM10),细颗粒物(PM2.5)"
日喀则市,日喀则监测站,88.8876,29.2718,2025-01-23T0600,8,18,0.7,40,6,30,,20,
日喀则市,林业技术推广中心,88.8781,29.2426,2025-01-23T0600,3,9,0.4,3,6,61,,20,
日照市,监测站,119.471,35.4209,2025-01-23T0600,27,48,0.5,33,6,47,,48,
日照市,市政府广场,119.523,35.4216,2025-01-23T0600,22,46,0.5,19,4,62,,46,
日照市,港务局,119.5587,35.4044,2025-01-23T0600,26,41,0.5,34,13,62,,41,
日照市,职业技术学院,119.5328,35.4625,2025-01-23T0600,27,48,0.7,23,4,57,,48,
日照市,岚山环保分局,119.3266,35.1044,2025-01-23T0600,33,53,0.8,25,4,64,,52,颗粒物(PM10)
三门峡市,市政府,111.1922,34.7752,2025-01-23T0600,51,,0.8,18,15,69,,70,细颗粒物(PM2.5)
三门峡市,开发区,111.1587,34.7942,2025-01-23T0600,42,86,0.9,20,11,64,,68,颗粒物(PM10)
三门峡市,风景区,111.143,34.7955,2025-01-23T0600,59,72,1.0,21,15,61,,80,细颗粒物(PM2.5)
三门峡市,三门峡市第一小学,111.1911,34.7829,2025-01-23T0600,33,46,0.8,18,14,63,,48,
三门峡市,富达温泉假日酒店,111.1,34.7167,2025-01-23T0600,51,91,0.9,40,13,65,,71,颗粒物(PM10)
三明市,三钢,117.6211,26.2625,2025-01-23T0600,36,,0.8,23,2,20,,52,细颗粒物(PM2.5)
三明市,三明二中,117.635,26.2714,2025-01-23T0600,29,30,0.8,23,2,12,,42,
三明市,三元区政府,117.6028,26.2378,2025-01-23T0600,27,31,0.8,26,5,12,,39,
三明市,洋溪,117.7275,26.3108,2025-01-23T0600,,,,,,,,,
三亚市,河东子站,109.5078,18.2489,2025-01-23T0600,21,30,0.5,9,3,52,,30,
三亚市,河西子站,109.4964,18.2681,2025-01-23T0600,19,27,0.5,10,2,46,,28,
三亚市,君悦子站,109.7348,18.3443,2025-01-23T0600,13,26,0.6,12,3,35,,26,
山南市,山南监测站,91.7608,29.2313,2025-01-23T0600,7,16,0.3,8,4,38,,16,
山南市,山南人民医院,91.7706,29.2436,2025-01-23T0600,7,18,0.4,14,2,29,,18,
汕头市,金平子站,116.6794,23.3667,2025-01-23T0600,69,,1.2,22,4,59,,93,细颗粒物(PM2.5)
汕头市,龙湖子站,116.7244,23.3633,2025-01-23T0600,52,,0.9,17,3,60,,72,细颗粒物(PM2.5)
汕头市,濠江子站,116.7258,23.2775,2025-01-23T0600,78,,1.0,16,4,60,,104,细颗粒物(PM2.5)
汕头市,澄海子站,116.7519,23.4714,2025-01-23T0600,73,,1.1,19,7,59,,98,细颗粒物(PM2.5)
汕头市,潮阳子站,116.6092,23.2539,2025-01-23T0600,50,,0.7,15,6,59,,69,细颗粒物(PM2.5)
汕头市,潮南峡山,116.454,23.2684,2025-01-23T0600,64,90,1.0,20,8,37,,87,细颗粒物(PM2.5)
汕头市,潮南子站,116.4069,23.2533,2025-01-23T0600,70,94,0.9,20,7,52,,94,细颗粒物(PM2.5)
汕尾市,市环保局,115.3653,22.775,2025-01-23T0600,41,,0.9,9,7,51,,58,细颗粒物(PM2.5)
汕尾市,市政府,115.3706,22.7898,2025-01-23T0600,40,,0.8,6,9,53,,57,细颗粒物(PM2.5)
汕尾市,新城中学,115.3622,22.7925,2025-01-23T0600,40,,0.5,8,6,46,,57,细颗粒物(PM2.5)
商洛市,监测站,109.9154,33.8715,2025-01-23T0600,149,174,1.2,28,6,107,,199,细颗粒物(PM2.5)
商洛市,商州区中学,109.9643,33.8471,2025-01-23T0600,138,161,1.2,27,8,99,,183,细颗粒物(PM2.5)
商丘市,环境监测站,115.6702,34.4285,2025-01-23T0600,86,108,0.6,39,6,18,,114,细颗粒物(PM2.5)
商丘市,粮食局,115.6458,34.4045,2025-01-23T0600,78,103,0.6,33,3,19,,104,细颗粒物(PM2.5)
商丘市,睢阳区环保局,115.6293,34.3948,2025-01-23T0600,78,104,0.6,33,5,23,,104,细颗粒物(PM2.5)
商丘市,梁园区档案局,115.6071,34.4465,2025-01-23T0600,82,86,0.6,31,6,22,,109,细颗粒物(PM2.5)
上海市,普陀,121.4,31.238,2025-01-23T0600,25,43,0.7,53,5,18,,43,
上海市,十五厂,121.478,31.2036,2025-01-23T0600,25,37,0.5,46,6,37,,37,
上海市,虹口,121.467,31.3008,2025-01-23T0600,18,34,0.7,85,7,7,,43,
上海市,静安监测站,121.425,31.2261,2025-01-23T0600,26,42,0.5,52,9,28,,42,
上海市,浦东川沙,121.703,31.1907,2025-01-23T0600,15,28,0.4,49,6,37,,28,
上海市,浦东新区监测站,121.533,31.2284,2025-01-23T0600,24,28,0.5,41,7,46,,35,
上海市,浦东张江,121.577,31.2071,2025-01-23T0600,27,28,0.8,44,6,44,,39,
上海市,宝山庙行,121.4316,31.3322,2025-01-23T0600,23,35,0.4,88,9,1,,44,
上海市,崇明上实东滩,121.8791,31.4662,2025-01-23T0600,10,19,0.6,12,7,81,,26,
上海市,嘉定南翔,121.3162,31.2838,2025-01-23T0600,25,46,0.4,82,7,0,,46,
上海市,金山新城,121.3359,30.7456,2025-01-23T0600,29,40,0.5,58,2,4,,42,
上海市,闵行浦江,121.4996,31.0739,2025-01-23T0600,24,44,0.3,60,5,16,,44,
上海市,青浦徐泾,121.2886,31.1663,2025-01-23T0600,32,50,0.4,75,9,1,,50,
上海市,松江图书馆,121.2186,31.0378,2025-01-23T0600,30,52,0.6,70,7,2,,51,颗粒物(PM10)
上海市,长宁仙霞,121.3902,31.2059,2025-01-23T0600,27,45,0.4,47,8,31,,45,
上海市,浦东惠南,121.7965,31.0507,2025-01-23T0600,19,24,0.5,35,6,56,,28,
上海市,奉贤南桥新城,121.4891,30.925,2025-01-23T0600,31,41,0.5,60,6,8,,45,
上海市,冠生园路458号,121.4174,31.16637,2025-01-23T0600,28,38,0.1,43,6,18,,40,
上海市,宁武路151号,121.5419,31.2683,2025-01-23T0600,22,32,0.3,48,4,32,,32,
上饶市,百草园,118.005,28.4572,2025-01-23T0600,38,81,0.9,31,29,51,,66,颗粒物(PM10)
上饶市,市监测站,117.9756,28.4436,2025-01-23T0600,52,80,0.9,38,36,33,,72,细颗粒物(PM2.5)
上饶市,凤凰光学,117.9519,28.4628,2025-01-23T0600,34,60,0.9,35,15,24,,55,颗粒物(PM10)
上饶市,双创科技城,117.897,28.4315,2025-01-23T0600,48,74,0.9,46,13,21,,67,细颗粒物(PM2.5)
上饶市,裕丰大道,118.1904,28.4448,2025-01-23T0600,53,63,1.0,22,6,37,,73,细颗粒物(PM2.5)
韶关市,市八中,113.5824,24.7733,2025-01-23T0600,72,112,1.0,65,7,6,,97,细颗粒物(PM2.5)
韶关市,园林处,113.5917,24.7972,2025-01-23T0600,59,73,1.0,50,8,17,,80,细颗粒物(PM2.5)
韶关市,韶关学院,113.6735,24.7791,2025-01-23T0600,58,75,1.3,28,9,14,,79,细颗粒物(PM2.5)
韶关市,曲江监测站,113.5971,24.6863,2025-01-23T0600,45,74,1.1,25,12,31,,63,细颗粒物(PM2.5)
韶关市,碧湖山庄,113.5556,24.8082,2025-01-23T0600,61,86,0.9,23,10,39,,83,细颗粒物(PM2.5)
邵阳市,市水土所,111.5239,27.3033,2025-01-23T0600,,,,,,,,,
邵阳市,市化工厂,111.5283,27.2442,2025-01-23T0600,98,127,1.6,23,15,63,,129,细颗粒物(PM2.5)
邵阳市,市环保局,111.4328,27.2272,2025-01-23T0600,103,107,1.5,31,16,53,,135,细颗粒物(PM2.5)
邵阳市,邵阳卫生学校,111.4399,27.2495,2025-01-23T0600,109,118,1.3,33,13,29,,143,细颗粒物(PM2.5)
邵阳市,邵阳市第二中学图书馆,111.4684,27.2316,2025-01-23T0600,115,120,1.1,46,9,16,,150,细颗粒物(PM2.5)
绍兴市,城东开发委,120.6053,29.9928,2025-01-23T0600,61,84,0.9,36,5,16,,83,细颗粒物(PM2.5)
绍兴市,树下王站,120.5483,30.0003,2025-01-23T0600,63,81,0.9,30,5,21,,85,细颗粒物(PM2.5)
绍兴市,绍兴中专,120.5683,29.9361,2025-01-23T0600,49,65,0.8,44,6,15,,68,细颗粒物(PM2.5)
绍兴市,柯桥区政府,120.4906,30.0861,2025-01-23T0600,74,117,1.0,51,7,17,,99,细颗粒物(PM2.5)
绍兴市,重华小学,120.8752,30.0249,2025-01-23T0600,44,54,0.9,41,8,15,,62,细颗粒物(PM2.5)
绍兴市,上虞中学,120.8369,30.0137,2025-01-23T0600,47,50,0.8,31,6,22,,65,细颗粒物(PM2.5)
绍兴市,柯桥妇保,120.4722,30.0415,2025-01-23T0600,47,67,0.8,29,5,29,,65,细颗粒物(PM2.5)
绍兴市,袍江中学,120.6153,30.0764,2025-01-23T0600,67,76,1.1,50,3,4,,90,细颗粒物(PM2.5)
深圳市,通心岭子站,114.1063,22.5545,2025-01-23T0600,28,36,0.5,25,6,23,,40,
深圳市,洪湖,114.117,22.5625,2025-01-23T0600,32,39,0.6,46,5,8,,46,
深圳市,华侨城,113.987,22.5417,2025-01-23T0600,27,36,0.6,18,6,28,,39,
深圳市,南海子站,113.9181,22.5171,2025-01-23T0600,35,52,0.6,24,5,44,,51,颗粒物(PM10)
深圳市,盐田,114.2458,22.5689,2025-01-23T0600,21,29,0.4,36,6,30,,30,
深圳市,龙岗,114.2283,22.7244,2025-01-23T0600,30,35,0.6,11,6,53,,43,
深圳市,南澳,114.494,22.5422,2025-01-23T0600,27,37,0.6,12,7,48,,39,
深圳市,葵涌,114.41,22.6342,2025-01-23T0600,16,26,0.6,14,4,29,,26,
深圳市,梅沙,114.297,22.5978,2025-01-23T0600,10,19,0.6,13,5,55,,19,
深圳市,观澜,114.0678,22.738,2025-01-23T0600,34,48,0.8,23,7,28,,49,
深圳市,莲花,114.0731,22.559,2025-01-23T0600,37,45,0.7,22,4,17,,53,细颗粒物(PM2.5)
深圳市,民治,114.0261,22.6198,2025-01-23T0600,30,41,0.6,19,5,55,,43,
深圳市,横岗,114.1871,22.6451,2025-01-23T0600,35,45,0.6,21,7,45,,50,
深圳市,坪山,114.3551,22.7151,2025-01-23T0600,28,42,0.7,28,4,30,,42,
深圳市,西乡,113.8953,22.5861,2025-01-23T0600,20,36,0.5,12,7,46,,36,
沈阳市,森林路,123.6836,41.9339,2025-01-23T0600,,,,,,,,,
沈阳市,浑南东路,123.505,41.7406,2025-01-23T0600,102,137,1.4,47,11,12,,134,细颗粒物(PM2.5)
沈阳市,新秀街,123.4231,41.6989,2025-01-23T0600,112,162,1.4,41,11,10,,147,细颗粒物(PM2.5)
沈阳市,东陵路,123.5903,41.8411,2025-01-23T0600,104,131,1.8,48,10,5,,137,细颗粒物(PM2.5)
沈阳市,陵东街,123.4264,41.8467,2025-01-23T0600,124,160,2.7,65,12,5,,163,细颗粒物(PM2.5)
沈阳市,文化路,123.4114,41.7653,2025-01-23T0600,127,179,1.7,49,12,15,,168,细颗粒物(PM2.5)
沈阳市,小河沿,123.4678,41.7867,2025-01-23T0600,115,153,1.8,53,12,7,,150,细颗粒物(PM2.5)
沈阳市,太原街,123.4017,41.7972,2025-01-23T0600,138,187,1.7,59,27,9,,183,细颗粒物(PM2.5)
沈阳市,京沈街,123.3783,41.9228,2025-01-23T0600,140,147,1.2,61,13,4,,186,细颗粒物(PM2.5)
沈阳市,沈辽西路,123.2444,41.7347,2025-01-23T0600,162,239,1.9,70,13,6,,212,细颗粒物(PM2.5)
沈阳市,裕农路,123.5953,41.9086,2025-01-23T0600,104,141,1.5,49,7,11,,137,细颗粒物(PM2.5)
十堰市,武当山,111.0419,32.395,2025-01-23T0600,79,136,1.1,28,12,93,,105,细颗粒物(PM2.5)
十堰市,滨河新村,110.78,32.6494,2025-01-23T0600,156,170,1.2,22,14,75,,206,细颗粒物(PM2.5)
十堰市,刘家沟,110.7258,32.6389,2025-01-23T0600,159,195,1.4,36,14,64,,209,细颗粒物(PM2.5)
十堰市,铁二处,110.8839,32.5714,2025-01-23T0600,150,,1.2,27,13,75,,200,细颗粒物(PM2.5)
十堰市,郧阳区金沙路,110.8054,32.8401,2025-01-23T0600,136,139,1.2,32,4,65,,180,细颗粒物(PM2.5)
石河子市,艾青诗歌馆,86.0497,44.2967,2025-01-23T0600,38,74,0.7,22,13,86,,62,颗粒物(PM10)
石河子市,南区管委会,86.047,44.2331,2025-01-23T0600,39,57,1.0,16,8,100,,55,细颗粒物(PM2.5)
石河子市,世纪广场,86.0791,44.3017,2025-01-23T0600,35,83,0.7,38,8,74,,67,颗粒物(PM10)
石家庄市,职工医院,114.4422,38.0444,2025-01-23T0600,68,104,1.0,62,5,4,,92,细颗粒物(PM2.5)
石家庄市,高新区,114.6063,38.0266,2025-01-23T0600,62,110,1.1,63,3,8,,84,细颗粒物(PM2.5)
石家庄市,西北水源,114.4898,38.1328,2025-01-23T0600,95,125,1.3,57,3,2,,125,细颗粒物(PM2.5)
石家庄市,西南高教,114.4586,38.0058,2025-01-23T0600,68,101,0.8,65,4,6,,92,细颗粒物(PM2.5)
石家庄市,世纪公园,114.5331,38.0178,2025-01-23T0600,76,113,1.0,56,5,10,,102,细颗粒物(PM2.5)
石家庄市,人民会堂,114.509,38.0457,2025-01-23T0600,80,109,1.0,46,6,14,,107,细颗粒物(PM2.5)
石家庄市,封龙山,114.3524,37.8911,2025-01-23T0600,30,53,0.8,22,30,65,,52,颗粒物(PM10)
石家庄市,22中南校区,114.5481,38.0378,2025-01-23T0600,53,98,1.0,49,7,13,,74,颗粒物(PM10)
石家庄市,鹿泉一中,114.289,38.0906,2025-01-23T0600,58,101,0.9,55,4,9,,79,细颗粒物(PM2.5)
石家庄市,藁城区实验学校,114.8506765,38.0322033,2025-01-23T0600,76,115,1.1,57,6,3,,102,细颗粒物(PM2.5)
石家庄市,井陉矿区区委大楼,114.0504658,38.0591645,2025-01-23T0600,52,84,0.9,64,20,2,,72,细颗粒物(PM2.5)
石家庄市,栾城区星河路,114.6549,37.9020,2025-01-23T0600,73,91,1.2,58,4,6,,98,细颗粒物(PM2.5)
石嘴山市,沙湖旅游区,106.3394,38.817,2025-01-23T0600,,,,,,,,,
石嘴山市,大武口朝阳西街,106.3668,39.0145,2025-01-23T0600,60,76,1.6,40,81,27,,82,细颗粒物(PM2.5)
石嘴山市,惠农南大街,106.7704,39.2282,2025-01-23T0600,39,53,0.9,41,20,12,,55,细颗粒物(PM2.5)
石嘴山市,红果子镇惠新街,106.7099,39.1325,2025-01-23T0600,23,24,0.4,26,6,29,,33,
石嘴山市,妇女儿童医院,106.3495,38.9836,2025-01-23T0600,57,82,1.4,48,49,22,,78,细颗粒物(PM2.5)
石嘴山市,石大公路,106.7492,39.2069,2025-01-23T0600,52,66,0.9,41,9,13,,72,细颗粒物(PM2.5)
双鸭山市,双合村,131.1511,46.6937,2025-01-23T0600,147,176,1.3,29,21,47,,196,细颗粒物(PM2.5)
双鸭山市,南小市,131.1652,46.6191,2025-01-23T0600,104,114,0.8,28,12,63,,137,细颗粒物(PM2.5)
双鸭山市,环保局,131.1524,46.6554,2025-01-23T0600,129,,0.9,24,16,60,,170,细颗粒物(PM2.5)
双鸭山市,苗圃,131.12,46.5656,2025-01-23T0600,97,,0.8,22,4,87,,128,细颗粒物(PM2.5)
朔州市,平朔,112.4397,39.3522,2025-01-23T0600,79,177,1.2,50,33,4,,114,颗粒物(PM10)
朔州市,朔唯,112.4575,39.3617,2025-01-23T0600,111,241,1.8,68,78,11,,146,颗粒物(PM10)
朔州市,区政府,112.4258,39.3197,2025-01-23T0600,66,112,1.1,45,26,9,,89,细颗粒物(PM2.5)
朔州市,市环保局,112.4072,39.3278,2025-01-23T0600,72,108,1.2,36,28,14,,97,细颗粒物(PM2.5)
朔州市,市二中,112.4272,39.3681,2025-01-23T0600,77,189,1.0,50,32,2,,120,颗粒物(PM10)
朔州市,一水厂,112.2931,39.53,2025-01-23T0600,62,101,0.8,41,11,8,,84,细颗粒物(PM2.5)
四平市,一商场,124.4002,43.1713,2025-01-23T0600,61,82,0.7,53,4,12,,83,细颗粒物(PM2.5)
四平市,境园,124.388,43.193,2025-01-23T0600,57,77,0.7,48,2,10,,78,细颗粒物(PM2.5)
四平市,植物园,124.4036,43.1411,2025-01-23T0600,36,56,0.4,,3,18,,,
四平市,世纪城,124.3419,43.1666,2025-01-23T0600,71,105,1.1,45,8,9,,95,细颗粒物(PM2.5)
松原市,江南,124.8006,45.1214,2025-01-23T0600,108,137,0.8,46,8,15,,142,细颗粒物(PM2.5)
松原市,江北,124.7965,45.1722,2025-01-23T0600,119,,1.3,49,2,12,,156,细颗粒物(PM2.5)
苏州市,上方山,120.561,31.2472,2025-01-23T0600,,,,,,,,,
苏州市,彩香,120.591,31.3019,2025-01-23T0600,37,65,0.5,44,9,1,,58,颗粒物(PM10)
苏州市,轧钢厂,120.596,31.3264,2025-01-23T0600,42,63,0.6,46,6,4,,59,细颗粒物(PM2.5)
苏州市,吴中区,120.613,31.2703,2025-01-23T0600,37,51,0.8,64,7,1,,53,细颗粒物(PM2.5)
苏州市,苏州新区,120.543,31.2994,2025-01-23T0600,41,61,0.6,63,7,2,,58,细颗粒物(PM2.5)
苏州市,苏州工业园区,120.669,31.3097,2025-01-23T0600,37,65,0.6,59,7,0,,58,颗粒物(PM10)
苏州市,相城区,120.641,31.3708,2025-01-23T0600,39,62,0.5,48,6,10,,56,颗粒物(PM10)
苏州市,方洲路,120.743,31.3188,2025-01-23T0600,40,61,0.7,58,5,3,,57,细颗粒物(PM2.5)
苏州市,木渎中学,120.5031,31.2774,2025-01-23T0600,42,67,0.7,65,8,1,,59,"颗粒物(PM10),细颗粒物(PM2.5)"
苏州市,越秀幼儿园,120.624,31.1733,2025-01-23T0600,27,44,0.8,68,7,2,,44,
苏州市,高铁新城,120.6505,31.416,2025-01-23T0600,42,60,0.6,32,7,24,,59,细颗粒物(PM2.5)
宿迁市,宿迁学院,118.293,33.9528,2025-01-23T0600,62,104,0.9,14,1,37,,84,细颗粒物(PM2.5)
宿迁市,宿迁中学,118.2442,33.9592,2025-01-23T0600,,73,0.6,20,4,43,,,
宿迁市,市供电局,118.283,33.965,2025-01-23T0600,57,78,0.7,15,1,41,,78,细颗粒物(PM2.5)
宿迁市,宿豫区政府,118.3225,33.9447,2025-01-23T0600,62,80,0.7,13,1,38,,84,细颗粒物(PM2.5)
宿州市,远航博物馆,116.9509,33.666,2025-01-23T0600,60,87,0.2,16,2,40,,82,细颗粒物(PM2.5)
宿州市,社会福利中心,116.9708,33.591,2025-01-23T0600,39,66,0.4,17,5,51,,58,颗粒物(PM10)
宿州市,宿州学院,116.9884,33.6305,2025-01-23T0600,51,82,0.3,13,4,40,,70,细颗粒物(PM2.5)
宿州市,皖北煤电集团,116.9648,33.6252,2025-01-23T0600,57,83,0.6,17,3,46,,78,细颗粒物(PM2.5)
绥化市,人和东街,126.9785,46.6365,2025-01-23T0600,146,172,1.2,60,5,7,,195,细颗粒物(PM2.5)
绥化市,党政办公中心,126.964,46.6528,2025-01-23T0600,162,184,1.5,71,5,9,,212,细颗粒物(PM2.5)
随州市,市委党校,113.3583,31.7275,2025-01-23T0600,123,162,1.1,25,10,53,,162,细颗粒物(PM2.5)
随州市,市林业局,113.3833,31.6908,2025-01-23T0600,131,155,0.9,25,13,57,,173,细颗粒物(PM2.5)
随州市,市立交桥水厂,113.3983,31.7308,2025-01-23T0600,113,148,1.0,27,11,48,,148,细颗粒物(PM2.5)
遂宁市,石溪浩,105.5453,30.5678,2025-01-23T0600,116,149,1.1,16,3,3,,152,细颗粒物(PM2.5)
遂宁市,市监测站,105.5582,30.5232,2025-01-23T0600,131,161,1.0,25,6,4,,173,细颗粒物(PM2.5)
遂宁市,行政中心,105.5861,30.5366,2025-01-23T0600,112,132,0.7,25,9,4,,147,细颗粒物(PM2.5)
遂宁市,美宁食品公司,105.5918,30.4728,2025-01-23T0600,122,169,1.0,27,8,7,,160,细颗粒物(PM2.5)
塔城地区,东门外小游园,82.9994,46.7432,2025-01-23T0600,8,,0.1,12,3,48,,15,
台州市,黄岩环保大楼,121.273,28.6459,2025-01-23T0600,16,27,0.5,15,2,47,,27,
台州市,台州环保大楼,121.419,28.6542,2025-01-23T0600,32,49,0.3,18,4,57,,49,
台州市,路桥田洋王,121.377,28.5773,2025-01-23T0600,25,34,0.5,16,3,48,,36,
台州市,台州科技职业学院,121.2568,28.6681,2025-01-23T0600,23,39,0.6,16,4,42,,39,
太原市,尖草坪,112.522,37.8873,2025-01-23T0600,74,103,1.0,42,13,28,,99,细颗粒物(PM2.5)
太原市,上兰,112.434,38.0108,2025-01-23T0600,69,85,1.0,33,6,40,,93,细颗粒物(PM2.5)
太原市,晋源,112.469,37.7124,2025-01-23T0600,80,94,1.1,68,12,3,,107,细颗粒物(PM2.5)
太原市,小店,112.5583,37.7394,2025-01-23T0600,64,94,1.2,83,17,4,,87,细颗粒物(PM2.5)
太原市,桃园,112.5369,37.8692,2025-01-23T0600,78,120,1.1,53,13,22,,104,细颗粒物(PM2.5)
太原市,坞城,112.57,37.8195,2025-01-23T0600,97,127,1.7,59,26,18,,128,细颗粒物(PM2.5)
太原市,南寨,112.549,37.9854,2025-01-23T0600,69,86,1.0,40,8,20,,93,细颗粒物(PM2.5)
太原市,金胜,112.4719,37.7831,2025-01-23T0600,66,96,1.0,30,15,44,,89,细颗粒物(PM2.5)
太原市,育英中学,112.5608,37.8807,2025-01-23T0600,82,116,1.4,56,21,21,,109,细颗粒物(PM2.5)
泰安市,监测站,117.1437,36.1937,2025-01-23T0600,96,122,1.0,20,9,49,,127,细颗粒物(PM2.5)
泰安市,人口学校,117.0885,36.2017,2025-01-23T0600,95,119,0.8,24,9,44,,125,细颗粒物(PM2.5)
泰安市,电力学校,117.1089,36.1758,2025-01-23T0600,107,124,1.1,32,9,45,,140,细颗粒物(PM2.5)
泰安市,国网新校,117.1812,36.2275,2025-01-23T0600,105,139,1.3,46,10,35,,138,细颗粒物(PM2.5)
泰安市,交通技校,117.0313,36.2018,2025-01-23T0600,101,117,1.1,29,5,44,,133,细颗粒物(PM2.5)
泰安市,山东第一医科大学,117.0829,36.13,2025-01-23T0600,111,132,1.0,37,10,38,,145,细颗粒物(PM2.5)
泰州市,公园路,119.905,32.4878,2025-01-23T0600,31,34,0.6,15,7,50,,45,
泰州市,莲花,119.9189,32.4625,2025-01-23T0600,19,24,0.6,13,6,52,,28,
泰州市,留学生创业园,119.888,32.4639,2025-01-23T0600,29,50,1.2,16,6,58,,50,
泰州市,王营,119.8767,32.3289,2025-01-23T0600,24,33,0.7,17,4,42,,35,
泰州市,姜堰区政府广场,120.1259,32.5099,2025-01-23T0600,15,21,0.5,13,5,53,,22,
泰州市,周山河街区,119.9192,32.4322,2025-01-23T0600,13,34,0.7,16,6,52,,34,
唐山市,雷达站,118.131,39.6363,2025-01-23T0600,57,74,0.8,52,16,16,,78,细颗粒物(PM2.5)
唐山市,物资局,118.1725,39.6334,2025-01-23T0600,34,57,0.8,49,23,21,,54,颗粒物(PM10)
唐山市,十二中,118.1705,39.6506,2025-01-23T0600,48,85,1.1,64,10,2,,68,颗粒物(PM10)
唐山市,小山,118.1869,39.622,2025-01-23T0600,37,68,0.8,58,17,15,,59,颗粒物(PM10)
唐山市,冀东油田职工医院,118.4359,39.2762,2025-01-23T0600,44,56,0.7,32,12,31,,62,细颗粒物(PM2.5)
唐山市,正泰大街热力站,118.09279,39.58089,2025-01-23T0600,51,88,0.6,64,9,7,,70,细颗粒物(PM2.5)
唐山市,丰润区政府,118.1562,39.8322,2025-01-23T0600,68,118,1.5,49,8,6,,92,细颗粒物(PM2.5)
唐山市,金山小学,118.43673,39.73809,2025-01-23T0600,37,58,1.3,40,4,6,,54,颗粒物(PM10)
唐山市,政府服务中心,118.24498,39.66941,2025-01-23T0600,49,90,1.4,58,10,7,,70,颗粒物(PM10)
唐山市,消防缸窑路中队,118.2059,39.6585,2025-01-23T0600,63,126,2.8,59,10,5,,88,颗粒物(PM10)
唐山市,路南电大,118.1436,39.6202,2025-01-23T0600,37,74,0.8,41,21,17,,62,颗粒物(PM10)
天津市,勤俭道,117.1444,39.1661,2025-01-23T0600,57,82,1.1,66,5,3,,78,细颗粒物(PM2.5)
天津市,前进道,117.202,39.0927,2025-01-23T0600,32,49,0.6,49,6,21,,49,
天津市,淮河道,117.1837,39.2133,2025-01-23T0600,54,87,0.8,67,6,6,,74,细颗粒物(PM2.5)
天津市,跃进路,117.307,39.0877,2025-01-23T0600,68,,1.5,69,6,7,,92,细颗粒物(PM2.5)
天津市,第四大街,117.707,39.0343,2025-01-23T0600,40,72,0.8,66,6,2,,61,颗粒物(PM10)
天津市,永明路,117.457,38.8394,2025-01-23T0600,33,50,0.6,73,7,2,,50,
天津市,汉北路,117.764,39.1587,2025-01-23T0600,39,67,0.6,55,4,4,,59,颗粒物(PM10)
天津市,团泊洼,117.157,38.9194,2025-01-23T0600,,,,,,,,,
天津市,河西一经路,117.7918,39.2474,2025-01-23T0600,62,92,0.8,56,10,5,,84,细颗粒物(PM2.5)
天津市,津沽路,117.3747,38.9846,2025-01-23T0600,36,59,0.7,74,3,5,,55,颗粒物(PM10)
天津市,宾水西道,117.1589,39.0845,2025-01-23T0600,33,64,0.5,28,3,26,,57,颗粒物(PM10)
天津市,大理道,117.1941,39.1067,2025-01-23T0600,30,46,0.6,50,4,22,,46,
天津市,中山北路,117.2101,39.1699,2025-01-23T0600,64,96,0.9,71,3,9,,87,细颗粒物(PM2.5)
天津市,西四道,117.3876,39.1488,2025-01-23T0600,34,59,0.9,68,6,2,,55,颗粒物(PM10)
天津市,雍阳西道,117.0365,39.3828,2025-01-23T0600,62,99,0.7,65,4,7,,84,细颗粒物(PM2.5)
天津市,辛老路,117.0296,39.0605,2025-01-23T0600,41,67,0.7,62,5,6,,59,颗粒物(PM10)
天津市,地纬路,116.9638,38.9375,2025-01-23T0600,55,70,0.6,64,6,4,,75,细颗粒物(PM2.5)
天津市,北环路,117.4067,40.0583,2025-01-23T0600,62,87,1.0,25,4,36,,84,细颗粒物(PM2.5)
天津市,建设路,117.3045,39.7169,2025-01-23T0600,79,106,1.0,63,10,7,,105,细颗粒物(PM2.5)
天津市,滨水东路,117.8199,39.3521,2025-01-23T0600,61,98,1.0,58,12,7,,83,细颗粒物(PM2.5)
天津市,光华路,117.2437,39.1029,2025-01-23T0600,44,71,0.9,67,5,0,,62,细颗粒物(PM2.5)
天水市,麦积山,106.0055,34.343,2025-01-23T0600,,,,,,,,,
天水市,公园小学,105.7205,34.5786,2025-01-23T0600,83,102,1.0,30,17,128,,110,细颗粒物(PM2.5)
天水市,麦积国土局,105.8945,34.5538,2025-01-23T0600,87,110,1.0,24,18,119,,115,细颗粒物(PM2.5)
铁岭市,汇工街西,123.8139,42.3022,2025-01-23T0600,110,143,1.4,40,12,6,,144,细颗粒物(PM2.5)
铁岭市,水上乐园,123.8649,42.2923,2025-01-23T0600,107,113,1.0,28,15,23,,140,细颗粒物(PM2.5)
铁岭市,银州路东段,123.8486,42.2867,2025-01-23T0600,101,119,1.2,22,4,29,,133,细颗粒物(PM2.5)
铁岭市,金沙江路北,123.7153,42.2217,2025-01-23T0600,124,145,1.3,40,6,12,,163,细颗粒物(PM2.5)
通化市,光明,125.9358,41.7173,2025-01-23T0600,33,47,0.7,49,9,7,,48,
通化市,铁路,125.9446,41.7325,2025-01-23T0600,29,48,0.8,45,9,8,,48,
通辽市,艺术职业学校,122.2532,43.6801,2025-01-23T0600,58,86,0.6,21,7,33,,79,细颗粒物(PM2.5)
通辽市,老干部活动中心,122.2584,43.6333,2025-01-23T0600,50,79,0.6,26,12,47,,69,细颗粒物(PM2.5)
通辽市,东方明珠社区,122.2922,43.6189,2025-01-23T0600,53,80,0.5,39,8,24,,73,细颗粒物(PM2.5)
铜川市,党校,109.0656,35.0994,2025-01-23T0600,,,,,,,,,
铜川市,王益区政府,109.0697,35.0697,2025-01-23T0600,141,141,1.6,60,6,30,,188,细颗粒物(PM2.5)
铜川市,新区管委会,108.9344,34.9058,2025-01-23T0600,145,160,1.3,32,12,66,,193,细颗粒物(PM2.5)
铜川市,旺旺集团,108.9543,34.8732,2025-01-23T0600,153,165,1.6,30,12,66,,203,细颗粒物(PM2.5)
铜陵市,市第四中学,117.8177,30.9412,2025-01-23T0600,216,300,1.1,90,16,33,,266,细颗粒物(PM2.5)
铜陵市,市公路局,117.8059,30.9273,2025-01-23T0600,219,233,1.2,74,17,20,,269,细颗粒物(PM2.5)
铜陵市,市新民污水厂,117.7807,30.9413,2025-01-23T0600,179,298,1.4,89,17,13,,229,细颗粒物(PM2.5)
铜陵市,市第九中学,117.7439,30.8792,2025-01-23T0600,221,282,1.3,49,14,54,,271,细颗粒物(PM2.5)
铜陵市,车站新区,117.846,30.9413,2025-01-23T0600,201,264,1.0,66,14,28,,251,细颗粒物(PM2.5)
铜陵市,市职教基地,117.8483,30.97,2025-01-23T0600,182,211,1.4,40,10,40,,232,细颗粒物(PM2.5)
铜仁市,铜仁卫校,109.1839,27.7344,2025-01-23T0600,89,147,1.1,18,2,1,,118,细颗粒物(PM2.5)
铜仁市,铜仁七中,109.1753,27.6944,2025-01-23T0600,95,,1.1,21,3,2,,125,细颗粒物(PM2.5)
吐鲁番市,市环保局,89.1904,42.9418,2025-01-23T0600,71,124,1.6,31,7,65,,95,细颗粒物(PM2.5)
吐鲁番市,地区环保局,89.1673,42.9559,2025-01-23T0600,80,126,2.0,47,4,37,,107,细颗粒物(PM2.5)
威海市,华夏技校,122.1214,37.4236,2025-01-23T0600,9,19,0.5,15,3,58,,19,
威海市,山大分校,122.0508,37.5236,2025-01-23T0600,15,27,0.5,17,3,50,,27,
威海市,市监测站,122.1067,37.5072,2025-01-23T0600,10,20,0.8,26,2,30,,20,
威海市,文登开发区,122.0693,37.2174,2025-01-23T0600,24,31,0.8,28,3,19,,35,
威海市,临港区管委会,122.1379,37.3414,2025-01-23T0600,11,22,0.3,15,4,52,,22,
潍坊市,环保局,119.1437,36.7023,2025-01-23T0600,38,51,0.8,22,10,39,,54,细颗粒物(PM2.5)
潍坊市,坊子邮政,119.1641,36.6523,2025-01-23T0600,41,53,0.9,20,7,36,,58,细颗粒物(PM2.5)
潍坊市,潍坊七中,119.0587,36.721,2025-01-23T0600,69,90,1.3,32,7,16,,93,细颗粒物(PM2.5)
潍坊市,高新实验学校,119.1977,36.6872,2025-01-23T0600,39,61,0.8,26,8,37,,56,颗粒物(PM10)
潍坊市,潍坊学院,119.1755,36.7149,2025-01-23T0600,29,48,0.9,15,16,46,,48,
潍坊市,寒亭区实验一小,119.2041,36.7699,2025-01-23T0600,41,56,1.0,23,12,41,,58,细颗粒物(PM2.5)
渭南市,农科所,109.5293,34.5101,2025-01-23T0600,,,,,,,,,
渭南市,体育馆,109.4636,34.493,2025-01-23T0600,132,193,1.4,34,12,58,,175,细颗粒物(PM2.5)
渭南市,高新一小,109.4259,34.5023,2025-01-23T0600,132,183,1.3,31,13,62,,175,细颗粒物(PM2.5)
渭南市,渭花路4号,109.5051,34.4921,2025-01-23T0600,152,175,1.4,39,11,53,,202,细颗粒物(PM2.5)
温州市,瓯海,120.634,28.0089,2025-01-23T0600,52,76,0.7,38,7,20,,72,细颗粒物(PM2.5)
温州市,南浦,120.6748,27.9939,2025-01-23T0600,53,70,0.7,39,5,28,,73,细颗粒物(PM2.5)
温州市,龙湾,120.76,27.9747,2025-01-23T0600,34,58,0.6,46,6,23,,54,颗粒物(PM10)
温州市,市站,120.6709,28.0167,2025-01-23T0600,60,89,0.8,41,8,26,,82,细颗粒物(PM2.5)
温州市,茶山,120.6985,27.9251,2025-01-23T0600,35,53,0.5,17,6,54,,52,颗粒物(PM10)
文山壮族苗族自治州,州水务局,104.2533,23.3594,2025-01-23T0600,35,42,0.6,10,2,90,,50,
文山壮族苗族自治州,市便民服务中心,104.2319,23.3892,2025-01-23T0600,34,40,0.7,8,4,84,,49,
乌海市,市林业局,106.8174,39.6973,2025-01-23T0600,51,104,0.9,63,18,5,,77,颗粒物(PM10)
乌海市,中海勃湾学校,106.7907,39.6667,2025-01-23T0600,30,86,0.9,52,10,5,,68,颗粒物(PM10)
乌海市,海北新区,106.813,39.7274,2025-01-23T0600,43,115,0.9,56,22,5,,83,颗粒物(PM10)
乌海市,聚英学校,106.8288,39.6778,2025-01-23T0600,48,89,1.1,53,22,4,,70,颗粒物(PM10)
乌兰察布市,集宁新区,113.1306,40.9923,2025-01-23T0600,38,56,0.8,33,9,31,,54,细颗粒物(PM2.5)
乌兰察布市,光明街小学,113.1076,41.0385,2025-01-23T0600,38,53,0.7,58,10,18,,54,细颗粒物(PM2.5)
乌兰察布市,北京八中,113.1376,40.9509,2025-01-23T0600,48,70,1.1,46,12,2,,67,细颗粒物(PM2.5)
乌兰察布市,市委党校,113.1775,40.9779,2025-01-23T0600,43,52,0.7,49,10,6,,60,细颗粒物(PM2.5)
乌鲁木齐市,监测站,87.5801,43.8303,2025-01-23T0600,41,63,0.8,28,4,85,,58,细颗粒物(PM2.5)
乌鲁木齐市,收费所,87.6046,43.768,2025-01-23T0600,46,55,0.5,8,3,81,,64,细颗粒物(PM2.5)
乌鲁木齐市,新疆农科院农场,87.4754,43.9469,2025-01-23T0600,65,90,1.3,38,7,65,,88,细颗粒物(PM2.5)
乌鲁木齐市,铁路局,87.5525,43.8711,2025-01-23T0600,52,62,0.7,44,5,70,,72,细颗粒物(PM2.5)
乌鲁木齐市,三十一中学,87.6432,43.831,2025-01-23T0600,41,50,0.8,22,6,72,,58,细颗粒物(PM2.5)
乌鲁木齐市,米东区环保局,87.7216,44.1747,2025-01-23T0600,232,270,1.7,52,7,77,,282,细颗粒物(PM2.5)
乌鲁木齐市,培训基地,87.4651,43.4569,2025-01-23T0600,12,,0.4,7,2,85,,27,
乌鲁木齐市,达坂城区环保局,88.3118,43.3658,2025-01-23T0600,24,32,0.6,10,8,70,,35,
乌鲁木齐市,红光山片区,87.6162,43.8801,2025-01-23T0600,49,55,0.4,37,5,70,,68,细颗粒物(PM2.5)
乌鲁木齐市,新师大温泉校区,87.7024,43.8004,2025-01-23T0600,28,49,0.5,32,2,82,,49,
乌鲁木齐市,大绿谷,87.4921,43.8411,2025-01-23T0600,40,54,0.5,30,5,84,,57,细颗粒物(PM2.5)
无锡市,雪浪,120.269,31.4867,2025-01-23T0600,29,46,0.5,41,10,20,,46,
无锡市,黄巷,120.275,31.6219,2025-01-23T0600,29,45,0.6,39,7,12,,45,
无锡市,曹张,120.294,31.56,2025-01-23T0600,29,38,0.6,45,2,12,,42,
无锡市,漆塘,120.242,31.5031,2025-01-23T0600,27,36,0.7,45,7,19,,39,
无锡市,东亭,120.3489,31.5863,2025-01-23T0600,31,44,0.7,37,4,12,,45,
无锡市,旺庄,120.354,31.5475,2025-01-23T0600,31,36,0.6,54,3,16,,45,
无锡市,荣巷,120.245,31.5631,2025-01-23T0600,36,41,0.6,51,5,11,,52,细颗粒物(PM2.5)
无锡市,堰桥,120.299,31.6817,2025-01-23T0600,29,41,1.7,36,8,23,,42,
无锡市,华庄,120.3142,31.4753,2025-01-23T0600,40,59,0.6,41,8,16,,57,细颗粒物(PM2.5)
吴忠市,教育园区,106.1532,37.9648,2025-01-23T0600,136,163,2.8,52,22,4,,180,细颗粒物(PM2.5)
吴忠市,新区二泵站,106.1856,37.9956,2025-01-23T0600,97,,2.1,59,34,4,,128,细颗粒物(PM2.5)
吴忠市,文卫南街,106.2112,37.9768,2025-01-23T0600,91,134,2.2,59,27,9,,120,细颗粒物(PM2.5)
芜湖市,监测站,118.3606,31.3519,2025-01-23T0600,154,200,1.6,90,9,1,,204,细颗粒物(PM2.5)
芜湖市,科创中心,118.3714,31.4134,2025-01-23T0600,144,192,1.4,90,11,2,,192,细颗粒物(PM2.5)
芜湖市,四水厂,118.3673,31.3131,2025-01-23T0600,158,204,1.3,86,7,2,,208,细颗粒物(PM2.5)
芜湖市,市气象局,118.4209,31.3707,2025-01-23T0600,154,242,1.2,86,9,2,,204,细颗粒物(PM2.5)
芜湖市,清苑社区,118.4781,31.3225,2025-01-23T0600,108,166,1.0,78,8,2,,142,细颗粒物(PM2.5)
芜湖市,扬子职业技术学院,118.2746,31.2326,2025-01-23T0600,166,214,1.1,80,7,7,,216,细颗粒物(PM2.5)
梧州市,市逸夫小学,111.3014,23.4832,2025-01-23T0600,58,148,1.0,49,9,9,,99,颗粒物(PM10)
梧州市,市十一中,111.3239,23.4794,2025-01-23T0600,28,78,0.9,76,10,1,,64,颗粒物(PM10)
梧州市,龙圩,111.247,23.4189,2025-01-23T0600,55,98,0.8,62,11,8,,75,细颗粒物(PM2.5)
梧州市,龙新,111.2711,23.4835,2025-01-23T0600,42,113,1.3,61,11,5,,82,颗粒物(PM10)
五家渠市,农水大厦,87.5475,44.1756,2025-01-23T0600,258,280,2.2,50,3,32,,308,细颗粒物(PM2.5)
五家渠市,经开区管委会,87.546,44.1912,2025-01-23T0600,263,278,2.4,34,4,50,,313,细颗粒物(PM2.5)
武汉市,东湖梨园,114.3677,30.5584,2025-01-23T0600,225,231,2.1,35,14,63,,275,细颗粒物(PM2.5)
武汉市,汉阳月湖,114.2529,30.558,2025-01-23T0600,207,242,1.5,35,8,76,,257,细颗粒物(PM2.5)
武汉市,汉口花桥,114.282,30.6189,2025-01-23T0600,210,246,1.6,31,12,56,,260,细颗粒物(PM2.5)
武汉市,武昌紫阳,114.3025,30.5332,2025-01-23T0600,225,238,1.6,33,16,69,,275,细颗粒物(PM2.5)
