area,positionname,longitude,latitude,timepoint,pm2_5,pm10,co,no2,so2,o3,o3_8h,aqi,primarypollutant
阿坝藏族羌族自治州,州农科所,102.1879,31.914,2025-01-14T0300,10,22,0.7,3,5,71,,23,
阿坝藏族羌族自治州,马师校,102.2502,31.8896,2025-01-14T0300,13,23,0.3,2,5,73,,23,
阿坝藏族羌族自治州,马尔康中学西区,102.2165,31.9024,2025-01-14T0300,14,21,0.4,3,5,79,,25,
阿克苏地区,电视台,80.292,41.1694,2025-01-14T0300,46,71,0.5,14,3,56,,64,细颗粒物(PM2.5)
阿克苏地区,艺术中心,80.2613,41.1551,2025-01-14T0300,51,56,0.7,11,3,56,,70,细颗粒物(PM2.5)
阿拉善盟,西城区西花园,105.6467,38.8363,2025-01-14T0300,32,38,0.6,10,3,76,,46,
阿拉善盟,蒙二幼,105.6985,38.8411,2025-01-14T0300,20,28,0.6,7,4,74,,29,
阿拉善盟,环保局新楼,105.724,38.8516,2025-01-14T0300,19,40,0.4,6,7,79,,40,
阿勒泰地区,市站,88.1264,47.8517,2025-01-14T0300,3,15,0.3,3,7,75,,24,
阿里地区,阿里监测站,80.1161,32.5,2025-01-14T0300,3,6,0.5,3,6,81,,26,
阿里地区,阿里藏医院,80.0903,32.5028,2025-01-14T0300,8,16,0.7,14,16,61,,20,
安康市,香溪洞,109.0318,32.6537,2025-01-14T0300,60,84,0.8,34,10,35,,82,细颗粒物(PM2.5)
安康市,汉滨区检察院,109.0072,32.6975,2025-01-14T0300,49,73,0.8,29,6,26,,68,细颗粒物(PM2.5)
安康市,市邮政管理局,109.0325,32.6913,2025-01-14T0300,52,78,0.8,37,6,14,,72,细颗粒物(PM2.5)
安庆市,环科院,117.0809,30.5177,2025-01-14T0300,85,114,0.9,101,8,2,,113,细颗粒物(PM2.5)
安庆市,马山宾馆,117.0331,30.5119,2025-01-14T0300,86,117,1.3,98,11,0,,114,细颗粒物(PM2.5)
安庆市,安庆大学,116.9896,30.6145,2025-01-14T0300,49,90,1.6,71,7,11,,70,颗粒物(PM10)
安庆市,市人大,117.0598,30.5351,2025-01-14T0300,77,108,1.1,82,10,0,,103,细颗粒物(PM2.5)
安顺市,伍家关,105.9606,26.2611,2025-01-14T0300,56,66,1.0,30,76,62,,77,细颗粒物(PM2.5)
安顺市,凤凰山,105.9408,26.2431,2025-01-14T0300,64,,1.5,70,96,20,,87,细颗粒物(PM2.5)
安顺市,金钟山,105.9439,26.2564,2025-01-14T0300,17,27,0.6,11,24,98,,31,
安顺市,娄家坡,105.8983,26.2481,2025-01-14T0300,56,76,1.0,38,69,52,,77,细颗粒物(PM2.5)
安阳市,棉研所,114.4839,36.0621,2025-01-14T0300,107,184,1.5,69,18,6,,140,细颗粒物(PM2.5)
安阳市,红庙街,114.3551,36.1017,2025-01-14T0300,97,158,1.6,51,13,10,,128,细颗粒物(PM2.5)
安阳市,银杏小区,114.361,36.0681,2025-01-14T0300,92,176,1.8,56,8,5,,122,细颗粒物(PM2.5)
安阳市,信访局,114.3922,36.0878,2025-01-14T0300,92,176,1.3,46,14,19,,122,细颗粒物(PM2.5)
安阳市,左辅环卫站,114.4705,36.0637,2025-01-14T0300,107,182,1.3,61,17,15,,140,细颗粒物(PM2.5)
安阳市,安钢职工学校,114.2917,36.0949,2025-01-14T0300,110,208,2.1,62,14,9,,144,细颗粒物(PM2.5)
鞍山市,深沟寺,123.044,41.1196,2025-01-14T0300,48,79,1.3,49,10,18,,67,细颗粒物(PM2.5)
鞍山市,太阳城,123.011,41.0931,2025-01-14T0300,38,64,0.9,41,6,28,,57,颗粒物(PM10)
鞍山市,太平,123.0485,41.1442,2025-01-14T0300,78,122,2.1,44,11,6,,104,细颗粒物(PM2.5)
鞍山市,铁西三道街,122.9642,41.0971,2025-01-14T0300,40,95,1.6,51,94,14,,73,颗粒物(PM10)
鞍山市,铁西工业园区,122.9341,41.0833,2025-01-14T0300,101,159,3.0,68,12,13,,133,细颗粒物(PM2.5)
鞍山市,明达新区,123.022,41.0821,2025-01-14T0300,38,62,0.9,25,12,34,,56,颗粒物(PM10)
鞍山市,千山,123.1289,41.0228,2025-01-14T0300,,,,,,,45,,
巴彦淖尔市,附二中,107.4212,40.761,2025-01-14T0300,23,41,0.4,5,4,57,,41,
巴彦淖尔市,市环保大楼,107.37,40.7372,2025-01-14T0300,28,37,0.3,4,4,60,,40,
巴音郭楞蒙古自治州,孔雀公园,86.1472,41.7538,2025-01-14T0300,42,55,0.6,12,3,50,,59,细颗粒物(PM2.5)
巴音郭楞蒙古自治州,棉纺厂,86.1972,41.7166,2025-01-14T0300,25,34,0.6,26,2,44,,36,
巴音郭楞蒙古自治州,经济开发区,86.2357,41.7173,2025-01-14T0300,28,31,0.5,14,2,58,,40,
巴中市,苏山坪,106.7677,31.8794,2025-01-14T0300,52,64,0.4,20,3,54,,72,细颗粒物(PM2.5)
巴中市,丽阳花园,106.7656,31.8545,2025-01-14T0300,73,105,0.9,48,3,4,,98,细颗粒物(PM2.5)
巴中市,圣泉水务公司,106.7418,31.8654,2025-01-14T0300,60,82,0.6,46,3,9,,82,细颗粒物(PM2.5)
巴中市,市中心医院,106.7616,31.8344,2025-01-14T0300,106,120,0.8,46,4,3,,139,细颗粒物(PM2.5)
白城市,洮北区环保局,122.7911,45.6077,2025-01-14T0300,10,28,0.4,6,4,56,,28,
白城市,市环保局,122.8738,45.5725,2025-01-14T0300,13,27,0.3,10,4,48,,27,
白山市,喜丰,126.4219,41.9171,2025-01-14T0300,35,68,1.0,23,14,47,,59,颗粒物(PM10)
白山市,环保局,126.4077,41.9419,2025-01-14T0300,42,72,1.1,21,27,35,,61,颗粒物(PM10)
白银市,第三小学,104.1724,36.5446,2025-01-14T0300,15,77,0.7,9,9,81,,64,颗粒物(PM10)
白银市,动力公司,104.1465,36.5482,2025-01-14T0300,22,76,0.6,9,3,82,,63,颗粒物(PM10)
百色市,市监测站,106.6103,23.9011,2025-01-14T0300,58,70,1.3,24,13,43,,79,细颗粒物(PM2.5)
百色市,市中心血站,106.6538,23.8859,2025-01-14T0300,71,90,1.0,40,12,39,,95,细颗粒物(PM2.5)
百色市,祈福高中,106.6085,23.8798,2025-01-14T0300,44,78,0.8,52,6,13,,64,颗粒物(PM10)
蚌埠市,工人疗养院,117.396,32.939,2025-01-14T0300,111,167,0.9,114,13,7,,145,细颗粒物(PM2.5)
蚌埠市,百货大楼,117.3605,32.9427,2025-01-14T0300,109,150,1.4,98,9,2,,143,细颗粒物(PM2.5)
蚌埠市,蚌埠学院,117.4185,32.8911,2025-01-14T0300,100,153,0.9,84,11,19,,132,细颗粒物(PM2.5)
蚌埠市,淮上区政府,117.3533,32.9673,2025-01-14T0300,122,173,1.2,100,11,5,,160,细颗粒物(PM2.5)
蚌埠市,高新区,117.3145,32.8977,2025-01-14T0300,122,158,1.0,86,10,4,,160,细颗粒物(PM2.5)
蚌埠市,蚌埠田家炳中学,117.3092,32.9314,2025-01-14T0300,115,160,1.4,92,10,0,,150,细颗粒物(PM2.5)
包头市,市环境监测站,109.8756,40.6532,2025-01-14T0300,3,6,0.4,6,9,66,,21,
包头市,包头八中,109.9991,40.5842,2025-01-14T0300,3,12,0.3,3,5,65,,21,
包头市,青山宾馆,109.8538,40.6821,2025-01-14T0300,3,6,0.5,7,11,62,,20,
包头市,惠龙物流,109.8642,40.6288,2025-01-14T0300,6,,0.3,6,6,68,,,
包头市,东河鸿龙湾,110.0377,40.5546,2025-01-14T0300,3,6,0.4,7,7,64,,20,
包头市,滨河大厦,109.9154,40.5685,2025-01-14T0300,3,6,0.2,12,7,61,,20,
包头市,包头市委党校,109.9447,40.6261,2025-01-14T0300,3,12,0.1,8,6,58,,19,
包头市,昆区政府,109.8331,40.6576,2025-01-14T0300,3,10,0.4,8,10,63,,20,
宝鸡市,庙沟村,107.185,34.3063,2025-01-14T0300,46,90,0.7,17,8,75,,70,颗粒物(PM10)
宝鸡市,竹园沟,107.0708,34.3017,2025-01-14T0300,26,55,0.4,18,6,52,,53,颗粒物(PM10)
宝鸡市,三陆医院,107.1906,34.3672,2025-01-14T0300,63,96,0.7,40,5,26,,85,细颗粒物(PM2.5)
宝鸡市,监测站,107.1431,34.3547,2025-01-14T0300,54,85,0.6,36,6,23,,74,细颗粒物(PM2.5)
宝鸡市,技工学校,107.1186,34.3739,2025-01-14T0300,67,102,0.6,29,8,32,,90,细颗粒物(PM2.5)
宝鸡市,陈仓区环保局家属楼,107.3906,34.3528,2025-01-14T0300,71,127,1.0,43,38,25,,95,细颗粒物(PM2.5)
宝鸡市,文理学院,107.2058,34.3497,2025-01-14T0300,56,104,0.6,19,6,34,,77,"颗粒物(PM10),细颗粒物(PM2.5)"
宝鸡市,三迪小学,107.2386,34.3622,2025-01-14T0300,61,99,0.7,37,7,25,,83,细颗粒物(PM2.5)
保定市,游泳馆,115.493,38.8632,2025-01-14T0300,77,141,1.1,76,11,5,,103,细颗粒物(PM2.5)
保定市,华电二区,115.5213,38.8959,2025-01-14T0300,68,104,1.0,78,4,1,,92,细颗粒物(PM2.5)
保定市,接待中心,115.4713,38.9108,2025-01-14T0300,85,111,1.4,72,3,7,,113,细颗粒物(PM2.5)
保定市,地表水厂,115.4612,38.8416,2025-01-14T0300,82,158,0.7,77,5,3,,109,细颗粒物(PM2.5)
保定市,满城区生态环境分局,115.31981,38.95208,2025-01-14T0300,63,95,0.9,62,8,17,,85,细颗粒物(PM2.5)
保定市,清苑区第二中学,115.47694,38.76408,2025-01-14T0300,97,183,1.0,83,10,6,,128,细颗粒物(PM2.5)
保定市,徐水物探局,115.62909,39.02311,2025-01-14T0300,95,122,1.1,64,11,2,,125,细颗粒物(PM2.5)
保定市,双鹰农机,115.4202,38.8656,2025-01-14T0300,90,128,0.9,57,7,11,,119,细颗粒物(PM2.5)
保定市,植保所站,115.5150,38.8590,2025-01-14T0300,81,123,1.0,80,9,4,,108,细颗粒物(PM2.5)
保山市,市环境监测站,99.1678,25.1081,2025-01-14T0300,16,23,0.5,6,5,54,,23,
保山市,市环保局,99.1711,25.1328,2025-01-14T0300,27,29,0.4,4,6,65,,39,
北海市,牛尾岭水库,109.2262,21.588,2025-01-14T0300,29,43,0.6,12,6,24,,43,
北海市,海滩公园,109.1436,21.4086,2025-01-14T0300,29,52,0.9,14,7,126,,51,颗粒物(PM10)
北海市,新市环保局,109.0981,21.4661,2025-01-14T0300,36,52,1.0,23,7,109,,52,细颗粒物(PM2.5)
北海市,北海工业园,109.1778,21.5233,2025-01-14T0300,54,67,,23,12,100,,,
北海市,龙潭自来水厂,109.1911,21.4415,2025-01-14T0300,51,56,0.9,21,5,60,,70,细颗粒物(PM2.5)
北京市,万寿西宫,116.3621,39.8784,2025-01-14T0300,15,37,0.2,25,3,42,,37,
北京市,定陵,116.2202,40.2915,2025-01-14T0300,,,,,,,,,
北京市,东四,116.4174,39.9289,2025-01-14T0300,16,37,0.4,25,2,37,,37,
北京市,天坛,116.4072,39.8863,2025-01-14T0300,15,36,0.3,24,1,47,,36,
北京市,农展馆,116.462,39.9365,2025-01-14T0300,13,31,0.5,56,2,21,,31,
北京市,官园,116.3392,39.9295,2025-01-14T0300,18,47,0.3,10,4,61,,47,
北京市,海淀万柳,116.2878,39.9611,2025-01-14T0300,17,43,0.5,12,2,56,,43,
北京市,顺义新城,116.6636,40.135,2025-01-14T0300,3,12,0.2,25,3,28,,13,
北京市,怀柔镇,116.6275,40.3275,2025-01-14T0300,3,9,0.4,5,1,52,,17,
北京市,昌平镇,116.2296,40.217,2025-01-14T0300,21,45,0.6,22,2,49,,45,
北京市,奥体中心,116.3966,39.9821,2025-01-14T0300,14,45,0.2,18,3,57,,45,
北京市,延庆夏都,115.9718,40.4529,2025-01-14T0300,13,38,0.3,17,1,36,,38,
北京市,平谷新城,117.0709,40.1465,2025-01-14T0300,18,29,0.6,32,3,14,,29,
北京市,密云新城,116.8336,40.4095,2025-01-14T0300,6,9,0.3,6,2,52,,17,
北京市,门头沟三家店,116.088,39.9726,2025-01-14T0300,17,47,0.3,8,2,56,,47,
北京市,丰台云岗,116.1541,39.8204,2025-01-14T0300,15,44,0.2,6,3,62,,44,
北京市,通州东关,116.6804,39.9081,2025-01-14T0300,10,38,0.3,38,1,26,,38,
北京市,房山燕山,115.9577,39.7603,2025-01-14T0300,19,33,0.3,9,1,63,,33,
北京市,大兴旧宫,116.4672,39.7733,2025-01-14T0300,20,42,0.5,72,1,1,,42,
北京市,延庆石河营,115.986,40.4563,2025-01-14T0300,15,28,0.5,19,3,35,,28,
北京市,怀柔新城,116.6151,40.3053,2025-01-14T0300,6,9,0.2,3,3,52,,17,
北京市,丰台小屯,116.2545,39.8768,2025-01-14T0300,14,41,0.2,15,4,54,,41,
北京市,密云镇,116.84,40.3844,2025-01-14T0300,3,17,0.3,10,4,48,,17,
北京市,八角,116.1942,39.91583,2025-01-14T0300,13,40,0.4,1,3,53,,40,
本溪市,大峪,123.8275,41.3064,2025-01-14T0300,70,99,3.1,55,5,7,,94,细颗粒物(PM2.5)
本溪市,溪湖,123.7567,41.3325,2025-01-14T0300,70,129,1.5,51,21,6,,94,细颗粒物(PM2.5)
本溪市,彩屯,123.7169,41.3094,2025-01-14T0300,72,98,1.2,47,6,11,,97,细颗粒物(PM2.5)
本溪市,东明,123.7669,41.2864,2025-01-14T0300,74,103,2.8,55,19,6,,99,细颗粒物(PM2.5)
本溪市,新立屯,123.7992,41.2664,2025-01-14T0300,44,80,2.3,63,5,13,,65,颗粒物(PM10)
本溪市,威宁,123.8142,41.3472,2025-01-14T0300,74,121,2.2,43,4,11,,99,细颗粒物(PM2.5)
毕节市,八中,105.2864,27.3125,2025-01-14T0300,46,60,0.6,8,7,69,,64,细颗粒物(PM2.5)
毕节市,师专,105.31,27.2944,2025-01-14T0300,49,56,0.8,8,6,68,,68,细颗粒物(PM2.5)
毕节市,长征村,105.3631,27.3533,2025-01-14T0300,51,59,0.6,8,8,71,,70,细颗粒物(PM2.5)
滨州市,第二水厂,118.0018,37.3617,2025-01-14T0300,75,105,0.8,76,31,7,,100,细颗粒物(PM2.5)
滨州市,北中新校,117.9776,37.393,2025-01-14T0300,63,88,1.0,79,28,10,,85,细颗粒物(PM2.5)
滨州市,中海酒店,117.9378,37.3956,2025-01-14T0300,58,83,1.0,63,36,16,,79,细颗粒物(PM2.5)
滨州市,开发区一中,117.9378,37.3553,2025-01-14T0300,68,105,0.8,91,35,8,,92,细颗粒物(PM2.5)
滨州市,金海六路,118.0917,37.694,2025-01-14T0300,46,63,0.9,81,14,8,,64,细颗粒物(PM2.5)
滨州市,滨州市西街道办事处,117.9956,37.3753,2025-01-14T0300,78,97,0.9,68,28,4,,104,细颗粒物(PM2.5)
亳州市,污水处理厂,115.8072,33.8399,2025-01-14T0300,124,191,0.9,61,18,25,,163,细颗粒物(PM2.5)
亳州市,三国揽胜宫,115.7789,33.8518,2025-01-14T0300,146,218,1.0,67,13,28,,195,细颗粒物(PM2.5)
亳州市,亳州学院,115.7633,33.8034,2025-01-14T0300,112,178,0.8,38,7,53,,147,细颗粒物(PM2.5)
博尔塔拉蒙古自治州,市党校,82.0485,44.8556,2025-01-14T0300,49,51,1.0,16,6,61,,68,细颗粒物(PM2.5)
博尔塔拉蒙古自治州,市环保局,82.0806,44.8969,2025-01-14T0300,30,59,1.1,21,8,63,,55,颗粒物(PM10)
沧州市,沧县城建局,116.8842,38.2991,2025-01-14T0300,81,104,0.8,55,15,22,,108,细颗粒物(PM2.5)
沧州市,电视转播站,116.8584,38.3254,2025-01-14T0300,66,101,0.8,51,15,27,,89,细颗粒物(PM2.5)
沧州市,市环保局,116.8709,38.3228,2025-01-14T0300,64,78,0.6,45,14,25,,87,细颗粒物(PM2.5)
沧州市,河北水利电力学院,116.8136,38.3004,2025-01-14T0300,79,110,0.8,59,26,14,,105,细颗粒物(PM2.5)
昌都市,昌都监测站,97.1806,31.1273,2025-01-14T0300,9,,0.6,2,6,83,,26,
昌都市,昌都会议中心,97.1714,31.1406,2025-01-14T0300,8,9,0.4,1,4,80,,25,
昌吉回族自治州,天山天池,88.1236,43.8886,2025-01-14T0300,6,,0.4,2,6,75,,24,
昌吉回族自治州,新区政务中心,87.2717,44.0297,2025-01-14T0300,120,172,1.6,28,2,38,,158,细颗粒物(PM2.5)
昌吉回族自治州,亚心广场,87.3095,44.0142,2025-01-14T0300,156,180,1.6,36,6,37,,206,细颗粒物(PM2.5)
长春市,食品厂,125.3325,43.9166,2025-01-14T0300,53,56,0.7,53,11,7,,73,细颗粒物(PM2.5)
长春市,客车厂,125.2863,43.9027,2025-01-14T0300,78,,0.8,57,12,14,,104,细颗粒物(PM2.5)
长春市,邮电学院,125.2841,43.8463,2025-01-14T0300,94,,0.9,59,11,9,,124,细颗粒物(PM2.5)
长春市,劳动公园,125.3716,43.8772,2025-01-14T0300,53,58,1.1,55,14,13,,73,细颗粒物(PM2.5)
长春市,园林处,125.3297,43.8805,2025-01-14T0300,56,59,0.7,46,11,16,,77,细颗粒物(PM2.5)
长春市,净月潭,125.4605,43.79,2025-01-14T0300,88,106,1.0,50,6,8,,117,细颗粒物(PM2.5)
长春市,甩湾子,125.7194,43.515,2025-01-14T0300,,,,,,,,,
长春市,经开区环卫处,125.3863,43.8447,2025-01-14T0300,65,82,1.0,64,12,4,,88,细颗粒物(PM2.5)
长春市,高新区管委会,125.245,43.7783,2025-01-14T0300,108,,1.6,53,7,12,,142,细颗粒物(PM2.5)
长春市,岱山公园,125.1761,43.8325,2025-01-14T0300,106,108,1.3,61,8,10,,139,细颗粒物(PM2.5)
长沙市,经开区环保局,113.0833,28.2325,2025-01-14T0300,55,95,1.0,92,5,7,,75,细颗粒物(PM2.5)
长沙市,高开区环保局,112.8872,28.2189,2025-01-14T0300,32,73,0.6,32,8,70,,62,颗粒物(PM10)
长沙市,马坡岭,113.0792,28.2053,2025-01-14T0300,74,130,1.0,90,13,9,,99,细颗粒物(PM2.5)
长沙市,湖南师范大学,112.9394,28.19,2025-01-14T0300,33,62,0.6,25,5,71,,56,颗粒物(PM10)
长沙市,雨花区环保局,113.0178,28.1322,2025-01-14T0300,30,58,0.5,16,8,88,,54,颗粒物(PM10)
长沙市,伍家岭,112.9792,28.2597,2025-01-14T0300,89,161,1.1,81,5,1,,118,细颗粒物(PM2.5)
长沙市,火车新站,113.0014,28.1944,2025-01-14T0300,48,68,0.9,81,4,24,,67,细颗粒物(PM2.5)
长沙市,天心区环保局,112.9844,28.1178,2025-01-14T0300,40,70,0.7,26,6,80,,60,颗粒物(PM10)
长沙市,湖南中医药大学,112.8908,28.1308,2025-01-14T0300,48,71,0.8,80,7,12,,67,细颗粒物(PM2.5)
长沙市,沙坪,112.9581,28.3611,2025-01-14T0300,31,37,0.7,8,8,88,,45,
长治市,清华站,113.1147,36.1547,2025-01-14T0300,34,121,0.8,31,17,37,,86,颗粒物(PM10)
长治市,监测站,113.1031,36.1989,2025-01-14T0300,,,,,,,45,,
长治市,审计局,113.0886,36.2125,2025-01-14T0300,46,123,0.9,46,15,24,,87,颗粒物(PM10)
长治市,长治八中,113.0844,36.1856,2025-01-14T0300,56,161,1.0,42,19,14,,106,颗粒物(PM10)
长治市,德盛苑,113.1569,36.1911,2025-01-14T0300,44,155,0.9,19,15,64,,103,颗粒物(PM10)
长治市,向阳小学,113.06,36.0464,2025-01-14T0300,45,94,0.7,18,28,41,,72,颗粒物(PM10)
长治市,屯留一中,112.8792,36.3144,2025-01-14T0300,57,137,1.0,38,13,49,,94,颗粒物(PM10)
长治市,学府街1号,113.2367,36.3344,2025-01-14T0300,56,182,1.6,54,1,5,,116,颗粒物(PM10)
常德市,市二中,111.6975,28.9703,2025-01-14T0300,198,233,1.4,40,5,34,,248,细颗粒物(PM2.5)
常德市,白鹤山,111.7158,29.1456,2025-01-14T0300,,,,,,,,,
常德市,武陵区永安,111.7153,29.0289,2025-01-14T0300,194,222,1.6,69,4,4,,244,细颗粒物(PM2.5)
常德市,鼎城区玉霞,111.6892,28.9881,2025-01-14T0300,200,243,1.6,62,6,5,,250,细颗粒物(PM2.5)
常德市,武陵区长庚,111.6625,29.0531,2025-01-14T0300,179,219,1.3,68,3,7,,229,细颗粒物(PM2.5)
常州市,市监测站,119.9633,31.762,2025-01-14T0300,83,138,0.8,66,10,30,,110,细颗粒物(PM2.5)
常州市,武进监测站,119.9468,31.7069,2025-01-14T0300,66,105,0.8,55,19,41,,89,细颗粒物(PM2.5)
常州市,安家,119.9255,31.9087,2025-01-14T0300,76,117,1.0,108,10,5,,102,细颗粒物(PM2.5)
常州市,行政中心,119.9805,31.8174,2025-01-14T0300,71,107,1.1,53,15,40,,95,细颗粒物(PM2.5)
常州市,经开区,120.0522,31.7748,2025-01-14T0300,83,136,0.8,79,17,22,,110,细颗粒物(PM2.5)
常州市,钟楼,119.9025,31.7964,2025-01-14T0300,66,116,0.6,52,9,44,,89,细颗粒物(PM2.5)
常州市,武进经发区,119.8598,31.7066,2025-01-14T0300,82,135,0.7,58,18,50,,109,细颗粒物(PM2.5)
常州市,金坛城区,119.5826,31.7245,2025-01-14T0300,77,120,0.8,62,9,23,,103,细颗粒物(PM2.5)
朝阳市,西梁,120.4318,41.5881,2025-01-14T0300,8,23,0.7,35,14,41,,23,
朝阳市,河畔小区,120.4521,41.5646,2025-01-14T0300,10,20,0.5,18,11,50,,20,
朝阳市,八里堡,120.4176,41.5648,2025-01-14T0300,10,,0.5,22,11,49,,16,
朝阳市,农业园区,120.3806,41.5969,2025-01-14T0300,12,,0.6,12,10,57,,18,
潮州市,西园路,116.6367,23.6719,2025-01-14T0300,36,58,0.3,16,4,60,,54,颗粒物(PM10)
潮州市,市政府,116.6183,23.6608,2025-01-14T0300,27,62,0.3,17,5,66,,56,颗粒物(PM10)
潮州市,金山,116.6461,23.6761,2025-01-14T0300,33,45,0.5,16,5,58,,48,
郴州市,马头岭,113.0073,25.9061,2025-01-14T0300,11,37,0.5,18,11,60,,37,
郴州市,市职中,113.0116,25.8226,2025-01-14T0300,33,75,0.7,44,6,1,,63,颗粒物(PM10)
郴州市,兴隆步行街,113.0161,25.8001,2025-01-14T0300,48,86,0.8,50,6,3,,68,颗粒物(PM10)
郴州市,市审计局,113.0383,25.8071,2025-01-14T0300,34,62,1.1,56,7,2,,56,颗粒物(PM10)
郴州市,市环保局,113.0348,25.7759,2025-01-14T0300,28,43,0.5,60,8,4,,43,
成都市,金泉两河,103.9728,30.7236,2025-01-14T0300,75,82,0.8,58,2,4,,100,细颗粒物(PM2.5)
成都市,十里店,104.176,30.6872,2025-01-14T0300,59,90,0.7,63,3,4,,80,细颗粒物(PM2.5)
成都市,三瓦窑,104.079,30.5706,2025-01-14T0300,55,74,0.4,58,2,16,,75,细颗粒物(PM2.5)
成都市,沙河铺,104.1114,30.63,2025-01-14T0300,62,71,0.7,41,3,12,,84,细颗粒物(PM2.5)
成都市,君平街,104.0786,30.6531,2025-01-14T0300,50,67,0.9,38,6,36,,69,细颗粒物(PM2.5)
成都市,灵岩寺,103.613,31.0283,2025-01-14T0300,,,,,,,,,
成都市,大石西路,104.0239,30.65639,2025-01-14T0300,64,68,0.8,44,3,21,,87,细颗粒物(PM2.5)
成都市,龙泉驿区区政府,104.2725,30.5589,2025-01-14T0300,61,73,0.6,19,3,40,,83,细颗粒物(PM2.5)
成都市,金博路,104.0106,30.6931,2025-01-14T0300,54,69,0.8,57,2,9,,74,细颗粒物(PM2.5)
成都市,华阳,104.0578,30.5225,2025-01-14T0300,58,75,1.0,38,3,21,,79,细颗粒物(PM2.5)
成都市,车城东七路,104.2394,30.5319,2025-01-14T0300,66,82,0.6,26,1,36,,89,细颗粒物(PM2.5)
成都市,青白江技师分院,104.3853,30.7453,2025-01-14T0300,70,81,0.5,46,1,7,,94,细颗粒物(PM2.5)
成都市,科学城,104.0789,30.4072,2025-01-14T0300,67,87,0.7,41,4,5,,90,细颗粒物(PM2.5)
成都市,光华大道三段,103.8506,30.6947,2025-01-14T0300,59,87,0.8,43,1,11,,80,细颗粒物(PM2.5)
承德市,铁路,117.9531,40.9081,2025-01-14T0300,17,41,0.8,47,7,7,,41,
承德市,中国银行,117.9392,40.9763,2025-01-14T0300,28,42,0.6,28,2,18,,42,
承德市,开发区,117.9503,40.928,2025-01-14T0300,34,37,0.6,40,4,17,,49,
承德市,文化中心,117.8051,40.9655,2025-01-14T0300,25,57,0.5,46,3,12,,54,颗粒物(PM10)
承德市,离宫,117.9268,41.0026,2025-01-14T0300,33,,0.3,14,3,40,,48,
池州市,池州学院,117.47,30.6618,2025-01-14T0300,63,94,1.0,59,8,12,,85,细颗粒物(PM2.5)
池州市,展览馆,117.4918,30.6617,2025-01-14T0300,52,72,0.7,62,5,2,,72,细颗粒物(PM2.5)
池州市,第八中学,117.5627,30.695,2025-01-14T0300,60,100,0.6,39,9,44,,82,细颗粒物(PM2.5)
池州市,第十二中学,117.5038,30.6243,2025-01-14T0300,51,67,1.1,65,4,3,,70,细颗粒物(PM2.5)
赤峰市,松山一中,118.9233,42.2816,2025-01-14T0300,7,23,0.6,15,17,49,,23,
赤峰市,哈达街,118.9576,42.2728,2025-01-14T0300,9,13,1.0,26,5,32,,13,
赤峰市,天义路,118.8788,42.2554,2025-01-14T0300,10,17,0.5,17,7,37,,17,
赤峰市,银河街,119.2658,42.0353,2025-01-14T0300,12,29,0.9,26,16,30,,29,
赤峰市,桥北物流园区,118.9359,42.3147,2025-01-14T0300,12,15,0.9,36,15,22,,18,
崇左市,市环保局江州分局,107.3476,22.4136,2025-01-14T0300,38,96,0.7,47,5,21,,73,颗粒物(PM10)
崇左市,城南新区,107.3702,22.3707,2025-01-14T0300,51,73,0.8,41,6,37,,70,细颗粒物(PM2.5)
滁州市,老年大学,118.3093,32.3153,2025-01-14T0300,72,99,0.7,68,4,8,,97,细颗粒物(PM2.5)
滁州市,人大宾馆,118.3244,32.2786,2025-01-14T0300,97,114,0.9,74,9,24,,128,细颗粒物(PM2.5)
滁州市,市政府原办公楼,118.3118,32.3038,2025-01-14T0300,85,112,0.7,74,6,12,,113,细颗粒物(PM2.5)
滁州市,图书馆,118.3267,32.2634,2025-01-14T0300,81,125,0.6,59,7,24,,108,细颗粒物(PM2.5)
楚雄彝族自治州,州环境监测站,101.5482,25.0441,2025-01-14T0300,34,42,0.8,38,6,4,,49,
楚雄彝族自治州,市经济开发区,101.538,25.0492,2025-01-14T0300,32,42,0.7,34,6,5,,46,
达州市,达州职业技术学院,107.5277,31.2827,2025-01-14T0300,95,122,0.9,36,6,20,,125,细颗粒物(PM2.5)
达州市,市环境监测站,107.5086,31.2186,2025-01-14T0300,88,118,1.3,52,6,4,,117,细颗粒物(PM2.5)
达州市,凤凰小区,107.4988,31.2132,2025-01-14T0300,100,129,1.2,52,8,5,,132,细颗粒物(PM2.5)
达州市,达县机关宾馆,107.5082,31.1986,2025-01-14T0300,88,132,1.4,56,7,4,,117,细颗粒物(PM2.5)
达州市,市政中心,107.4644,31.2124,2025-01-14T0300,100,134,1.4,60,5,2,,132,细颗粒物(PM2.5)
大理白族自治州,大理市环境监测站,100.1542,25.7054,2025-01-14T0300,35,35,0.5,7,7,70,,50,
大理白族自治州,大理古城,100.2171,25.5811,2025-01-14T0300,22,24,0.6,9,6,67,,32,
大连市,甘井子,121.612,38.9741,2025-01-14T0300,44,72,0.7,40,10,37,,62,细颗粒物(PM2.5)
大连市,周水子,121.565,38.9511,2025-01-14T0300,42,58,1.1,33,12,31,,59,细颗粒物(PM2.5)
大连市,星海三站,121.5637,38.8845,2025-01-14T0300,23,44,0.5,22,9,48,,44,
大连市,青泥洼桥,121.6302,38.9117,2025-01-14T0300,28,47,0.9,31,14,33,,47,
大连市,傅家庄,121.6251,38.8638,2025-01-14T0300,21,45,0.9,15,11,44,,45,
大连市,七贤岭,121.5213,38.8661,2025-01-14T0300,19,36,0.6,18,9,52,,36,
大连市,旅顺,121.2529,38.8061,2025-01-14T0300,30,40,0.9,24,8,44,,43,
大连市,金州,121.7485,39.1311,2025-01-14T0300,49,74,1.0,31,7,33,,68,细颗粒物(PM2.5)
大连市,开发区,121.7811,39.0496,2025-01-14T0300,54,83,0.8,36,14,31,,74,细颗粒物(PM2.5)
大连市,双D港,121.9762,39.0631,2025-01-14T0300,58,81,1.0,27,9,41,,79,细颗粒物(PM2.5)
大庆市,大同区,124.81117,46.03138,2025-01-14T0300,165,207,1.2,44,11,29,,215,细颗粒物(PM2.5)
大庆市,龙凤区,125.129,46.533,2025-01-14T0300,175,213,1.7,77,8,16,,225,细颗粒物(PM2.5)
大庆市,红岗区,124.902,46.408,2025-01-14T0300,149,175,1.2,72,6,6,,199,细颗粒物(PM2.5)
大庆市,萨尔图区,125.153,46.586,2025-01-14T0300,222,240,1.6,85,6,20,,272,细颗粒物(PM2.5)
大庆市,让胡路区,124.9042,46.6215,2025-01-14T0300,147,157,1.0,38,6,40,,196,细颗粒物(PM2.5)
大庆市,萨区政府监测点,125.141,46.634,2025-01-14T0300,183,237,1.8,55,4,37,,233,细颗粒物(PM2.5)
大同市,果树场,113.3819,40.1097,2025-01-14T0300,18,29,0.7,18,10,56,,29,
大同市,云冈宾馆,113.2994,40.0758,2025-01-14T0300,3,16,0.5,6,10,69,,22,
大同市,大同大学,113.3444,40.0917,2025-01-14T0300,3,24,0.4,5,14,65,,24,
大同市,安家小村,113.2661,40.1269,2025-01-14T0300,3,23,0.7,4,15,66,,23,
大同市,教育学院,113.2711,40.0844,2025-01-14T0300,3,33,0.7,13,14,60,,33,
大同市,大同市卫生学校,113.3397,40.0597,2025-01-14T0300,6,19,0.4,6,7,65,,21,
大同市,云冈站,113.1367,40.1122,2025-01-14T0300,8,21,0.3,8,8,65,,21,
大同市,图书馆,113.1186,40.2556,2025-01-14T0300,3,51,0.3,5,7,68,,51,颗粒物(PM10)
大同市,区一中,113.5931,40.0461,2025-01-14T0300,17,20,0.2,6,4,65,,25,
大同市,第二人民医院,113.2802,40.0995,2025-01-14T0300,,,,,,,49,,
大兴安岭地区,科技局,124.1069,50.4097,2025-01-14T0300,19,28,0.3,6,7,49,,28,
大兴安岭地区,红旗社区,124.1164,50.4278,2025-01-14T0300,10,,0.4,16,3,34,,15,
丹东市,江湾东路,124.3303,40.0625,2025-01-14T0300,70,106,1.8,38,10,22,,94,细颗粒物(PM2.5)
丹东市,临江后街,124.4256,40.1503,2025-01-14T0300,72,111,1.4,52,12,13,,97,细颗粒物(PM2.5)
丹东市,元宝山,124.3933,40.1461,2025-01-14T0300,62,93,1.5,26,6,23,,84,细颗粒物(PM2.5)
丹东市,民主桥,124.3633,40.1092,2025-01-14T0300,66,97,1.4,23,9,35,,89,细颗粒物(PM2.5)
儋州市,第一中学子站,109.5726,19.5167,2025-01-14T0300,23,40,0.4,10,5,98,,40,
儋州市,东坡学校子站,109.5567,19.5187,2025-01-14T0300,23,46,0.6,8,5,109,,46,
德宏傣族景颇族自治州,德宏州监测站,98.5842,24.428,2025-01-14T0300,34,43,0.7,34,6,19,,49,
德宏傣族景颇族自治州,芒市人民政府综合楼,98.5881,24.4368,2025-01-14T0300,41,54,0.6,14,6,32,,58,细颗粒物(PM2.5)
德阳市,东山公园,104.4239,31.1208,2025-01-14T0300,79,90,0.7,69,3,11,,105,细颗粒物(PM2.5)
德阳市,西小区,104.3826,31.1317,2025-01-14T0300,99,114,0.9,58,6,15,,130,细颗粒物(PM2.5)
德阳市,耐火材料厂,104.3553,31.1091,2025-01-14T0300,99,113,0.9,48,7,17,,130,细颗粒物(PM2.5)
德阳市,市教育局,104.4019,31.1244,2025-01-14T0300,85,96,1.0,64,7,13,,113,细颗粒物(PM2.5)
德州市,儿童乐园,116.3032,37.4674,2025-01-14T0300,70,122,1.2,51,34,30,,94,细颗粒物(PM2.5)
德州市,监理站,116.2991,37.4451,2025-01-14T0300,61,97,0.9,45,26,40,,83,细颗粒物(PM2.5)
德州市,九衢泉纯净水厂,116.2721,37.4379,2025-01-14T0300,58,95,0.7,40,27,40,,79,细颗粒物(PM2.5)
德州市,开发区人民医院,116.3728,37.4403,2025-01-14T0300,70,122,0.8,71,26,20,,94,细颗粒物(PM2.5)
德州市,太阳城中学,116.3572,37.4094,2025-01-14T0300,70,119,0.9,63,27,23,,94,细颗粒物(PM2.5)
德州市,陵城艺术中心,116.5652,37.3319,2025-01-14T0300,75,114,1.2,52,32,14,,100,细颗粒物(PM2.5)
迪庆藏族自治州,迪庆州站,99.7056,27.8317,2025-01-14T0300,13,20,0.5,8,9,78,,25,
迪庆藏族自治州,质量技术监督局,99.7136,27.8094,2025-01-14T0300,15,,0.6,6,7,71,,23,
定西市,东关小学,104.6241,35.5734,2025-01-14T0300,54,99,1.3,18,14,28,,75,颗粒物(PM10)
定西市,供电公司,104.6194,35.5934,2025-01-14T0300,51,106,1.2,59,11,6,,78,颗粒物(PM10)
东莞市,莞城梨川,113.7547,23.0494,2025-01-14T0300,34,81,0.7,50,6,56,,66,颗粒物(PM10)
东莞市,东城石井,113.7944,23.0128,2025-01-14T0300,29,49,0.6,40,6,47,,49,
东莞市,南城西平,113.7383,22.9658,2025-01-14T0300,28,69,0.5,66,2,49,,60,颗粒物(PM10)
东莞市,万江金泰,113.7338,23.0381,2025-01-14T0300,27,63,0.7,36,8,70,,57,颗粒物(PM10)
东莞市,南城元岭,113.7533,23.0202,2025-01-14T0300,27,64,0.7,38,7,69,,57,颗粒物(PM10)
东莞市,东城主山,113.7875,23.0457,2025-01-14T0300,38,82,0.7,79,22,21,,66,颗粒物(PM10)
东营市,市环保局,118.6614,37.4309,2025-01-14T0300,66,95,0.8,83,17,5,,89,细颗粒物(PM2.5)
东营市,开发区管委会,118.6904,37.4338,2025-01-14T0300,70,100,1.0,92,15,5,,94,细颗粒物(PM2.5)
东营市,垦利区民丰路,118.5719,37.565,2025-01-14T0300,68,100,1.3,68,16,10,,92,细颗粒物(PM2.5)
东营市,河口城区,118.5055,37.8612,2025-01-14T0300,44,80,0.9,29,4,48,,65,颗粒物(PM10)
东营市,胜利站,118.4978,37.4623,2025-01-14T0300,85,114,1.6,83,30,4,,113,细颗粒物(PM2.5)
东营市,理想之城,118.35,37.26,2025-01-14T0300,78,122,1.1,88,10,8,,104,细颗粒物(PM2.5)
鄂尔多斯市,综合楼,110.0023,39.8129,2025-01-14T0300,3,27,0.4,20,7,52,,27,
鄂尔多斯市,巴音孟克林场办事处,109.9486,39.8261,2025-01-14T0300,7,24,0.2,18,7,53,,24,
鄂尔多斯市,康泽苑,109.7736,39.5986,2025-01-14T0300,7,17,0.3,6,5,60,,19,
鄂尔多斯市,华泰汽车城,109.8119,39.5989,2025-01-14T0300,3,14,0.3,5,7,66,,21,
鄂尔多斯市,奥林花园,109.9734,39.7884,2025-01-14T0300,3,29,0.5,18,6,54,,29,
鄂州市,市政府,114.8938,30.3994,2025-01-14T0300,52,77,0.8,36,12,74,,72,细颗粒物(PM2.5)
鄂州市,赵家坝,114.8989,30.3714,2025-01-14T0300,48,72,0.8,28,10,79,,67,细颗粒物(PM2.5)
鄂州市,精准医疗中心,114.8094,30.4089,2025-01-14T0300,64,93,1.2,43,23,55,,87,细颗粒物(PM2.5)
恩施土家族苗族自治州,湖北民院,109.4978,30.2981,2025-01-14T0300,166,,1.3,40,8,4,,216,细颗粒物(PM2.5)
恩施土家族苗族自治州,州电力总公司,109.4707,30.2798,2025-01-14T0300,145,159,1.4,31,7,9,,193,细颗粒物(PM2.5)
恩施土家族苗族自治州,龙凤新区,109.5061,30.3772,2025-01-14T0300,86,119,1.2,41,6,8,,114,细颗粒物(PM2.5)
防城港市,沙万,108.3411,21.6158,2025-01-14T0300,30,32,0.6,19,17,60,,43,
防城港市,防城档案局,108.3514,21.7731,2025-01-14T0300,48,165,0.5,57,5,3,,108,颗粒物(PM10)
防城港市,大海花园,108.3506,21.6414,2025-01-14T0300,31,42,0.7,17,19,62,,45,
佛山市,湾梁,113.1294,23.0067,2025-01-14T0300,46,112,0.7,144,9,4,,81,颗粒物(PM10)
佛山市,华材职中,113.1083,23.0478,2025-01-14T0300,73,117,1.2,151,8,4,,98,细颗粒物(PM2.5)
佛山市,南海气象局,113.144,23.0453,2025-01-14T0300,56,93,0.9,132,8,2,,77,细颗粒物(PM2.5)
佛山市,顺德苏岗,113.2881,22.8094,2025-01-14T0300,34,62,0.6,92,8,2,,56,颗粒物(PM10)
佛山市,高明孔堂,112.8383,22.8678,2025-01-14T0300,43,75,0.7,40,8,45,,63,颗粒物(PM10)
佛山市,三水监测站,112.8836,23.1588,2025-01-14T0300,61,100,0.8,117,19,2,,83,细颗粒物(PM2.5)
佛山市,三水云东海,112.867,23.185,2025-01-14T0300,61,97,0.9,120,17,0,,83,细颗粒物(PM2.5)
佛山市,容桂街道办,113.2544,22.7642,2025-01-14T0300,31,75,0.6,62,7,36,,63,颗粒物(PM10)
福州市,鼓山,119.3903,26.0543,2025-01-14T0300,,,,,,,108,,
福州市,师大,119.2681,26.0504,2025-01-14T0300,22,37,0.4,18,3,75,,37,
福州市,五四北路,119.2984,26.1028,2025-01-14T0300,22,36,0.3,28,1,58,,36,
福州市,杨桥西路,119.2648,26.0768,2025-01-14T0300,22,42,0.4,27,1,62,,42,
福州市,紫阳,119.317,26.0746,2025-01-14T0300,26,40,0.5,28,3,61,,40,
福州市,九龙,119.5799,26.0936,2025-01-14T0300,19,30,0.6,12,2,84,,30,
福州市,吴航,119.5189,25.9664,2025-01-14T0300,34,61,0.5,59,2,28,,56,颗粒物(PM10)
抚顺市,望花区,123.7977,41.8491,2025-01-14T0300,87,115,1.4,51,5,8,,115,细颗粒物(PM2.5)
抚顺市,顺城区,123.9161,41.8822,2025-01-14T0300,73,117,1.7,50,7,12,,98,细颗粒物(PM2.5)
抚顺市,东洲区,124.0436,41.8611,2025-01-14T0300,94,128,1.7,36,3,15,,124,细颗粒物(PM2.5)
抚顺市,新抚区,123.9247,41.8642,2025-01-14T0300,107,147,1.7,62,4,13,,140,细颗粒物(PM2.5)
抚顺市,大伙房水库,124.0972,41.8961,2025-01-14T0300,80,107,1.2,40,8,10,,107,细颗粒物(PM2.5)
抚顺市,沈抚新城,123.7086,41.8391,2025-01-14T0300,80,122,1.7,65,6,12,,107,细颗粒物(PM2.5)
抚州市,桐源党溪,116.2127,28.0814,2025-01-14T0300,29,49,0.4,18,1,6,,49,
抚州市,市站,116.3544,27.9831,2025-01-14T0300,49,94,1.1,64,13,9,,72,颗粒物(PM10)
抚州市,血防站,116.3565,27.963,2025-01-14T0300,46,89,1.1,77,9,10,,70,颗粒物(PM10)
抚州市,采茶剧团,116.3564,28.0007,2025-01-14T0300,37,78,1.4,57,8,2,,64,颗粒物(PM10)
抚州市,医学分院,116.385,27.9647,2025-01-14T0300,36,85,0.8,49,8,8,,68,颗粒物(PM10)
阜新市,工业园区,121.6094,41.998,2025-01-14T0300,11,38,1.0,24,11,36,,38,
阜新市,长青街,121.6697,42.0279,2025-01-14T0300,18,37,0.6,29,6,27,,37,
阜新市,农业园区,121.6673,42.0705,2025-01-14T0300,3,11,0.5,6,8,59,,19,
阜新市,东苑,121.6717,42.0224,2025-01-14T0300,14,37,0.5,19,6,41,,37,
阜新市,玉龙新城,121.6506,42.0498,2025-01-14T0300,21,59,0.8,47,7,9,,55,颗粒物(PM10)
阜阳市,市监测站,115.8277,32.8929,2025-01-14T0300,130,159,0.9,92,8,7,,172,细颗粒物(PM2.5)
阜阳市,开发区,115.8554,32.8605,2025-01-14T0300,129,178,1.1,83,9,7,,170,细颗粒物(PM2.5)
阜阳市,阜阳职业技术学院,115.784,32.8892,2025-01-14T0300,95,132,1.1,65,8,29,,125,细颗粒物(PM2.5)
阜阳市,市规划展馆,115.7901,32.8613,2025-01-14T0300,97,130,0.7,28,10,84,,128,细颗粒物(PM2.5)
阜阳市,枣园社区,115.836,32.9183,2025-01-14T0300,123,162,1.0,99,7,4,,162,细颗粒物(PM2.5)
甘南藏族自治州,州政府,102.9099,34.9841,2025-01-14T0300,20,43,0.9,38,9,6,,43,
甘南藏族自治州,甘肃民族师范学院,102.8914,34.9617,2025-01-14T0300,11,43,0.6,40,4,13,,43,
甘孜藏族自治州,水桥子,101.9603,30.0475,2025-01-14T0300,15,15,0.5,14,2,48,,22,
甘孜藏族自治州,州环保局,101.9533,29.9972,2025-01-14T0300,3,21,0.4,10,4,57,,21,
赣江新区,桑海产业园,115.8347,28.932,2025-01-14T0300,40,90,0.5,70,11,0,,70,颗粒物(PM10)
赣州市,通天岩,114.9017,25.9149,2025-01-14T0300,17,32,0.8,3,3,64,,32,
赣州市,地委,114.9367,25.8664,2025-01-14T0300,38,73,1.2,57,13,10,,62,颗粒物(PM10)
赣州市,气象台,114.9461,25.8481,2025-01-14T0300,34,73,0.7,68,8,12,,62,颗粒物(PM10)
赣州市,市图书馆,114.9322,25.8333,2025-01-14T0300,28,53,0.8,79,5,2,,52,颗粒物(PM10)
赣州市,华坚鞋城,114.8905,25.8471,2025-01-14T0300,48,111,0.8,63,15,26,,81,颗粒物(PM10)
赣州市,赣县区卫计委,115.0093,25.8613,2025-01-14T0300,30,44,0.5,48,3,11,,44,
固原市,马园,106.2319,36.1417,2025-01-14T0300,18,110,0.3,7,5,65,,80,颗粒物(PM10)
固原市,监测站,106.2792,36.0022,2025-01-14T0300,19,94,0.3,12,6,69,,72,颗粒物(PM10)
固原市,新区,106.2375,36.0211,2025-01-14T0300,17,89,0.3,8,5,68,,70,颗粒物(PM10)
固原市,原州区十五小,106.2177,35.9959,2025-01-14T0300,20,92,0.3,12,6,64,,71,颗粒物(PM10)
广安市,小平旧居,106.6308,30.5278,2025-01-14T0300,,,,,,,,,
广安市,市委,106.6303,30.4576,2025-01-14T0300,158,168,1.0,39,3,11,,208,细颗粒物(PM2.5)
广安市,友谊中学,106.6271,30.4663,2025-01-14T0300,162,184,1.1,43,5,5,,212,细颗粒物(PM2.5)
广安市,广电花园,106.6388,30.4551,2025-01-14T0300,164,,1.1,38,3,9,,214,细颗粒物(PM2.5)
广安市,北辰小学,106.6351,30.4865,2025-01-14T0300,128,160,1.1,29,4,6,,169,细颗粒物(PM2.5)
广元市,黑石坡,105.8945,32.4535,2025-01-14T0300,49,75,0.9,32,5,22,,68,细颗粒物(PM2.5)
广元市,老城,105.821,32.4444,2025-01-14T0300,29,55,0.9,58,3,2,,53,颗粒物(PM10)
广元市,监测站,105.8628,32.4287,2025-01-14T0300,51,62,0.8,49,6,15,,70,细颗粒物(PM2.5)
广元市,经开区,105.8047,32.4166,2025-01-14T0300,61,86,1.1,56,8,2,,83,细颗粒物(PM2.5)
广州市,广雅中学,113.2347,23.1423,2025-01-14T0300,53,109,1.0,131,9,3,,80,颗粒物(PM10)
广州市,市五中,113.2612,23.105,2025-01-14T0300,56,92,0.9,111,5,4,,77,细颗粒物(PM2.5)
广州市,广东商学院,113.3478,23.0916,2025-01-14T0300,63,131,0.9,131,6,3,,91,颗粒物(PM10)
广州市,市八十六中,113.4332,23.1047,2025-01-14T0300,55,133,0.9,125,11,8,,92,颗粒物(PM10)
广州市,番禺中学,113.3505,22.9483,2025-01-14T0300,36,75,0.7,115,4,5,,63,颗粒物(PM10)
广州市,花都师范,113.2146,23.3916,2025-01-14T0300,57,127,0.9,109,7,2,,89,颗粒物(PM10)
广州市,市监测站,113.2597,23.1331,2025-01-14T0300,41,87,0.8,118,7,7,,69,颗粒物(PM10)
广州市,九龙镇镇龙,113.5618,23.312,2025-01-14T0300,44,99,0.7,90,6,3,,75,颗粒物(PM10)
广州市,麓湖,113.2765,23.1544,2025-01-14T0300,56,105,1.1,119,6,4,,78,颗粒物(PM10)
广州市,帽峰山森林公园,113.443,23.3035,2025-01-14T0300,43,67,0.6,100,11,13,,60,细颗粒物(PM2.5)
广州市,体育西,113.3221,23.1322,2025-01-14T0300,58,126,0.9,116,8,7,,88,颗粒物(PM10)
广州市,从化街口,113.5717,23.5491,2025-01-14T0300,34,57,0.7,61,6,8,,54,颗粒物(PM10)
广州市,白云竹料,113.3472,23.3692,2025-01-14T0300,54,125,0.8,91,7,2,,88,颗粒物(PM10)
广州市,白云嘉禾,113.2981,23.237,2025-01-14T0300,51,110,0.9,125,9,4,,80,颗粒物(PM10)
广州市,黄埔科学城,113.4256,23.1716,2025-01-14T0300,39,79,0.9,89,7,2,,65,颗粒物(PM10)
广州市,番禺大学城,113.3942,23.0483,2025-01-14T0300,54,98,0.9,129,12,3,,74,"颗粒物(PM10),细颗粒物(PM2.5)"
广州市,南沙黄阁,113.4922,22.8168,2025-01-14T0300,33,78,0.7,83,5,25,,64,颗粒物(PM10)
广州市,南沙街,113.5342,22.7896,2025-01-14T0300,26,78,0.6,52,6,65,,64,颗粒物(PM10)
广州市,花都梯面,113.2902,23.5544,2025-01-14T0300,25,49,0.7,61,5,2,,49,
广州市,从化良口,113.7858,23.7478,2025-01-14T0300,16,26,0.5,44,5,29,,26,
广州市,增城荔城,113.8051,23.2614,2025-01-14T0300,41,69,0.7,65,5,6,,60,颗粒物(PM10)
贵港市,德智高中,109.568,23.1478,2025-01-14T0300,,,,,,,,,
贵港市,江南子站,109.6047,23.0666,2025-01-14T0300,130,224,1.5,82,7,8,,172,细颗粒物(PM2.5)
贵港市,贵城子站,109.6014,23.0948,2025-01-14T0300,122,133,1.3,90,13,4,,160,细颗粒物(PM2.5)
贵港市,荷城子站,109.5669,23.1065,2025-01-14T0300,92,144,1.0,88,11,7,,122,细颗粒物(PM2.5)
贵港市,新世纪学校,109.5886,23.1172,2025-01-14T0300,70,119,1.0,88,9,4,,94,细颗粒物(PM2.5)
贵阳市,马鞍山,106.6899,26.5998,2025-01-14T0300,39,51,0.7,40,6,19,,55,细颗粒物(PM2.5)
贵阳市,鉴湖路,106.6243,26.6266,2025-01-14T0300,29,44,0.5,26,11,76,,44,
贵阳市,燕子冲,106.7487,26.6343,2025-01-14T0300,36,41,0.5,20,9,58,,52,细颗粒物(PM2.5)
贵阳市,碧云窝,106.6555,26.4365,2025-01-14T0300,44,66,0.8,33,17,18,,62,细颗粒物(PM2.5)
贵阳市,中院村,106.694,26.5161,2025-01-14T0300,,,,,,,15,,
贵阳市,红边门,106.7109,26.6027,2025-01-14T0300,41,66,1.1,45,48,38,,58,"颗粒物(PM10),细颗粒物(PM2.5)"
贵阳市,新华路,106.7164,26.5699,2025-01-14T0300,44,85,1.0,59,18,14,,68,颗粒物(PM10)
贵阳市,太慈桥,106.674,26.5424,2025-01-14T0300,51,73,0.7,35,12,27,,70,细颗粒物(PM2.5)
贵阳市,桐木岭,106.805,26.3003,2025-01-14T0300,32,54,0.3,2,23,91,,52,颗粒物(PM10)
贵阳市,花果园大街66号,106.6882,26.5695,2025-01-14T0300,65,90,1.3,80,24,18,,88,细颗粒物(PM2.5)
桂林市,电子科大尧山校区,110.4144,25.3167,2025-01-14T0300,40,49,0.7,10,4,42,,57,细颗粒物(PM2.5)
桂林市,监测站,110.2819,25.2697,2025-01-14T0300,53,82,1.2,59,22,16,,73,细颗粒物(PM2.5)
桂林市,龙隐路小学,110.3089,25.2708,2025-01-14T0300,52,57,0.7,39,28,44,,72,细颗粒物(PM2.5)
桂林市,八中,110.2869,25.2178,2025-01-14T0300,67,97,0.9,43,15,22,,90,细颗粒物(PM2.5)
桂林市,创业大厦,110.1764,25.2381,2025-01-14T0300,46,75,1.2,77,21,4,,64,细颗粒物(PM2.5)
桂林市,旅游学院,110.296,25.1253,2025-01-14T0300,70,97,1.5,58,9,8,,94,细颗粒物(PM2.5)
果洛藏族自治州,玛沁县大武镇,100.2561,34.4714,2025-01-14T0300,16,27,0.5,2,17,65,,27,
哈尔滨市,岭北,126.5422,45.755,2025-01-14T0300,205,219,1.5,50,13,47,,255,细颗粒物(PM2.5)
哈尔滨市,松北商大,126.561,45.8167,2025-01-14T0300,229,236,1.7,61,7,25,,279,细颗粒物(PM2.5)
哈尔滨市,阿城会宁,126.979,45.5419,2025-01-14T0300,184,,1.5,50,10,27,,234,细颗粒物(PM2.5)
哈尔滨市,南岗学府路,126.599,45.7222,2025-01-14T0300,231,291,1.4,60,12,28,,281,细颗粒物(PM2.5)
哈尔滨市,太平宏伟公园,126.689,45.7733,2025-01-14T0300,224,258,1.2,55,25,24,,274,细颗粒物(PM2.5)
哈尔滨市,道外承德广场,126.635,45.7667,2025-01-14T0300,267,311,1.4,55,37,26,,317,细颗粒物(PM2.5)
哈尔滨市,香坊红旗大街,126.685,45.7319,2025-01-14T0300,231,251,1.6,59,60,28,,281,细颗粒物(PM2.5)
哈尔滨市,动力和平路,126.6411,45.7258,2025-01-14T0300,258,,1.7,58,29,18,,308,细颗粒物(PM2.5)
哈尔滨市,道里建国路,126.593,45.7478,2025-01-14T0300,270,270,1.6,64,13,23,,320,细颗粒物(PM2.5)
哈尔滨市,平房东轻厂,126.615,45.61,2025-01-14T0300,163,169,1.1,70,5,12,,213,细颗粒物(PM2.5)
哈尔滨市,呼兰师专,126.595,45.9855,2025-01-14T0300,263,268,1.5,74,6,9,,313,细颗粒物(PM2.5)
哈尔滨市,省农科院,126.6206,45.6842,2025-01-14T0300,242,278,1.7,72,7,12,,292,细颗粒物(PM2.5)
哈密市,地区监测站,93.5128,42.8172,2025-01-14T0300,38,58,0.8,60,4,15,,54,"颗粒物(PM10),细颗粒物(PM2.5)"
哈密市,哈密师范学校,93.4961,42.8328,2025-01-14T0300,32,47,0.9,46,5,21,,47,
海北藏族自治州,海晏县西海镇,100.9048,36.9639,2025-01-14T0300,8,13,0.7,2,10,78,,25,
海东市,平安区公安北苑,102.0738,36.5056,2025-01-14T0300,38,55,0.7,7,13,55,,54,细颗粒物(PM2.5)
海口市,东寨港,110.576,19.9507,2025-01-14T0300,22,38,0.6,6,13,99,,38,
海口市,海南大学,110.3232,20.0574,2025-01-14T0300,20,58,0.4,8,5,125,,54,颗粒物(PM10)
海口市,秀英海南医院,110.283,20.0053,2025-01-14T0300,16,36,0.4,8,3,122,,39,
海口市,海南师范大学,110.338,19.9969,2025-01-14T0300,17,42,0.4,6,5,127,,42,
海口市,龙华路环保局宿舍,110.33,20.0356,2025-01-14T0300,18,42,0.3,5,5,126,,42,
海口市,桂林洋子站,110.5111,19.9736,2025-01-14T0300,15,51,0.4,6,4,119,,51,颗粒物(PM10)
海南藏族自治州,共和县恰卜恰镇,100.6188,36.2866,2025-01-14T0300,6,28,0.9,15,9,67,,28,
海西蒙古族藏族自治州,德令哈市,97.3731,37.3753,2025-01-14T0300,10,16,0.4,6,11,81,,26,
邯郸市,东污水处理厂,114.5302,36.6116,2025-01-14T0300,95,162,1.4,71,14,4,,125,细颗粒物(PM2.5)
邯郸市,矿院,114.4918,36.5713,2025-01-14T0300,75,135,1.4,71,8,1,,100,细颗粒物(PM2.5)
邯郸市,丛台公园,114.484,36.6133,2025-01-14T0300,75,161,1.4,68,13,2,,106,颗粒物(PM10)
邯郸市,香泉濮院小区,114.7895,36.5593,2025-01-14T0300,95,182,1.2,69,17,13,,125,细颗粒物(PM2.5)
邯郸市,永年区实验高中,114.50634,36.77178,2025-01-14T0300,88,173,1.7,60,19,7,,117,细颗粒物(PM2.5)
邯郸市,峰峰矿区临水派出所,114.20016,36.44293,2025-01-14T0300,69,136,1.3,30,23,45,,93,"颗粒物(PM10),细颗粒物(PM2.5)"
汉中市,汉川机床厂子校,106.9893,33.1842,2025-01-14T0300,51,63,0.8,12,7,41,,70,细颗粒物(PM2.5)
汉中市,市监测站,107.0154,33.0706,2025-01-14T0300,120,136,2.1,63,7,12,,158,细颗粒物(PM2.5)
汉中市,鑫源开发区,107.0089,33.1138,2025-01-14T0300,117,120,2.1,61,7,26,,153,细颗粒物(PM2.5)
汉中市,南郑大河坎水厂,107.007,33.0323,2025-01-14T0300,121,162,1.9,47,10,13,,159,细颗粒物(PM2.5)
杭州市,滨江,120.2072,30.2111,2025-01-14T0300,62,103,0.8,90,7,3,,84,细颗粒物(PM2.5)
杭州市,西溪,120.0633,30.2747,2025-01-14T0300,57,85,0.8,58,8,3,,78,细颗粒物(PM2.5)
杭州市,下沙,120.3461,30.3153,2025-01-14T0300,98,155,1.0,113,10,1,,129,细颗粒物(PM2.5)
杭州市,卧龙桥,120.1269,30.2456,2025-01-14T0300,44,60,0.3,49,6,13,,62,细颗粒物(PM2.5)
杭州市,浙江农大,120.1903,30.2692,2025-01-14T0300,65,106,0.9,100,8,2,,88,细颗粒物(PM2.5)
杭州市,和睦小学,120.1197,30.3119,2025-01-14T0300,69,109,1.3,95,9,3,,93,细颗粒物(PM2.5)
杭州市,临平镇,120.3019,30.4183,2025-01-14T0300,111,166,0.9,116,8,2,,145,细颗粒物(PM2.5)
杭州市,城厢镇,120.2697,30.1819,2025-01-14T0300,57,108,1.0,98,6,4,,79,颗粒物(PM10)
杭州市,云栖,120.0883,30.1808,2025-01-14T0300,37,64,0.6,47,5,14,,57,颗粒物(PM10)
杭州市,镇二中,119.9464,30.0494,2025-01-14T0300,58,69,0.8,63,7,2,,79,细颗粒物(PM2.5)
杭州市,市府大楼,119.7183,30.2367,2025-01-14T0300,50,69,0.7,50,8,24,,69,细颗粒物(PM2.5)
杭州市,消防大队,120.1556,30.2864,2025-01-14T0300,58,100,0.8,90,9,4,,79,细颗粒物(PM2.5)
合肥市,明珠广场,117.1959,31.7848,2025-01-14T0300,73,102,0.9,87,12,12,,98,细颗粒物(PM2.5)
合肥市,三里街,117.3072,31.8764,2025-01-14T0300,83,117,1.0,112,8,1,,110,细颗粒物(PM2.5)
合肥市,琥珀山庄,117.2588,31.8707,2025-01-14T0300,79,102,1.4,104,7,9,,105,细颗粒物(PM2.5)
合肥市,董铺水库,117.1604,31.9052,2025-01-14T0300,68,129,0.7,89,5,4,,92,细颗粒物(PM2.5)
合肥市,长江中路,117.25,31.8571,2025-01-14T0300,73,107,1.0,67,8,29,,98,细颗粒物(PM2.5)
合肥市,庐阳区,117.266,31.9436,2025-01-14T0300,95,156,0.8,108,8,4,,125,细颗粒物(PM2.5)
合肥市,瑶海区,117.336,31.8586,2025-01-14T0300,76,110,1.1,79,9,17,,102,细颗粒物(PM2.5)
合肥市,包河区,117.3027,31.7964,2025-01-14T0300,75,105,0.7,114,9,3,,100,细颗粒物(PM2.5)
合肥市,滨湖新区,117.2776,31.7385,2025-01-14T0300,70,97,0.5,38,11,53,,94,细颗粒物(PM2.5)
合肥市,高新区,117.1318,31.8403,2025-01-14T0300,71,102,0.8,92,9,19,,95,细颗粒物(PM2.5)
合肥市,高教基地,117.3803,31.9147,2025-01-14T0300,78,107,0.7,86,9,4,,104,细颗粒物(PM2.5)
和田地区,地区环保局,79.924,37.0877,2025-01-14T0300,118,224,2.6,67,51,16,,155,细颗粒物(PM2.5)
和田地区,市环保局,79.9131,37.113,2025-01-14T0300,105,226,3.9,99,38,21,,138,"颗粒物(PM10),细颗粒物(PM2.5)"
河池市,东仁乐园,108.2011,24.715,2025-01-14T0300,58,79,1.0,,14,18,,,
河池市,市环保站,108.0497,24.6947,2025-01-14T0300,81,99,0.7,45,8,20,,108,细颗粒物(PM2.5)
河池市,市疾控中心,108.0983,24.6989,2025-01-14T0300,60,84,0.9,60,6,6,,82,细颗粒物(PM2.5)
河源市,源西,114.6778,23.7569,2025-01-14T0300,26,52,0.6,52,5,1,,51,颗粒物(PM10)
河源市,东埔,114.6944,23.7586,2025-01-14T0300,32,71,0.7,58,4,6,,61,颗粒物(PM10)
河源市,老城,114.6892,23.7233,2025-01-14T0300,23,48,0.6,46,4,20,,48,
菏泽市,气象局,115.4208,35.2464,2025-01-14T0300,,,,,,,55,,
菏泽市,定陶老年大学,115.5564,35.0891,2025-01-14T0300,97,180,0.7,50,14,49,,128,细颗粒物(PM2.5)
菏泽市,永昌路1号,115.4797,35.24401,2025-01-14T0300,102,207,1.4,44,17,53,,134,细颗粒物(PM2.5)
菏泽市,长城路999号,115.4715,35.2800,2025-01-14T0300,75,185,0.7,37,12,65,,118,颗粒物(PM10)
贺州市,环保小区,111.5264,24.4172,2025-01-14T0300,61,,0.8,37,7,20,,83,细颗粒物(PM2.5)
贺州市,政协大楼,111.5608,24.4078,2025-01-14T0300,32,52,0.6,55,9,3,,51,颗粒物(PM10)
贺州市,西湾,111.4744,24.4553,2025-01-14T0300,47,77,0.7,41,4,19,,65,细颗粒物(PM2.5)
鹤壁市,市监测站,114.17,35.9019,2025-01-14T0300,81,184,1.0,54,6,4,,117,颗粒物(PM10)
鹤壁市,市交警支队,114.2956,35.7511,2025-01-14T0300,78,192,1.8,70,18,3,,121,颗粒物(PM10)
鹤壁市,迎宾馆,114.2878,35.7306,2025-01-14T0300,72,225,1.7,62,19,6,,138,颗粒物(PM10)
鹤壁市,大新区,114.2617,35.6822,2025-01-14T0300,79,186,1.4,47,19,22,,118,颗粒物(PM10)
鹤壁市,南山宾馆,114.1572,35.9603,2025-01-14T0300,92,169,1.7,29,20,37,,122,细颗粒物(PM2.5)
鹤岗市,哈啤分公司,130.2537,47.3416,2025-01-14T0300,92,128,1.2,45,17,17,,122,细颗粒物(PM2.5)
鹤岗市,斯达机电,130.2684,47.3086,2025-01-14T0300,106,124,0.8,43,19,28,,139,细颗粒物(PM2.5)
鹤岗市,东山纸板厂,130.3114,47.3388,2025-01-14T0300,101,,1.5,62,16,4,,133,细颗粒物(PM2.5)
鹤岗市,五号水库,130.1097,47.3382,2025-01-14T0300,75,112,1.0,37,9,24,,100,细颗粒物(PM2.5)
黑河市,交通局,127.4833,50.2524,2025-01-14T0300,19,33,0.6,13,7,46,,33,
黑河市,环保局,127.5144,50.2341,2025-01-14T0300,23,25,0.7,7,6,52,,33,
黑河市,大黑河岛,127.5291,50.2472,2025-01-14T0300,31,,,8,1,6,,,
衡水市,电机北厂,115.6838,37.7541,2025-01-14T0300,85,134,0.8,66,21,8,,113,细颗粒物(PM2.5)
衡水市,市监测站,115.6303,37.7316,2025-01-14T0300,78,96,0.8,56,18,20,,104,细颗粒物(PM2.5)
衡水市,市城管局,115.6683,37.7217,2025-01-14T0300,70,117,0.8,63,22,16,,94,细颗粒物(PM2.5)
衡水市,地表水厂,115.5989,37.5491,2025-01-14T0300,81,103,0.9,65,18,4,,108,细颗粒物(PM2.5)
衡阳市,原169医院,112.5003,26.9167,2025-01-14T0300,53,66,0.6,45,4,4,,73,细颗粒物(PM2.5)
衡阳市,衡阳化工总厂,112.6194,26.9258,2025-01-14T0300,79,102,1.0,57,9,3,,105,细颗粒物(PM2.5)
衡阳市,珠晖区环保局,112.6211,26.8956,2025-01-14T0300,75,118,1.2,67,11,5,,100,细颗粒物(PM2.5)
衡阳市,市委党校,112.6197,26.8733,2025-01-14T0300,79,108,1.3,62,7,3,,105,细颗粒物(PM2.5)
衡阳市,市监测站,112.6006,26.8919,2025-01-14T0300,102,127,2.2,53,10,2,,134,细颗粒物(PM2.5)
衡阳市,真空机电公司,112.5664,26.9056,2025-01-14T0300,76,109,1.6,54,5,3,,102,细颗粒物(PM2.5)
衡阳市,师范学院,112.6703,26.882,2025-01-14T0300,89,119,1.0,52,9,2,,118,细颗粒物(PM2.5)
红河哈尼族彝族自治州,污水处理厂,103.3772,23.3993,2025-01-14T0300,45,63,0.4,11,6,82,,63,细颗粒物(PM2.5)
红河哈尼族彝族自治州,监测站,103.3861,23.35,2025-01-14T0300,49,55,0.4,8,7,92,,68,细颗粒物(PM2.5)
红河哈尼族彝族自治州,州图书馆,103.3758,23.368,2025-01-14T0300,46,48,0.5,12,9,86,,64,细颗粒物(PM2.5)
呼和浩特市,呼市一监,111.6507,40.7517,2025-01-14T0300,3,14,0.2,4,9,70,,22,
呼和浩特市,小召,111.6572,40.8033,2025-01-14T0300,3,14,0.2,9,8,72,,23,
呼和浩特市,如意水处理厂,111.7516,40.8369,2025-01-14T0300,3,14,0.2,12,9,62,,20,
呼和浩特市,二十九中,111.7276,40.8062,2025-01-14T0300,3,22,0.4,8,8,59,,22,
呼和浩特市,工大金川校区,111.5512,40.7866,2025-01-14T0300,4,,,4,6,66,,,
呼和浩特市,化肥厂生活区,111.717,40.7612,2025-01-14T0300,3,14,0.3,8,6,63,,20,
呼和浩特市,红旗小学,111.5968,40.8178,2025-01-14T0300,3,12,0.3,7,4,65,,21,
呼和浩特市,海东办,111.6518,40.8389,2025-01-14T0300,3,9,0.3,11,5,59,,19,
呼伦贝尔市,区环保局,119.7594,49.2261,2025-01-14T0300,14,18,0.4,10,6,45,,20,
呼伦贝尔市,国华电力东,119.7512,49.1577,2025-01-14T0300,24,29,0.5,9,5,42,,35,
湖州市,城西水厂,120.0751,30.8669,2025-01-14T0300,85,139,0.8,98,9,11,,113,细颗粒物(PM2.5)
湖州市,仁皇山新区,120.0875,30.8955,2025-01-14T0300,84,128,0.8,76,8,26,,112,细颗粒物(PM2.5)
湖州市,吴兴区站,120.1844,30.8596,2025-01-14T0300,87,146,0.9,72,8,29,,115,细颗粒物(PM2.5)
湖州市,南浔区站,120.4148,30.8538,2025-01-14T0300,99,154,0.7,71,12,28,,130,细颗粒物(PM2.5)
葫芦岛市,龙港区,120.9092,40.7136,2025-01-14T0300,31,50,0.6,59,93,28,,50,
葫芦岛市,化工街,120.8392,40.7514,2025-01-14T0300,36,61,1.4,49,41,6,,56,颗粒物(PM10)
葫芦岛市,新区,120.8341,40.7073,2025-01-14T0300,27,48,0.8,60,21,8,,48,
葫芦岛市,东城区,120.8695,40.7677,2025-01-14T0300,35,48,1.0,47,39,10,,50,
怀化市,林科所,109.5981,27.5721,2025-01-14T0300,42,57,1.2,28,16,40,,59,细颗粒物(PM2.5)
怀化市,河西地税局,109.9453,27.5444,2025-01-14T0300,64,73,0.7,19,3,26,,87,细颗粒物(PM2.5)
怀化市,市四医院,109.9781,27.5342,2025-01-14T0300,74,112,1.0,40,8,17,,99,细颗粒物(PM2.5)
怀化市,监测楼,109.9972,27.5578,2025-01-14T0300,70,100,0.9,39,3,10,,94,细颗粒物(PM2.5)
怀化市,市委党校,110.0394,27.583,2025-01-14T0300,71,93,1.0,40,7,11,,95,细颗粒物(PM2.5)
淮安市,钵池山,119.036,33.5981,2025-01-14T0300,100,144,1.3,108,9,5,,132,细颗粒物(PM2.5)
淮安市,北京南路,119.007,33.575,2025-01-14T0300,91,127,1.6,74,8,0,,120,细颗粒物(PM2.5)
淮安市,市监测站,118.989,33.6067,2025-01-14T0300,105,122,1.6,82,7,1,,138,细颗粒物(PM2.5)
淮安市,楚州区监测站,119.135,33.5039,2025-01-14T0300,90,159,1.4,99,9,0,,119,细颗粒物(PM2.5)
淮安市,淮阴区监测站,119.0186,33.6297,2025-01-14T0300,109,190,1.5,96,10,0,,143,细颗粒物(PM2.5)
淮安市,新华书店,118.8755,33.2894,2025-01-14T0300,112,141,1.0,89,11,3,,147,细颗粒物(PM2.5)
淮北市,监测站,116.8004,33.975,2025-01-14T0300,98,122,0.6,55,7,28,,129,细颗粒物(PM2.5)
淮北市,烈山区政府,116.8091,33.9007,2025-01-14T0300,108,179,1.0,106,7,6,,142,细颗粒物(PM2.5)
淮北市,杜集区检察院,116.8873,33.9836,2025-01-14T0300,115,173,1.0,59,6,2,,150,细颗粒物(PM2.5)
淮北市,市博物馆,116.7923,33.9535,2025-01-14T0300,116,179,1.1,69,8,21,,152,细颗粒物(PM2.5)
淮南市,潘集区政府,116.8305,32.7727,2025-01-14T0300,135,168,0.8,85,11,17,,179,细颗粒物(PM2.5)
淮南市,谢家集区政府,116.8569,32.5951,2025-01-14T0300,90,122,0.8,41,13,77,,119,细颗粒物(PM2.5)
淮南市,八公山区政府,116.8281,32.633,2025-01-14T0300,93,129,0.7,34,6,78,,123,细颗粒物(PM2.5)
淮南市,焦岗湖风景区管理处,116.6325,32.6201,2025-01-14T0300,68,101,0.5,55,8,9,,92,细颗粒物(PM2.5)
淮南市,经济技术开发区消防队,117.0566,32.6531,2025-01-14T0300,105,147,0.7,66,9,32,,138,细颗粒物(PM2.5)
淮南市,山南新区,117.0108,32.5893,2025-01-14T0300,97,124,0.8,30,11,87,,128,细颗粒物(PM2.5)
淮南市,国庆中路369号,117.0031,32.6445,2025-01-14T0300,,,,,,,72,,
黄冈市,职工中心,114.9028,30.4742,2025-01-14T0300,53,73,0.6,26,8,63,,73,细颗粒物(PM2.5)
黄冈市,红卫路,114.8858,30.4519,2025-01-14T0300,52,79,0.9,32,7,61,,72,细颗粒物(PM2.5)
黄冈市,市林业局,114.9136,30.4445,2025-01-14T0300,53,71,0.6,25,10,63,,73,细颗粒物(PM2.5)
黄南藏族自治州,同仁县隆务镇,102.0199,35.5102,2025-01-14T0300,,28,0.3,2,10,75,,,
黄山市,延安路89号,118.2903,29.6963,2025-01-14T0300,12,34,0.3,34,4,10,,34,
黄山市,黄山东路89号,118.327,29.7178,2025-01-14T0300,21,38,0.4,22,6,20,,38,
黄山市,黄山区政府5号楼,118.1371,30.2756,2025-01-14T0300,27,53,0.6,11,8,27,,52,颗粒物(PM10)
黄石市,沈家营,115.0601,30.2313,2025-01-14T0300,53,92,1.5,58,20,38,,73,细颗粒物(PM2.5)
黄石市,铁山,114.8988,30.2019,2025-01-14T0300,52,65,0.4,27,17,70,,72,细颗粒物(PM2.5)
黄石市,团城山,115.0307,30.2092,2025-01-14T0300,51,83,1.1,35,17,59,,70,细颗粒物(PM2.5)
黄石市,笔架山北路,115.0235,30.1578,2025-01-14T0300,56,70,1.1,35,26,64,,77,细颗粒物(PM2.5)
黄石市,磁湖东路29号,115.0780,30.21118,2025-01-14T0300,50,80,1.3,54,17,52,,69,细颗粒物(PM2.5)
惠州市,河南岸金山湖子站,114.4183,23.0528,2025-01-14T0300,31,70,0.6,16,7,84,,60,颗粒物(PM10)
惠州市,下埔横江三路子站,114.4053,23.0822,2025-01-14T0300,30,68,0.4,18,7,97,,59,颗粒物(PM10)
惠州市,江北云山西路子站,114.4103,23.1142,2025-01-14T0300,30,72,0.7,23,10,95,,61,颗粒物(PM10)
惠州市,惠阳区承修路船湖子站,114.4645,22.7833,2025-01-14T0300,17,53,0.4,13,10,96,,52,颗粒物(PM10)
惠州市,大亚湾管委会子站,114.5317,22.7422,2025-01-14T0300,22,48,0.6,19,12,99,,48,
惠州市,惠阳秋长,114.4338,22.8134,2025-01-14T0300,30,68,0.7,35,12,62,,59,颗粒物(PM10)
惠州市,大亚湾霞涌,114.6517,22.775,2025-01-14T0300,23,43,0.2,17,8,94,,43,
鸡西市,环保局,130.9762,45.3001,2025-01-14T0300,68,95,0.7,28,10,31,,92,细颗粒物(PM2.5)
鸡西市,第一中学,130.9429,45.3039,2025-01-14T0300,38,52,0.5,13,9,55,,54,细颗粒物(PM2.5)
鸡西市,欧美日汽修厂,131.0207,45.3073,2025-01-14T0300,112,201,1.5,57,24,6,,147,细颗粒物(PM2.5)
鸡西市,市政设施管理处,130.9967,45.3106,2025-01-14T0300,102,158,1.0,51,18,18,,134,细颗粒物(PM2.5)
吉安市,红声器材厂,114.9754,27.0803,2025-01-14T0300,38,81,0.7,53,8,7,,66,颗粒物(PM10)
吉安市,市森林工业局,114.9658,27.0999,2025-01-14T0300,48,79,0.7,60,12,14,,67,细颗粒物(PM2.5)
吉安市,市环境监测站,114.99,27.1312,2025-01-14T0300,41,61,0.8,49,12,7,,58,细颗粒物(PM2.5)
吉安市,青原区法院,115.0093,27.0968,2025-01-14T0300,37,76,0.4,64,10,7,,63,颗粒物(PM10)
吉林市,哈达湾,126.54,43.8622,2025-01-14T0300,45,63,0.8,30,12,45,,63,细颗粒物(PM2.5)
吉林市,东局子,126.5844,43.8358,2025-01-14T0300,36,42,0.7,23,12,44,,52,细颗粒物(PM2.5)
吉林市,电力学院,126.5052,43.8245,2025-01-14T0300,52,54,0.9,27,11,37,,72,细颗粒物(PM2.5)
吉林市,江北,126.6133,43.8972,2025-01-14T0300,57,77,0.8,35,12,32,,78,细颗粒物(PM2.5)
吉林市,江南公园,126.555,43.8306,2025-01-14T0300,38,47,0.7,23,8,45,,54,细颗粒物(PM2.5)
吉林市,丰满,126.7061,43.7133,2025-01-14T0300,,,,,,,,,
吉林市,九站,126.4739,43.953,2025-01-14T0300,64,79,1.1,43,8,22,,87,细颗粒物(PM2.5)
济南市,科干所,116.9862,36.6114,2025-01-14T0300,42,100,0.8,42,14,45,,75,颗粒物(PM10)
济南市,农科所,116.9376,36.665,2025-01-14T0300,68,161,1.6,83,34,8,,106,颗粒物(PM10)
济南市,开发区,117.1265,36.6734,2025-01-14T0300,46,85,0.8,69,10,18,,68,颗粒物(PM10)
济南市,省种子仓库,117.0624,36.6868,2025-01-14T0300,56,151,1.3,66,11,6,,101,颗粒物(PM10)
济南市,机床二厂,116.9489,36.6447,2025-01-14T0300,68,154,2.1,69,59,9,,102,颗粒物(PM10)
济南市,市监测站,117.0495,36.663,2025-01-14T0300,37,93,0.9,61,10,19,,72,颗粒物(PM10)
济南市,长清党校,116.7675,36.5484,2025-01-14T0300,59,122,0.9,69,10,21,,86,颗粒物(PM10)
济南市,技术学院,117.6795,36.229,2025-01-14T0300,107,156,1.6,73,16,6,,140,细颗粒物(PM2.5)
济南市,东山小学,117.532,36.6868,2025-01-14T0300,37,90,0.8,62,9,18,,70,颗粒物(PM10)
济南市,泰兴公司,117.7161,36.2049,2025-01-14T0300,100,163,1.3,66,15,8,,132,细颗粒物(PM2.5)
济南市,莱芜战役纪念馆,117.6867,36.2171,2025-01-14T0300,97,163,1.4,82,15,10,,128,细颗粒物(PM2.5)
济南市,济阳区政府,117.1673,36.9782,2025-01-14T0300,73,129,0.9,50,24,17,,98,细颗粒物(PM2.5)
济南市,锦屏中学,117.1171,36.63,2025-01-14T0300,34,68,0.5,24,7,53,,59,颗粒物(PM10)
济南市,济南四建,116.9814,36.6819,2025-01-14T0300,68,153,1.2,85,22,4,,102,颗粒物(PM10)
济宁市,火炬城,116.6251,35.4302,2025-01-14T0300,107,189,1.4,88,14,6,,140,细颗粒物(PM2.5)
济宁市,电化厂,116.5491,35.4042,2025-01-14T0300,97,179,1.3,80,16,13,,128,细颗粒物(PM2.5)
济宁市,北湖一中,116.5814,35.3707,2025-01-14T0300,105,171,1.4,89,16,10,,138,细颗粒物(PM2.5)
济宁市,服务中心,116.8249,35.5593,2025-01-14T0300,116,237,1.7,87,18,6,,152,细颗粒物(PM2.5)
济宁市,市第七中学,116.5907,35.4054,2025-01-14T0300,102,161,1.3,83,8,11,,134,细颗粒物(PM2.5)
佳木斯市,佳纺,130.2751,46.8028,2025-01-14T0300,120,132,1.5,60,7,15,,158,细颗粒物(PM2.5)
佳木斯市,发电厂,130.3995,46.8307,2025-01-14T0300,92,,0.7,27,7,39,,122,细颗粒物(PM2.5)
佳木斯市,环保局,130.3258,46.7975,2025-01-14T0300,124,142,1.5,69,14,6,,163,细颗粒物(PM2.5)
佳木斯市,十一中,130.3648,46.8032,2025-01-14T0300,117,119,1.2,49,6,20,,153,细颗粒物(PM2.5)
佳木斯市,四丰,130.3794,46.7588,2025-01-14T0300,101,154,1.5,60,1,7,,133,细颗粒物(PM2.5)
嘉兴市,清河小学,120.7436,30.778,2025-01-14T0300,78,112,0.6,53,11,39,,104,细颗粒物(PM2.5)
嘉兴市,嘉兴学院,120.726,30.7478,2025-01-14T0300,88,139,0.7,61,8,33,,117,细颗粒物(PM2.5)
嘉兴市,南湖区残联,120.7846,30.7525,2025-01-14T0300,76,130,0.6,49,11,50,,102,细颗粒物(PM2.5)
嘉兴市,秀洲住建,120.6916,30.7739,2025-01-14T0300,92,132,0.6,76,8,22,,122,细颗粒物(PM2.5)
嘉峪关市,气象局,98.2908,39.7711,2025-01-14T0300,14,27,0.5,11,6,78,,27,
嘉峪关市,酒钢宾馆,98.2672,39.7978,2025-01-14T0300,24,58,1.1,29,20,58,,54,颗粒物(PM10)
嘉峪关市,雄关区,98.2643,39.7724,2025-01-14T0300,16,42,0.2,14,6,75,,42,
江门市,北街,113.1064,22.6058,2025-01-14T0300,42,72,0.9,106,6,5,,61,颗粒物(PM10)
江门市,西区,113.0731,22.5835,2025-01-14T0300,50,97,0.9,88,11,4,,74,颗粒物(PM10)
江门市,圭峰西,113.0219,22.5311,2025-01-14T0300,22,47,0.6,36,6,58,,47,
江门市,东湖,113.0828,22.5947,2025-01-14T0300,39,76,0.7,70,6,14,,63,颗粒物(PM10)
江门市,江海富民,113.1075,22.5647,2025-01-14T0300,41,74,0.8,61,10,31,,62,颗粒物(PM10)
江门市,新会银湖,113.05,22.4667,2025-01-14T0300,37,70,0.5,71,7,11,,60,颗粒物(PM10)
焦作市,市环保局,113.227,35.2125,2025-01-14T0300,56,164,1.1,52,11,6,,107,颗粒物(PM10)
焦作市,影视城,113.1992,35.2590,2025-01-14T0300,41,154,1.0,21,24,60,,102,颗粒物(PM10)
焦作市,太极体育中心,113.2725,35.2067,2025-01-14T0300,65,158,0.9,77,13,2,,104,颗粒物(PM10)
焦作市,马村街道办,113.3137,35.2641,2025-01-14T0300,51,154,1.0,31,14,31,,102,颗粒物(PM10)
焦作市,焦作技师学院,113.2465,35.2373,2025-01-14T0300,29,128,0.7,26,9,41,,89,颗粒物(PM10)
焦作市,中站许衡医院,113.1656,35.2539,2025-01-14T0300,47,164,1.0,23,20,48,,107,颗粒物(PM10)
焦作市,原李万街道办,113.2449,35.1803,2025-01-14T0300,61,162,1.1,61,39,2,,106,颗粒物(PM10)
揭阳市,新兴,116.3701,23.5345,2025-01-14T0300,55,79,0.9,60,6,21,,75,细颗粒物(PM2.5)
揭阳市,西马,116.3264,23.5443,2025-01-14T0300,53,103,0.8,61,8,29,,77,颗粒物(PM10)
揭阳市,东兴,116.3611,23.5626,2025-01-14T0300,44,85,0.9,80,11,12,,68,颗粒物(PM10)
揭阳市,渔湖,116.4151,23.5294,2025-01-14T0300,38,67,0.8,42,16,46,,59,颗粒物(PM10)
揭阳市,曲溪,116.403,23.5699,2025-01-14T0300,47,83,0.7,62,2,36,,67,颗粒物(PM10)
金昌市,天庆家园,102.1692,38.5167,2025-01-14T0300,13,21,0.8,1,12,84,,27,
金昌市,市委党校,102.1864,38.5253,2025-01-14T0300,12,40,0.5,3,4,83,,40,
金昌市,金川区人防中心,102.1647,38.5371,2025-01-14T0300,13,21,0.5,4,10,86,,27,
金华市,十五中,119.647,29.077,2025-01-14T0300,51,113,1.0,91,4,6,,82,颗粒物(PM10)
金华市,监测站,119.686,29.1029,2025-01-14T0300,59,111,0.8,66,6,1,,81,颗粒物(PM10)
金华市,气象局,119.656,29.1131,2025-01-14T0300,75,149,1.2,87,6,0,,100,"颗粒物(PM10),细颗粒物(PM2.5)"
锦州市,南山,121.1115,41.0879,2025-01-14T0300,29,30,1.0,48,8,18,,42,
锦州市,开发区,121.0533,40.8434,2025-01-14T0300,43,72,2.0,64,57,8,,61,颗粒物(PM10)
锦州市,百股街道,121.1836,41.1119,2025-01-14T0300,9,24,0.5,35,8,33,,24,
锦州市,天安街道,121.1178,41.1222,2025-01-14T0300,15,18,0.4,7,4,66,,22,
锦州市,北湖公园,121.1303,41.1386,2025-01-14T0300,11,18,0.5,9,5,59,,19,
晋城市,自来水公司,112.85,35.5051,2025-01-14T0300,66,159,1.7,57,32,7,,105,颗粒物(PM10)
晋城市,白云商贸,112.8318,35.4936,2025-01-14T0300,36,166,0.8,45,8,16,,108,颗粒物(PM10)
晋城市,市环保局,112.8508,35.4887,2025-01-14T0300,48,155,1.2,62,37,8,,103,颗粒物(PM10)
晋城市,技术学院,112.8676,35.4897,2025-01-14T0300,41,147,1.0,68,43,6,,99,颗粒物(PM10)
晋城市,白马寺,112.8453,35.546,2025-01-14T0300,40,156,0.9,14,20,49,,103,颗粒物(PM10)
晋城市,泽州一中,112.8271,35.4828,2025-01-14T0300,51,161,1.2,54,20,14,,106,颗粒物(PM10)
晋中市,锦纶小区,112.7532,37.6945,2025-01-14T0300,,,,,,,61,,
晋中市,南都小区,112.7249,37.7067,2025-01-14T0300,37,99,0.2,25,6,56,,75,颗粒物(PM10)
晋中市,榆次区政府,112.6991,37.6982,2025-01-14T0300,29,105,0.4,18,11,62,,78,颗粒物(PM10)
晋中市,榆次三中,112.7195,37.6828,2025-01-14T0300,,,,,,,29,,
荆门市,竹园小学,112.2014,31.0481,2025-01-14T0300,105,118,0.8,43,12,50,,138,细颗粒物(PM2.5)
荆门市,掇刀,112.1969,30.9891,2025-01-14T0300,89,105,0.9,37,11,57,,118,细颗粒物(PM2.5)
荆门市,石化一小,112.2213,31.0386,2025-01-14T0300,122,140,0.8,53,10,38,,160,细颗粒物(PM2.5)
荆门市,西山林语,112.1849,31.0362,2025-01-14T0300,73,86,0.7,34,9,64,,98,细颗粒物(PM2.5)
荆门市,龙泉中学南校,112.1632,31.0138,2025-01-14T0300,76,99,0.8,21,11,82,,102,细颗粒物(PM2.5)
荆州市,市图书馆,112.2494,30.3197,2025-01-14T0300,99,102,0.9,53,8,30,,130,细颗粒物(PM2.5)
荆州市,市委党校,112.2008,30.3544,2025-01-14T0300,97,110,0.8,64,7,13,,128,细颗粒物(PM2.5)
荆州市,管委会,112.2747,30.3122,2025-01-14T0300,96,115,0.8,40,8,28,,127,细颗粒物(PM2.5)
荆州市,学苑路,112.1655,30.3364,2025-01-14T0300,100,110,1.1,103,12,12,,132,细颗粒物(PM2.5)
景德镇市,王港中学,117.3102,29.3867,2025-01-14T0300,,,,,,,,,
景德镇市,老干部活动中心,117.2117,29.2933,2025-01-14T0300,39,69,0.9,51,4,2,,60,颗粒物(PM10)
景德镇市,兽医站,117.1894,29.2789,2025-01-14T0300,34,67,0.7,50,4,12,,59,颗粒物(PM10)
景德镇市,台达陶瓷,117.1547,29.2617,2025-01-14T0300,29,60,0.5,55,3,18,,55,颗粒物(PM10)
景德镇市,陶研所,117.2461,29.2956,2025-01-14T0300,24,42,0.6,46,4,0,,42,
九江市,十里,115.9872,29.6815,2025-01-14T0300,45,54,0.8,51,7,6,,63,细颗粒物(PM2.5)
九江市,茅山头,115.9584,29.7046,2025-01-14T0300,73,104,1.4,86,10,9,,98,细颗粒物(PM2.5)
九江市,西园,115.9877,29.7295,2025-01-14T0300,49,75,0.5,97,12,8,,68,细颗粒物(PM2.5)
九江市,五七二七厂,116.0172,29.6547,2025-01-14T0300,31,56,0.6,23,8,59,,53,颗粒物(PM10)
九江市,综合工业园,115.9114,29.6038,2025-01-14T0300,34,51,0.6,69,9,7,,51,颗粒物(PM10)
九江市,石化总厂,116.0721,29.7535,2025-01-14T0300,51,70,0.8,60,13,17,,70,细颗粒物(PM2.5)
九江市,庐山气象台,115.9773,29.5698,2025-01-14T0300,11,21,0.9,4,7,94,,30,
九江市,外国语学校,116.0254,29.6994,2025-01-14T0300,47,73,0.1,30,14,43,,65,细颗粒物(PM2.5)
酒泉市,仓门街子站,98.5061,39.7443,2025-01-14T0300,11,24,0.4,6,6,79,,25,
酒泉市,油田生活基地,98.4989,39.7256,2025-01-14T0300,16,27,0.3,5,6,77,,27,
喀什地区,巡警大队,76.0072,39.4467,2025-01-14T0300,134,316,4.3,94,12,12,,183,颗粒物(PM10)
喀什地区,吾办,75.9755,39.4694,2025-01-14T0300,132,216,3.3,91,3,10,,175,细颗粒物(PM2.5)
喀什地区,老干局,75.9483,39.4689,2025-01-14T0300,134,306,6.8,98,8,6,,178,"颗粒物(PM10),细颗粒物(PM2.5)"
开封市,肿瘤医院,114.3389,34.7781,2025-01-14T0300,101,196,0.8,68,4,5,,133,细颗粒物(PM2.5)
开封市,世纪星幼儿园,114.2885,34.7965,2025-01-14T0300,124,176,0.9,75,8,3,,163,细颗粒物(PM2.5)
开封市,龙亭公园,114.3438,34.8106,2025-01-14T0300,112,188,0.9,76,3,5,,147,细颗粒物(PM2.5)
开封市,汴京公园,114.3644,34.7964,2025-01-14T0300,120,234,1.1,76,5,3,,158,细颗粒物(PM2.5)
开封市,技师学院,114.2485,34.8306,2025-01-14T0300,107,191,1.0,86,4,4,,140,细颗粒物(PM2.5)
开封市,祥符区生态环境局,114.4644,34.7556,2025-01-14T0300,129,257,0.6,54,4,25,,170,细颗粒物(PM2.5)
克拉玛依市,长征新村,84.895,45.6094,2025-01-14T0300,25,31,0.7,31,6,28,,36,
克拉玛依市,南林小区,84.8988,45.5893,2025-01-14T0300,27,37,0.9,28,5,21,,39,
克拉玛依市,独山子区,84.905,44.3396,2025-01-14T0300,109,119,1.1,42,4,53,,143,细颗粒物(PM2.5)
克拉玛依市,乌尔禾区商贸楼,85.6979,46.098,2025-01-14T0300,3,28,0.7,31,4,41,,28,
克拉玛依市,白碱滩区新站,85.1045,45.6899,2025-01-14T0300,17,19,0.8,12,4,45,,25,
克孜勒苏柯尔克孜自治州,市人民政府,76.1454,39.7142,2025-01-14T0300,61,116,1.0,18,4,61,,83,"颗粒物(PM10),细颗粒物(PM2.5)"
克孜勒苏柯尔克孜自治州,克州文化中心,76.1658,39.7157,2025-01-14T0300,65,107,1.2,48,10,47,,88,细颗粒物(PM2.5)
昆明市,呈贡新区,102.8204,24.8886,2025-01-14T0300,26,32,0.7,32,5,44,,38,
昆明市,西山森林公园,102.6251,24.9608,2025-01-14T0300,,,,,,,,,
昆明市,龙泉镇,102.7252,25.0902,2025-01-14T0300,21,27,0.5,38,6,14,,30,
昆明市,东风东路,102.7266,25.0375,2025-01-14T0300,31,43,0.6,33,10,28,,45,
昆明市,金鼎山,102.6742,25.0669,2025-01-14T0300,78,,1.1,50,10,7,,104,细颗粒物(PM2.5)
昆明市,碧鸡广场,102.6644,25.0401,2025-01-14T0300,29,46,0.5,65,8,7,,46,
昆明市,官渡区博物馆,102.7494,25.0119,2025-01-14T0300,34,45,0.7,56,7,5,,49,
昆明市,青年创业园,102.8017,24.8336,2025-01-14T0300,21,35,0.7,17,6,56,,35,
昆明市,昆明学院,102.7997,24.9786,2025-01-14T0300,25,37,0.6,14,11,63,,37,
昆明市,晋宁区生态环境分局,102.5967,24.6736,2025-01-14T0300,34,64,0.8,25,4,43,,57,颗粒物(PM10)
昆明市,云天化总部,102.6678,24.9856,2025-01-14T0300,28,38,0.4,21,9,42,,40,
拉萨市,八廓街,91.1319,29.6514,2025-01-14T0300,10,15,0.2,5,5,103,,33,
拉萨市,市环保局,91.1221,29.6747,2025-01-14T0300,11,16,0.5,13,4,101,,32,
拉萨市,区监测站,91.0874,29.6475,2025-01-14T0300,8,,0.3,10,5,104,,33,
拉萨市,西藏大学,91.1774,29.6541,2025-01-14T0300,8,18,0.5,5,5,102,,32,
拉萨市,区辐射站,90.9798,29.6588,2025-01-14T0300,21,26,0.9,25,7,72,,30,
拉萨市,拉萨火车站,91.0834,29.6292,2025-01-14T0300,7,13,0.5,13,4,101,,32,
来宾市,来宾技工学校,109.2203,23.7256,2025-01-14T0300,107,138,1.0,65,8,18,,140,细颗粒物(PM2.5)
来宾市,兴宾区政府,109.1781,23.7297,2025-01-14T0300,118,158,1.1,28,7,61,,155,细颗粒物(PM2.5)
来宾市,中南小学,109.2416,23.7461,2025-01-14T0300,102,125,1.1,69,7,5,,134,细颗粒物(PM2.5)
兰州市,兰炼宾馆,103.631,36.1031,2025-01-14T0300,39,114,0.4,27,12,58,,82,颗粒物(PM10)
兰州市,榆中兰大校区,104.1373,35.9454,2025-01-14T0300,,,,,,,,,
兰州市,生物制品所,103.8412,36.0726,2025-01-14T0300,30,98,0.4,47,11,28,,74,颗粒物(PM10)
兰州市,铁路设计院,103.831,36.0464,2025-01-14T0300,43,115,1.1,79,13,10,,83,颗粒物(PM10)
兰州市,教育港,103.7158,36.1058,2025-01-14T0300,43,161,0.8,45,15,38,,106,颗粒物(PM10)
兰州市,百合公园,103.7439,36.0842,2025-01-14T0300,44,99,1.3,68,12,7,,75,颗粒物(PM10)
兰州市,和平,103.9611,35.998,2025-01-14T0300,33,105,0.6,17,15,66,,78,颗粒物(PM10)
兰州新区,新区管委会,103.6633,36.533,2025-01-14T0300,32,113,0.3,7,16,84,,82,颗粒物(PM10)
兰州新区,舟曲中学,103.6975,36.4789,2025-01-14T0300,28,166,0.3,6,6,80,,108,颗粒物(PM10)
廊坊市,药材公司,116.6708,39.5111,2025-01-14T0300,27,30,0.6,59,4,18,,39,
廊坊市,开发区,116.7214,39.5589,2025-01-14T0300,19,33,0.5,74,4,8,,37,
廊坊市,北华航天学院,116.7244,39.5269,2025-01-14T0300,26,43,0.6,62,4,13,,43,
廊坊市,河北工业大学,116.7022,39.5453,2025-01-14T0300,16,28,0.4,65,6,17,,33,
乐山市,花湖湾,103.7723,29.5462,2025-01-14T0300,98,113,0.7,35,5,28,,129,细颗粒物(PM2.5)
乐山市,牛耳桥,103.7627,29.5844,2025-01-14T0300,85,108,0.7,36,5,2,,113,细颗粒物(PM2.5)
乐山市,市第三水厂,103.7508,29.6006,2025-01-14T0300,76,91,0.8,31,4,9,,102,细颗粒物(PM2.5)
乐山市,市监测站,103.7571,29.5664,2025-01-14T0300,55,89,1.0,39,5,3,,75,细颗粒物(PM2.5)
乐山市,理工大学,103.7311,29.5628,2025-01-14T0300,87,102,0.8,47,7,4,,115,细颗粒物(PM2.5)
丽江市,西南郊,100.2143,26.8576,2025-01-14T0300,21,22,0.8,3,3,85,,30,
丽江市,丽江古城,100.2497,26.8802,2025-01-14T0300,20,28,0.7,9,8,66,,29,
丽江市,市中心,100.2203,26.8906,2025-01-14T0300,12,,0.6,6,9,70,,22,
丽水市,监测站大楼,119.914,28.4514,2025-01-14T0300,20,26,0.6,50,7,9,,29,
丽水市,莲都小学,119.93,28.4586,2025-01-14T0300,22,45,0.7,60,10,8,,45,
丽水市,余庄前,119.879,28.4231,2025-01-14T0300,25,38,0.3,35,3,8,,38,
连云港市,市环境监测站,119.176,34.5885,2025-01-14T0300,85,124,2.4,106,10,5,,113,细颗粒物(PM2.5)
连云港市,德源药业,119.3581,34.6972,2025-01-14T0300,78,149,0.7,,10,,,104,细颗粒物(PM2.5)
连云港市,新城一中,119.178,34.844,2025-01-14T0300,133,180,0.9,82,27,17,,176,细颗粒物(PM2.5)
连云港市,胡沟管理处,119.3608,34.7519,2025-01-14T0300,61,100,0.6,68,14,26,,83,细颗粒物(PM2.5)
连云港市,矿山设计院,119.1478,34.5911,2025-01-14T0300,97,146,2.1,78,14,3,,128,细颗粒物(PM2.5)
连云港市,工贸学校,119.2413,34.6539,2025-01-14T0300,72,111,0.7,24,10,55,,97,细颗粒物(PM2.5)
连云港市,连云街道,119.4172,34.7341,2025-01-14T0300,74,131,0.7,28,9,62,,99,细颗粒物(PM2.5)
凉山彝族自治州,青龙寺,102.3431,27.8099,2025-01-14T0300,11,28,1.0,12,6,42,,28,
凉山彝族自治州,邛海宾馆,102.2721,27.8415,2025-01-14T0300,30,45,0.9,27,9,27,,45,
凉山彝族自治州,西昌市政府,102.2625,27.898,2025-01-14T0300,32,39,0.8,24,8,28,,46,
凉山彝族自治州,凉山州政府,102.2685,27.8851,2025-01-14T0300,28,42,0.7,19,8,38,,42,
凉山彝族自治州,长安,102.237,27.8914,2025-01-14T0300,27,40,0.9,21,8,36,,40,
辽阳市,宏伟区,123.2,41.1953,2025-01-14T0300,66,,0.5,33,10,21,,89,细颗粒物(PM2.5)
辽阳市,新华园,123.1683,41.2495,2025-01-14T0300,138,161,3.3,63,14,6,,183,细颗粒物(PM2.5)
辽阳市,滨河路,123.2354,41.2639,2025-01-14T0300,56,76,1.2,47,9,15,,77,细颗粒物(PM2.5)
辽阳市,铁西工业园,123.149,41.2991,2025-01-14T0300,56,92,1.3,54,6,1,,77,细颗粒物(PM2.5)
辽源市,环保局,125.1358,42.8845,2025-01-14T0300,42,64,1.7,42,10,14,,59,细颗粒物(PM2.5)
辽源市,银鹰制药,125.0764,42.9078,2025-01-14T0300,78,99,1.3,60,8,13,,104,细颗粒物(PM2.5)
聊城市,区政府,115.9848,36.4372,2025-01-14T0300,92,157,1.2,86,25,9,,122,细颗粒物(PM2.5)
聊城市,聊大东校,116.0072,36.4343,2025-01-14T0300,99,175,1.2,88,26,8,,130,细颗粒物(PM2.5)
聊城市,监控中心,115.9819,36.4978,2025-01-14T0300,85,173,1.4,85,31,10,,113,细颗粒物(PM2.5)
聊城市,九州社区,116.0445,36.4361,2025-01-14T0300,101,160,1.0,74,38,8,,133,细颗粒物(PM2.5)
聊城市,星美广场,116.0567,36.4608,2025-01-14T0300,91,166,0.9,71,36,7,,120,细颗粒物(PM2.5)
林芝市,林芝监测站,94.3681,29.6376,2025-01-14T0300,6,,0.5,1,6,83,,26,
林芝市,林芝人民医院,94.3616,29.6616,2025-01-14T0300,3,8,0.6,4,6,77,,25,
临沧市,市环保局,100.0781,23.8982,2025-01-14T0300,27,33,0.5,12,9,33,,39,
临沧市,市气象局,100.0894,23.8822,2025-01-14T0300,30,37,0.6,9,8,37,,43,
临汾市,临钢医院,111.5531,36.0783,2025-01-14T0300,68,208,1.1,44,5,6,,129,颗粒物(PM10)
临汾市,技工学校,111.5028,36.0714,2025-01-14T0300,87,203,1.3,50,12,2,,127,颗粒物(PM10)
临汾市,市委,111.5018,36.0855,2025-01-14T0300,80,245,1.2,56,11,5,,148,颗粒物(PM10)
临汾市,唐尧大酒店,111.505,36.1014,2025-01-14T0300,88,231,1.2,54,11,5,,141,颗粒物(PM10)
临汾市,城南,111.5036,36.0414,2025-01-14T0300,74,194,1.4,46,3,1,,122,颗粒物(PM10)
临夏回族自治州,环保局,103.2069,35.5993,2025-01-14T0300,67,126,1.7,28,11,18,,90,细颗粒物(PM2.5)
临夏回族自治州,建设大厦,103.2417,35.6057,2025-01-14T0300,56,117,1.2,16,13,32,,84,颗粒物(PM10)
临沂市,沂河小区,118.3429,35.0532,2025-01-14T0300,127,197,1.3,97,28,9,,168,细颗粒物(PM2.5)
临沂市,鲁南制药厂,118.295,35.0583,2025-01-14T0300,127,210,1.4,104,31,5,,168,细颗粒物(PM2.5)
临沂市,新光毛纺厂,118.2794,34.9976,2025-01-14T0300,178,273,2.4,120,41,3,,228,细颗粒物(PM2.5)
临沂市,河东保险公司,118.3956,35.0888,2025-01-14T0300,114,185,1.5,95,24,4,,149,细颗粒物(PM2.5)
临沂市,十里堡居委,118.3564,35.0215,2025-01-14T0300,134,200,1.4,87,27,6,,178,细颗粒物(PM2.5)
临沂市,南坊新区,118.3604,35.1084,2025-01-14T0300,122,195,1.3,96,23,6,,160,细颗粒物(PM2.5)
临沂市,皇山花园小区,118.3920,35.0300,2025-01-14T0300,117,210,1.6,102,25,4,,153,细颗粒物(PM2.5)
柳州市,柳东小学,109.4856,24.3895,2025-01-14T0300,91,124,1.0,84,16,18,,120,细颗粒物(PM2.5)
柳州市,环保监测站,109.4157,24.3277,2025-01-14T0300,60,108,1.0,60,12,16,,82,细颗粒物(PM2.5)
柳州市,河西水厂,109.389,24.341,2025-01-14T0300,172,256,1.7,81,25,17,,222,细颗粒物(PM2.5)
柳州市,市四中,109.4311,24.2921,2025-01-14T0300,59,97,0.9,80,14,7,,80,细颗粒物(PM2.5)
柳州市,市九中,109.4006,24.3631,2025-01-14T0300,71,150,1.1,72,11,8,,100,颗粒物(PM10)
柳州市,古亭山,109.4958,24.3134,2025-01-14T0300,47,62,0.8,86,56,8,,65,细颗粒物(PM2.5)
柳州市,市二中,109.5422,24.3996,2025-01-14T0300,95,117,1.0,80,13,3,,125,细颗粒物(PM2.5)
六安市,监测大楼,116.5079,31.737,2025-01-14T0300,99,126,0.9,75,6,16,,130,细颗粒物(PM2.5)
六安市,皖西学院,116.4738,31.7643,2025-01-14T0300,110,165,0.9,81,6,9,,144,细颗粒物(PM2.5)
六安市,朝阳厂,116.4996,31.7905,2025-01-14T0300,107,135,0.8,81,3,8,,140,细颗粒物(PM2.5)
六安市,开发区,116.5567,31.7886,2025-01-14T0300,97,140,1.0,78,6,18,,128,细颗粒物(PM2.5)
六盘水市,窑上,104.8,26.5892,2025-01-14T0300,42,64,0.5,9,3,32,,59,细颗粒物(PM2.5)
六盘水市,黄土坡,104.83,26.5917,2025-01-14T0300,39,58,0.8,21,7,32,,55,细颗粒物(PM2.5)
六盘水市,水钢,104.89,26.5939,2025-01-14T0300,81,109,1.5,42,30,34,,108,细颗粒物(PM2.5)
六盘水市,民中,104.8475,26.5894,2025-01-14T0300,58,75,1.6,32,20,28,,79,细颗粒物(PM2.5)
六盘水市,双水,104.9544,26.5506,2025-01-14T0300,53,78,0.9,20,10,50,,73,细颗粒物(PM2.5)
龙岩市,龙岩师专,117.0189,25.1181,2025-01-14T0300,,,,,,,,,
龙岩市,龙岩市监测站,117.0217,25.1033,2025-01-14T0300,25,35,0.6,38,4,22,,36,
龙岩市,闽西职业技术学院,117.0258,25.0661,2025-01-14T0300,28,52,0.6,45,5,27,,51,颗粒物(PM10)
龙岩市,龙岩学院,117.0196,25.0306,2025-01-14T0300,20,30,0.4,23,11,46,,30,
陇南市,汉王镇固水子,105.0822,33.3261,2025-01-14T0300,,,,,,,,,
陇南市,滨江中学,104.9339,33.3826,2025-01-14T0300,48,78,1.9,46,106,10,,67,细颗粒物(PM2.5)
陇南市,市总工会,104.955,33.371,2025-01-14T0300,40,44,0.8,18,32,46,,57,细颗粒物(PM2.5)
娄底市,电视发射台,111.9589,27.8901,2025-01-14T0300,31,41,0.6,12,9,69,,45,
娄底市,市监测站,111.9975,27.725,2025-01-14T0300,88,125,1.6,74,15,6,,117,细颗粒物(PM2.5)
娄底市,市委党校,112.0194,27.7314,2025-01-14T0300,77,109,1.3,62,9,17,,103,细颗粒物(PM2.5)
娄底市,涟钢,111.9561,27.7569,2025-01-14T0300,78,111,2.4,34,11,21,,104,细颗粒物(PM2.5)
娄底市,市政府,111.9892,27.7044,2025-01-14T0300,68,93,1.1,39,7,9,,92,细颗粒物(PM2.5)
泸州市,九狮山,105.4324,28.9634,2025-01-14T0300,,,,,,,,,
泸州市,小市上码头,105.4427,28.9063,2025-01-14T0300,102,126,0.9,49,2,6,,134,细颗粒物(PM2.5)
泸州市,兰田宪桥,105.4241,28.8573,2025-01-14T0300,96,113,0.9,39,2,12,,127,细颗粒物(PM2.5)
泸州市,市环监站,105.4379,28.8833,2025-01-14T0300,87,107,0.8,48,4,5,,115,细颗粒物(PM2.5)
泸州市,纳溪区环保局,105.3617,28.7703,2025-01-14T0300,66,97,0.9,32,4,2,,89,细颗粒物(PM2.5)
吕梁市,环保局,111.1406,37.5211,2025-01-14T0300,50,221,0.6,50,8,5,,136,颗粒物(PM10)
吕梁市,自来水公司,111.1297,37.5136,2025-01-14T0300,47,203,0.5,44,9,12,,127,颗粒物(PM10)
吕梁市,马茂庄小学,111.1283,37.51,2025-01-14T0300,26,140,0.5,37,5,35,,95,颗粒物(PM10)
洛阳市,市委党校,112.3931,34.6516,2025-01-14T0300,86,166,1.3,70,26,1,,114,细颗粒物(PM2.5)
洛阳市,豫西宾馆,112.4657,34.6871,2025-01-14T0300,88,181,2.0,35,18,3,,117,细颗粒物(PM2.5)
洛阳市,河南林校,112.494,34.6886,2025-01-14T0300,132,174,1.4,59,10,4,,175,细颗粒物(PM2.5)
洛阳市,开发区管委会,112.3844,34.623,2025-01-14T0300,97,162,1.0,55,10,2,,128,细颗粒物(PM2.5)
洛阳市,市委新办公区,112.4267,34.6258,2025-01-14T0300,86,165,0.7,46,6,11,,114,细颗粒物(PM2.5)
洛阳市,伊滨,112.6005,34.6326,2025-01-14T0300,57,166,0.7,48,7,11,,108,颗粒物(PM10)
洛阳市,中移产业园,112.4951,34.6332,2025-01-14T0300,72,122,0.9,53,7,7,,97,细颗粒物(PM2.5)
洛阳市,吉利监测站,112.5736,34.8993,2025-01-14T0300,46,154,0.5,51,5,13,,102,颗粒物(PM10)
洛阳市,河科大西苑校区,112.3677,34.662,2025-01-14T0300,84,185,1.4,64,35,8,,118,颗粒物(PM10)
洛阳市,英才小学,112.4388,34.6781,2025-01-14T0300,99,194,1.6,67,27,5,,130,细颗粒物(PM2.5)
漯河市,三五一五工厂,114.051,33.5699,2025-01-14T0300,147,173,0.7,53,12,53,,196,细颗粒物(PM2.5)
漯河市,漯河大学,114.0055,33.5698,2025-01-14T0300,132,166,0.7,70,12,42,,175,细颗粒物(PM2.5)
漯河市,市水利局,114.0138,33.5828,2025-01-14T0300,129,175,0.8,44,12,56,,170,细颗粒物(PM2.5)
漯河市,市广电局,114.0261,33.5698,2025-01-14T0300,125,166,0.9,63,10,19,,165,细颗粒物(PM2.5)
漯河市,市图书馆,113.9749,33.5664,2025-01-14T0300,135,184,0.6,42,16,74,,179,细颗粒物(PM2.5)
漯河市,召陵区卫健委,114.0967,33.5906,2025-01-14T0300,124,167,0.6,48,14,67,,163,细颗粒物(PM2.5)
马鞍山市,湖东路四小,118.5092,31.6837,2025-01-14T0300,56,96,1.2,57,4,33,,77,细颗粒物(PM2.5)
马鞍山市,开发区,118.5024,31.6449,2025-01-14T0300,57,126,1.3,63,7,24,,88,颗粒物(PM10)
马鞍山市,濮塘,118.6245,31.7241,2025-01-14T0300,50,81,0.3,21,6,70,,69,细颗粒物(PM2.5)
马鞍山市,雨山,118.4918,31.6809,2025-01-14T0300,57,93,1.0,39,7,48,,78,细颗粒物(PM2.5)
马鞍山市,慈湖高新区,118.5274,31.72227,2025-01-14T0300,59,99,0.9,79,10,5,,80,细颗粒物(PM2.5)
茂名市,电白南海,111.0286,21.4688,2025-01-14T0300,24,56,0.4,20,16,79,,53,颗粒物(PM10)
茂名市,茂石化七小,110.9294,21.6533,2025-01-14T0300,29,63,0.7,23,20,90,,57,颗粒物(PM10)
茂名市,健康路,110.9107,21.6687,2025-01-14T0300,44,78,1.0,35,21,82,,64,颗粒物(PM10)
茂名市,高岭,110.8592,21.6828,2025-01-14T0300,63,105,0.9,31,87,79,,85,细颗粒物(PM2.5)
茂名市,电白水东,111.01,21.5165,2025-01-14T0300,19,48,0.6,20,15,82,,48,
眉山市,黑龙滩水库,104.0308,30.0478,2025-01-14T0300,52,85,0.9,6,3,51,,72,细颗粒物(PM2.5)
眉山市,气象局,103.8416,30.0874,2025-01-14T0300,80,116,0.7,39,3,12,,107,细颗粒物(PM2.5)
眉山市,市委党校,103.8578,30.0744,2025-01-14T0300,75,88,0.6,37,5,20,,100,细颗粒物(PM2.5)
眉山市,区人社局,103.8291,30.0564,2025-01-14T0300,75,77,0.9,43,6,23,,100,细颗粒物(PM2.5)
梅州市,梅江月梅,116.1231,24.3284,2025-01-14T0300,23,41,0.5,55,8,7,,41,
梅州市,梅县新城,116.0797,24.2719,2025-01-14T0300,21,36,0.4,42,5,20,,36,
梅州市,环境监控中心,116.1248,24.2654,2025-01-14T0300,28,56,0.6,49,8,19,,53,颗粒物(PM10)
梅州市,梅龙,116.1233,24.2991,2025-01-14T0300,21,36,0.6,57,6,8,,36,
绵阳市,富乐山,104.7778,31.4741,2025-01-14T0300,61,86,1.1,61,3,2,,83,细颗粒物(PM2.5)
绵阳市,高新区自来水公司,104.6697,31.4668,2025-01-14T0300,68,124,0.8,55,5,7,,92,细颗粒物(PM2.5)
绵阳市,三水厂,104.7287,31.5075,2025-01-14T0300,72,110,1.1,62,6,3,,97,细颗粒物(PM2.5)
绵阳市,西科大附属小学,104.69,31.5322,2025-01-14T0300,76,104,1.1,58,6,10,,102,细颗粒物(PM2.5)
绵阳市,安州区旅游局,104.5648,31.5343,2025-01-14T0300,78,105,0.9,34,7,21,,104,细颗粒物(PM2.5)
绵阳市,绵阳市气象局,104.7651,31.4531,2025-01-14T0300,70,110,1.0,70,3,2,,94,细颗粒物(PM2.5)
牡丹江市,环保大楼,129.61,44.561,2025-01-14T0300,63,63,0.8,33,7,23,,85,细颗粒物(PM2.5)
牡丹江市,文化广场,129.6115,44.5782,2025-01-14T0300,56,68,1.3,45,9,16,,77,细颗粒物(PM2.5)
牡丹江市,第一医院,129.5904,44.5963,2025-01-14T0300,69,71,0.8,32,7,26,,93,细颗粒物(PM2.5)
牡丹江市,机车工厂,129.6364,44.6075,2025-01-14T0300,62,102,1.2,39,10,15,,84,细颗粒物(PM2.5)
牡丹江市,第一中学,129.6386,44.5462,2025-01-14T0300,49,69,1.0,44,8,8,,68,细颗粒物(PM2.5)
内江市,市监测站,105.0703,29.61,2025-01-14T0300,66,,0.8,16,5,29,,89,细颗粒物(PM2.5)
内江市,东兴区政府,105.0717,29.5947,2025-01-14T0300,66,,0.9,28,3,20,,89,细颗粒物(PM2.5)
内江市,内江二中,105.0653,29.5817,2025-01-14T0300,69,,0.8,19,8,43,,93,细颗粒物(PM2.5)
内江市,内江日报社,105.0406,29.5822,2025-01-14T0300,68,,1.0,42,9,9,,92,细颗粒物(PM2.5)
那曲市,那曲监测站,92.0657,31.4846,2025-01-14T0300,8,10,0.7,6,6,80,,25,
那曲市,那曲会议中心,92.0506,31.4797,2025-01-14T0300,3,10,0.4,1,2,94,,30,
南昌市,省外办,115.8931,28.6843,2025-01-14T0300,68,94,1.2,84,8,6,,92,细颗粒物(PM2.5)
南昌市,省林业公司,115.8886,28.7003,2025-01-14T0300,70,188,0.9,104,14,1,,119,颗粒物(PM10)
南昌市,林科所,115.8126,28.7442,2025-01-14T0300,31,53,0.4,62,8,27,,52,颗粒物(PM10)
南昌市,建工学校,115.8518,28.687,2025-01-14T0300,58,95,0.7,99,13,3,,79,细颗粒物(PM2.5)
南昌市,象湖,115.8921,28.6424,2025-01-14T0300,68,137,1.3,82,10,3,,94,颗粒物(PM10)
南昌市,武术学校,115.7423,28.7996,2025-01-14T0300,19,,0.3,16,1,20,,28,
南昌市,省站,115.9314,28.6842,2025-01-14T0300,,,,,,,,,
南昌市,机电学校,115.9084,28.6062,2025-01-14T0300,70,162,1.0,95,20,4,,106,颗粒物(PM10)
南昌市,外国语学校,115.9721,28.7031,2025-01-14T0300,61,87,0.7,56,8,40,,83,细颗粒物(PM2.5)
南充市,西山风景区,106.056,30.8064,2025-01-14T0300,63,74,0.6,16,1,36,,85,细颗粒物(PM2.5)
南充市,南充市委,106.0789,30.8023,2025-01-14T0300,84,101,0.6,30,3,8,,112,细颗粒物(PM2.5)
南充市,南充炼油厂,106.1031,30.8217,2025-01-14T0300,84,116,0.7,46,4,0,,112,细颗粒物(PM2.5)
南充市,高坪区监测站,106.1064,30.7856,2025-01-14T0300,,,,,,,20,,
南充市,嘉陵区环保局,106.0642,30.7636,2025-01-14T0300,73,90,0.7,42,4,2,,98,细颗粒物(PM2.5)
南充市,市环境监测站,106.1087,30.8388,2025-01-14T0300,72,94,0.6,37,5,12,,97,细颗粒物(PM2.5)
南京市,迈皋桥,118.8086,32.1065,2025-01-14T0300,56,89,0.5,100,7,6,,77,细颗粒物(PM2.5)
南京市,草场门,118.7538,32.0551,2025-01-14T0300,66,95,0.9,109,8,7,,89,细颗粒物(PM2.5)
南京市,山西路,118.7794,32.0745,2025-01-14T0300,61,97,0.7,105,3,26,,83,细颗粒物(PM2.5)
南京市,中华门,118.7752,32.0023,2025-01-14T0300,63,95,0.8,69,8,31,,85,细颗粒物(PM2.5)
南京市,瑞金路,118.8109,32.0309,2025-01-14T0300,61,85,1.2,91,4,5,,83,细颗粒物(PM2.5)
南京市,玄武湖,118.7997,32.0754,2025-01-14T0300,55,96,0.9,45,8,8,,75,细颗粒物(PM2.5)
南京市,浦口,118.6414,32.0931,2025-01-14T0300,54,102,0.8,25,15,66,,76,颗粒物(PM10)
南京市,奥体中心,118.7356,31.9996,2025-01-14T0300,61,101,1.0,111,10,1,,83,细颗粒物(PM2.5)
南京市,仙林大学城,118.9125,32.1028,2025-01-14T0300,53,80,0.8,53,6,30,,73,细颗粒物(PM2.5)
南京市,江宁彩虹桥,118.8436,31.9198,2025-01-14T0300,66,120,0.9,96,9,4,,89,细颗粒物(PM2.5)
南京市,溧水永阳,119.0138,31.6494,2025-01-14T0300,75,90,0.8,31,4,2,,100,细颗粒物(PM2.5)
南京市,高淳老职中,118.879,31.3302,2025-01-14T0300,63,86,0.6,38,15,42,,85,细颗粒物(PM2.5)
南京市,六合雄州,118.8554,32.3578,2025-01-14T0300,85,128,1.0,40,6,19,,113,细颗粒物(PM2.5)
南宁市,二十一中,108.3103,22.7881,2025-01-14T0300,79,93,1.2,97,8,10,,105,细颗粒物(PM2.5)
南宁市,北湖,108.3141,22.8528,2025-01-14T0300,105,139,1.3,94,13,4,,138,细颗粒物(PM2.5)
南宁市,市监测站,108.3206,22.8225,2025-01-14T0300,68,102,1.1,55,19,56,,92,细颗粒物(PM2.5)
南宁市,大自然花园,108.3829,22.8037,2025-01-14T0300,67,82,1.4,49,7,44,,90,细颗粒物(PM2.5)
南宁市,仙葫,108.4394,22.7904,2025-01-14T0300,89,122,1.2,88,8,2,,118,细颗粒物(PM2.5)
南宁市,区农职院,108.2397,22.8467,2025-01-14T0300,69,99,0.9,52,27,38,,93,细颗粒物(PM2.5)
南宁市,英华嘉园,108.3275,22.735,2025-01-14T0300,82,116,1.1,99,11,3,,109,细颗粒物(PM2.5)
南宁市,红星社区,108.4834,22.7618,2025-01-14T0300,67,87,1.0,90,9,6,,90,细颗粒物(PM2.5)
南宁市,乐贤路16号,108.2177,22.7774,2025-01-14T0300,76,263,1.2,89,7,3,,157,颗粒物(PM10)
南平市,茫荡山,118.0966,26.6761,2025-01-14T0300,,,,,,,,,
南平市,南平市监测站,118.1681,26.6369,2025-01-14T0300,36,47,0.4,24,4,30,,52,细颗粒物(PM2.5)
南平市,南平铝业有限公司,118.1825,26.6489,2025-01-14T0300,21,39,0.5,35,6,23,,39,
南平市,南平七中,118.1756,26.6272,2025-01-14T0300,29,38,0.6,23,4,35,,42,
南通市,狼山街道,120.9098,31.9663,2025-01-14T0300,80,110,1.1,97,6,3,,107,细颗粒物(PM2.5)
南通市,虹桥,120.86,32.0005,2025-01-14T0300,76,102,0.9,78,8,31,,102,细颗粒物(PM2.5)
南通市,城中,120.87,32.02,2025-01-14T0300,72,119,0.7,107,9,21,,97,细颗粒物(PM2.5)
南通市,星湖花园,120.94,31.93,2025-01-14T0300,74,107,0.7,114,7,0,,99,细颗粒物(PM2.5)
南通市,紫琅学院,120.81,32.0417,2025-01-14T0300,75,122,0.9,119,7,1,,100,细颗粒物(PM2.5)
南通市,通州监测站,121.067,32.062,2025-01-14T0300,75,110,0.7,80,6,45,,100,细颗粒物(PM2.5)
南通市,环境教育馆,120.9348,31.9883,2025-01-14T0300,82,119,0.8,113,6,4,,109,细颗粒物(PM2.5)
南阳市,瓦房庄,112.5224,33.0122,2025-01-14T0300,93,144,0.8,37,7,39,,123,细颗粒物(PM2.5)
南阳市,汉画馆,112.5003,32.9735,2025-01-14T0300,93,143,0.8,37,7,36,,123,细颗粒物(PM2.5)
南阳市,气象站,112.5573,33.027,2025-01-14T0300,85,151,0.7,27,6,65,,113,细颗粒物(PM2.5)
南阳市,理工学院,112.5481,32.9689,2025-01-14T0300,87,124,0.7,31,7,59,,115,细颗粒物(PM2.5)
南阳市,卧龙区政府,112.5234,32.9922,2025-01-14T0300,108,145,0.9,42,6,29,,142,细颗粒物(PM2.5)
宁波市,区环保大楼,121.8358,29.911,2025-01-14T0300,32,56,0.6,15,9,116,,53,颗粒物(PM10)
宁波市,万里学院,121.56,29.82,2025-01-14T0300,53,90,0.6,52,6,63,,73,细颗粒物(PM2.5)
宁波市,龙赛医院,121.713,29.9572,2025-01-14T0300,49,89,0.6,92,10,28,,70,颗粒物(PM10)
宁波市,钱湖水厂,121.633,29.7733,2025-01-14T0300,40,58,0.6,13,6,106,,57,细颗粒物(PM2.5)
宁波市,太古小学,121.5856,29.8635,2025-01-14T0300,52,87,0.8,32,9,79,,72,细颗粒物(PM2.5)
宁波市,市环境监测中心,121.524,29.8674,2025-01-14T0300,60,92,0.8,54,6,55,,82,细颗粒物(PM2.5)
宁波市,万里国际学校,121.6147,29.9017,2025-01-14T0300,41,79,0.6,26,8,95,,65,颗粒物(PM10)
宁波市,白沙活动中心,121.5594,29.8975,2025-01-14T0300,59,97,0.7,59,9,56,,80,细颗粒物(PM2.5)
宁德市,金涵水库,119.5001,26.6946,2025-01-14T0300,,,,,,,,,
宁德市,宁德市监测站,119.5388,26.6612,2025-01-14T0300,24,28,0.4,8,3,73,,35,
宁德市,宁德一中,119.5231,26.6562,2025-01-14T0300,29,46,0.5,8,3,72,,46,
怒江傈僳族自治州,州监测站,98.8601,25.8567,2025-01-14T0300,27,46,0.7,23,4,23,,46,
怒江傈僳族自治州,泸水一中,98.8546,25.8417,2025-01-14T0300,29,31,0.6,20,8,13,,42,
攀枝花市,弄弄坪,101.6891,26.571,2025-01-14T0300,81,138,4.8,69,64,4,,108,细颗粒物(PM2.5)
攀枝花市,河门口,101.5769,26.5928,2025-01-14T0300,44,68,1.7,42,8,11,,62,细颗粒物(PM2.5)
攀枝花市,炳草岗,101.7169,26.585,2025-01-14T0300,54,109,2.3,68,18,5,,80,颗粒物(PM10)
攀枝花市,仁和,101.7369,26.5008,2025-01-14T0300,27,37,1.7,27,9,26,,39,
攀枝花市,四十中小,101.7227,26.567,2025-01-14T0300,50,81,4.7,71,81,9,,69,细颗粒物(PM2.5)
盘锦市,开发区,122.0303,41.1489,2025-01-14T0300,11,19,0.5,16,8,52,,19,
盘锦市,兴隆台,122.0485,41.0883,2025-01-14T0300,3,16,0.4,14,11,57,,18,
盘锦市,新生街道,121.8297,41.1028,2025-01-14T0300,10,19,0.5,36,10,40,,19,
平顶山市,新华旅馆,113.3257,33.742,2025-01-14T0300,104,166,1.1,85,9,4,,137,细颗粒物(PM2.5)
平顶山市,规划设计院,113.2919,33.737,2025-01-14T0300,114,208,0.8,84,8,8,,149,细颗粒物(PM2.5)
平顶山市,平顶山工学院,113.182,33.774,2025-01-14T0300,88,170,0.7,38,14,41,,117,细颗粒物(PM2.5)
平顶山市,规划局,113.3025,33.73,2025-01-14T0300,122,168,1.1,91,9,5,,160,细颗粒物(PM2.5)
平顶山市,石龙区,112.8867,33.9116,2025-01-14T0300,52,103,0.6,24,8,58,,77,颗粒物(PM10)
平凉市,聚贤嘉苑,106.6692,35.5461,2025-01-14T0300,25,86,0.5,14,12,81,,68,颗粒物(PM10)
平凉市,博物馆,106.7021,35.5307,2025-01-14T0300,27,102,0.4,9,12,84,,76,颗粒物(PM10)
萍乡市,武功山,114.0997,27.5002,2025-01-14T0300,14,,0.6,10,7,48,,20,
萍乡市,中医院,113.8385,27.6434,2025-01-14T0300,48,84,1.3,44,14,17,,67,"颗粒物(PM10),细颗粒物(PM2.5)"
萍乡市,市政府车库,113.8493,27.6253,2025-01-14T0300,62,70,1.1,35,13,17,,84,细颗粒物(PM2.5)
萍乡市,市环保局,113.8676,27.6435,2025-01-14T0300,56,87,1.2,51,28,31,,77,细颗粒物(PM2.5)
萍乡市,安源区政府,113.866,27.6198,2025-01-14T0300,47,77,0.8,39,11,17,,65,细颗粒物(PM2.5)
莆田市,荔城区仓后路,119.0141,25.4325,2025-01-14T0300,18,34,0.6,7,1,104,,34,
莆田市,莆田市监测站,119.0015,25.4553,2025-01-14T0300,11,34,0.2,7,3,109,,35,
莆田市,涵江区六中,119.1119,25.4561,2025-01-14T0300,26,41,0.2,13,3,96,,41,
莆田市,秀屿区政府,119.1013,25.3215,2025-01-14T0300,20,31,0.3,11,3,103,,33,
莆田市,东圳水库,118.981,25.4792,2025-01-14T0300,,,,,,,,,
濮阳市,环保局,115.0312,35.7636,2025-01-14T0300,85,143,0.9,72,9,12,,113,细颗粒物(PM2.5)
濮阳市,油田运输公司,115.0574,35.7609,2025-01-14T0300,86,153,1.0,52,8,19,,114,细颗粒物(PM2.5)
濮阳市,油田物探公司,115.0866,35.7754,2025-01-14T0300,,,,,,,,,
濮阳市,濮水河管理处,115,35.7668,2025-01-14T0300,91,172,0.9,77,11,3,,120,细颗粒物(PM2.5)
普洱市,市环保局,100.98,22.7633,2025-01-14T0300,8,42,0.6,7,4,33,,42,
普洱市,普洱第二中学,100.9817,22.8322,2025-01-14T0300,24,25,0.5,29,5,11,,35,
七台河市,新一中,131.0518,45.8751,2025-01-14T0300,41,51,2.0,23,9,62,,58,细颗粒物(PM2.5)
七台河市,中波台,131.0577,45.7879,2025-01-14T0300,47,53,0.9,34,9,42,,65,细颗粒物(PM2.5)
七台河市,人民广场,131.0176,45.7761,2025-01-14T0300,40,51,0.8,30,8,51,,57,细颗粒物(PM2.5)
七台河市,新建矿广场,130.8781,45.8222,2025-01-14T0300,35,46,0.8,40,1,33,,50,
齐齐哈尔市,安居小区,123.9305,47.3636,2025-01-14T0300,179,,1.2,47,8,28,,229,细颗粒物(PM2.5)
齐齐哈尔市,中心广场,123.9488,47.3386,2025-01-14T0300,53,73,0.6,20,6,49,,73,细颗粒物(PM2.5)
齐齐哈尔市,农牧车辆厂,123.9483,47.3227,2025-01-14T0300,74,,0.8,26,8,46,,99,细颗粒物(PM2.5)
齐齐哈尔市,市环境监测站,123.945,47.2988,2025-01-14T0300,56,60,0.6,20,4,57,,77,细颗粒物(PM2.5)
齐齐哈尔市,富区青少年活动中心,123.6333,47.2075,2025-01-14T0300,130,165,1.2,30,9,36,,172,细颗粒物(PM2.5)
黔东南苗族侗族自治州,市环境监测站,107.9783,26.5747,2025-01-14T0300,41,57,0.7,30,8,27,,58,细颗粒物(PM2.5)
黔东南苗族侗族自治州,凯里学院,107.8908,26.5311,2025-01-14T0300,26,27,0.4,32,3,28,,38,
黔南布依族苗族自治州,小围寨,107.5228,26.2403,2025-01-14T0300,39,44,0.8,26,9,34,,55,细颗粒物(PM2.5)
黔南布依族苗族自治州,沙坝,107.5175,26.2978,2025-01-14T0300,31,48,0.5,17,8,29,,48,
黔西南布依族苗族自治州,场坝街,104.9022,25.0925,2025-01-14T0300,54,69,0.5,19,3,47,,74,细颗粒物(PM2.5)
黔西南布依族苗族自治州,坪东大道,104.8811,25.0992,2025-01-14T0300,58,69,0.5,28,4,31,,79,细颗粒物(PM2.5)
钦州市,市环保站,108.6236,21.9667,2025-01-14T0300,70,175,0.8,79,9,10,,113,颗粒物(PM10)
钦州市,沙埠小学,108.6549,21.9481,2025-01-14T0300,83,131,0.9,75,8,8,,110,细颗粒物(PM2.5)
钦州市,港区一小,108.5989,21.7431,2025-01-14T0300,38,129,0.7,75,10,13,,90,颗粒物(PM10)
钦州市,北职校,108.5959,21.9633,2025-01-14T0300,48,133,0.9,77,9,3,,92,颗粒物(PM10)
秦皇岛市,北戴河环保局,119.5134,39.8207,2025-01-14T0300,23,36,1.0,60,2,16,,36,
秦皇岛市,第一关,119.7493,40.0116,2025-01-14T0300,25,29,0.5,64,4,8,,36,
秦皇岛市,监测站,119.5897,39.9499,2025-01-14T0300,10,25,0.3,20,3,50,,25,
秦皇岛市,建设大厦,119.5251,39.9041,2025-01-14T0300,30,30,0.7,53,3,15,,43,
秦皇岛市,文明里,119.610547,39.943889,2025-01-14T0300,8,28,0.2,22,4,47,,28,
青岛市,仰口,120.6659,36.2403,2025-01-14T0300,23,28,0.6,8,4,84,,33,
青岛市,市南区东部子站,120.4134,36.0658,2025-01-14T0300,95,173,1.2,98,17,8,,125,细颗粒物(PM2.5)
青岛市,四方区子站,120.3664,36.1032,2025-01-14T0300,117,171,1.7,102,17,6,,153,细颗粒物(PM2.5)
青岛市,市南区西部子站,120.2994,36.054,2025-01-14T0300,98,166,1.5,99,15,7,,129,细颗粒物(PM2.5)
青岛市,崂山区子站,120.4581,36.0858,2025-01-14T0300,78,136,1.3,59,16,37,,104,细颗粒物(PM2.5)
青岛市,黄岛区子站,120.1983,35.9608,2025-01-14T0300,88,149,1.2,91,18,10,,117,细颗粒物(PM2.5)
青岛市,城阳区子站,120.3999,36.3083,2025-01-14T0300,107,207,2.5,100,16,10,,140,细颗粒物(PM2.5)
青岛市,黄岛区4号,120.0405,35.8735,2025-01-14T0300,51,119,1.4,43,23,52,,85,颗粒物(PM10)
青岛市,即墨2号,120.5014,36.4034,2025-01-14T0300,95,152,1.4,71,18,24,,125,细颗粒物(PM2.5)
青岛市,市北区南部,120.3503,36.0736,2025-01-14T0300,107,161,1.7,100,14,6,,140,细颗粒物(PM2.5)
青岛市,李沧区北部,120.3948,36.1805,2025-01-14T0300,119,195,1.7,99,17,6,,156,细颗粒物(PM2.5)
清远市,环保大楼,113.0426,23.691,2025-01-14T0300,36,46,0.7,46,6,29,,52,细颗粒物(PM2.5)
清远市,凤城街办,113.0208,23.7106,2025-01-14T0300,30,57,0.7,40,10,37,,54,颗粒物(PM10)
清远市,技师学院,113.0477,23.6344,2025-01-14T0300,37,85,0.9,76,13,4,,68,颗粒物(PM10)
清远市,清新太和,112.9903,23.7403,2025-01-14T0300,29,58,0.9,65,10,18,,54,颗粒物(PM10)
清远市,清城东城,113.076,23.7198,2025-01-14T0300,27,52,0.6,34,11,32,,51,颗粒物(PM10)
庆阳市,庆阳五中,107.6325,35.7357,2025-01-14T0300,17,116,0.3,3,4,78,,83,颗粒物(PM10)
庆阳市,市环保局,107.6364,35.7067,2025-01-14T0300,16,94,0.3,3,2,81,,72,颗粒物(PM10)
曲靖市,环境监测站,103.7897,25.5035,2025-01-14T0300,17,37,0.7,41,6,22,,37,
曲靖市,烟厂办公区,103.8,25.5364,2025-01-14T0300,32,59,0.6,48,4,19,,55,颗粒物(PM10)
曲靖市,南苑二区,103.7947,25.462,2025-01-14T0300,21,31,0.8,13,4,60,,31,
曲靖市,曲靖师范学院,103.7444,25.5261,2025-01-14T0300,40,57,0.8,26,14,51,,57,细颗粒物(PM2.5)
衢州市,环保大楼,118.8692,28.9398,2025-01-14T0300,51,91,1.0,69,5,13,,71,颗粒物(PM10)
衢州市,实验学校,118.8709,28.9666,2025-01-14T0300,55,84,0.7,68,8,6,,75,细颗粒物(PM2.5)
衢州市,衢州学院,118.8621,28.9808,2025-01-14T0300,40,62,0.7,73,5,5,,57,细颗粒物(PM2.5)
泉州市,涂山街,118.5819,24.9117,2025-01-14T0300,26,41,0.4,16,3,81,,41,
泉州市,津头埔,118.5972,24.8978,2025-01-14T0300,27,40,0.5,18,2,80,,40,
泉州市,万安,118.6663,24.9424,2025-01-14T0300,21,35,0.4,15,1,103,,35,
泉州市,清源山,118.6117,24.9604,2025-01-14T0300,,,,,,,,,
泉州市,城华南路,118.6333,24.9264,2025-01-14T0300,20,46,0.4,34,3,77,,46,
日喀则市,日喀则监测站,88.8876,29.2718,2025-01-14T0300,11,19,0.8,29,3,59,,19,
日喀则市,林业技术推广中心,88.8781,29.2426,2025-01-14T0300,7,14,0.5,3,6,77,,25,
日照市,监测站,119.471,35.4209,2025-01-14T0300,98,153,1.8,83,17,3,,129,细颗粒物(PM2.5)
日照市,市政府广场,119.523,35.4216,2025-01-14T0300,79,129,1.2,50,14,36,,105,细颗粒物(PM2.5)
日照市,港务局,119.5587,35.4044,2025-01-14T0300,86,149,1.2,82,19,13,,114,细颗粒物(PM2.5)
日照市,职业技术学院,119.5328,35.4625,2025-01-14T0300,78,132,1.0,61,13,26,,104,细颗粒物(PM2.5)
日照市,岚山环保分局,119.3266,35.1044,2025-01-14T0300,104,180,,88,65,27,,,
三门峡市,市政府,111.1922,34.7752,2025-01-14T0300,55,104,0.6,59,12,1,,77,颗粒物(PM10)
三门峡市,开发区,111.1587,34.7942,2025-01-14T0300,71,134,0.8,55,5,1,,95,细颗粒物(PM2.5)
三门峡市,风景区,111.143,34.7955,2025-01-14T0300,59,119,1.0,56,8,2,,85,颗粒物(PM10)
三门峡市,三门峡市第一小学,111.1911,34.7829,2025-01-14T0300,51,113,0.8,61,12,2,,82,颗粒物(PM10)
三门峡市,富达温泉假日酒店,111.1,34.7167,2025-01-14T0300,86,146,1.6,68,17,1,,114,细颗粒物(PM2.5)
三明市,三钢,117.6211,26.2625,2025-01-14T0300,26,34,0.6,27,2,30,,38,
三明市,三明二中,117.635,26.2714,2025-01-14T0300,21,26,0.5,24,2,27,,30,
三明市,三元区政府,117.6028,26.2378,2025-01-14T0300,19,36,0.7,28,3,18,,36,
三明市,洋溪,117.7275,26.3108,2025-01-14T0300,,,,,,,,,
三亚市,河东子站,109.5078,18.2489,2025-01-14T0300,15,28,0.7,10,7,80,,28,
三亚市,河西子站,109.4964,18.2681,2025-01-14T0300,20,32,0.5,12,2,63,,32,
三亚市,君悦子站,109.7348,18.3443,2025-01-14T0300,10,26,0.4,12,3,69,,26,
山南市,山南监测站,91.7608,29.2313,2025-01-14T0300,3,17,0.3,6,5,90,,29,
山南市,山南人民医院,91.7706,29.2436,2025-01-14T0300,9,19,0.5,3,3,108,,34,
汕头市,金平子站,116.6794,23.3667,2025-01-14T0300,24,31,0.7,16,5,102,,35,
汕头市,龙湖子站,116.7244,23.3633,2025-01-14T0300,19,35,0.6,12,3,100,,35,
汕头市,濠江子站,116.7258,23.2775,2025-01-14T0300,24,29,0.6,8,3,103,,35,
汕头市,澄海子站,116.7519,23.4714,2025-01-14T0300,37,,0.6,24,10,88,,53,细颗粒物(PM2.5)
汕头市,潮阳子站,116.6092,23.2539,2025-01-14T0300,18,39,0.5,14,6,88,,39,
汕头市,潮南峡山,116.454,23.2684,2025-01-14T0300,14,31,0.6,13,8,96,,31,
汕头市,潮南子站,116.4069,23.2533,2025-01-14T0300,20,47,0.6,13,10,97,,47,
汕尾市,市环保局,115.3653,22.775,2025-01-14T0300,31,46,0.7,13,8,93,,46,
汕尾市,市政府,115.3706,22.7898,2025-01-14T0300,29,49,0.6,11,11,91,,49,
汕尾市,新城中学,115.3622,22.7925,2025-01-14T0300,30,48,0.6,12,8,90,,48,
商洛市,监测站,109.9154,33.8715,2025-01-14T0300,33,55,0.6,28,2,29,,53,颗粒物(PM10)
商洛市,商州区中学,109.9643,33.8471,2025-01-14T0300,35,52,0.6,50,4,9,,51,颗粒物(PM10)
商丘市,环境监测站,115.6702,34.4285,2025-01-14T0300,125,175,0.9,78,18,16,,165,细颗粒物(PM2.5)
商丘市,粮食局,115.6458,34.4045,2025-01-14T0300,93,160,0.8,42,10,53,,123,细颗粒物(PM2.5)
商丘市,睢阳区环保局,115.6293,34.3948,2025-01-14T0300,97,169,0.9,46,11,46,,128,细颗粒物(PM2.5)
商丘市,梁园区档案局,115.6071,34.4465,2025-01-14T0300,111,170,1.1,74,11,15,,145,细颗粒物(PM2.5)
上海市,普陀,121.4,31.238,2025-01-14T0300,62,107,0.7,55,13,67,,84,细颗粒物(PM2.5)
上海市,十五厂,121.478,31.2036,2025-01-14T0300,78,108,0.8,54,11,53,,104,细颗粒物(PM2.5)
上海市,虹口,121.467,31.3008,2025-01-14T0300,69,98,0.7,50,9,80,,93,细颗粒物(PM2.5)
上海市,杨浦四漂,121.536,31.2659,2025-01-14T0300,,,,,,,6,,
上海市,静安监测站,121.425,31.2261,2025-01-14T0300,70,112,0.8,52,15,72,,94,细颗粒物(PM2.5)
上海市,浦东川沙,121.703,31.1907,2025-01-14T0300,61,121,0.8,73,7,46,,86,颗粒物(PM10)
上海市,浦东新区监测站,121.533,31.2284,2025-01-14T0300,65,107,0.9,56,9,66,,88,细颗粒物(PM2.5)
上海市,浦东张江,121.577,31.2071,2025-01-14T0300,78,117,0.8,74,7,44,,104,细颗粒物(PM2.5)
上海市,宝山庙行,121.4316,31.3322,2025-01-14T0300,66,108,0.9,37,10,73,,89,细颗粒物(PM2.5)
上海市,崇明上实东滩,121.8791,31.4662,2025-01-14T0300,64,96,0.7,74,7,23,,87,细颗粒物(PM2.5)
上海市,嘉定南翔,121.3162,31.2838,2025-01-14T0300,70,117,0.5,72,9,48,,94,细颗粒物(PM2.5)
上海市,金山新城,121.3359,30.7456,2025-01-14T0300,70,88,0.5,25,6,104,,94,细颗粒物(PM2.5)
上海市,闵行浦江,121.4996,31.0739,2025-01-14T0300,76,120,1.0,59,6,45,,102,细颗粒物(PM2.5)
上海市,青浦徐泾,121.2886,31.1663,2025-01-14T0300,74,114,0.7,65,10,47,,99,细颗粒物(PM2.5)
上海市,松江图书馆,121.2186,31.0378,2025-01-14T0300,80,118,0.9,77,8,32,,107,细颗粒物(PM2.5)
上海市,长宁仙霞,121.3902,31.2059,2025-01-14T0300,69,94,0.7,51,12,72,,93,细颗粒物(PM2.5)
上海市,浦东惠南,121.7965,31.0507,2025-01-14T0300,62,100,1.0,73,7,38,,84,细颗粒物(PM2.5)
上海市,奉贤南桥新城,121.4891,30.925,2025-01-14T0300,65,85,0.9,40,9,83,,88,细颗粒物(PM2.5)
上海市,冠生园路458号,121.4174,31.16637,2025-01-14T0300,75,106,0.5,55,7,34,,100,细颗粒物(PM2.5)
上饶市,百草园,118.005,28.4572,2025-01-14T0300,39,80,0.9,46,18,29,,65,颗粒物(PM10)
上饶市,市监测站,117.9756,28.4436,2025-01-14T0300,35,71,0.8,60,17,14,,61,颗粒物(PM10)
上饶市,凤凰光学,117.9519,28.4628,2025-01-14T0300,37,64,0.9,40,12,34,,57,颗粒物(PM10)
上饶市,广丰区教体局,118.1953,28.4401,2025-01-14T0300,29,53,0.7,14,5,25,,52,颗粒物(PM10)
上饶市,双创科技城,117.897,28.4315,2025-01-14T0300,33,63,0.8,37,8,39,,57,颗粒物(PM10)
韶关市,市八中,113.5824,24.7733,2025-01-14T0300,32,62,0.6,49,10,25,,56,颗粒物(PM10)
韶关市,园林处,113.5917,24.7972,2025-01-14T0300,,44,0.4,32,10,40,,,
韶关市,韶关学院,113.6735,24.7791,2025-01-14T0300,32,47,0.6,77,10,4,,47,
韶关市,曲江监测站,113.5971,24.6863,2025-01-14T0300,51,97,1.0,71,16,10,,74,颗粒物(PM10)
韶关市,碧湖山庄,113.5556,24.8082,2025-01-14T0300,46,82,0.7,26,12,31,,66,颗粒物(PM10)
邵阳市,市水土所,111.5239,27.3033,2025-01-14T0300,,,,,,,,,
邵阳市,市一中,111.4733,27.2317,2025-01-14T0300,68,96,0.6,46,7,7,,92,细颗粒物(PM2.5)
邵阳市,市化工厂,111.5283,27.2442,2025-01-14T0300,57,93,0.6,41,8,5,,78,细颗粒物(PM2.5)
邵阳市,市罐头厂,111.4503,27.2537,2025-01-14T0300,74,84,0.8,44,8,10,,99,细颗粒物(PM2.5)
邵阳市,市环保局,111.4328,27.2272,2025-01-14T0300,63,92,0.8,53,12,11,,85,细颗粒物(PM2.5)
绍兴市,城东开发委,120.6053,29.9928,2025-01-14T0300,42,69,0.8,56,5,15,,60,颗粒物(PM10)
绍兴市,树下王站,120.5483,30.0003,2025-01-14T0300,41,71,0.7,64,5,21,,61,颗粒物(PM10)
绍兴市,绍兴中专,120.5683,29.9361,2025-01-14T0300,32,53,0.6,69,7,4,,52,颗粒物(PM10)
绍兴市,柯桥区政府,120.4906,30.0861,2025-01-14T0300,64,109,0.7,82,10,3,,87,细颗粒物(PM2.5)
绍兴市,重华小学,120.8752,30.0249,2025-01-14T0300,45,60,0.5,36,12,76,,63,细颗粒物(PM2.5)
绍兴市,上虞中学,120.8369,30.0137,2025-01-14T0300,46,69,0.8,27,10,69,,64,细颗粒物(PM2.5)
绍兴市,柯桥妇保,120.4722,30.0415,2025-01-14T0300,45,87,0.7,60,6,10,,69,颗粒物(PM10)
绍兴市,袍江中学,120.6153,30.0764,2025-01-14T0300,48,80,0.8,70,10,11,,67,细颗粒物(PM2.5)
深圳市,通心岭子站,114.1063,22.5545,2025-01-14T0300,18,45,0.6,24,7,97,,45,
深圳市,洪湖,114.117,22.5625,2025-01-14T0300,20,55,0.4,33,6,84,,53,颗粒物(PM10)
深圳市,华侨城,113.987,22.5417,2025-01-14T0300,22,45,0.7,19,4,98,,45,
深圳市,南海子站,113.9181,22.5171,2025-01-14T0300,16,54,0.5,18,6,108,,52,颗粒物(PM10)
深圳市,盐田,114.2458,22.5689,2025-01-14T0300,21,51,0.6,42,8,76,,51,颗粒物(PM10)
深圳市,龙岗,114.2283,22.7244,2025-01-14T0300,22,56,0.6,32,7,87,,53,颗粒物(PM10)
深圳市,南澳,114.494,22.5422,2025-01-14T0300,19,41,0.5,9,8,115,,41,
深圳市,葵涌,114.41,22.6342,2025-01-14T0300,21,43,0.4,14,5,95,,43,
深圳市,梅沙,114.297,22.5978,2025-01-14T0300,23,45,0.5,18,8,96,,45,
深圳市,观澜,114.0678,22.738,2025-01-14T0300,28,76,0.6,34,5,72,,63,颗粒物(PM10)
深圳市,莲花,114.0731,22.559,2025-01-14T0300,19,47,0.5,25,8,93,,47,
深圳市,民治,114.0261,22.6198,2025-01-14T0300,18,46,0.6,43,6,72,,46,
深圳市,横岗,114.1871,22.6451,2025-01-14T0300,19,52,0.4,21,7,91,,51,颗粒物(PM10)
深圳市,坪山,114.3551,22.7151,2025-01-14T0300,24,60,0.5,38,5,73,,55,颗粒物(PM10)
深圳市,西乡,113.8953,22.5861,2025-01-14T0300,22,86,0.6,42,7,67,,68,颗粒物(PM10)
沈阳市,森林路,123.6836,41.9339,2025-01-14T0300,,,,,,,,,
沈阳市,浑南东路,123.505,41.7406,2025-01-14T0300,43,67,0.8,46,16,32,,60,细颗粒物(PM2.5)
沈阳市,新秀街,123.4231,41.6989,2025-01-14T0300,57,95,1.2,56,20,9,,78,细颗粒物(PM2.5)
沈阳市,东陵路,123.5903,41.8411,2025-01-14T0300,57,79,1.1,56,15,9,,78,细颗粒物(PM2.5)
沈阳市,陵东街,123.4264,41.8467,2025-01-14T0300,39,66,0.9,46,12,21,,58,颗粒物(PM10)
沈阳市,文化路,123.4114,41.7653,2025-01-14T0300,29,51,0.6,48,22,26,,51,颗粒物(PM10)
沈阳市,小河沿,123.4678,41.7867,2025-01-14T0300,29,52,0.7,35,14,34,,51,颗粒物(PM10)
沈阳市,太原街,123.4017,41.7972,2025-01-14T0300,46,64,0.8,49,11,18,,64,细颗粒物(PM2.5)
沈阳市,京沈街,123.3783,41.9228,2025-01-14T0300,49,78,0.9,50,14,14,,68,细颗粒物(PM2.5)
沈阳市,沈辽西路,123.2444,41.7347,2025-01-14T0300,24,38,0.7,41,18,31,,38,
沈阳市,裕农路,123.5953,41.9086,2025-01-14T0300,52,78,0.9,62,10,8,,72,细颗粒物(PM2.5)
十堰市,武当山,111.0419,32.395,2025-01-14T0300,31,50,0.8,9,9,110,,50,
十堰市,滨河新村,110.78,32.6494,2025-01-14T0300,65,89,1.0,53,7,14,,88,细颗粒物(PM2.5)
十堰市,刘家沟,110.7258,32.6389,2025-01-14T0300,51,70,0.8,20,8,51,,70,细颗粒物(PM2.5)
十堰市,铁二处,110.8839,32.5714,2025-01-14T0300,75,78,1.0,48,8,15,,100,细颗粒物(PM2.5)
十堰市,郧阳区金沙路,110.8054,32.8401,2025-01-14T0300,44,53,0.8,32,4,49,,62,细颗粒物(PM2.5)
石河子市,艾青诗歌馆,86.0497,44.2967,2025-01-14T0300,134,190,1.4,50,9,34,,178,细颗粒物(PM2.5)
石河子市,南区管委会,86.047,44.2331,2025-01-14T0300,129,196,1.4,36,6,47,,170,细颗粒物(PM2.5)
石河子市,世纪广场,86.0791,44.3017,2025-01-14T0300,116,193,1.3,46,7,45,,152,细颗粒物(PM2.5)
石家庄市,职工医院,114.4422,38.0444,2025-01-14T0300,84,121,1.0,62,6,4,,112,细颗粒物(PM2.5)
石家庄市,高新区,114.6063,38.0266,2025-01-14T0300,75,143,0.8,77,4,3,,100,细颗粒物(PM2.5)
石家庄市,西北水源,114.4898,38.1328,2025-01-14T0300,63,135,0.9,61,4,2,,93,颗粒物(PM10)
石家庄市,西南高教,114.4586,38.0058,2025-01-14T0300,78,144,0.8,60,7,10,,104,细颗粒物(PM2.5)
石家庄市,世纪公园,114.5331,38.0178,2025-01-14T0300,63,105,0.8,70,6,4,,85,细颗粒物(PM2.5)
石家庄市,人民会堂,114.509,38.0457,2025-01-14T0300,64,103,0.8,67,6,4,,87,细颗粒物(PM2.5)
石家庄市,封龙山,114.3524,37.8911,2025-01-14T0300,45,132,1.3,52,24,30,,91,颗粒物(PM10)
石家庄市,22中南校区,114.5481,38.0378,2025-01-14T0300,62,118,0.8,69,7,2,,84,"颗粒物(PM10),细颗粒物(PM2.5)"
石家庄市,鹿泉一中,114.289,38.0906,2025-01-14T0300,63,135,0.9,59,8,7,,93,颗粒物(PM10)
石家庄市,藁城区实验学校,114.8506765,38.0322033,2025-01-14T0300,86,142,1.1,62,14,3,,114,细颗粒物(PM2.5)
石家庄市,井陉矿区区委大楼,114.0504658,38.0591645,2025-01-14T0300,38,113,0.8,68,16,1,,82,颗粒物(PM10)
石家庄市,栾城区星河路,114.6549,37.9020,2025-01-14T0300,83,137,1.0,70,10,6,,110,细颗粒物(PM2.5)
石嘴山市,沙湖旅游区,106.3394,38.817,2025-01-14T0300,,,,,,,,,
石嘴山市,大武口朝阳西街,106.3668,39.0145,2025-01-14T0300,21,22,0.4,5,4,78,,30,
石嘴山市,惠农南大街,106.7704,39.2282,2025-01-14T0300,10,19,0.7,10,15,66,,21,
石嘴山市,红果子镇惠新街,106.7099,39.1325,2025-01-14T0300,9,19,0.4,13,12,67,,21,
石嘴山市,妇女儿童医院,106.3495,38.9836,2025-01-14T0300,14,19,0.3,6,3,76,,24,
石嘴山市,石大公路,106.7492,39.2069,2025-01-14T0300,17,25,0.4,12,6,70,,25,
双鸭山市,双合村,131.1511,46.6937,2025-01-14T0300,127,155,1.5,63,10,6,,168,细颗粒物(PM2.5)
双鸭山市,南小市,131.1652,46.6191,2025-01-14T0300,50,,0.9,20,11,60,,69,细颗粒物(PM2.5)
双鸭山市,环保局,131.1524,46.6554,2025-01-14T0300,129,132,1.4,63,12,9,,170,细颗粒物(PM2.5)
双鸭山市,苗圃,131.12,46.5656,2025-01-14T0300,53,,0.5,16,8,69,,73,细颗粒物(PM2.5)
朔州市,平朔,112.4397,39.3522,2025-01-14T0300,15,64,0.5,7,6,65,,57,颗粒物(PM10)
朔州市,朔唯,112.4575,39.3617,2025-01-14T0300,17,58,0.5,8,6,62,,54,颗粒物(PM10)
朔州市,区政府,112.4258,39.3197,2025-01-14T0300,10,63,0.6,7,8,66,,57,颗粒物(PM10)
朔州市,市环保局,112.4072,39.3278,2025-01-14T0300,3,54,0.7,5,8,61,,52,颗粒物(PM10)
朔州市,市二中,112.4272,39.3681,2025-01-14T0300,11,67,0.4,8,6,62,,59,颗粒物(PM10)
朔州市,一水厂,112.2931,39.53,2025-01-14T0300,10,69,0.4,8,5,68,,60,颗粒物(PM10)
四平市,一商场,124.4002,43.1713,2025-01-14T0300,44,45,0.4,28,10,37,,62,细颗粒物(PM2.5)
四平市,境园,124.388,43.193,2025-01-14T0300,31,61,0.5,26,7,36,,56,颗粒物(PM10)
四平市,植物园,124.4036,43.1411,2025-01-14T0300,117,161,1.5,67,6,14,,153,细颗粒物(PM2.5)
四平市,世纪城,124.3419,43.1666,2025-01-14T0300,32,49,0.5,22,8,38,,49,
松原市,江南,124.8006,45.1214,2025-01-14T0300,58,65,0.6,34,3,27,,79,细颗粒物(PM2.5)
松原市,江北,124.7965,45.1722,2025-01-14T0300,68,92,0.8,8,3,30,,92,细颗粒物(PM2.5)
苏州市,上方山,120.561,31.2472,2025-01-14T0300,80,,1.1,102,8,11,,107,细颗粒物(PM2.5)
苏州市,彩香,120.591,31.3019,2025-01-14T0300,92,138,0.8,61,9,26,,122,细颗粒物(PM2.5)
苏州市,轧钢厂,120.596,31.3264,2025-01-14T0300,93,138,1.0,68,7,22,,123,细颗粒物(PM2.5)
苏州市,吴中区,120.613,31.2703,2025-01-14T0300,91,142,0.8,85,7,21,,120,细颗粒物(PM2.5)
苏州市,苏州新区,120.543,31.2994,2025-01-14T0300,92,134,0.8,122,10,3,,122,细颗粒物(PM2.5)
苏州市,苏州工业园区,120.669,31.3097,2025-01-14T0300,97,142,0.9,63,8,36,,128,细颗粒物(PM2.5)
苏州市,相城区,120.641,31.3708,2025-01-14T0300,84,143,1.0,93,8,17,,112,细颗粒物(PM2.5)
苏州市,方洲路,120.743,31.3188,2025-01-14T0300,84,131,0.7,62,6,43,,112,细颗粒物(PM2.5)
苏州市,木渎中学,120.5031,31.2774,2025-01-14T0300,92,114,0.9,48,9,46,,122,细颗粒物(PM2.5)
苏州市,越秀幼儿园,120.624,31.1733,2025-01-14T0300,88,121,0.9,72,8,29,,117,细颗粒物(PM2.5)
苏州市,高铁新城,120.6505,31.416,2025-01-14T0300,89,134,0.8,90,9,18,,118,细颗粒物(PM2.5)
宿迁市,宿迁学院,118.293,33.9528,2025-01-14T0300,125,172,0.9,64,6,10,,165,细颗粒物(PM2.5)
宿迁市,宿迁中学,118.2442,33.9592,2025-01-14T0300,93,147,1.1,80,5,4,,123,细颗粒物(PM2.5)
宿迁市,市供电局,118.283,33.965,2025-01-14T0300,109,176,1.1,77,3,7,,143,细颗粒物(PM2.5)
宿迁市,宿豫区政府,118.3225,33.9447,2025-01-14T0300,122,167,0.9,82,5,19,,160,细颗粒物(PM2.5)
宿州市,远航博物馆,116.9509,33.666,2025-01-14T0300,101,159,0.5,43,8,57,,133,细颗粒物(PM2.5)
宿州市,社会福利中心,116.9708,33.591,2025-01-14T0300,106,164,0.8,79,10,22,,139,细颗粒物(PM2.5)
宿州市,宿州学院,116.9884,33.6305,2025-01-14T0300,116,170,0.8,49,8,47,,152,细颗粒物(PM2.5)
宿州市,皖北煤电集团,116.9648,33.6252,2025-01-14T0300,101,144,0.9,59,7,37,,133,细颗粒物(PM2.5)
绥化市,人和东街,126.9785,46.6365,2025-01-14T0300,265,,1.8,51,3,36,,315,细颗粒物(PM2.5)
绥化市,党政办公中心,126.964,46.6528,2025-01-14T0300,204,227,1.8,52,3,37,,254,细颗粒物(PM2.5)
随州市,市委党校,113.3583,31.7275,2025-01-14T0300,118,166,1.0,78,10,14,,155,细颗粒物(PM2.5)
随州市,市林业局,113.3833,31.6908,2025-01-14T0300,107,128,1.2,53,14,19,,140,细颗粒物(PM2.5)
随州市,市立交桥水厂,113.3983,31.7308,2025-01-14T0300,106,138,1.3,93,14,3,,139,细颗粒物(PM2.5)
遂宁市,石溪浩,105.5453,30.5678,2025-01-14T0300,77,110,0.7,32,3,3,,103,细颗粒物(PM2.5)
遂宁市,市监测站,105.5582,30.5232,2025-01-14T0300,83,119,0.6,44,7,4,,110,细颗粒物(PM2.5)
遂宁市,行政中心,105.5861,30.5366,2025-01-14T0300,73,100,0.6,36,8,4,,98,细颗粒物(PM2.5)
遂宁市,美宁食品公司,105.5918,30.4728,2025-01-14T0300,76,112,0.7,35,8,6,,102,细颗粒物(PM2.5)
塔城地区,东门外小游园,82.9994,46.7432,2025-01-14T0300,10,,0.1,14,3,56,,18,
台州市,黄岩环保大楼,121.273,28.6459,2025-01-14T0300,37,62,0.6,25,3,51,,56,颗粒物(PM10)
台州市,台州环保大楼,121.419,28.6542,2025-01-14T0300,63,103,0.9,72,4,14,,85,细颗粒物(PM2.5)
台州市,路桥田洋王,121.377,28.5773,2025-01-14T0300,60,96,0.9,84,3,4,,82,细颗粒物(PM2.5)
台州市,台州科技职业学院,121.2568,28.6681,2025-01-14T0300,41,80,0.7,28,4,54,,65,颗粒物(PM10)
太原市,尖草坪,112.522,37.8873,2025-01-14T0300,31,102,0.4,17,8,60,,76,颗粒物(PM10)
太原市,上兰,112.434,38.0108,2025-01-14T0300,30,83,0.5,15,8,64,,67,颗粒物(PM10)
太原市,晋源,112.469,37.7124,2025-01-14T0300,29,183,0.4,16,8,63,,117,颗粒物(PM10)
太原市,小店,112.5583,37.7394,2025-01-14T0300,29,102,0.3,20,6,65,,76,颗粒物(PM10)
太原市,桃园,112.5369,37.8692,2025-01-14T0300,28,105,0.4,14,4,66,,78,颗粒物(PM10)
太原市,坞城,112.57,37.8195,2025-01-14T0300,32,93,0.4,14,7,64,,72,颗粒物(PM10)
太原市,南寨,112.549,37.9854,2025-01-14T0300,59,162,0.8,79,17,4,,106,颗粒物(PM10)
太原市,金胜,112.4719,37.7831,2025-01-14T0300,32,106,0.4,18,8,58,,78,颗粒物(PM10)
太原市,育英中学,112.5608,37.8807,2025-01-14T0300,29,92,0.4,15,8,65,,71,颗粒物(PM10)
泰安市,监测站,117.1437,36.1937,2025-01-14T0300,83,127,1.2,69,10,4,,110,细颗粒物(PM2.5)
泰安市,人口学校,117.0885,36.2017,2025-01-14T0300,107,171,1.8,81,16,9,,140,细颗粒物(PM2.5)
泰安市,电力学校,117.1089,36.1758,2025-01-14T0300,118,163,1.8,77,14,4,,155,细颗粒物(PM2.5)
泰安市,国网新校,117.1812,36.2275,2025-01-14T0300,51,90,1.0,24,8,55,,70,"颗粒物(PM10),细颗粒物(PM2.5)"
泰安市,交通技校,117.0313,36.2018,2025-01-14T0300,65,103,0.9,74,5,3,,88,细颗粒物(PM2.5)
泰安市,山东第一医科大学,117.0829,36.13,2025-01-14T0300,117,163,1.3,74,12,8,,153,细颗粒物(PM2.5)
泰州市,公园路,119.905,32.4878,2025-01-14T0300,70,102,1.2,88,12,10,,94,细颗粒物(PM2.5)
泰州市,莲花,119.9189,32.4625,2025-01-14T0300,78,122,1.4,76,8,20,,104,细颗粒物(PM2.5)
泰州市,留学生创业园,119.888,32.4639,2025-01-14T0300,85,130,1.1,96,11,3,,113,细颗粒物(PM2.5)
泰州市,王营,119.8767,32.3289,2025-01-14T0300,73,114,1.1,104,6,0,,98,细颗粒物(PM2.5)
泰州市,姜堰区政府广场,120.1259,32.5099,2025-01-14T0300,72,116,1.0,100,13,19,,97,细颗粒物(PM2.5)
泰州市,周山河街区,119.9192,32.4322,2025-01-14T0300,84,136,1.1,63,9,21,,112,细颗粒物(PM2.5)
唐山市,雷达站,118.131,39.6363,2025-01-14T0300,68,95,1.3,70,9,5,,92,细颗粒物(PM2.5)
唐山市,物资局,118.1725,39.6334,2025-01-14T0300,30,69,1.1,56,14,17,,60,颗粒物(PM10)
唐山市,十二中,118.1705,39.6506,2025-01-14T0300,32,46,1.4,60,8,16,,46,
唐山市,小山,118.1869,39.622,2025-01-14T0300,38,40,1.1,47,14,28,,54,细颗粒物(PM2.5)
唐山市,冀东油田职工医院,118.4359,39.2762,2025-01-14T0300,69,95,0.7,74,9,2,,93,细颗粒物(PM2.5)
唐山市,正泰大街热力站,118.09279,39.58089,2025-01-14T0300,59,99,1.3,64,8,9,,80,细颗粒物(PM2.5)
唐山市,丰润区政府,118.1562,39.8322,2025-01-14T0300,41,54,1.1,38,8,23,,58,细颗粒物(PM2.5)
唐山市,金山小学,118.43673,39.73809,2025-01-14T0300,36,76,1.2,52,9,6,,63,颗粒物(PM10)
唐山市,政府服务中心,118.24498,39.66941,2025-01-14T0300,53,80,1.3,70,30,8,,73,细颗粒物(PM2.5)
唐山市,消防缸窑路中队,118.2059,39.6585,2025-01-14T0300,44,70,1.4,74,16,6,,62,细颗粒物(PM2.5)
唐山市,路南电大,118.1436,39.6202,2025-01-14T0300,60,97,1.0,70,8,8,,82,细颗粒物(PM2.5)
天津市,勤俭道,117.1444,39.1661,2025-01-14T0300,90,142,1.2,86,10,6,,119,细颗粒物(PM2.5)
天津市,大直沽八号路,117.237,39.1082,2025-01-14T0300,74,123,1.1,82,6,0,,99,细颗粒物(PM2.5)
天津市,前进道,117.202,39.0927,2025-01-14T0300,81,125,1.0,91,9,4,,108,细颗粒物(PM2.5)
天津市,淮河道,117.1837,39.2133,2025-01-14T0300,75,125,0.8,77,9,14,,100,细颗粒物(PM2.5)
天津市,跃进路,117.307,39.0877,2025-01-14T0300,82,132,1.0,78,8,8,,109,细颗粒物(PM2.5)
天津市,第四大街,117.707,39.0343,2025-01-14T0300,86,139,1.0,92,8,4,,114,细颗粒物(PM2.5)
天津市,永明路,117.457,38.8394,2025-01-14T0300,91,130,0.9,87,16,2,,120,细颗粒物(PM2.5)
天津市,汉北路,117.764,39.1587,2025-01-14T0300,75,137,1.1,72,6,5,,100,细颗粒物(PM2.5)
天津市,团泊洼,117.157,38.9194,2025-01-14T0300,,,,,,,,,
天津市,河西一经路,117.7918,39.2474,2025-01-14T0300,73,132,1.0,75,8,5,,98,细颗粒物(PM2.5)
天津市,津沽路,117.3747,38.9846,2025-01-14T0300,79,129,1.1,85,7,4,,105,细颗粒物(PM2.5)
天津市,宾水西道,117.1589,39.0845,2025-01-14T0300,86,120,1.1,86,6,3,,114,细颗粒物(PM2.5)
天津市,大理道,117.1941,39.1067,2025-01-14T0300,83,122,0.8,90,8,6,,110,细颗粒物(PM2.5)
天津市,中山北路,117.2101,39.1699,2025-01-14T0300,83,132,0.9,86,5,8,,110,细颗粒物(PM2.5)
天津市,西四道,117.3876,39.1488,2025-01-14T0300,75,128,1.0,89,10,4,,100,细颗粒物(PM2.5)
天津市,雍阳西道,117.0365,39.3828,2025-01-14T0300,50,77,0.5,73,6,12,,69,细颗粒物(PM2.5)
天津市,辛老路,117.0296,39.0605,2025-01-14T0300,94,162,0.8,87,10,7,,124,细颗粒物(PM2.5)
天津市,地纬路,116.9638,38.9375,2025-01-14T0300,129,170,1.3,87,15,4,,170,细颗粒物(PM2.5)
天津市,北环路,117.4067,40.0583,2025-01-14T0300,11,18,0.5,21,3,44,,18,
天津市,建设路,117.3045,39.7169,2025-01-14T0300,27,43,0.5,50,6,22,,43,
天津市,滨水东路,117.8199,39.3521,2025-01-14T0300,51,97,0.7,70,6,8,,74,颗粒物(PM10)
天水市,麦积山,106.0055,34.343,2025-01-14T0300,,,,,,,,,
天水市,公园小学,105.7205,34.5786,2025-01-14T0300,57,73,0.9,48,16,9,,78,细颗粒物(PM2.5)
天水市,麦积国土局,105.8945,34.5538,2025-01-14T0300,82,109,1.7,48,10,12,,109,细颗粒物(PM2.5)
铁岭市,汇工街西,123.8139,42.3022,2025-01-14T0300,92,108,1.7,59,85,6,,122,细颗粒物(PM2.5)
铁岭市,水上乐园,123.8649,42.2923,2025-01-14T0300,56,85,1.1,52,16,19,,77,细颗粒物(PM2.5)
铁岭市,银州路东段,123.8486,42.2867,2025-01-14T0300,77,104,0.9,60,8,4,,103,细颗粒物(PM2.5)
铁岭市,金沙江路北,123.7153,42.2217,2025-01-14T0300,86,108,1.7,55,8,13,,114,细颗粒物(PM2.5)
通化市,光明,125.9358,41.7173,2025-01-14T0300,33,55,0.5,36,10,21,,53,颗粒物(PM10)
通化市,铁路,125.9446,41.7325,2025-01-14T0300,33,38,1.0,37,10,20,,48,
通辽市,艺术职业学校,122.2532,43.6801,2025-01-14T0300,6,34,0.3,18,16,47,,34,
通辽市,老干部活动中心,122.2584,43.6333,2025-01-14T0300,17,24,0.1,10,10,53,,25,
通辽市,东方明珠社区,122.2922,43.6189,2025-01-14T0300,23,36,0.4,11,11,54,,36,
铜川市,党校,109.0656,35.0994,2025-01-14T0300,,,,,,,,,
铜川市,王益区政府,109.0697,35.0697,2025-01-14T0300,48,95,0.9,33,3,5,,73,颗粒物(PM10)
铜川市,新区管委会,108.9344,34.9058,2025-01-14T0300,29,68,0.4,21,7,51,,59,颗粒物(PM10)
铜川市,旺旺集团,108.9543,34.8732,2025-01-14T0300,29,70,0.4,21,5,60,,60,颗粒物(PM10)
铜陵市,市第四中学,117.8177,30.9412,2025-01-14T0300,58,100,0.7,79,11,9,,79,细颗粒物(PM2.5)
铜陵市,市公路局,117.8059,30.9273,2025-01-14T0300,60,80,1.0,50,10,24,,82,细颗粒物(PM2.5)
铜陵市,市新民污水厂,117.7807,30.9413,2025-01-14T0300,51,105,1.0,83,10,2,,78,颗粒物(PM10)
铜陵市,市第九中学,117.7439,30.8792,2025-01-14T0300,52,138,0.9,88,4,4,,94,颗粒物(PM10)
铜陵市,车站新区,117.846,30.9413,2025-01-14T0300,52,79,0.6,74,11,14,,72,细颗粒物(PM2.5)
铜陵市,市职教基地,117.8483,30.97,2025-01-14T0300,66,88,1.0,69,9,2,,89,细颗粒物(PM2.5)
铜仁市,铜仁卫校,109.1839,27.7344,2025-01-14T0300,51,89,0.8,37,1,16,,70,"颗粒物(PM10),细颗粒物(PM2.5)"
铜仁市,铜仁七中,109.1753,27.6944,2025-01-14T0300,37,41,0.5,13,2,37,,53,细颗粒物(PM2.5)
吐鲁番市,市环保局,89.1904,42.9418,2025-01-14T0300,69,130,1.8,42,7,37,,93,细颗粒物(PM2.5)
吐鲁番市,地区环保局,89.1673,42.9559,2025-01-14T0300,72,138,2.2,63,3,10,,97,细颗粒物(PM2.5)
威海市,华夏技校,122.1214,37.4236,2025-01-14T0300,88,117,0.9,46,7,36,,117,细颗粒物(PM2.5)
威海市,山大分校,122.0508,37.5236,2025-01-14T0300,78,103,0.7,48,7,36,,104,细颗粒物(PM2.5)
威海市,市监测站,122.1067,37.5072,2025-01-14T0300,90,122,1.2,48,4,25,,119,细颗粒物(PM2.5)
威海市,文登开发区,122.0693,37.2174,2025-01-14T0300,83,116,0.8,42,9,40,,110,细颗粒物(PM2.5)
威海市,临港区管委会,122.1379,37.3414,2025-01-14T0300,78,124,0.8,45,9,37,,104,细颗粒物(PM2.5)
潍坊市,环保局,119.1437,36.7023,2025-01-14T0300,103,156,1.7,83,21,4,,135,细颗粒物(PM2.5)
潍坊市,坊子邮政,119.1641,36.6523,2025-01-14T0300,110,173,1.5,83,18,4,,144,细颗粒物(PM2.5)
潍坊市,潍坊七中,119.0587,36.721,2025-01-14T0300,100,161,1.4,82,25,4,,132,细颗粒物(PM2.5)
潍坊市,高新实验学校,119.1977,36.6872,2025-01-14T0300,100,156,1.2,86,15,0,,132,细颗粒物(PM2.5)
潍坊市,潍坊学院,119.1755,36.7149,2025-01-14T0300,92,144,1.5,80,29,8,,122,细颗粒物(PM2.5)
潍坊市,寒亭区实验一小,119.2041,36.7699,2025-01-14T0300,92,127,1.4,73,14,12,,122,细颗粒物(PM2.5)
渭南市,农科所,109.5293,34.5101,2025-01-14T0300,,,,,,,,,
渭南市,日报社,109.4974,34.4877,2025-01-14T0300,70,110,0.8,68,3,4,,94,细颗粒物(PM2.5)
渭南市,体育馆,109.4636,34.493,2025-01-14T0300,71,136,1.0,67,4,5,,95,细颗粒物(PM2.5)
渭南市,高新一小,109.4259,34.5023,2025-01-14T0300,92,154,1.3,66,6,7,,122,细颗粒物(PM2.5)
温州市,瓯海,120.634,28.0089,2025-01-14T0300,53,85,0.8,83,8,3,,73,细颗粒物(PM2.5)
温州市,南浦,120.6748,27.9939,2025-01-14T0300,52,82,0.4,61,5,27,,72,细颗粒物(PM2.5)
温州市,龙湾,120.76,27.9747,2025-01-14T0300,47,91,0.6,86,6,4,,71,颗粒物(PM10)
温州市,市站,120.6709,28.0167,2025-01-14T0300,40,62,0.6,62,7,24,,57,细颗粒物(PM2.5)
温州市,茶山,120.6985,27.9251,2025-01-14T0300,39,58,0.5,25,5,49,,55,细颗粒物(PM2.5)
文山壮族苗族自治州,州水务局,104.2533,23.3594,2025-01-14T0300,50,64,0.7,18,8,93,,69,细颗粒物(PM2.5)
文山壮族苗族自治州,市便民服务中心,104.2319,23.3892,2025-01-14T0300,47,60,0.6,12,5,108,,65,细颗粒物(PM2.5)
乌海市,市林业局,106.8174,39.6973,2025-01-14T0300,24,30,0.5,8,9,57,,35,
乌海市,中海勃湾学校,106.7907,39.6667,2025-01-14T0300,16,33,0.6,5,9,67,,33,
乌海市,海北新区,106.813,39.7274,2025-01-14T0300,9,36,0.4,14,12,49,,36,
乌海市,聚英学校,106.8288,39.6778,2025-01-14T0300,3,36,0.5,9,12,59,,36,
乌兰察布市,集宁新区,113.1306,40.9923,2025-01-14T0300,19,23,0.2,2,8,67,,28,
乌兰察布市,光明街小学,113.1076,41.0385,2025-01-14T0300,18,33,0.3,15,11,62,,33,
乌兰察布市,北京八中,113.1376,40.9509,2025-01-14T0300,20,,0.2,3,14,71,,29,
乌兰察布市,市委党校,113.1775,40.9779,2025-01-14T0300,11,17,0.5,2,11,72,,23,
乌鲁木齐市,监测站,87.5801,43.8303,2025-01-14T0300,164,252,2.0,87,2,4,,214,细颗粒物(PM2.5)
乌鲁木齐市,收费所,87.6046,43.768,2025-01-14T0300,216,230,2.9,74,3,2,,266,细颗粒物(PM2.5)
乌鲁木齐市,新疆农科院农场,87.4754,43.9469,2025-01-14T0300,148,165,1.3,26,5,36,,198,细颗粒物(PM2.5)
乌鲁木齐市,铁路局,87.5525,43.8711,2025-01-14T0300,176,225,1.2,63,2,10,,226,细颗粒物(PM2.5)
乌鲁木齐市,三十一中学,87.6432,43.831,2025-01-14T0300,226,277,1.9,74,4,2,,276,细颗粒物(PM2.5)
乌鲁木齐市,米东区环保局,87.7216,44.1747,2025-01-14T0300,149,157,1.1,71,4,17,,199,细颗粒物(PM2.5)
乌鲁木齐市,培训基地,87.4651,43.4569,2025-01-14T0300,22,22,0.6,16,3,,,,
乌鲁木齐市,达坂城区环保局,88.3118,43.3658,2025-01-14T0300,27,32,0.5,13,6,58,,39,
乌鲁木齐市,红光山片区,87.6162,43.8801,2025-01-14T0300,186,231,1.6,72,6,4,,236,细颗粒物(PM2.5)
乌鲁木齐市,新师大温泉校区,87.7024,43.8004,2025-01-14T0300,182,215,2.0,82,1,9,,232,细颗粒物(PM2.5)
乌鲁木齐市,大绿谷,87.4921,43.8411,2025-01-14T0300,174,245,1.4,72,2,3,,224,细颗粒物(PM2.5)
无锡市,雪浪,120.269,31.4867,2025-01-14T0300,68,112,1.1,58,10,30,,92,细颗粒物(PM2.5)
无锡市,黄巷,120.275,31.6219,2025-01-14T0300,63,114,0.8,93,8,10,,85,细颗粒物(PM2.5)
无锡市,曹张,120.294,31.56,2025-01-14T0300,66,113,1.3,99,14,6,,89,细颗粒物(PM2.5)
无锡市,漆塘,120.242,31.5031,2025-01-14T0300,58,88,0.9,48,7,30,,79,细颗粒物(PM2.5)
无锡市,东亭,120.3489,31.5863,2025-01-14T0300,61,110,1.4,109,8,10,,83,细颗粒物(PM2.5)
无锡市,旺庄,120.354,31.5475,2025-01-14T0300,61,100,1.0,121,5,5,,83,细颗粒物(PM2.5)
无锡市,荣巷,120.245,31.5631,2025-01-14T0300,58,102,0.7,60,4,25,,79,细颗粒物(PM2.5)
无锡市,堰桥,120.299,31.6817,2025-01-14T0300,73,122,2.1,121,10,4,,98,细颗粒物(PM2.5)
无锡市,华庄,120.3142,31.4753,2025-01-14T0300,75,126,0.9,63,10,32,,100,细颗粒物(PM2.5)
吴忠市,教育园区,106.1532,37.9648,2025-01-14T0300,18,29,0.3,4,10,70,,29,
吴忠市,新区二泵站,106.1856,37.9956,2025-01-14T0300,17,36,0.3,5,9,74,,36,
吴忠市,文卫南街,106.2112,37.9768,2025-01-14T0300,18,42,0.6,10,10,64,,42,
芜湖市,监测站,118.3606,31.3519,2025-01-14T0300,80,123,0.9,94,12,2,,107,细颗粒物(PM2.5)
芜湖市,科创中心,118.3714,31.4134,2025-01-14T0300,81,128,0.7,94,11,4,,108,细颗粒物(PM2.5)
芜湖市,四水厂,118.3673,31.3131,2025-01-14T0300,77,123,0.8,75,13,24,,103,细颗粒物(PM2.5)
芜湖市,市气象局,118.4209,31.3707,2025-01-14T0300,78,109,0.6,82,12,3,,104,细颗粒物(PM2.5)
芜湖市,清苑社区,118.4781,31.3225,2025-01-14T0300,81,126,0.7,68,9,3,,108,细颗粒物(PM2.5)
芜湖市,扬子职业技术学院,118.2746,31.2326,2025-01-14T0300,71,110,0.7,61,9,27,,95,细颗粒物(PM2.5)
梧州市,市逸夫小学,111.3014,23.4832,2025-01-14T0300,57,161,0.7,45,16,17,,106,颗粒物(PM10)
梧州市,市十一中,111.3239,23.4794,2025-01-14T0300,36,260,0.9,70,10,0,,155,颗粒物(PM10)
梧州市,龙圩,111.247,23.4189,2025-01-14T0300,47,147,0.9,65,14,6,,99,颗粒物(PM10)
梧州市,龙新,111.2711,23.4835,2025-01-14T0300,37,101,0.9,50,14,12,,76,颗粒物(PM10)
五家渠市,农水大厦,87.5475,44.1756,2025-01-14T0300,145,160,1.1,27,3,48,,193,细颗粒物(PM2.5)
五家渠市,经开区管委会,87.546,44.1912,2025-01-14T0300,130,143,1.2,22,6,42,,172,细颗粒物(PM2.5)
武汉市,东湖梨园,114.3677,30.5584,2025-01-14T0300,68,84,1.0,47,13,44,,92,细颗粒物(PM2.5)
武汉市,汉阳月湖,114.2529,30.558,2025-01-14T0300,75,120,1.1,84,8,6,,100,细颗粒物(PM2.5)
武汉市,汉口花桥,114.282,30.6189,2025-01-14T0300,83,103,1.5,88,12,5,,110,细颗粒物(PM2.5)
武汉市,武昌紫阳,114.3025,30.5332,2025-01-14T0300,78,107,1.2,85,16,15,,104,细颗粒物(PM2.5)
武汉市,青山钢花,114.3646,30.6217,2025-01-14T0300,78,108,1.2,88,12,3,,104,细颗粒物(PM2.5)
武汉市,沌口新区,114.1566,30.4825,2025-01-14T0300,106,125,0.8,113,14,9,,139,细颗粒物(PM2.5)
武汉市,汉口江滩,114.3014,30.5944,2025-01-14T0300,78,92,1.2,88,12,8,,104,细颗粒物(PM2.5)
武汉市,吴家山,114.135,30.6319,2025-01-14T0300,103,140,0.9,78,12,16,,135,细颗粒物(PM2.5)
武汉市,沉湖七壕,113.8454,30.2917,2025-01-14T0300,83,112,0.9,66,7,13,,110,细颗粒物(PM2.5)
武汉市,民族大道182号,114.3877,30.4908,2025-01-14T0300,78,90,1.2,62,13,21,,104,细颗粒物(PM2.5)
