area,positionname,longitude,latitude,timepoint,pm2_5,pm10,co,no2,so2,o3,o3_8h,aqi,primarypollutant
阿坝藏族羌族自治州,州农科所,102.1879,31.914,2025-01-29T0300,3,13,1.1,2,8,57,,18,
阿坝藏族羌族自治州,马师校,102.2502,31.8896,2025-01-29T0300,8,,0.5,12,6,54,,17,
阿坝藏族羌族自治州,马尔康中学西区,102.2165,31.9024,2025-01-29T0300,8,11,0.5,4,4,50,,16,
阿克苏地区,电视台,80.292,41.1694,2025-01-29T0300,135,314,2.2,64,24,9,,182,颗粒物(PM10)
阿克苏地区,艺术中心,80.2613,41.1551,2025-01-29T0300,461,770,3.6,94,65,10,,500,颗粒物(PM10)
阿拉善盟,西城区西花园,105.6467,38.8363,2025-01-29T0300,29,37,0.6,7,11,97,,42,
阿拉善盟,蒙二幼,105.6985,38.8411,2025-01-29T0300,7,36,0.6,4,5,92,,36,
阿拉善盟,环保局新楼,105.724,38.8516,2025-01-29T0300,3,9,0.4,2,7,99,,31,
阿勒泰地区,市站,88.1264,47.8517,2025-01-29T0300,17,129,0.4,10,4,60,,90,颗粒物(PM10)
阿里地区,阿里监测站,80.1161,32.5,2025-01-29T0300,3,10,0.5,8,19,77,,25,
阿里地区,阿里藏医院,80.0903,32.5028,2025-01-29T0300,3,12,0.6,11,10,78,,25,
安康市,香溪洞,109.0318,32.6537,2025-01-29T0300,104,147,0.9,13,13,42,,137,细颗粒物(PM2.5)
安康市,汉滨区检察院,109.0072,32.6975,2025-01-29T0300,194,261,0.9,17,14,19,,244,细颗粒物(PM2.5)
安康市,市邮政管理局,109.0325,32.6913,2025-01-29T0300,193,237,0.9,19,16,21,,243,细颗粒物(PM2.5)
安庆市,环科院,117.0809,30.5177,2025-01-29T0300,194,,0.7,17,21,52,,244,细颗粒物(PM2.5)
安庆市,马山宾馆,117.0331,30.5119,2025-01-29T0300,224,258,0.7,16,34,48,,274,细颗粒物(PM2.5)
安庆市,安庆大学,116.9896,30.6145,2025-01-29T0300,298,,0.6,14,23,39,,348,细颗粒物(PM2.5)
安庆市,市人大,117.0598,30.5351,2025-01-29T0300,330,399,0.8,20,67,43,,380,细颗粒物(PM2.5)
安顺市,伍家关,105.9606,26.2611,2025-01-29T0300,116,141,0.6,10,20,62,,152,细颗粒物(PM2.5)
安顺市,凤凰山,105.9408,26.2431,2025-01-29T0300,69,92,0.5,8,15,70,,93,细颗粒物(PM2.5)
安顺市,金钟山,105.9439,26.2564,2025-01-29T0300,110,152,0.6,10,19,59,,144,细颗粒物(PM2.5)
安顺市,娄家坡,105.8983,26.2481,2025-01-29T0300,76,84,0.6,6,11,68,,102,细颗粒物(PM2.5)
安阳市,棉研所,114.4839,36.0621,2025-01-29T0300,296,354,1.3,18,63,26,,346,细颗粒物(PM2.5)
安阳市,红庙街,114.3551,36.1017,2025-01-29T0300,284,406,1.3,41,34,16,,334,细颗粒物(PM2.5)
安阳市,银杏小区,114.361,36.0681,2025-01-29T0300,291,315,1.1,34,27,14,,341,细颗粒物(PM2.5)
安阳市,信访局,114.3922,36.0878,2025-01-29T0300,184,256,0.9,18,25,26,,234,细颗粒物(PM2.5)
安阳市,左辅环卫站,114.4705,36.0637,2025-01-29T0300,259,292,0.9,13,58,42,,309,细颗粒物(PM2.5)
安阳市,安钢职工学校,114.2917,36.0949,2025-01-29T0300,383,531,1.5,36,91,27,,431,颗粒物(PM10)
鞍山市,深沟寺,123.044,41.1196,2025-01-29T0300,220,333,3.3,30,23,30,,270,细颗粒物(PM2.5)
鞍山市,太阳城,123.011,41.0931,2025-01-29T0300,576,611,1.6,45,24,7,,500,"颗粒物(PM10),细颗粒物(PM2.5)"
鞍山市,太平,123.0485,41.1442,2025-01-29T0300,141,193,1.2,18,33,54,,188,细颗粒物(PM2.5)
鞍山市,铁西三道街,122.9642,41.0971,2025-01-29T0300,487,590,2.0,35,20,14,,492,细颗粒物(PM2.5)
鞍山市,明达新区,123.022,41.0821,2025-01-29T0300,764,918,1.3,42,39,22,,500,"颗粒物(PM10),细颗粒物(PM2.5)"
鞍山市,千山,123.1289,41.0228,2025-01-29T0300,,,,,,,60,,
鞍山市,兴盛南路290号,122.9446,41.0826,2025-01-29T0300,564,607,1.8,50,24,11,,500,"颗粒物(PM10),细颗粒物(PM2.5)"
巴彦淖尔市,附二中,107.4212,40.761,2025-01-29T0300,507,,2.4,58,21,20,,500,细颗粒物(PM2.5)
巴彦淖尔市,市环保大楼,107.37,40.7372,2025-01-29T0300,125,201,0.7,28,9,38,,165,细颗粒物(PM2.5)
巴音郭楞蒙古自治州,孔雀公园,86.1472,41.7538,2025-01-29T0300,64,470,0.6,11,3,54,,363,颗粒物(PM10)
巴音郭楞蒙古自治州,棉纺厂,86.1972,41.7166,2025-01-29T0300,65,548,0.5,22,2,48,,448,颗粒物(PM10)
巴音郭楞蒙古自治州,经济开发区,86.2357,41.7173,2025-01-29T0300,38,432,0.5,6,3,61,,315,颗粒物(PM10)
巴中市,苏山坪,106.7677,31.8794,2025-01-29T0300,80,122,0.7,5,9,74,,107,细颗粒物(PM2.5)
巴中市,市五中,106.7768,31.8526,2025-01-29T0300,205,276,1.2,21,8,15,,255,细颗粒物(PM2.5)
巴中市,圣泉水务公司,106.7418,31.8654,2025-01-29T0300,138,182,0.9,12,6,34,,183,细颗粒物(PM2.5)
巴中市,市中心医院,106.7616,31.8344,2025-01-29T0300,225,288,1.2,27,6,5,,275,细颗粒物(PM2.5)
白城市,洮北区环保局,122.7911,45.6077,2025-01-29T0300,89,115,0.5,13,13,58,,118,细颗粒物(PM2.5)
白城市,市环保局,122.8738,45.5725,2025-01-29T0300,76,85,0.6,11,7,59,,102,细颗粒物(PM2.5)
白山市,喜丰,126.4219,41.9171,2025-01-29T0300,46,56,0.7,7,15,60,,64,细颗粒物(PM2.5)
白山市,环保局,126.4077,41.9419,2025-01-29T0300,26,49,0.7,7,12,67,,49,
白银市,第三小学,104.1724,36.5446,2025-01-29T0300,368,476,1.9,47,46,11,,412,细颗粒物(PM2.5)
白银市,动力公司,104.1465,36.5482,2025-01-29T0300,113,127,1.3,30,8,30,,148,细颗粒物(PM2.5)
百色市,市监测站,106.6103,23.9011,2025-01-29T0300,135,145,0.7,12,18,20,,179,细颗粒物(PM2.5)
百色市,市中心血站,106.6538,23.8859,2025-01-29T0300,75,85,0.4,9,10,29,,100,细颗粒物(PM2.5)
百色市,祈福高中,106.6085,23.8798,2025-01-29T0300,114,254,0.8,14,10,18,,152,颗粒物(PM10)
蚌埠市,工人疗养院,117.396,32.939,2025-01-29T0300,92,121,0.7,15,13,75,,122,细颗粒物(PM2.5)
蚌埠市,百货大楼,117.3605,32.9427,2025-01-29T0300,161,185,0.5,30,12,47,,211,细颗粒物(PM2.5)
蚌埠市,蚌埠学院,117.4185,32.8911,2025-01-29T0300,111,139,0.4,11,17,70,,145,细颗粒物(PM2.5)
蚌埠市,淮上区政府,117.3533,32.9673,2025-01-29T0300,149,175,0.7,32,15,52,,199,细颗粒物(PM2.5)
蚌埠市,高新区,117.3145,32.8977,2025-01-29T0300,258,288,0.5,21,15,45,,308,细颗粒物(PM2.5)
蚌埠市,蚌埠田家炳中学,117.3092,32.9314,2025-01-29T0300,223,241,0.5,27,30,49,,273,细颗粒物(PM2.5)
包头市,市环境监测站,109.8756,40.6532,2025-01-29T0300,1449,1455,1.3,67,74,11,,500,"颗粒物(PM10),细颗粒物(PM2.5)"
包头市,包头八中,109.9991,40.5842,2025-01-29T0300,1103,,2.3,66,96,16,,500,细颗粒物(PM2.5)
包头市,青山宾馆,109.8538,40.6821,2025-01-29T0300,253,694,1.1,44,17,16,,500,颗粒物(PM10)
包头市,惠龙物流,109.8642,40.6288,2025-01-29T0300,1039,1283,2.6,80,155,17,,500,"颗粒物(PM10),细颗粒物(PM2.5)"
包头市,东河鸿龙湾,110.0377,40.5546,2025-01-29T0300,472,537,3.1,68,44,21,,482,细颗粒物(PM2.5)
包头市,滨河大厦,109.9154,40.5685,2025-01-29T0300,1096,1411,3.8,91,74,23,,500,"颗粒物(PM10),细颗粒物(PM2.5)"
包头市,包头市委党校,109.9447,40.6261,2025-01-29T0300,1282,,3.4,84,91,25,,500,细颗粒物(PM2.5)
包头市,昆区政府,109.8331,40.6576,2025-01-29T0300,446,1060,1.5,60,46,12,,500,颗粒物(PM10)
宝鸡市,庙沟村,107.185,34.3063,2025-01-29T0300,61,83,0.6,12,6,80,,83,细颗粒物(PM2.5)
宝鸡市,竹园沟,107.0708,34.3017,2025-01-29T0300,53,64,0.9,8,6,47,,73,细颗粒物(PM2.5)
宝鸡市,三陆医院,107.1906,34.3672,2025-01-29T0300,145,,0.7,18,6,54,,193,细颗粒物(PM2.5)
宝鸡市,监测站,107.1431,34.3547,2025-01-29T0300,121,174,0.7,17,8,39,,159,细颗粒物(PM2.5)
宝鸡市,技工学校,107.1186,34.3739,2025-01-29T0300,162,180,0.8,17,6,39,,212,细颗粒物(PM2.5)
宝鸡市,陈仓区环保局家属楼,107.3906,34.3528,2025-01-29T0300,210,234,1.3,36,35,33,,260,细颗粒物(PM2.5)
宝鸡市,文理学院,107.2058,34.3497,2025-01-29T0300,169,221,0.7,17,8,44,,219,细颗粒物(PM2.5)
宝鸡市,三迪小学,107.2386,34.3622,2025-01-29T0300,176,230,0.8,20,9,40,,226,细颗粒物(PM2.5)
保定市,游泳馆,115.493,38.8632,2025-01-29T0300,310,326,0.7,56,33,13,,360,细颗粒物(PM2.5)
保定市,华电二区,115.5213,38.8959,2025-01-29T0300,325,,0.7,37,9,18,,375,细颗粒物(PM2.5)
保定市,接待中心,115.4713,38.9108,2025-01-29T0300,300,307,0.8,38,21,24,,350,细颗粒物(PM2.5)
保定市,地表水厂,115.4612,38.8416,2025-01-29T0300,326,350,0.8,51,24,24,,376,细颗粒物(PM2.5)
保定市,满城区生态环境分局,115.31981,38.95208,2025-01-29T0300,312,337,1.1,39,32,26,,362,细颗粒物(PM2.5)
保定市,清苑区第二中学,115.47694,38.76408,2025-01-29T0300,357,456,0.9,42,35,19,,405,细颗粒物(PM2.5)
保定市,徐水物探局,115.62909,39.02311,2025-01-29T0300,290,,0.6,46,26,15,,340,细颗粒物(PM2.5)
保定市,双鹰农机,115.4202,38.8656,2025-01-29T0300,318,340,0.8,36,25,22,,368,细颗粒物(PM2.5)
保定市,植保所站,115.5150,38.8590,2025-01-29T0300,306,321,0.8,44,32,12,,356,细颗粒物(PM2.5)
保山市,市环境监测站,99.1678,25.1081,2025-01-29T0300,122,128,1.0,19,11,12,,160,细颗粒物(PM2.5)
保山市,市环保局,99.1711,25.1328,2025-01-29T0300,135,170,1.1,17,15,11,,179,细颗粒物(PM2.5)
北海市,牛尾岭水库,109.2262,21.588,2025-01-29T0300,158,191,0.7,,9,20,,208,细颗粒物(PM2.5)
北海市,海滩公园,109.1436,21.4086,2025-01-29T0300,149,227,0.6,17,16,70,,199,细颗粒物(PM2.5)
北海市,新市环保局,109.0981,21.4661,2025-01-29T0300,168,226,0.7,27,25,52,,218,细颗粒物(PM2.5)
北海市,北海工业园,109.1778,21.5233,2025-01-29T0300,188,248,0.7,26,34,40,,238,细颗粒物(PM2.5)
北海市,龙潭自来水厂,109.1911,21.4415,2025-01-29T0300,344,362,0.8,21,27,32,,394,细颗粒物(PM2.5)
北京市,万寿西宫,116.3621,39.8784,2025-01-29T0300,166,213,0.7,34,22,44,,216,细颗粒物(PM2.5)
北京市,定陵,116.2202,40.2915,2025-01-29T0300,,,,,,,,,
北京市,东四,116.4174,39.9289,2025-01-29T0300,105,124,0.6,25,8,36,,138,细颗粒物(PM2.5)
北京市,天坛,116.4072,39.8863,2025-01-29T0300,123,152,0.6,19,3,39,,162,细颗粒物(PM2.5)
北京市,农展馆,116.462,39.9365,2025-01-29T0300,77,91,0.8,45,11,30,,103,细颗粒物(PM2.5)
北京市,官园,116.3392,39.9295,2025-01-29T0300,93,107,0.5,24,13,44,,123,细颗粒物(PM2.5)
北京市,海淀万柳,116.2878,39.9611,2025-01-29T0300,44,60,0.7,38,6,28,,62,细颗粒物(PM2.5)
北京市,顺义新城,116.6636,40.135,2025-01-29T0300,129,143,0.3,9,3,45,,170,细颗粒物(PM2.5)
北京市,怀柔镇,116.6275,40.3275,2025-01-29T0300,54,69,0.4,10,4,48,,74,细颗粒物(PM2.5)
北京市,昌平镇,116.2296,40.217,2025-01-29T0300,19,27,0.2,13,2,43,,28,
北京市,奥体中心,116.3966,39.9821,2025-01-29T0300,42,51,0.3,23,8,50,,59,细颗粒物(PM2.5)
北京市,延庆夏都,115.9718,40.4529,2025-01-29T0300,131,162,0.6,15,14,32,,173,细颗粒物(PM2.5)
北京市,平谷新城,117.0709,40.1465,2025-01-29T0300,192,207,0.6,22,9,17,,242,细颗粒物(PM2.5)
北京市,密云新城,116.8336,40.4095,2025-01-29T0300,88,108,0.2,29,7,42,,117,细颗粒物(PM2.5)
北京市,门头沟三家店,116.088,39.9726,2025-01-29T0300,34,,0.2,4,4,39,,49,
北京市,丰台云岗,116.1541,39.8204,2025-01-29T0300,174,227,0.4,15,20,45,,224,细颗粒物(PM2.5)
北京市,通州东关,116.6804,39.9081,2025-01-29T0300,155,192,0.5,33,13,14,,205,细颗粒物(PM2.5)
北京市,房山燕山,115.9577,39.7603,2025-01-29T0300,111,116,0.5,12,9,33,,145,细颗粒物(PM2.5)
北京市,大兴旧宫,116.4672,39.7733,2025-01-29T0300,136,171,0.4,17,4,37,,180,细颗粒物(PM2.5)
北京市,延庆石河营,115.986,40.4563,2025-01-29T0300,141,176,0.7,15,9,31,,188,细颗粒物(PM2.5)
北京市,怀柔新城,116.6151,40.3053,2025-01-29T0300,33,43,0.2,3,3,48,,48,
北京市,丰台小屯,116.2545,39.8768,2025-01-29T0300,227,280,0.5,33,21,34,,277,细颗粒物(PM2.5)
北京市,密云镇,116.84,40.3844,2025-01-29T0300,205,265,0.3,25,15,27,,255,细颗粒物(PM2.5)
北京市,八角,116.1942,39.91583,2025-01-29T0300,63,83,0.4,35,4,24,,85,细颗粒物(PM2.5)
本溪市,大峪,123.8275,41.3064,2025-01-29T0300,118,173,0.7,20,23,44,,155,细颗粒物(PM2.5)
本溪市,溪湖,123.7567,41.3325,2025-01-29T0300,93,141,0.6,18,10,42,,123,细颗粒物(PM2.5)
本溪市,彩屯,123.7169,41.3094,2025-01-29T0300,203,231,1.0,18,13,44,,253,细颗粒物(PM2.5)
本溪市,东明,123.7669,41.2864,2025-01-29T0300,67,104,0.6,18,13,50,,90,细颗粒物(PM2.5)
本溪市,新立屯,123.7992,41.2664,2025-01-29T0300,93,115,1.1,20,13,49,,123,细颗粒物(PM2.5)
本溪市,威宁,123.8142,41.3472,2025-01-29T0300,134,191,0.7,28,3,30,,178,细颗粒物(PM2.5)
毕节市,八中,105.2864,27.3125,2025-01-29T0300,100,118,0.6,12,10,47,,132,细颗粒物(PM2.5)
毕节市,师专,105.31,27.2944,2025-01-29T0300,95,110,0.5,14,14,50,,125,细颗粒物(PM2.5)
毕节市,碧海医院,105.3688,27.3599,2025-01-29T0300,125,155,0.8,15,16,46,,165,细颗粒物(PM2.5)
滨州市,第二水厂,118.0018,37.3617,2025-01-29T0300,166,202,0.7,31,27,35,,216,细颗粒物(PM2.5)
滨州市,北中新校,117.9776,37.393,2025-01-29T0300,141,168,1.1,28,26,38,,188,细颗粒物(PM2.5)
滨州市,中海酒店,117.9378,37.3956,2025-01-29T0300,134,163,0.7,26,32,49,,178,细颗粒物(PM2.5)
滨州市,开发区一中,117.9378,37.3553,2025-01-29T0300,212,,0.7,48,52,25,,262,细颗粒物(PM2.5)
滨州市,金海六路,118.0917,37.694,2025-01-29T0300,75,90,0.8,11,15,61,,100,细颗粒物(PM2.5)
滨州市,滨州市西街道办事处,117.9956,37.3753,2025-01-29T0300,163,175,1.0,26,34,32,,213,细颗粒物(PM2.5)
亳州市,污水处理厂,115.8072,33.8399,2025-01-29T0300,222,267,0.7,18,36,59,,272,细颗粒物(PM2.5)
亳州市,三国揽胜宫,115.7789,33.8518,2025-01-29T0300,261,266,0.5,19,37,67,,311,细颗粒物(PM2.5)
亳州市,亳州学院,115.7633,33.8034,2025-01-29T0300,308,377,0.9,22,53,54,,358,细颗粒物(PM2.5)
博尔塔拉蒙古自治州,市党校,82.0485,44.8556,2025-01-29T0300,199,267,1.0,16,7,39,,249,细颗粒物(PM2.5)
博尔塔拉蒙古自治州,市环保局,82.0806,44.8969,2025-01-29T0300,171,200,1.6,35,,36,,221,细颗粒物(PM2.5)
沧州市,沧县城建局,116.8842,38.2991,2025-01-29T0300,470,,0.8,38,76,37,,480,细颗粒物(PM2.5)
沧州市,电视转播站,116.8584,38.3254,2025-01-29T0300,478,506,1.1,43,90,24,,486,细颗粒物(PM2.5)
沧州市,市环保局,116.8709,38.3228,2025-01-29T0300,462,464,0.8,38,82,26,,475,细颗粒物(PM2.5)
沧州市,河北水利电力学院,116.8136,38.3004,2025-01-29T0300,471,593,0.9,40,103,24,,493,颗粒物(PM10)
昌都市,昌都监测站,97.1806,31.1273,2025-01-29T0300,57,85,1.1,11,8,45,,78,细颗粒物(PM2.5)
昌都市,昌都会议中心,97.1714,31.1406,2025-01-29T0300,10,120,0.3,1,3,60,,85,颗粒物(PM10)
昌吉回族自治州,天山天池,88.1236,43.8886,2025-01-29T0300,6,,0.6,2,4,74,,24,
昌吉回族自治州,新区政务中心,87.2717,44.0297,2025-01-29T0300,233,292,1.5,67,1,2,,283,细颗粒物(PM2.5)
昌吉回族自治州,亚心广场,87.3095,44.0142,2025-01-29T0300,705,793,1.7,64,18,4,,500,"颗粒物(PM10),细颗粒物(PM2.5)"
长春市,食品厂,125.3325,43.9166,2025-01-29T0300,99,114,0.4,18,12,50,,130,细颗粒物(PM2.5)
长春市,客车厂,125.2863,43.9027,2025-01-29T0300,116,126,0.5,19,12,48,,152,细颗粒物(PM2.5)
长春市,邮电学院,125.2841,43.8463,2025-01-29T0300,152,168,0.8,19,29,46,,202,细颗粒物(PM2.5)
长春市,劳动公园,125.3716,43.8772,2025-01-29T0300,110,124,0.6,17,17,52,,144,细颗粒物(PM2.5)
长春市,园林处,125.3297,43.8805,2025-01-29T0300,,113,0.5,14,21,49,,,
长春市,净月潭,125.4605,43.79,2025-01-29T0300,148,180,0.5,12,14,,,198,细颗粒物(PM2.5)
长春市,甩湾子,125.7194,43.515,2025-01-29T0300,,,,,,,,,
长春市,经开区环卫处,125.3863,43.8447,2025-01-29T0300,108,136,0.6,15,22,42,,142,细颗粒物(PM2.5)
长春市,高新区管委会,125.245,43.7783,2025-01-29T0300,134,151,0.8,14,13,50,,178,细颗粒物(PM2.5)
长春市,岱山公园,125.1761,43.8325,2025-01-29T0300,129,170,0.7,15,10,49,,170,细颗粒物(PM2.5)
长沙市,经开区环保局,113.0833,28.2325,2025-01-29T0300,415,555,0.8,31,51,32,,455,颗粒物(PM10)
长沙市,高开区环保局,112.8872,28.2189,2025-01-29T0300,491,1202,1.1,37,47,37,,500,颗粒物(PM10)
长沙市,马坡岭,113.0792,28.2053,2025-01-29T0300,614,920,1.0,36,67,20,,500,"颗粒物(PM10),细颗粒物(PM2.5)"
长沙市,湖南师范大学,112.9394,28.19,2025-01-29T0300,255,529,0.7,10,24,50,,429,颗粒物(PM10)
长沙市,雨花区环保局,113.0178,28.1322,2025-01-29T0300,243,330,0.7,14,33,58,,293,细颗粒物(PM2.5)
长沙市,伍家岭,112.9792,28.2597,2025-01-29T0300,952,1346,1.8,40,56,2,,500,"颗粒物(PM10),细颗粒物(PM2.5)"
长沙市,火车新站,113.0014,28.1944,2025-01-29T0300,256,567,0.8,31,28,49,,467,颗粒物(PM10)
长沙市,天心区环保局,112.9844,28.1178,2025-01-29T0300,227,358,0.7,15,20,61,,277,细颗粒物(PM2.5)
长沙市,湖南中医药大学,112.8908,28.1308,2025-01-29T0300,704,908,1.2,41,39,0,,500,"颗粒物(PM10),细颗粒物(PM2.5)"
长沙市,沙坪,112.9581,28.3611,2025-01-29T0300,300,341,1.0,29,34,50,,350,细颗粒物(PM2.5)
长治市,清华站,113.1147,36.1547,2025-01-29T0300,63,156,0.9,20,21,40,,103,颗粒物(PM10)
长治市,审计局,113.0886,36.2125,2025-01-29T0300,80,134,0.8,20,27,47,,107,细颗粒物(PM2.5)
长治市,长治八中,113.0844,36.1856,2025-01-29T0300,243,316,1.1,26,31,31,,293,细颗粒物(PM2.5)
长治市,德盛苑,113.1569,36.1911,2025-01-29T0300,27,46,0.8,10,18,72,,46,
长治市,向阳小学,113.06,36.0464,2025-01-29T0300,58,86,0.7,15,81,60,,79,细颗粒物(PM2.5)
长治市,屯留一中,112.8792,36.3144,2025-01-29T0300,56,61,0.9,17,18,51,,77,细颗粒物(PM2.5)
长治市,英华南巷50号,113.1131,36.19948,2025-01-29T0300,53,88,0.8,31,27,46,,73,细颗粒物(PM2.5)
长治市,学府街1号,113.2367,36.3344,2025-01-29T0300,79,106,0.7,16,17,50,,105,细颗粒物(PM2.5)
常德市,市二中,111.6975,28.9703,2025-01-29T0300,92,481,0.9,31,56,10,,377,颗粒物(PM10)
常德市,白鹤山,111.7158,29.1456,2025-01-29T0300,,,,,,,,,
常德市,武陵区永安,111.7153,29.0289,2025-01-29T0300,341,344,1.2,30,21,24,,391,细颗粒物(PM2.5)
常德市,鼎城区玉霞,111.6892,28.9881,2025-01-29T0300,366,504,1.5,22,36,4,,411,细颗粒物(PM2.5)
常德市,武陵区长庚,111.6625,29.0531,2025-01-29T0300,493,674,1.1,30,48,12,,500,颗粒物(PM10)
常州市,市监测站,119.9633,31.762,2025-01-29T0300,112,157,0.7,22,19,60,,147,细颗粒物(PM2.5)
常州市,武进监测站,119.9468,31.7069,2025-01-29T0300,88,,0.6,12,12,62,,117,细颗粒物(PM2.5)
常州市,安家,119.9255,31.9087,2025-01-29T0300,202,266,0.6,30,25,35,,252,细颗粒物(PM2.5)
常州市,行政中心,119.9805,31.8174,2025-01-29T0300,126,142,0.6,15,20,55,,166,细颗粒物(PM2.5)
常州市,经开区,120.0522,31.7748,2025-01-29T0300,82,90,0.4,21,10,66,,109,细颗粒物(PM2.5)
常州市,钟楼,119.9025,31.7964,2025-01-29T0300,124,142,0.7,15,18,52,,163,细颗粒物(PM2.5)
常州市,武进经发区,119.8598,31.7066,2025-01-29T0300,128,168,0.7,14,16,60,,169,细颗粒物(PM2.5)
常州市,金坛城区,119.5826,31.7245,2025-01-29T0300,85,130,0.5,8,14,66,,113,细颗粒物(PM2.5)
朝阳市,西梁,120.4318,41.5881,2025-01-29T0300,816,1429,2.0,48,122,15,,500,"颗粒物(PM10),细颗粒物(PM2.5)"
朝阳市,河畔小区,120.4521,41.5646,2025-01-29T0300,616,902,1.6,41,101,16,,500,"颗粒物(PM10),细颗粒物(PM2.5)"
朝阳市,八里堡,120.4176,41.5648,2025-01-29T0300,802,878,1.9,44,102,23,,500,"颗粒物(PM10),细颗粒物(PM2.5)"
朝阳市,农业园区,120.3806,41.5969,2025-01-29T0300,945,1247,1.9,47,172,14,,500,"颗粒物(PM10),细颗粒物(PM2.5)"
潮州市,西园路,116.6367,23.6719,2025-01-29T0300,63,74,0.2,9,5,44,,85,细颗粒物(PM2.5)
潮州市,市政府,116.6183,23.6608,2025-01-29T0300,49,64,0.4,21,6,50,,68,细颗粒物(PM2.5)
潮州市,金山,116.6461,23.6761,2025-01-29T0300,52,55,0.4,10,6,40,,72,细颗粒物(PM2.5)
郴州市,马头岭,113.0073,25.9061,2025-01-29T0300,104,155,0.7,14,13,41,,137,细颗粒物(PM2.5)
郴州市,市职中,113.0116,25.8226,2025-01-29T0300,228,257,0.5,13,15,23,,278,细颗粒物(PM2.5)
郴州市,市审计局,113.0383,25.8071,2025-01-29T0300,274,304,1.0,19,27,17,,324,细颗粒物(PM2.5)
郴州市,市环保局,113.0348,25.7759,2025-01-29T0300,212,256,0.6,19,13,18,,262,细颗粒物(PM2.5)
郴州市,人民路派出所,113.0138,25.8011,2025-01-29T0300,322,375,0.6,22,26,16,,372,细颗粒物(PM2.5)
成都市,金泉两河,103.9728,30.7236,2025-01-29T0300,346,,1.4,46,3,1,,396,细颗粒物(PM2.5)
成都市,十里店,104.176,30.6872,2025-01-29T0300,606,675,0.7,52,12,8,,500,"颗粒物(PM10),细颗粒物(PM2.5)"
成都市,三瓦窑,104.079,30.5706,2025-01-29T0300,442,511,0.8,37,22,15,,462,细颗粒物(PM2.5)
成都市,沙河铺,104.1114,30.63,2025-01-29T0300,382,387,0.5,40,2,11,,422,细颗粒物(PM2.5)
成都市,君平街,104.0786,30.6531,2025-01-29T0300,281,,0.9,71,10,2,,331,细颗粒物(PM2.5)
成都市,灵岩寺,103.613,31.0283,2025-01-29T0300,,,,,,,,,
成都市,大石西路,104.0239,30.65639,2025-01-29T0300,244,266,0.7,58,3,3,,294,细颗粒物(PM2.5)
成都市,龙泉驿区区政府,104.2725,30.5589,2025-01-29T0300,53,92,0.7,12,5,64,,73,细颗粒物(PM2.5)
成都市,金博路,104.0106,30.6931,2025-01-29T0300,293,336,1.0,62,2,2,,343,细颗粒物(PM2.5)
成都市,华阳,104.0578,30.5225,2025-01-29T0300,437,459,0.9,51,3,4,,458,细颗粒物(PM2.5)
成都市,青白江技师分院,104.3853,30.7453,2025-01-29T0300,68,97,0.3,14,3,65,,92,细颗粒物(PM2.5)
成都市,科学城,104.0789,30.4072,2025-01-29T0300,125,164,0.7,10,5,18,,165,细颗粒物(PM2.5)
成都市,光华大道三段,103.8506,30.6947,2025-01-29T0300,634,682,1.0,45,4,1,,500,"颗粒物(PM10),细颗粒物(PM2.5)"
成都市,鲸龙路1057号,104.2433,30.5353,2025-01-29T0300,374,453,0.8,33,9,20,,416,细颗粒物(PM2.5)
承德市,铁路,117.9531,40.9081,2025-01-29T0300,111,143,0.7,28,18,29,,145,细颗粒物(PM2.5)
承德市,中国银行,117.9392,40.9763,2025-01-29T0300,190,287,0.5,23,11,25,,240,细颗粒物(PM2.5)
承德市,开发区,117.9503,40.928,2025-01-29T0300,174,242,0.6,31,17,29,,224,细颗粒物(PM2.5)
承德市,文化中心,117.8051,40.9655,2025-01-29T0300,77,111,0.5,24,10,32,,103,细颗粒物(PM2.5)
承德市,离宫,117.9268,41.0026,2025-01-29T0300,134,147,0.4,14,10,40,,178,细颗粒物(PM2.5)
池州市,池州学院,117.47,30.6618,2025-01-29T0300,83,105,0.4,15,11,43,,110,细颗粒物(PM2.5)
池州市,展览馆,117.4918,30.6617,2025-01-29T0300,96,110,0.4,9,4,38,,127,细颗粒物(PM2.5)
池州市,第八中学,117.5627,30.695,2025-01-29T0300,133,165,0.3,5,12,51,,176,细颗粒物(PM2.5)
池州市,第十二中学,117.5038,30.6243,2025-01-29T0300,100,120,0.4,25,8,26,,132,细颗粒物(PM2.5)
赤峰市,松山一中,118.9233,42.2816,2025-01-29T0300,246,352,0.9,33,62,28,,296,细颗粒物(PM2.5)
赤峰市,哈达街,118.9576,42.2728,2025-01-29T0300,452,455,1.3,37,68,25,,468,细颗粒物(PM2.5)
赤峰市,天义路,118.8788,42.2554,2025-01-29T0300,434,541,0.9,29,83,32,,456,细颗粒物(PM2.5)
赤峰市,银河街,119.2658,42.0353,2025-01-29T0300,569,633,2.4,48,109,13,,500,"颗粒物(PM10),细颗粒物(PM2.5)"
赤峰市,桥北物流园区,118.9359,42.3147,2025-01-29T0300,463,,1.0,29,75,32,,476,细颗粒物(PM2.5)
崇左市,市环保局江州分局,107.3476,22.4136,2025-01-29T0300,159,219,0.9,15,19,34,,209,细颗粒物(PM2.5)
崇左市,城南新区,107.3702,22.3707,2025-01-29T0300,229,265,0.9,21,38,33,,279,细颗粒物(PM2.5)
滁州市,老年大学,118.3093,32.3153,2025-01-29T0300,173,192,0.4,18,11,39,,223,细颗粒物(PM2.5)
滁州市,人大宾馆,118.3244,32.2786,2025-01-29T0300,34,99,0.6,9,8,52,,75,颗粒物(PM10)
滁州市,市政府原办公楼,118.3118,32.3038,2025-01-29T0300,81,94,0.3,19,5,47,,108,细颗粒物(PM2.5)
滁州市,图书馆,118.3267,32.2634,2025-01-29T0300,71,117,0.5,9,9,67,,95,细颗粒物(PM2.5)
楚雄彝族自治州,州环境监测站,101.5482,25.0441,2025-01-29T0300,12,,0.7,3,6,42,,18,
楚雄彝族自治州,市经济开发区,101.538,25.0492,2025-01-29T0300,17,,0.6,3,6,41,,25,
达州市,达州职业技术学院,107.5277,31.2827,2025-01-29T0300,176,233,1.3,19,6,11,,226,细颗粒物(PM2.5)
达州市,市环境监测站,107.5086,31.2186,2025-01-29T0300,132,175,1.1,24,6,17,,175,细颗粒物(PM2.5)
达州市,凤凰小区,107.4988,31.2132,2025-01-29T0300,129,180,1.0,23,9,22,,170,细颗粒物(PM2.5)
达州市,达县机关宾馆,107.5082,31.1986,2025-01-29T0300,100,149,1.0,23,6,22,,132,细颗粒物(PM2.5)
达州市,市政中心,107.4644,31.2124,2025-01-29T0300,117,154,0.9,35,4,9,,153,细颗粒物(PM2.5)
大理白族自治州,大理市环境监测站,100.1542,25.7054,2025-01-29T0300,15,,0.7,4,7,37,,22,
大理白族自治州,大理古城,100.2171,25.5811,2025-01-29T0300,35,,0.9,6,7,33,,50,
大连市,甘井子,121.612,38.9741,2025-01-29T0300,97,98,0.4,14,16,60,,128,细颗粒物(PM2.5)
大连市,周水子,121.565,38.9511,2025-01-29T0300,94,,0.7,16,21,54,,124,细颗粒物(PM2.5)
大连市,星海三站,121.5637,38.8845,2025-01-29T0300,82,97,0.8,12,18,54,,109,细颗粒物(PM2.5)
大连市,青泥洼桥,121.6302,38.9117,2025-01-29T0300,89,89,0.4,7,20,58,,118,细颗粒物(PM2.5)
大连市,傅家庄,121.6251,38.8638,2025-01-29T0300,35,93,0.8,6,19,58,,72,颗粒物(PM10)
大连市,七贤岭,121.5213,38.8661,2025-01-29T0300,87,103,0.7,15,17,56,,115,细颗粒物(PM2.5)
大连市,旅顺,121.2529,38.8061,2025-01-29T0300,43,125,0.5,9,11,65,,88,颗粒物(PM10)
大连市,金州,121.7485,39.1311,2025-01-29T0300,,,,,,,,,
大连市,开发区,121.7811,39.0496,2025-01-29T0300,74,90,0.5,10,14,51,,99,细颗粒物(PM2.5)
大连市,双D港,121.9762,39.0631,2025-01-29T0300,43,90,1.0,12,18,62,,70,颗粒物(PM10)
大庆市,大同区,124.81117,46.03138,2025-01-29T0300,52,,0.4,6,8,53,,72,细颗粒物(PM2.5)
大庆市,龙凤区,125.129,46.533,2025-01-29T0300,26,46,0.4,10,13,61,,46,
大庆市,红岗区,124.902,46.408,2025-01-29T0300,35,51,0.4,6,11,60,,51,颗粒物(PM10)
大庆市,萨尔图区,125.153,46.586,2025-01-29T0300,39,,0.2,6,7,70,,55,细颗粒物(PM2.5)
大庆市,让胡路区,124.9042,46.6215,2025-01-29T0300,36,39,0.3,3,10,64,,52,细颗粒物(PM2.5)
大庆市,萨区政府监测点,125.141,46.634,2025-01-29T0300,22,45,0.4,7,7,65,,45,
大同市,果树场,113.3819,40.1097,2025-01-29T0300,,,,,,,,,
大同市,云冈宾馆,113.2994,40.0758,2025-01-29T0300,133,1136,3.0,64,59,13,,500,颗粒物(PM10)
大同市,大同大学,113.3444,40.0917,2025-01-29T0300,313,858,1.2,40,24,23,,500,颗粒物(PM10)
大同市,安家小村,113.2661,40.1269,2025-01-29T0300,166,317,3.7,42,44,25,,216,细颗粒物(PM2.5)
大同市,教育学院,113.2711,40.0844,2025-01-29T0300,167,300,1.2,31,36,27,,217,细颗粒物(PM2.5)
大同市,大同市卫生学校,113.3397,40.0597,2025-01-29T0300,360,1514,2.3,70,66,12,,500,颗粒物(PM10)
大同市,云冈站,113.1367,40.1122,2025-01-29T0300,202,212,1.2,40,29,17,,252,细颗粒物(PM2.5)
大同市,图书馆,113.1186,40.2556,2025-01-29T0300,86,108,1.0,17,12,36,,114,细颗粒物(PM2.5)
大同市,区一中,113.5931,40.0461,2025-01-29T0300,511,597,2.5,55,59,18,,500,细颗粒物(PM2.5)
大同市,魏都大道141号,113.2798,40.0997,2025-01-29T0300,636,1018,3.4,61,45,17,,500,"颗粒物(PM10),细颗粒物(PM2.5)"
大兴安岭地区,科技局,124.1069,50.4097,2025-01-29T0300,50,62,0.4,6,15,55,,69,细颗粒物(PM2.5)
大兴安岭地区,红旗社区,124.1164,50.4278,2025-01-29T0300,289,,0.7,24,22,25,,339,细颗粒物(PM2.5)
丹东市,江湾东路,124.3303,40.0625,2025-01-29T0300,60,101,0.7,8,11,62,,82,细颗粒物(PM2.5)
丹东市,临江后街,124.4256,40.1503,2025-01-29T0300,52,73,0.6,8,9,61,,72,细颗粒物(PM2.5)
丹东市,元宝山,124.3933,40.1461,2025-01-29T0300,45,53,0.9,7,9,64,,63,细颗粒物(PM2.5)
丹东市,民主桥,124.3633,40.1092,2025-01-29T0300,51,103,0.7,6,12,61,,77,颗粒物(PM10)
儋州市,第一中学子站,109.5726,19.5167,2025-01-29T0300,,,,,,,,,
儋州市,东坡学校子站,109.5567,19.5187,2025-01-29T0300,39,50,0.7,3,9,96,,55,细颗粒物(PM2.5)
德宏傣族景颇族自治州,德宏州监测站,98.5842,24.428,2025-01-29T0300,148,169,1.2,24,15,16,,198,细颗粒物(PM2.5)
德宏傣族景颇族自治州,芒市人民政府综合楼,98.5881,24.4368,2025-01-29T0300,124,,1.2,14,8,12,,163,细颗粒物(PM2.5)
德阳市,东山公园,104.4239,31.1208,2025-01-29T0300,191,198,0.7,24,7,45,,241,细颗粒物(PM2.5)
德阳市,西小区,104.3826,31.1317,2025-01-29T0300,478,,1.4,46,7,4,,486,细颗粒物(PM2.5)
德阳市,耐火材料厂,104.3553,31.1091,2025-01-29T0300,490,,1.2,37,8,6,,494,细颗粒物(PM2.5)
德阳市,市教育局,104.4019,31.1244,2025-01-29T0300,244,,0.9,43,5,19,,294,细颗粒物(PM2.5)
德州市,儿童乐园,116.3032,37.4674,2025-01-29T0300,149,178,0.8,10,28,64,,199,细颗粒物(PM2.5)
德州市,监理站,116.2991,37.4451,2025-01-29T0300,134,163,0.8,14,34,69,,178,细颗粒物(PM2.5)
德州市,九衢泉纯净水厂,116.2721,37.4379,2025-01-29T0300,300,349,1.0,23,51,48,,350,细颗粒物(PM2.5)
德州市,开发区人民医院,116.3728,37.4403,2025-01-29T0300,212,,0.7,19,43,62,,262,细颗粒物(PM2.5)
德州市,太阳城中学,116.3572,37.4094,2025-01-29T0300,388,434,0.8,36,64,40,,426,细颗粒物(PM2.5)
德州市,陵城艺术中心,116.5652,37.3319,2025-01-29T0300,144,173,0.7,15,38,57,,192,细颗粒物(PM2.5)
迪庆藏族自治州,迪庆州站,99.7056,27.8317,2025-01-29T0300,19,,0.4,6,10,76,,28,
迪庆藏族自治州,质量技术监督局,99.7136,27.8094,2025-01-29T0300,43,,0.7,6,8,75,,60,细颗粒物(PM2.5)
定西市,东关小学,104.6241,35.5734,2025-01-29T0300,110,200,1.4,15,13,24,,144,细颗粒物(PM2.5)
定西市,供电公司,104.6194,35.5934,2025-01-29T0300,,,,,,,,,
东莞市,莞城梨川,113.7547,23.0494,2025-01-29T0300,98,129,0.6,13,16,59,,129,细颗粒物(PM2.5)
东莞市,东城石井,113.7944,23.0128,2025-01-29T0300,55,87,0.4,9,19,66,,75,细颗粒物(PM2.5)
东莞市,南城西平,113.7383,22.9658,2025-01-29T0300,83,132,0.6,12,24,66,,110,细颗粒物(PM2.5)
东莞市,万江金泰,113.7338,23.0381,2025-01-29T0300,71,96,0.5,8,10,61,,95,细颗粒物(PM2.5)
东莞市,南城元岭,113.7533,23.0202,2025-01-29T0300,62,93,0.4,4,18,63,,84,细颗粒物(PM2.5)
东莞市,东城主山,113.7875,23.0457,2025-01-29T0300,84,112,0.5,3,26,68,,112,细颗粒物(PM2.5)
东营市,市环保局,118.6614,37.4309,2025-01-29T0300,80,90,0.6,17,42,57,,107,细颗粒物(PM2.5)
东营市,开发区管委会,118.6904,37.4338,2025-01-29T0300,85,100,0.7,19,42,51,,113,细颗粒物(PM2.5)
东营市,垦利区民丰路,118.5719,37.565,2025-01-29T0300,92,105,1.3,14,32,51,,122,细颗粒物(PM2.5)
东营市,河口城区,118.5055,37.8612,2025-01-29T0300,46,66,0.6,8,16,66,,64,细颗粒物(PM2.5)
东营市,胜利站,118.4978,37.4623,2025-01-29T0300,85,89,0.6,21,40,47,,113,细颗粒物(PM2.5)
东营市,理想之城,118.35,37.26,2025-01-29T0300,153,180,0.8,28,18,28,,203,细颗粒物(PM2.5)
鄂尔多斯市,综合楼,110.0023,39.8129,2025-01-29T0300,83,163,0.9,16,27,61,,110,细颗粒物(PM2.5)
鄂尔多斯市,巴音孟克林场办事处,109.9486,39.8261,2025-01-29T0300,31,97,1.0,13,19,70,,74,颗粒物(PM10)
鄂尔多斯市,康泽苑,109.7736,39.5986,2025-01-29T0300,41,102,0.8,12,7,49,,76,颗粒物(PM10)
鄂尔多斯市,华泰汽车城,109.8119,39.5989,2025-01-29T0300,403,520,0.6,32,8,22,,436,细颗粒物(PM2.5)
鄂尔多斯市,奥林花园,109.9734,39.7884,2025-01-29T0300,63,153,0.5,17,10,54,,102,颗粒物(PM10)
鄂州市,市政府,114.8938,30.3994,2025-01-29T0300,390,,1.0,30,26,22,,427,细颗粒物(PM2.5)
鄂州市,赵家坝,114.8989,30.3714,2025-01-29T0300,298,,0.9,14,38,43,,348,细颗粒物(PM2.5)
鄂州市,精准医疗中心,114.8094,30.4089,2025-01-29T0300,288,,0.9,28,24,36,,338,细颗粒物(PM2.5)
恩施土家族苗族自治州,湖北民院,109.4978,30.2981,2025-01-29T0300,293,,0.8,20,13,17,,343,细颗粒物(PM2.5)
恩施土家族苗族自治州,州电力总公司,109.4707,30.2798,2025-01-29T0300,272,,1.1,17,9,8,,322,细颗粒物(PM2.5)
恩施土家族苗族自治州,龙凤新区,109.5061,30.3772,2025-01-29T0300,161,188,0.8,9,7,18,,211,细颗粒物(PM2.5)
防城港市,沙万,108.3411,21.6158,2025-01-29T0300,313,477,0.6,19,56,49,,372,颗粒物(PM10)
防城港市,防城档案局,108.3514,21.7731,2025-01-29T0300,190,249,0.7,18,27,50,,240,细颗粒物(PM2.5)
防城港市,大海花园,108.3506,21.6414,2025-01-29T0300,382,660,1.0,16,43,26,,500,颗粒物(PM10)
佛山市,湾梁,113.1294,23.0067,2025-01-29T0300,53,83,0.3,20,13,57,,73,细颗粒物(PM2.5)
佛山市,华材职中,113.1083,23.0478,2025-01-29T0300,103,193,0.6,19,37,53,,135,细颗粒物(PM2.5)
佛山市,南海气象局,113.144,23.0453,2025-01-29T0300,62,105,0.6,15,24,57,,84,细颗粒物(PM2.5)
佛山市,顺德苏岗,113.2881,22.8094,2025-01-29T0300,117,166,0.5,18,29,41,,153,细颗粒物(PM2.5)
佛山市,高明孔堂,112.8383,22.8678,2025-01-29T0300,119,223,0.6,15,15,40,,156,细颗粒物(PM2.5)
佛山市,三水监测站,112.8836,23.1588,2025-01-29T0300,57,110,0.5,19,8,60,,80,颗粒物(PM10)
佛山市,三水云东海,112.867,23.185,2025-01-29T0300,69,95,0.5,16,14,50,,93,细颗粒物(PM2.5)
佛山市,容桂街道办,113.2544,22.7642,2025-01-29T0300,83,119,0.4,20,20,54,,110,细颗粒物(PM2.5)
福州市,鼓山,119.3903,26.0543,2025-01-29T0300,,,,,,,84,,
福州市,师大,119.2681,26.0504,2025-01-29T0300,236,,0.5,10,24,56,,286,细颗粒物(PM2.5)
福州市,五四北路,119.2984,26.1028,2025-01-29T0300,183,,0.5,12,13,55,,233,细颗粒物(PM2.5)
福州市,杨桥西路,119.2648,26.0768,2025-01-29T0300,273,292,0.4,12,24,47,,323,细颗粒物(PM2.5)
福州市,紫阳,119.317,26.0746,2025-01-29T0300,289,324,0.6,20,32,46,,339,细颗粒物(PM2.5)
福州市,九龙,119.5799,26.0936,2025-01-29T0300,54,80,0.4,7,2,43,,74,细颗粒物(PM2.5)
福州市,吴航,119.5189,25.9664,2025-01-29T0300,150,187,0.8,13,16,48,,200,细颗粒物(PM2.5)
抚顺市,望花区,123.7977,41.8491,2025-01-29T0300,207,,1.1,27,17,39,,257,细颗粒物(PM2.5)
抚顺市,顺城区,123.9161,41.8822,2025-01-29T0300,132,,0.7,11,11,59,,175,细颗粒物(PM2.5)
抚顺市,东洲区,124.0436,41.8611,2025-01-29T0300,147,207,0.6,8,17,50,,196,细颗粒物(PM2.5)
抚顺市,新抚区,123.9247,41.8642,2025-01-29T0300,136,,0.7,10,10,59,,180,细颗粒物(PM2.5)
抚顺市,大伙房水库,124.0972,41.8961,2025-01-29T0300,113,158,0.6,15,11,52,,148,细颗粒物(PM2.5)
抚顺市,沈抚新城,123.7086,41.8391,2025-01-29T0300,183,222,0.6,17,11,44,,233,细颗粒物(PM2.5)
抚州市,桐源党溪,116.2127,28.0814,2025-01-29T0300,139,184,0.6,2,2,24,,185,细颗粒物(PM2.5)
抚州市,市站,116.3544,27.9831,2025-01-29T0300,264,334,1.4,22,9,28,,314,细颗粒物(PM2.5)
抚州市,血防站,116.3565,27.963,2025-01-29T0300,192,251,0.5,10,14,42,,242,细颗粒物(PM2.5)
抚州市,采茶剧团,116.3564,28.0007,2025-01-29T0300,273,321,1.5,15,13,16,,323,细颗粒物(PM2.5)
抚州市,医学分院,116.385,27.9647,2025-01-29T0300,153,232,0.5,9,10,33,,203,细颗粒物(PM2.5)
阜新市,工业园区,121.6094,41.998,2025-01-29T0300,114,179,0.4,10,19,58,,149,细颗粒物(PM2.5)
阜新市,长青街,121.6697,42.0279,2025-01-29T0300,147,,0.4,9,21,55,,196,细颗粒物(PM2.5)
阜新市,农业园区,121.6673,42.0705,2025-01-29T0300,88,128,0.5,9,15,52,,117,细颗粒物(PM2.5)
阜新市,东苑,121.6717,42.0224,2025-01-29T0300,141,203,0.5,9,23,51,,188,细颗粒物(PM2.5)
阜新市,玉龙新城,121.6506,42.0498,2025-01-29T0300,228,347,0.7,20,20,38,,278,细颗粒物(PM2.5)
阜阳市,市监测站,115.8277,32.8929,2025-01-29T0300,584,677,1.3,49,28,10,,500,"颗粒物(PM10),细颗粒物(PM2.5)"
阜阳市,开发区,115.8554,32.8605,2025-01-29T0300,486,651,1.3,41,23,8,,500,颗粒物(PM10)
阜阳市,阜阳职业技术学院,115.784,32.8892,2025-01-29T0300,391,468,1.1,41,24,10,,428,细颗粒物(PM2.5)
阜阳市,市规划展馆,115.7901,32.8613,2025-01-29T0300,695,794,1.1,38,88,28,,500,"颗粒物(PM10),细颗粒物(PM2.5)"
阜阳市,枣园社区,115.836,32.9183,2025-01-29T0300,570,,0.9,43,41,21,,500,细颗粒物(PM2.5)
甘南藏族自治州,州政府,102.9099,34.9841,2025-01-29T0300,82,371,1.6,42,17,11,,230,颗粒物(PM10)
甘南藏族自治州,甘肃民族师范学院,102.8914,34.9617,2025-01-29T0300,45,95,0.7,28,6,19,,73,颗粒物(PM10)
甘孜藏族自治州,水桥子,101.9603,30.0475,2025-01-29T0300,3,11,0.5,4,3,46,,15,
甘孜藏族自治州,州环保局,101.9533,29.9972,2025-01-29T0300,10,,0.5,2,4,53,,17,
赣江新区,桑海产业园,115.8347,28.932,2025-01-29T0300,62,105,0.5,14,11,52,,84,细颗粒物(PM2.5)
赣州市,通天岩,114.9017,25.9149,2025-01-29T0300,12,50,0.2,3,6,42,,50,
赣州市,地委,114.9367,25.8664,2025-01-29T0300,61,94,0.1,4,1,43,,83,细颗粒物(PM2.5)
赣州市,气象台,114.9461,25.8481,2025-01-29T0300,57,112,0.6,13,13,46,,81,颗粒物(PM10)
赣州市,市图书馆,114.9322,25.8333,2025-01-29T0300,63,92,0.4,21,7,39,,85,细颗粒物(PM2.5)
赣州市,华坚鞋城,114.8905,25.8471,2025-01-29T0300,53,82,0.2,7,7,54,,73,细颗粒物(PM2.5)
赣州市,赣县区卫计委,115.0093,25.8613,2025-01-29T0300,84,109,0.1,7,4,39,,112,细颗粒物(PM2.5)
固原市,马园,106.2319,36.1417,2025-01-29T0300,204,286,1.5,43,9,28,,254,细颗粒物(PM2.5)
固原市,监测站,106.2792,36.0022,2025-01-29T0300,488,887,1.2,56,41,14,,500,颗粒物(PM10)
固原市,新区,106.2375,36.0211,2025-01-29T0300,469,640,0.8,61,10,14,,500,颗粒物(PM10)
固原市,原州区十五小,106.2177,35.9959,2025-01-29T0300,78,104,0.4,19,15,70,,104,细颗粒物(PM2.5)
广安市,小平旧居,106.6308,30.5278,2025-01-29T0300,,,,,,,,,
广安市,市委,106.6303,30.4576,2025-01-29T0300,199,235,1.0,38,6,17,,249,细颗粒物(PM2.5)
广安市,友谊中学,106.6271,30.4663,2025-01-29T0300,205,250,0.9,26,6,15,,255,细颗粒物(PM2.5)
广安市,广电花园,106.6388,30.4551,2025-01-29T0300,210,225,1.2,30,2,5,,260,细颗粒物(PM2.5)
广安市,北辰小学,106.6351,30.4865,2025-01-29T0300,267,292,0.9,21,6,18,,317,细颗粒物(PM2.5)
广元市,黑石坡,105.8945,32.4535,2025-01-29T0300,79,121,0.5,4,5,57,,105,细颗粒物(PM2.5)
广元市,老城,105.821,32.4444,2025-01-29T0300,159,241,0.4,13,1,26,,209,细颗粒物(PM2.5)
广元市,监测站,105.8628,32.4287,2025-01-29T0300,136,160,0.3,11,5,40,,180,细颗粒物(PM2.5)
广元市,经开区,105.8047,32.4166,2025-01-29T0300,156,197,0.9,16,6,24,,206,细颗粒物(PM2.5)
广州市,广雅中学,113.2347,23.1423,2025-01-29T0300,74,113,0.7,12,21,59,,99,细颗粒物(PM2.5)
广州市,市五中,113.2612,23.105,2025-01-29T0300,58,89,0.5,12,17,61,,79,细颗粒物(PM2.5)
广州市,广东商学院,113.3478,23.0916,2025-01-29T0300,39,62,0.3,6,7,76,,56,颗粒物(PM10)
广州市,市八十六中,113.4332,23.1047,2025-01-29T0300,62,74,0.7,11,11,67,,84,细颗粒物(PM2.5)
广州市,番禺中学,113.3505,22.9483,2025-01-29T0300,72,112,0.6,12,21,73,,97,细颗粒物(PM2.5)
广州市,花都师范,113.2146,23.3916,2025-01-29T0300,49,79,0.5,10,7,78,,68,细颗粒物(PM2.5)
广州市,市监测站,113.2597,23.1331,2025-01-29T0300,74,102,0.4,13,20,62,,99,细颗粒物(PM2.5)
广州市,九龙镇镇龙,113.5618,23.312,2025-01-29T0300,110,152,0.5,15,10,43,,144,细颗粒物(PM2.5)
广州市,麓湖,113.2765,23.1544,2025-01-29T0300,68,96,0.5,11,18,59,,92,细颗粒物(PM2.5)
广州市,帽峰山森林公园,113.443,23.3035,2025-01-29T0300,34,64,0.4,6,12,66,,57,颗粒物(PM10)
广州市,体育西,113.3221,23.1322,2025-01-29T0300,41,65,0.3,3,10,67,,58,"颗粒物(PM10),细颗粒物(PM2.5)"
广州市,从化街口,113.5717,23.5491,2025-01-29T0300,144,188,0.6,13,32,47,,192,细颗粒物(PM2.5)
广州市,白云竹料,113.3472,23.3692,2025-01-29T0300,190,237,0.7,12,27,54,,240,细颗粒物(PM2.5)
广州市,白云嘉禾,113.2981,23.237,2025-01-29T0300,106,137,1.4,13,16,62,,139,细颗粒物(PM2.5)
广州市,黄埔科学城,113.4256,23.1716,2025-01-29T0300,48,78,0.3,5,11,74,,67,细颗粒物(PM2.5)
广州市,番禺大学城,113.3942,23.0483,2025-01-29T0300,76,83,0.2,14,26,68,,102,细颗粒物(PM2.5)
广州市,南沙黄阁,113.4922,22.8168,2025-01-29T0300,89,135,0.2,,12,50,,118,细颗粒物(PM2.5)
广州市,南沙街,113.5342,22.7896,2025-01-29T0300,72,102,0.7,14,11,60,,97,细颗粒物(PM2.5)
广州市,花都梯面,113.2902,23.5544,2025-01-29T0300,31,51,0.7,1,7,84,,51,颗粒物(PM10)
广州市,从化良口,113.7858,23.7478,2025-01-29T0300,32,54,0.4,5,7,52,,52,颗粒物(PM10)
广州市,增城荔城,113.8051,23.2614,2025-01-29T0300,31,58,0.3,5,7,78,,54,颗粒物(PM10)
贵港市,德智高中,109.568,23.1478,2025-01-29T0300,,,,,,,,,
贵港市,江南子站,109.6047,23.0666,2025-01-29T0300,406,,1.1,32,65,24,,438,细颗粒物(PM2.5)
贵港市,贵城子站,109.6014,23.0948,2025-01-29T0300,338,,1.0,33,83,26,,388,细颗粒物(PM2.5)
贵港市,荷城子站,109.5669,23.1065,2025-01-29T0300,153,197,0.6,17,38,49,,203,细颗粒物(PM2.5)
贵港市,新世纪学校,109.5886,23.1172,2025-01-29T0300,70,110,0.6,9,13,82,,94,细颗粒物(PM2.5)
贵阳市,马鞍山,106.6899,26.5998,2025-01-29T0300,41,61,0.6,10,2,44,,58,细颗粒物(PM2.5)
贵阳市,鉴湖路,106.6243,26.6266,2025-01-29T0300,61,83,0.4,8,10,61,,83,细颗粒物(PM2.5)
贵阳市,燕子冲,106.7487,26.6343,2025-01-29T0300,83,85,0.7,9,12,46,,110,细颗粒物(PM2.5)
贵阳市,碧云窝,106.6555,26.4365,2025-01-29T0300,63,90,0.4,10,9,42,,85,细颗粒物(PM2.5)
贵阳市,红边门,106.7109,26.6027,2025-01-29T0300,34,51,0.5,11,12,69,,51,颗粒物(PM10)
贵阳市,新华路,106.7164,26.5699,2025-01-29T0300,31,51,0.4,3,16,67,,51,颗粒物(PM10)
贵阳市,太慈桥,106.674,26.5424,2025-01-29T0300,80,90,0.4,8,6,32,,107,细颗粒物(PM2.5)
贵阳市,桐木岭,106.805,26.3003,2025-01-29T0300,36,63,0.6,3,17,63,,57,颗粒物(PM10)
贵阳市,花果园大街66号,106.6882,26.5695,2025-01-29T0300,64,,0.4,13,7,57,,87,细颗粒物(PM2.5)
贵阳市,漓江路57号,106.6873,26.5169,2025-01-29T0300,53,70,0.4,10,11,48,,73,细颗粒物(PM2.5)
桂林市,电子科大尧山校区,110.4144,25.3167,2025-01-29T0300,50,69,0.4,11,9,83,,69,细颗粒物(PM2.5)
桂林市,监测站,110.2819,25.2697,2025-01-29T0300,68,94,0.7,12,12,82,,92,细颗粒物(PM2.5)
桂林市,龙隐路小学,110.3089,25.2708,2025-01-29T0300,60,97,0.4,11,14,84,,82,细颗粒物(PM2.5)
桂林市,八中,110.2869,25.2178,2025-01-29T0300,82,121,0.7,14,15,80,,109,细颗粒物(PM2.5)
桂林市,创业大厦,110.1764,25.2381,2025-01-29T0300,51,78,0.9,10,12,86,,70,细颗粒物(PM2.5)
桂林市,旅游学院,110.296,25.1253,2025-01-29T0300,105,141,1.1,14,26,74,,138,细颗粒物(PM2.5)
果洛藏族自治州,玛沁县大武镇,100.2561,34.4714,2025-01-29T0300,15,31,0.5,4,15,39,,31,
哈尔滨市,岭北,126.5422,45.755,2025-01-29T0300,88,100,0,22,16,56,,117,细颗粒物(PM2.5)
哈尔滨市,松北商大,126.561,45.8167,2025-01-29T0300,68,96,0.8,25,7,41,,92,细颗粒物(PM2.5)
哈尔滨市,阿城会宁,126.979,45.5419,2025-01-29T0300,61,64,0.7,9,11,62,,83,细颗粒物(PM2.5)
哈尔滨市,南岗学府路,126.599,45.7222,2025-01-29T0300,88,110,0.6,25,9,46,,117,细颗粒物(PM2.5)
哈尔滨市,太平宏伟公园,126.689,45.7733,2025-01-29T0300,54,89,0.6,19,15,49,,74,细颗粒物(PM2.5)
哈尔滨市,道外承德广场,126.635,45.7667,2025-01-29T0300,92,119,0.7,20,14,46,,122,细颗粒物(PM2.5)
哈尔滨市,香坊红旗大街,126.685,45.7319,2025-01-29T0300,72,90,0.5,22,17,46,,97,细颗粒物(PM2.5)
哈尔滨市,动力和平路,126.6411,45.7258,2025-01-29T0300,69,97,0.7,21,7,43,,93,细颗粒物(PM2.5)
哈尔滨市,道里建国路,126.593,45.7478,2025-01-29T0300,79,99,0.5,19,9,47,,105,细颗粒物(PM2.5)
哈尔滨市,平房东轻厂,126.615,45.61,2025-01-29T0300,55,81,0.5,10,6,56,,75,细颗粒物(PM2.5)
哈尔滨市,呼兰师专,126.595,45.9855,2025-01-29T0300,66,104,0.5,17,13,48,,89,细颗粒物(PM2.5)
哈尔滨市,省农科院,126.6206,45.6842,2025-01-29T0300,76,109,0.8,26,7,41,,102,细颗粒物(PM2.5)
哈密市,地区监测站,93.5128,42.8172,2025-01-29T0300,386,,0.5,41,19,26,,424,细颗粒物(PM2.5)
哈密市,哈密师范学校,93.4961,42.8328,2025-01-29T0300,296,,0.5,29,28,20,,346,细颗粒物(PM2.5)
海北藏族自治州,海晏县西海镇,100.9048,36.9639,2025-01-29T0300,19,25,0.3,1,11,61,,28,
海东市,平安区公安北苑,102.0738,36.5056,2025-01-29T0300,92,,0.8,13,18,55,,122,细颗粒物(PM2.5)
海口市,东寨港,110.576,19.9507,2025-01-29T0300,53,100,0.4,5,17,55,,75,颗粒物(PM10)
海口市,海南大学,110.3232,20.0574,2025-01-29T0300,18,34,0.4,4,6,91,,34,
海口市,秀英海南医院,110.283,20.0053,2025-01-29T0300,27,61,0.3,3,5,94,,56,颗粒物(PM10)
海口市,海南师范大学,110.338,19.9969,2025-01-29T0300,35,80,0.4,6,9,90,,65,颗粒物(PM10)
海口市,龙华路环保局宿舍,110.33,20.0356,2025-01-29T0300,27,78,0.4,6,8,90,,64,颗粒物(PM10)
海口市,桂林洋子站,110.5111,19.9736,2025-01-29T0300,29,57,0.3,6,9,84,,54,颗粒物(PM10)
海南藏族自治州,共和县恰卜恰镇,100.6188,36.2866,2025-01-29T0300,157,,0.9,14,12,45,,207,细颗粒物(PM2.5)
海西蒙古族藏族自治州,德令哈市,97.3731,37.3753,2025-01-29T0300,13,33,0.4,2,15,74,,33,
邯郸市,东污水处理厂,114.5302,36.6116,2025-01-29T0300,168,183,0.9,32,12,22,,218,细颗粒物(PM2.5)
邯郸市,矿院,114.4918,36.5713,2025-01-29T0300,180,218,0.9,49,9,10,,230,细颗粒物(PM2.5)
邯郸市,丛台公园,114.484,36.6133,2025-01-29T0300,161,,0.8,37,14,23,,211,细颗粒物(PM2.5)
邯郸市,香泉濮院小区,114.7895,36.5593,2025-01-29T0300,241,288,1.0,22,29,44,,291,细颗粒物(PM2.5)
邯郸市,永年区实验高中,114.50634,36.77178,2025-01-29T0300,256,316,1.4,63,36,8,,306,细颗粒物(PM2.5)
邯郸市,峰峰矿区临水派出所,114.20016,36.44293,2025-01-29T0300,15,22,0.6,7,12,72,,23,
汉中市,汉川机床厂子校,106.9893,33.1842,2025-01-29T0300,85,130,0.7,6,7,46,,113,细颗粒物(PM2.5)
汉中市,市监测站,107.0154,33.0706,2025-01-29T0300,136,170,1.6,26,10,29,,180,细颗粒物(PM2.5)
汉中市,鑫源开发区,107.0089,33.1138,2025-01-29T0300,340,355,2.0,28,22,33,,390,细颗粒物(PM2.5)
汉中市,南郑大河坎水厂,107.007,33.0323,2025-01-29T0300,95,139,0.9,13,6,40,,125,细颗粒物(PM2.5)
杭州市,滨江,120.2072,30.2111,2025-01-29T0300,131,153,0.4,14,11,60,,173,细颗粒物(PM2.5)
杭州市,西溪,120.0633,30.2747,2025-01-29T0300,232,278,0.6,23,7,34,,282,细颗粒物(PM2.5)
杭州市,下沙,120.3461,30.3153,2025-01-29T0300,83,121,0.6,13,13,67,,110,细颗粒物(PM2.5)
杭州市,卧龙桥,120.1269,30.2456,2025-01-29T0300,63,100,0.6,22,6,38,,85,细颗粒物(PM2.5)
杭州市,浙江农大,120.1903,30.2692,2025-01-29T0300,100,125,0.5,13,11,66,,132,细颗粒物(PM2.5)
杭州市,和睦小学,120.1197,30.3119,2025-01-29T0300,144,222,0.7,28,18,36,,192,细颗粒物(PM2.5)
杭州市,临平镇,120.3019,30.4183,2025-01-29T0300,59,86,0.6,8,9,85,,80,细颗粒物(PM2.5)
杭州市,城厢镇,120.2697,30.1819,2025-01-29T0300,122,178,0.5,18,8,41,,160,细颗粒物(PM2.5)
杭州市,云栖,120.0883,30.1808,2025-01-29T0300,66,91,0.7,19,6,58,,89,细颗粒物(PM2.5)
杭州市,镇二中,119.9464,30.0494,2025-01-29T0300,541,782,0.6,38,41,17,,500,"颗粒物(PM10),细颗粒物(PM2.5)"
杭州市,市府大楼,119.7183,30.2367,2025-01-29T0300,493,706,0.8,40,27,11,,500,颗粒物(PM10)
杭州市,消防大队,120.1556,30.2864,2025-01-29T0300,213,247,0.6,26,18,46,,263,细颗粒物(PM2.5)
合肥市,明珠广场,117.1959,31.7848,2025-01-29T0300,95,114,0.7,26,11,42,,125,细颗粒物(PM2.5)
合肥市,三里街,117.3072,31.8764,2025-01-29T0300,107,134,0.6,25,8,42,,140,细颗粒物(PM2.5)
合肥市,琥珀山庄,117.2588,31.8707,2025-01-29T0300,109,144,1.1,70,6,1,,143,细颗粒物(PM2.5)
合肥市,董铺水库,117.1604,31.9052,2025-01-29T0300,78,114,0.4,22,3,22,,104,细颗粒物(PM2.5)
合肥市,长江中路,117.25,31.8571,2025-01-29T0300,107,127,0.9,46,8,20,,140,细颗粒物(PM2.5)
合肥市,庐阳区,117.266,31.9436,2025-01-29T0300,117,158,0.8,55,5,20,,153,细颗粒物(PM2.5)
合肥市,瑶海区,117.336,31.8586,2025-01-29T0300,88,117,0.5,13,10,60,,117,细颗粒物(PM2.5)
合肥市,包河区,117.3027,31.7964,2025-01-29T0300,117,139,0.5,35,4,32,,153,细颗粒物(PM2.5)
合肥市,滨湖新区,117.2776,31.7385,2025-01-29T0300,92,124,0.5,38,5,34,,122,细颗粒物(PM2.5)
合肥市,高新区,117.1318,31.8403,2025-01-29T0300,67,90,0.4,19,10,68,,90,细颗粒物(PM2.5)
合肥市,高教基地,117.3803,31.9147,2025-01-29T0300,226,227,0.5,18,6,29,,276,细颗粒物(PM2.5)
和田地区,地区环保局,79.924,37.0877,2025-01-29T0300,89,368,0.9,31,4,22,,226,颗粒物(PM10)
和田地区,市环保局,79.9131,37.113,2025-01-29T0300,188,442,2.1,50,19,9,,328,颗粒物(PM10)
河池市,东仁乐园,108.2011,24.715,2025-01-29T0300,228,350,0.7,24,22,26,,278,细颗粒物(PM2.5)
河池市,市环保站,108.0497,24.6947,2025-01-29T0300,63,74,0.7,5,10,38,,85,细颗粒物(PM2.5)
河池市,市疾控中心,108.0983,24.6989,2025-01-29T0300,223,294,0.7,18,32,24,,273,细颗粒物(PM2.5)
河源市,源西,114.6778,23.7569,2025-01-29T0300,,,,,,,,,
河源市,东埔,114.6944,23.7586,2025-01-29T0300,59,92,0.6,12,11,64,,80,细颗粒物(PM2.5)
河源市,老城,114.6892,23.7233,2025-01-29T0300,240,,0.4,16,28,36,,290,细颗粒物(PM2.5)
菏泽市,气象局,115.4208,35.2464,2025-01-29T0300,166,209,0.7,22,18,60,,216,细颗粒物(PM2.5)
菏泽市,定陶老年大学,115.5564,35.0891,2025-01-29T0300,224,266,0.9,27,28,53,,274,细颗粒物(PM2.5)
菏泽市,永昌路1号,115.4797,35.24401,2025-01-29T0300,130,141,0.6,18,18,69,,172,细颗粒物(PM2.5)
菏泽市,长城路999号,115.4715,35.2800,2025-01-29T0300,108,147,0.5,18,15,62,,142,细颗粒物(PM2.5)
贺州市,环保小区,111.5264,24.4172,2025-01-29T0300,280,382,0.8,26,56,22,,330,细颗粒物(PM2.5)
贺州市,政协大楼,111.5608,24.4078,2025-01-29T0300,257,304,0.8,26,77,22,,307,细颗粒物(PM2.5)
贺州市,西湾,111.4744,24.4553,2025-01-29T0300,169,215,0.8,16,41,37,,219,细颗粒物(PM2.5)
鹤壁市,市监测站,114.17,35.9019,2025-01-29T0300,53,66,0.9,5,4,30,,73,细颗粒物(PM2.5)
鹤壁市,市交警支队,114.2956,35.7511,2025-01-29T0300,147,156,0.6,25,4,17,,196,细颗粒物(PM2.5)
鹤壁市,迎宾馆,114.2878,35.7306,2025-01-29T0300,108,162,0.8,23,5,27,,142,细颗粒物(PM2.5)
鹤壁市,大新区,114.2617,35.6822,2025-01-29T0300,208,,0.7,25,5,13,,258,细颗粒物(PM2.5)
鹤壁市,南山宾馆,114.1572,35.9603,2025-01-29T0300,37,,0.6,13,10,65,,53,细颗粒物(PM2.5)
鹤岗市,哈啤分公司,130.2537,47.3416,2025-01-29T0300,22,,0.4,2,16,60,,32,
鹤岗市,斯达机电,130.2684,47.3086,2025-01-29T0300,27,34,0.2,2,15,63,,39,
鹤岗市,东山纸板厂,130.3114,47.3388,2025-01-29T0300,24,,0.4,4,14,65,,35,
鹤岗市,五号水库,130.1097,47.3382,2025-01-29T0300,12,,0.3,7,8,81,,26,
黑河市,交通局,127.4833,50.2524,2025-01-29T0300,25,,0.3,5,7,62,,36,
黑河市,环保局,127.5144,50.2341,2025-01-29T0300,19,,0.1,4,4,61,,28,
黑河市,大黑河岛,127.5291,50.2472,2025-01-29T0300,25,28,,12,2,5,,,
衡水市,电机北厂,115.6838,37.7541,2025-01-29T0300,54,77,0.5,12,16,70,,74,细颗粒物(PM2.5)
衡水市,市监测站,115.6303,37.7316,2025-01-29T0300,94,107,0.6,10,22,65,,124,细颗粒物(PM2.5)
衡水市,市城管局,115.6683,37.7217,2025-01-29T0300,78,95,0.5,9,20,67,,104,细颗粒物(PM2.5)
衡水市,地表水厂,115.5989,37.5491,2025-01-29T0300,191,202,0.9,20,31,38,,241,细颗粒物(PM2.5)
衡阳市,原169医院,112.5003,26.9167,2025-01-29T0300,211,291,0.9,18,25,32,,261,细颗粒物(PM2.5)
衡阳市,衡阳化工总厂,112.6194,26.9258,2025-01-29T0300,127,158,0.6,11,22,60,,168,细颗粒物(PM2.5)
衡阳市,珠晖区环保局,112.6211,26.8956,2025-01-29T0300,105,155,0.8,33,21,50,,138,细颗粒物(PM2.5)
衡阳市,市委党校,112.6197,26.8733,2025-01-29T0300,102,144,0.6,13,23,70,,134,细颗粒物(PM2.5)
衡阳市,市监测站,112.6006,26.8919,2025-01-29T0300,122,159,0.7,13,22,66,,160,细颗粒物(PM2.5)
衡阳市,真空机电公司,112.5664,26.9056,2025-01-29T0300,190,278,0.9,21,25,29,,240,细颗粒物(PM2.5)
衡阳市,师范学院,112.6703,26.882,2025-01-29T0300,145,176,0.7,16,22,70,,193,细颗粒物(PM2.5)
红河哈尼族彝族自治州,污水处理厂,103.3772,23.3993,2025-01-29T0300,35,,0.5,3,6,56,,50,
红河哈尼族彝族自治州,监测站,103.3861,23.35,2025-01-29T0300,40,,0.5,4,7,58,,57,细颗粒物(PM2.5)
红河哈尼族彝族自治州,州图书馆,103.3758,23.368,2025-01-29T0300,31,,0.4,3,6,53,,45,
呼和浩特市,呼市一监,111.6507,40.7517,2025-01-29T0300,1407,,3.5,80,115,20,,500,细颗粒物(PM2.5)
呼和浩特市,小召,111.6572,40.8033,2025-01-29T0300,1267,,1.7,74,173,12,,500,细颗粒物(PM2.5)
呼和浩特市,如意水处理厂,111.7516,40.8369,2025-01-29T0300,1101,1304,2.5,67,89,11,,500,"颗粒物(PM10),细颗粒物(PM2.5)"
呼和浩特市,二十九中,111.7276,40.8062,2025-01-29T0300,1313,1722,1.9,74,90,11,,500,"颗粒物(PM10),细颗粒物(PM2.5)"
呼和浩特市,工大金川校区,111.5512,40.7866,2025-01-29T0300,773,801,1.6,78,85,12,,500,"颗粒物(PM10),细颗粒物(PM2.5)"
呼和浩特市,化肥厂生活区,111.717,40.7612,2025-01-29T0300,929,964,3.0,69,71,15,,500,"颗粒物(PM10),细颗粒物(PM2.5)"
呼和浩特市,红旗小学,111.5968,40.8178,2025-01-29T0300,889,908,2.0,76,100,20,,500,"颗粒物(PM10),细颗粒物(PM2.5)"
呼和浩特市,海东办,111.6518,40.8389,2025-01-29T0300,,,3.7,94,241,15,,,
呼伦贝尔市,区环保局,119.7594,49.2261,2025-01-29T0300,194,227,0.7,24,20,30,,244,细颗粒物(PM2.5)
呼伦贝尔市,国华电力东,119.7512,49.1577,2025-01-29T0300,39,47,0.2,8,5,58,,55,细颗粒物(PM2.5)
湖州市,城西水厂,120.0751,30.8669,2025-01-29T0300,150,193,0.4,34,15,52,,200,细颗粒物(PM2.5)
湖州市,仁皇山新区,120.0875,30.8955,2025-01-29T0300,157,190,0.6,18,18,62,,207,细颗粒物(PM2.5)
湖州市,吴兴区站,120.1844,30.8596,2025-01-29T0300,114,145,0.6,12,13,67,,149,细颗粒物(PM2.5)
湖州市,南浔区站,120.4148,30.8538,2025-01-29T0300,78,104,0.5,9,11,70,,104,细颗粒物(PM2.5)
葫芦岛市,龙港区,120.9092,40.7136,2025-01-29T0300,359,483,1.4,37,36,16,,406,细颗粒物(PM2.5)
葫芦岛市,化工街,120.8392,40.7514,2025-01-29T0300,185,241,1.0,29,134,26,,235,细颗粒物(PM2.5)
葫芦岛市,新区,120.8341,40.7073,2025-01-29T0300,290,340,1.4,36,36,27,,340,细颗粒物(PM2.5)
葫芦岛市,东城区,120.8695,40.7677,2025-01-29T0300,202,307,1.1,25,27,22,,252,细颗粒物(PM2.5)
怀化市,林科所,109.5981,27.5721,2025-01-29T0300,214,292,1.0,16,21,32,,264,细颗粒物(PM2.5)
怀化市,河西地税局,109.9453,27.5444,2025-01-29T0300,385,441,0.8,16,8,20,,424,细颗粒物(PM2.5)
怀化市,市四医院,109.9781,27.5342,2025-01-29T0300,586,654,1.2,33,24,2,,500,"颗粒物(PM10),细颗粒物(PM2.5)"
怀化市,监测楼,109.9972,27.5578,2025-01-29T0300,476,608,0.9,30,27,2,,500,颗粒物(PM10)
怀化市,市委党校,110.0394,27.583,2025-01-29T0300,324,369,0.9,24,40,10,,374,细颗粒物(PM2.5)
淮安市,钵池山,119.036,33.5981,2025-01-29T0300,65,83,0.7,13,14,71,,88,细颗粒物(PM2.5)
淮安市,北京南路,119.007,33.575,2025-01-29T0300,111,146,0.9,19,13,43,,145,细颗粒物(PM2.5)
淮安市,市监测站,118.989,33.6067,2025-01-29T0300,110,112,0.8,15,19,70,,144,细颗粒物(PM2.5)
淮安市,楚州区监测站,119.135,33.5039,2025-01-29T0300,248,266,1.4,45,12,20,,298,细颗粒物(PM2.5)
淮安市,淮阴区监测站,119.0186,33.6297,2025-01-29T0300,98,107,0.8,15,16,68,,129,细颗粒物(PM2.5)
淮安市,新华书店,118.8755,33.2894,2025-01-29T0300,101,126,0.8,22,14,48,,133,细颗粒物(PM2.5)
淮北市,监测站,116.8004,33.975,2025-01-29T0300,70,130,0.7,16,10,59,,94,细颗粒物(PM2.5)
淮北市,烈山区政府,116.8091,33.9007,2025-01-29T0300,103,140,0.7,10,18,77,,135,细颗粒物(PM2.5)
淮北市,杜集区检察院,116.8873,33.9836,2025-01-29T0300,165,166,0.8,15,11,58,,215,细颗粒物(PM2.5)
淮北市,市博物馆,116.7923,33.9535,2025-01-29T0300,119,196,0.8,19,17,61,,156,细颗粒物(PM2.5)
淮南市,潘集区政府,116.8305,32.7727,2025-01-29T0300,367,420,0.8,40,23,26,,412,细颗粒物(PM2.5)
淮南市,谢家集区政府,116.8569,32.5951,2025-01-29T0300,219,272,0.4,10,37,57,,269,细颗粒物(PM2.5)
淮南市,八公山区政府,116.8281,32.633,2025-01-29T0300,248,314,0.5,16,12,57,,298,细颗粒物(PM2.5)
淮南市,焦岗湖风景区管理处,116.6325,32.6201,2025-01-29T0300,203,271,0.4,15,11,26,,253,细颗粒物(PM2.5)
淮南市,经济技术开发区消防队,117.0566,32.6531,2025-01-29T0300,193,250,0.5,13,23,56,,243,细颗粒物(PM2.5)
淮南市,山南新区,117.0108,32.5893,2025-01-29T0300,326,343,0.6,8,25,60,,376,细颗粒物(PM2.5)
淮南市,国庆中路369号,117.0031,32.6445,2025-01-29T0300,,,,,,,67,,
黄冈市,职工中心,114.9028,30.4742,2025-01-29T0300,645,723,2.0,34,114,22,,500,"颗粒物(PM10),细颗粒物(PM2.5)"
黄冈市,红卫路,114.8858,30.4519,2025-01-29T0300,503,598,1.8,39,57,20,,500,细颗粒物(PM2.5)
黄冈市,市林业局,114.9136,30.4445,2025-01-29T0300,576,870,1.8,46,126,22,,500,"颗粒物(PM10),细颗粒物(PM2.5)"
黄南藏族自治州,同仁县隆务镇,102.0199,35.5102,2025-01-29T0300,105,129,0.6,6,20,60,,138,细颗粒物(PM2.5)
黄山市,延安路89号,118.2903,29.6963,2025-01-29T0300,213,369,0.4,10,22,14,,263,细颗粒物(PM2.5)
黄山市,黄山区政府5号楼,118.1371,30.2756,2025-01-29T0300,108,148,0.5,6,10,28,,142,细颗粒物(PM2.5)
黄山市,滨江东路7-2号,118.3354,29.7203,2025-01-29T0300,324,354,0.3,20,17,9,,374,细颗粒物(PM2.5)
黄石市,沈家营,115.0601,30.2313,2025-01-29T0300,429,,1.0,31,26,26,,453,细颗粒物(PM2.5)
黄石市,铁山,114.8988,30.2019,2025-01-29T0300,53,100,1.0,8,8,69,,75,颗粒物(PM10)
黄石市,团城山,115.0307,30.2092,2025-01-29T0300,299,,0.8,28,18,40,,349,细颗粒物(PM2.5)
黄石市,笔架山北路,115.0235,30.1578,2025-01-29T0300,195,,1.1,14,66,55,,245,细颗粒物(PM2.5)
黄石市,磁湖东路29号,115.0780,30.21118,2025-01-29T0300,398,520,1.3,30,30,26,,432,细颗粒物(PM2.5)
惠州市,河南岸金山湖子站,114.4183,23.0528,2025-01-29T0300,57,89,0.6,2,13,75,,78,细颗粒物(PM2.5)
惠州市,下埔横江三路子站,114.4053,23.0822,2025-01-29T0300,62,102,0.5,6,14,72,,84,细颗粒物(PM2.5)
惠州市,江北云山西路子站,114.4103,23.1142,2025-01-29T0300,55,95,0.4,3,17,79,,75,细颗粒物(PM2.5)
惠州市,惠阳区承修路船湖子站,114.4645,22.7833,2025-01-29T0300,121,189,0.6,7,13,57,,159,细颗粒物(PM2.5)
惠州市,大亚湾管委会子站,114.5317,22.7422,2025-01-29T0300,95,,0.4,12,14,50,,125,细颗粒物(PM2.5)
惠州市,惠阳秋长,114.4338,22.8134,2025-01-29T0300,93,102,0.5,5,21,75,,123,细颗粒物(PM2.5)
惠州市,大亚湾霞涌,114.6517,22.775,2025-01-29T0300,89,109,0.9,6,24,62,,118,细颗粒物(PM2.5)
鸡西市,环保局,130.9762,45.3001,2025-01-29T0300,116,136,0.6,6,8,64,,152,细颗粒物(PM2.5)
鸡西市,第一中学,130.9429,45.3039,2025-01-29T0300,32,38,0.2,1,5,67,,46,
鸡西市,欧美日汽修厂,131.0207,45.3073,2025-01-29T0300,45,74,0.8,17,23,59,,63,细颗粒物(PM2.5)
鸡西市,市政设施管理处,130.9967,45.3106,2025-01-29T0300,31,150,0.5,17,5,55,,100,颗粒物(PM10)
吉安市,红声器材厂,114.9754,27.0803,2025-01-29T0300,94,135,0.7,12,11,40,,124,细颗粒物(PM2.5)
吉安市,市森林工业局,114.9658,27.0999,2025-01-29T0300,49,88,0.5,9,14,65,,69,颗粒物(PM10)
吉安市,市环境监测站,114.99,27.1312,2025-01-29T0300,42,68,0.5,7,17,62,,59,"颗粒物(PM10),细颗粒物(PM2.5)"
吉安市,青原区法院,115.0093,27.0968,2025-01-29T0300,86,142,0.5,19,27,45,,114,细颗粒物(PM2.5)
吉林市,哈达湾,126.54,43.8622,2025-01-29T0300,57,91,0.7,10,12,62,,78,细颗粒物(PM2.5)
吉林市,东局子,126.5844,43.8358,2025-01-29T0300,55,73,0.4,9,11,60,,75,细颗粒物(PM2.5)
吉林市,电力学院,126.5052,43.8245,2025-01-29T0300,48,52,0.8,12,7,58,,67,细颗粒物(PM2.5)
吉林市,江北,126.6133,43.8972,2025-01-29T0300,49,62,0.8,10,14,57,,68,细颗粒物(PM2.5)
吉林市,江南公园,126.555,43.8306,2025-01-29T0300,72,79,0.6,12,11,56,,97,细颗粒物(PM2.5)
吉林市,丰满,126.7061,43.7133,2025-01-29T0300,,,,,,,,,
吉林市,九站,126.4739,43.953,2025-01-29T0300,47,56,1.0,14,10,56,,65,细颗粒物(PM2.5)
济南市,科干所,116.9862,36.6114,2025-01-29T0300,61,73,0.8,14,16,62,,83,细颗粒物(PM2.5)
济南市,农科所,116.9376,36.665,2025-01-29T0300,93,117,0.8,20,22,47,,123,细颗粒物(PM2.5)
济南市,开发区,117.1265,36.6734,2025-01-29T0300,37,42,0.6,2,12,70,,53,细颗粒物(PM2.5)
济南市,省种子仓库,117.0624,36.6868,2025-01-29T0300,44,56,0.5,17,7,47,,62,细颗粒物(PM2.5)
济南市,机床二厂,116.9489,36.6447,2025-01-29T0300,112,132,0.9,30,40,45,,147,细颗粒物(PM2.5)
济南市,市监测站,117.0495,36.663,2025-01-29T0300,51,71,0.9,20,12,51,,70,细颗粒物(PM2.5)
济南市,长清党校,116.7675,36.5484,2025-01-29T0300,78,103,0.8,13,18,75,,104,细颗粒物(PM2.5)
济南市,技术学院,117.6795,36.229,2025-01-29T0300,117,141,1.1,34,24,32,,153,细颗粒物(PM2.5)
济南市,东山小学,117.532,36.6868,2025-01-29T0300,29,49,0.5,10,8,68,,49,
济南市,泰兴公司,117.7161,36.2049,2025-01-29T0300,202,259,1.4,47,27,16,,252,细颗粒物(PM2.5)
济南市,莱芜战役纪念馆,117.6867,36.2171,2025-01-29T0300,232,,1.5,53,28,24,,282,细颗粒物(PM2.5)
济南市,济阳区政府,117.1673,36.9782,2025-01-29T0300,,210,0.8,13,38,47,,130,颗粒物(PM10)
济南市,锦屏中学,117.1171,36.63,2025-01-29T0300,27,37,0.5,9,12,69,,39,
济南市,济南四建,116.9814,36.6819,2025-01-29T0300,,,,,,,,,
济宁市,火炬城,116.6251,35.4302,2025-01-29T0300,175,264,0.6,18,56,56,,225,细颗粒物(PM2.5)
济宁市,电化厂,116.5491,35.4042,2025-01-29T0300,168,222,0.9,13,38,56,,218,细颗粒物(PM2.5)
济宁市,北湖一中,116.5814,35.3707,2025-01-29T0300,215,249,1.2,33,44,50,,265,细颗粒物(PM2.5)
济宁市,服务中心,116.8249,35.5593,2025-01-29T0300,521,778,1.4,62,163,12,,500,"颗粒物(PM10),细颗粒物(PM2.5)"
济宁市,市第七中学,116.5907,35.4054,2025-01-29T0300,268,374,0.8,32,63,42,,318,细颗粒物(PM2.5)
佳木斯市,佳纺,130.2751,46.8028,2025-01-29T0300,78,88,1.0,13,8,45,,104,细颗粒物(PM2.5)
佳木斯市,发电厂,130.3995,46.8307,2025-01-29T0300,45,46,0.5,12,8,52,,63,细颗粒物(PM2.5)
佳木斯市,环保局,130.3258,46.7975,2025-01-29T0300,103,117,1.1,15,15,46,,135,细颗粒物(PM2.5)
佳木斯市,十一中,130.3648,46.8032,2025-01-29T0300,43,50,0.7,24,15,47,,60,细颗粒物(PM2.5)
佳木斯市,四丰,130.3794,46.7588,2025-01-29T0300,41,,0.9,7,1,58,,,
嘉兴市,清河小学,120.7436,30.778,2025-01-29T0300,64,86,0.6,2,10,74,,87,细颗粒物(PM2.5)
嘉兴市,嘉兴学院,120.726,30.7478,2025-01-29T0300,69,70,0.6,6,13,76,,93,细颗粒物(PM2.5)
嘉兴市,南湖区残联,120.7846,30.7525,2025-01-29T0300,65,70,0.5,4,14,77,,88,细颗粒物(PM2.5)
嘉兴市,秀洲住建,120.6916,30.7739,2025-01-29T0300,83,85,0.2,9,13,76,,110,细颗粒物(PM2.5)
嘉峪关市,气象局,98.2908,39.7711,2025-01-29T0300,12,29,0.4,29,12,33,,29,
嘉峪关市,酒钢宾馆,98.2672,39.7978,2025-01-29T0300,7,31,0.5,6,1,56,,31,
嘉峪关市,雄关区,98.2643,39.7724,2025-01-29T0300,12,31,0.3,23,2,40,,31,
江门市,北街,113.1064,22.6058,2025-01-29T0300,111,135,0.7,23,15,48,,145,细颗粒物(PM2.5)
江门市,西区,113.0731,22.5835,2025-01-29T0300,70,139,0.5,20,13,52,,95,颗粒物(PM10)
江门市,圭峰西,113.0219,22.5311,2025-01-29T0300,52,93,0.5,14,12,56,,72,"颗粒物(PM10),细颗粒物(PM2.5)"
江门市,东湖,113.0828,22.5947,2025-01-29T0300,104,117,0.5,16,10,50,,137,细颗粒物(PM2.5)
江门市,江海富民,113.1075,22.5647,2025-01-29T0300,62,100,0.4,17,16,53,,84,细颗粒物(PM2.5)
江门市,新会银湖,113.05,22.4667,2025-01-29T0300,57,75,0.8,26,5,15,,78,细颗粒物(PM2.5)
焦作市,影视城,113.1992,35.2590,2025-01-29T0300,35,51,0.5,9,9,75,,51,颗粒物(PM10)
焦作市,太极体育中心,113.2725,35.2067,2025-01-29T0300,88,147,1.0,17,19,51,,117,细颗粒物(PM2.5)
焦作市,马村街道办,113.3137,35.2641,2025-01-29T0300,103,123,0.9,18,17,40,,135,细颗粒物(PM2.5)
焦作市,焦作技师学院,113.2465,35.2373,2025-01-29T0300,112,132,1.0,21,19,42,,147,细颗粒物(PM2.5)
焦作市,中站许衡医院,113.1656,35.2539,2025-01-29T0300,38,55,1.3,11,16,66,,54,细颗粒物(PM2.5)
焦作市,原李万街道办,113.2449,35.1803,2025-01-29T0300,100,121,1.0,16,16,54,,132,细颗粒物(PM2.5)
焦作市,新安路1731号,113.2340,35.2190,2025-01-29T0300,147,194,0.8,20,20,44,,196,细颗粒物(PM2.5)
揭阳市,新兴,116.3701,23.5345,2025-01-29T0300,66,84,0.5,4,8,73,,89,细颗粒物(PM2.5)
揭阳市,西马,116.3264,23.5443,2025-01-29T0300,60,76,0.7,9,8,82,,82,细颗粒物(PM2.5)
揭阳市,东兴,116.3611,23.5626,2025-01-29T0300,56,95,0.8,10,,68,,,
揭阳市,渔湖,116.4151,23.5294,2025-01-29T0300,66,80,0.6,3,9,76,,89,细颗粒物(PM2.5)
揭阳市,曲溪,116.403,23.5699,2025-01-29T0300,74,101,0.7,15,14,64,,99,细颗粒物(PM2.5)
金昌市,天庆家园,102.1692,38.5167,2025-01-29T0300,89,196,0.9,17,22,48,,123,颗粒物(PM10)
金昌市,金川区人防中心,102.1647,38.5371,2025-01-29T0300,56,235,0.8,10,8,62,,143,颗粒物(PM10)
金昌市,长春路96号,102.1930,38.5319,2025-01-29T0300,194,,1.1,27,35,47,,244,细颗粒物(PM2.5)
金华市,十五中,119.647,29.077,2025-01-29T0300,137,176,0.3,15,6,31,,182,细颗粒物(PM2.5)
金华市,监测站,119.686,29.1029,2025-01-29T0300,132,142,0.4,8,8,32,,175,细颗粒物(PM2.5)
金华市,气象局,119.656,29.1131,2025-01-29T0300,149,195,1.1,32,7,18,,199,细颗粒物(PM2.5)
锦州市,南山,121.1115,41.0879,2025-01-29T0300,177,,1.0,13,16,41,,227,细颗粒物(PM2.5)
锦州市,开发区,121.0533,40.8434,2025-01-29T0300,166,223,1.5,16,49,46,,216,细颗粒物(PM2.5)
锦州市,百股街道,121.1836,41.1119,2025-01-29T0300,193,287,1.2,28,17,22,,243,细颗粒物(PM2.5)
锦州市,天安街道,121.1178,41.1222,2025-01-29T0300,81,154,0.5,8,22,57,,108,细颗粒物(PM2.5)
锦州市,北湖公园,121.1303,41.1386,2025-01-29T0300,43,49,0.5,5,14,61,,60,细颗粒物(PM2.5)
晋城市,自来水公司,112.85,35.5051,2025-01-29T0300,58,74,1.0,30,15,49,,79,细颗粒物(PM2.5)
晋城市,白云商贸,112.8318,35.4936,2025-01-29T0300,39,80,0.7,17,15,63,,65,颗粒物(PM10)
晋城市,市环保局,112.8508,35.4887,2025-01-29T0300,66,89,0.9,22,14,57,,89,细颗粒物(PM2.5)
晋城市,技术学院,112.8676,35.4897,2025-01-29T0300,75,90,0.7,25,15,55,,100,细颗粒物(PM2.5)
晋城市,白马寺,112.8453,35.546,2025-01-29T0300,,,,,,,,,
晋城市,泽州一中,112.8271,35.4828,2025-01-29T0300,46,74,0.8,15,12,71,,64,细颗粒物(PM2.5)
晋中市,南都小区,112.7249,37.7067,2025-01-29T0300,209,278,1.2,34,83,40,,259,细颗粒物(PM2.5)
晋中市,榆次区政府,112.6991,37.6982,2025-01-29T0300,229,298,1.6,42,89,26,,279,细颗粒物(PM2.5)
晋中市,榆次三中,112.7195,37.6828,2025-01-29T0300,239,305,1.4,36,78,28,,289,细颗粒物(PM2.5)
晋中市,榆次一中,112.7478,37.6954,2025-01-29T0300,180,241,1.1,27,59,36,,230,细颗粒物(PM2.5)
荆门市,竹园小学,112.2014,31.0481,2025-01-29T0300,121,167,0.8,25,9,60,,159,细颗粒物(PM2.5)
荆门市,掇刀,112.1969,30.9891,2025-01-29T0300,120,181,0.6,27,23,66,,158,细颗粒物(PM2.5)
荆门市,石化一小,112.2213,31.0386,2025-01-29T0300,125,168,0.8,32,10,47,,165,细颗粒物(PM2.5)
荆门市,西山林语,112.1849,31.0362,2025-01-29T0300,217,,0.4,16,9,70,,267,细颗粒物(PM2.5)
荆门市,龙泉中学南校,112.1632,31.0138,2025-01-29T0300,150,207,0.6,12,24,66,,200,细颗粒物(PM2.5)
荆州市,市图书馆,112.2494,30.3197,2025-01-29T0300,192,245,0.8,32,20,41,,242,细颗粒物(PM2.5)
荆州市,市委党校,112.2008,30.3544,2025-01-29T0300,179,237,0.4,51,16,18,,229,细颗粒物(PM2.5)
荆州市,管委会,112.2747,30.3122,2025-01-29T0300,192,239,0.9,26,18,45,,242,细颗粒物(PM2.5)
荆州市,学苑路,112.1655,30.3364,2025-01-29T0300,288,295,0.9,48,28,48,,338,细颗粒物(PM2.5)
景德镇市,王港中学,117.3102,29.3867,2025-01-29T0300,,,,,,,,,
景德镇市,老干部活动中心,117.2117,29.2933,2025-01-29T0300,,,,,,,58,,
景德镇市,兽医站,117.1894,29.2789,2025-01-29T0300,168,243,0.6,17,21,25,,218,细颗粒物(PM2.5)
景德镇市,台达陶瓷,117.1547,29.2617,2025-01-29T0300,191,240,0.4,13,16,22,,241,细颗粒物(PM2.5)
景德镇市,陶研所,117.2461,29.2956,2025-01-29T0300,116,162,0.7,11,8,20,,152,细颗粒物(PM2.5)
九江市,十里,115.9872,29.6815,2025-01-29T0300,139,192,0.8,18,12,38,,185,细颗粒物(PM2.5)
九江市,茅山头,115.9584,29.7046,2025-01-29T0300,130,181,0.9,21,5,52,,172,细颗粒物(PM2.5)
九江市,西园,115.9877,29.7295,2025-01-29T0300,252,314,0.5,22,47,52,,302,细颗粒物(PM2.5)
九江市,综合工业园,115.9114,29.6038,2025-01-29T0300,52,112,0.4,10,10,61,,81,颗粒物(PM10)
九江市,石化总厂,116.0721,29.7535,2025-01-29T0300,240,302,0.8,9,26,44,,290,细颗粒物(PM2.5)
九江市,庐山气象台,115.9773,29.5698,2025-01-29T0300,16,44,0.9,2,6,86,,44,
九江市,外国语学校,116.0254,29.6994,2025-01-29T0300,235,309,0.7,26,45,43,,285,细颗粒物(PM2.5)
九江市,莲花大道8号,116.0102,29.6594,2025-01-29T0300,85,106,0.8,12,10,50,,113,细颗粒物(PM2.5)
酒泉市,仓门街子站,98.5061,39.7443,2025-01-29T0300,71,119,0.4,13,20,40,,95,细颗粒物(PM2.5)
酒泉市,玉门东路5号,98.4958,39.7339,2025-01-29T0300,54,100,0.5,10,11,38,,75,颗粒物(PM10)
喀什地区,巡警大队,76.0072,39.4467,2025-01-29T0300,172,475,5.5,92,33,6,,369,颗粒物(PM10)
喀什地区,吾办,75.9755,39.4694,2025-01-29T0300,147,339,2.8,84,10,10,,196,细颗粒物(PM2.5)
喀什地区,老干局,75.9483,39.4689,2025-01-29T0300,171,456,7.3,92,18,9,,345,颗粒物(PM10)
开封市,肿瘤医院,114.3389,34.7781,2025-01-29T0300,163,,0.7,16,18,43,,213,细颗粒物(PM2.5)
开封市,世纪星幼儿园,114.2885,34.7965,2025-01-29T0300,166,181,0.6,20,18,40,,216,细颗粒物(PM2.5)
开封市,龙亭公园,114.3438,34.8106,2025-01-29T0300,183,186,1.1,23,15,43,,233,细颗粒物(PM2.5)
开封市,汴京公园,114.3644,34.7964,2025-01-29T0300,211,270,0.8,24,18,37,,261,细颗粒物(PM2.5)
开封市,技师学院,114.2485,34.8306,2025-01-29T0300,120,171,0.6,27,18,50,,158,细颗粒物(PM2.5)
开封市,祥符区生态环境局,114.4644,34.7556,2025-01-29T0300,185,206,0.7,24,17,43,,235,细颗粒物(PM2.5)
克拉玛依市,长征新村,84.895,45.6094,2025-01-29T0300,129,205,0.4,18,21,54,,170,细颗粒物(PM2.5)
克拉玛依市,南林小区,84.8988,45.5893,2025-01-29T0300,232,,0.4,9,6,60,,282,细颗粒物(PM2.5)
克拉玛依市,独山子区,84.905,44.3396,2025-01-29T0300,360,453,1.3,56,11,39,,407,细颗粒物(PM2.5)
克拉玛依市,乌尔禾区商贸楼,85.6979,46.098,2025-01-29T0300,80,80,0.9,14,5,73,,107,细颗粒物(PM2.5)
克拉玛依市,白碱滩区新站,85.1045,45.6899,2025-01-29T0300,54,76,0.6,15,20,58,,74,细颗粒物(PM2.5)
克孜勒苏柯尔克孜自治州,市人民政府,76.1454,39.7142,2025-01-29T0300,69,259,1.0,14,5,50,,155,颗粒物(PM10)
克孜勒苏柯尔克孜自治州,克州文化中心,76.1658,39.7157,2025-01-29T0300,69,230,1.1,18,11,56,,140,颗粒物(PM10)
昆明市,呈贡新区,102.8204,24.8886,2025-01-29T0300,64,,0.6,8,4,35,,87,细颗粒物(PM2.5)
昆明市,西山森林公园,102.6251,24.9608,2025-01-29T0300,,,,,,,,,
昆明市,龙泉镇,102.7252,25.0902,2025-01-29T0300,209,245,0.6,22,16,14,,259,细颗粒物(PM2.5)
昆明市,东风东路,102.7266,25.0375,2025-01-29T0300,170,210,0.6,26,16,8,,220,细颗粒物(PM2.5)
昆明市,金鼎山,102.6742,25.0669,2025-01-29T0300,87,125,0.8,11,11,31,,115,细颗粒物(PM2.5)
昆明市,碧鸡广场,102.6644,25.0401,2025-01-29T0300,88,106,0.7,9,8,32,,117,细颗粒物(PM2.5)
昆明市,官渡区博物馆,102.7494,25.0119,2025-01-29T0300,101,138,0.6,23,11,10,,133,细颗粒物(PM2.5)
昆明市,青年创业园,102.8017,24.8336,2025-01-29T0300,58,65,0.7,6,7,35,,79,细颗粒物(PM2.5)
昆明市,昆明学院,102.7997,24.9786,2025-01-29T0300,105,131,0.7,13,9,24,,138,细颗粒物(PM2.5)
昆明市,晋宁区生态环境分局,102.5967,24.6736,2025-01-29T0300,88,114,1.0,11,4,26,,117,细颗粒物(PM2.5)
昆明市,云天化总部,102.6678,24.9856,2025-01-29T0300,204,243,0.7,19,13,20,,254,细颗粒物(PM2.5)
拉萨市,八廓街,91.1319,29.6514,2025-01-29T0300,15,22,0.4,7,6,86,,27,
拉萨市,市环保局,91.1221,29.6747,2025-01-29T0300,15,29,0.8,18,4,74,,29,
拉萨市,区监测站,91.0874,29.6475,2025-01-29T0300,10,23,0.5,9,5,92,,29,
拉萨市,西藏大学,91.1774,29.6541,2025-01-29T0300,9,22,0.5,3,5,91,,29,
拉萨市,区辐射站,90.9798,29.6588,2025-01-29T0300,11,16,0.4,5,6,91,,29,
拉萨市,拉萨火车站,91.0834,29.6292,2025-01-29T0300,19,29,0.5,10,5,92,,29,
来宾市,来宾技工学校,109.2203,23.7256,2025-01-29T0300,299,,1.0,22,53,30,,349,细颗粒物(PM2.5)
来宾市,兴宾区政府,109.1781,23.7297,2025-01-29T0300,152,200,0.9,12,21,44,,202,细颗粒物(PM2.5)
来宾市,中南小学,109.2416,23.7461,2025-01-29T0300,284,520,1.1,28,49,14,,420,颗粒物(PM10)
兰州市,榆中兰大校区,104.1373,35.9454,2025-01-29T0300,,,,,,,,,
兰州市,铁路设计院,103.831,36.0464,2025-01-29T0300,366,426,2.1,88,26,7,,411,细颗粒物(PM2.5)
兰州市,百合公园,103.7439,36.0842,2025-01-29T0300,192,225,2.0,50,13,28,,242,细颗粒物(PM2.5)
兰州市,和平,103.9611,35.998,2025-01-29T0300,116,144,1.0,24,19,75,,152,细颗粒物(PM2.5)
兰州市,庄浪东路808号,103.6293,36.0938,2025-01-29T0300,234,264,1.6,51,18,44,,284,细颗粒物(PM2.5)
兰州市,安宁西路88号,103.7251,36.1043,2025-01-29T0300,301,399,1.5,80,17,7,,351,细颗粒物(PM2.5)
兰州市,北滨河东路1号,103.8470,36.0676,2025-01-29T0300,132,181,1.2,63,15,34,,175,细颗粒物(PM2.5)
兰州新区,新区管委会,103.6633,36.533,2025-01-29T0300,109,122,1.1,21,18,28,,143,细颗粒物(PM2.5)
兰州新区,舟曲中学,103.6975,36.4789,2025-01-29T0300,194,246,1.0,38,20,25,,244,细颗粒物(PM2.5)
廊坊市,药材公司,116.6708,39.5111,2025-01-29T0300,189,211,0.5,28,20,40,,239,细颗粒物(PM2.5)
廊坊市,开发区,116.7214,39.5589,2025-01-29T0300,184,220,0.6,28,12,30,,234,细颗粒物(PM2.5)
廊坊市,北华航天学院,116.7244,39.5269,2025-01-29T0300,199,274,0.7,36,20,26,,249,细颗粒物(PM2.5)
廊坊市,河北工业大学,116.7022,39.5453,2025-01-29T0300,138,175,0.5,18,18,47,,183,细颗粒物(PM2.5)
乐山市,花湖湾,103.7723,29.5462,2025-01-29T0300,246,285,0.9,36,8,7,,296,细颗粒物(PM2.5)
乐山市,牛耳桥,103.7627,29.5844,2025-01-29T0300,250,280,0.6,30,24,2,,300,细颗粒物(PM2.5)
乐山市,市第三水厂,103.7508,29.6006,2025-01-29T0300,477,578,0.8,20,39,5,,485,细颗粒物(PM2.5)
乐山市,市监测站,103.7571,29.5664,2025-01-29T0300,189,294,0.9,28,8,3,,239,细颗粒物(PM2.5)
乐山市,理工大学,103.7311,29.5628,2025-01-29T0300,123,146,0.8,32,10,6,,162,细颗粒物(PM2.5)
丽江市,西南郊,100.2143,26.8576,2025-01-29T0300,183,214,1.4,18,6,20,,233,细颗粒物(PM2.5)
丽江市,丽江古城,100.2497,26.8802,2025-01-29T0300,35,45,1.2,8,9,44,,50,
丽江市,市中心,100.2203,26.8906,2025-01-29T0300,34,46,0.9,12,11,44,,49,
丽水市,监测站大楼,119.914,28.4514,2025-01-29T0300,61,88,0.2,4,6,39,,83,细颗粒物(PM2.5)
丽水市,莲都小学,119.93,28.4586,2025-01-29T0300,50,80,0.5,1,8,48,,69,细颗粒物(PM2.5)
丽水市,余庄前,119.879,28.4231,2025-01-29T0300,39,59,0.4,7,4,23,,55,"颗粒物(PM10),细颗粒物(PM2.5)"
连云港市,市环境监测站,119.176,34.5885,2025-01-29T0300,151,178,1.1,16,35,44,,201,细颗粒物(PM2.5)
连云港市,德源药业,119.3581,34.6972,2025-01-29T0300,129,153,0.5,27,17,36,,170,细颗粒物(PM2.5)
连云港市,新城一中,119.178,34.844,2025-01-29T0300,113,,1.0,20,26,49,,148,细颗粒物(PM2.5)
连云港市,胡沟管理处,119.3608,34.7519,2025-01-29T0300,68,85,0.9,16,17,48,,92,细颗粒物(PM2.5)
连云港市,矿山设计院,119.1478,34.5911,2025-01-29T0300,151,190,0.9,17,30,45,,201,细颗粒物(PM2.5)
连云港市,工贸学校,119.2413,34.6539,2025-01-29T0300,97,118,0.6,16,16,50,,128,细颗粒物(PM2.5)
连云港市,连云街道,119.4172,34.7341,2025-01-29T0300,44,68,1.2,12,15,47,,62,细颗粒物(PM2.5)
凉山彝族自治州,青龙寺,102.3431,27.8099,2025-01-29T0300,15,37,0.8,4,3,44,,37,
凉山彝族自治州,邛海宾馆,102.2721,27.8415,2025-01-29T0300,32,41,0.8,6,5,52,,46,
凉山彝族自治州,西昌市政府,102.2625,27.898,2025-01-29T0300,39,46,0.9,7,9,50,,55,细颗粒物(PM2.5)
凉山彝族自治州,凉山州政府,102.2685,27.8851,2025-01-29T0300,39,46,0.9,6,10,50,,55,细颗粒物(PM2.5)
凉山彝族自治州,长安,102.237,27.8914,2025-01-29T0300,43,48,0.9,9,13,47,,60,细颗粒物(PM2.5)
辽阳市,宏伟区,123.2,41.1953,2025-01-29T0300,328,358,1.5,31,30,30,,378,细颗粒物(PM2.5)
辽阳市,新华园,123.1683,41.2495,2025-01-29T0300,316,516,1.7,30,36,30,,416,颗粒物(PM10)
辽阳市,滨河路,123.2354,41.2639,2025-01-29T0300,272,409,1.3,22,23,42,,322,细颗粒物(PM2.5)
辽阳市,铁西工业园,123.149,41.2991,2025-01-29T0300,532,830,1.9,39,69,22,,500,"颗粒物(PM10),细颗粒物(PM2.5)"
辽源市,环保局,125.1358,42.8845,2025-01-29T0300,65,92,0.5,8,13,64,,88,细颗粒物(PM2.5)
辽源市,银鹰制药,125.0764,42.9078,2025-01-29T0300,58,68,0.9,7,8,62,,79,细颗粒物(PM2.5)
聊城市,区政府,115.9848,36.4372,2025-01-29T0300,147,237,0.9,21,37,54,,196,细颗粒物(PM2.5)
聊城市,聊大东校,116.0072,36.4343,2025-01-29T0300,238,283,1.0,30,37,50,,288,细颗粒物(PM2.5)
聊城市,监控中心,115.9819,36.4978,2025-01-29T0300,144,183,0.8,16,31,67,,192,细颗粒物(PM2.5)
聊城市,九州社区,116.0445,36.4361,2025-01-29T0300,219,224,0.8,23,46,51,,269,细颗粒物(PM2.5)
聊城市,星美广场,116.0567,36.4608,2025-01-29T0300,177,197,0.9,20,36,56,,227,细颗粒物(PM2.5)
林芝市,林芝监测站,94.3681,29.6376,2025-01-29T0300,,,0.2,2,6,71,,,
林芝市,林芝人民医院,94.3616,29.6616,2025-01-29T0300,9,15,0.3,2,6,67,,21,
临沧市,市环保局,100.0781,23.8982,2025-01-29T0300,45,88,0.8,10,12,24,,69,颗粒物(PM10)
临沧市,市气象局,100.0894,23.8822,2025-01-29T0300,47,48,0.7,9,9,28,,65,细颗粒物(PM2.5)
临汾市,临钢医院,111.5531,36.0783,2025-01-29T0300,123,191,1.0,16,10,24,,162,细颗粒物(PM2.5)
临汾市,技工学校,111.5028,36.0714,2025-01-29T0300,255,331,1.2,29,22,15,,305,细颗粒物(PM2.5)
临汾市,市委,111.5018,36.0855,2025-01-29T0300,206,290,1.2,26,22,26,,256,细颗粒物(PM2.5)
临汾市,唐尧大酒店,111.505,36.1014,2025-01-29T0300,193,262,0.9,29,29,26,,243,细颗粒物(PM2.5)
临汾市,启星学校,111.4879,36.0530,2025-01-29T0300,194,238,0.9,22,13,27,,244,细颗粒物(PM2.5)
临夏回族自治州,环保局,103.2069,35.5993,2025-01-29T0300,46,287,2.5,35,11,18,,169,颗粒物(PM10)
临夏回族自治州,建设大厦,103.2417,35.6057,2025-01-29T0300,63,189,1.5,16,17,43,,120,颗粒物(PM10)
临沂市,沂河小区,118.3429,35.0532,2025-01-29T0300,203,288,1.3,34,52,32,,253,细颗粒物(PM2.5)
临沂市,鲁南制药厂,118.295,35.0583,2025-01-29T0300,163,215,1.2,28,55,39,,213,细颗粒物(PM2.5)
临沂市,新光毛纺厂,118.2794,34.9976,2025-01-29T0300,319,422,1.7,61,88,13,,369,细颗粒物(PM2.5)
临沂市,河东保险公司,118.3956,35.0888,2025-01-29T0300,209,256,1.4,46,56,15,,259,细颗粒物(PM2.5)
临沂市,十里堡居委,118.3564,35.0215,2025-01-29T0300,185,219,1.3,32,61,34,,235,细颗粒物(PM2.5)
临沂市,南坊新区,118.3604,35.1084,2025-01-29T0300,266,322,0.9,51,60,19,,316,细颗粒物(PM2.5)
临沂市,皇山花园小区,118.3920,35.0300,2025-01-29T0300,207,280,0.8,34,48,22,,257,细颗粒物(PM2.5)
柳州市,柳东小学,109.4856,24.3895,2025-01-29T0300,115,,0.9,15,21,68,,150,细颗粒物(PM2.5)
柳州市,环保监测站,109.4157,24.3277,2025-01-29T0300,266,305,0.8,15,23,66,,316,细颗粒物(PM2.5)
柳州市,河西水厂,109.389,24.341,2025-01-29T0300,323,442,1.0,30,50,28,,373,细颗粒物(PM2.5)
柳州市,市四中,109.4311,24.2921,2025-01-29T0300,116,135,0.9,13,18,65,,152,细颗粒物(PM2.5)
柳州市,市九中,109.4006,24.3631,2025-01-29T0300,393,407,1.1,28,44,53,,429,细颗粒物(PM2.5)
柳州市,古亭山,109.4958,24.3134,2025-01-29T0300,174,,0.7,13,42,54,,224,细颗粒物(PM2.5)
柳州市,市二中,109.5422,24.3996,2025-01-29T0300,141,157,0.8,15,23,41,,188,细颗粒物(PM2.5)
六安市,监测大楼,116.5079,31.737,2025-01-29T0300,255,,0.6,14,24,51,,305,细颗粒物(PM2.5)
六安市,皖西学院,116.4738,31.7643,2025-01-29T0300,289,309,0.9,21,15,36,,339,细颗粒物(PM2.5)
六安市,朝阳厂,116.4996,31.7905,2025-01-29T0300,243,,0.6,23,10,36,,293,细颗粒物(PM2.5)
六安市,开发区,116.5567,31.7886,2025-01-29T0300,258,327,0.9,18,13,43,,308,细颗粒物(PM2.5)
六盘水市,窑上,104.8,26.5892,2025-01-29T0300,45,61,0.4,5,6,58,,63,细颗粒物(PM2.5)
六盘水市,黄土坡,104.83,26.5917,2025-01-29T0300,49,59,0.6,6,7,62,,68,细颗粒物(PM2.5)
六盘水市,水钢,104.89,26.5939,2025-01-29T0300,82,,0.5,6,8,61,,109,细颗粒物(PM2.5)
六盘水市,民中,104.8475,26.5894,2025-01-29T0300,48,62,0.5,5,8,60,,67,细颗粒物(PM2.5)
六盘水市,双水,104.9544,26.5506,2025-01-29T0300,46,58,0.3,5,8,61,,64,细颗粒物(PM2.5)
龙岩市,龙岩师专,117.0189,25.1181,2025-01-29T0300,,,,,,,,,
龙岩市,龙岩市监测站,117.0217,25.1033,2025-01-29T0300,81,153,0.2,11,24,40,,108,细颗粒物(PM2.5)
龙岩市,闽西职业技术学院,117.0258,25.0661,2025-01-29T0300,44,53,0.2,3,13,44,,62,细颗粒物(PM2.5)
龙岩市,龙岩学院,117.0196,25.0306,2025-01-29T0300,131,,0.3,8,44,45,,173,细颗粒物(PM2.5)
陇南市,汉王镇固水子,105.0822,33.3261,2025-01-29T0300,,,,,,,,,
陇南市,滨江中学,104.9339,33.3826,2025-01-29T0300,166,235,1.2,37,156,9,,216,细颗粒物(PM2.5)
陇南市,市总工会,104.955,33.371,2025-01-29T0300,112,132,0.8,18,33,30,,147,细颗粒物(PM2.5)
娄底市,电视发射台,111.9589,27.8901,2025-01-29T0300,79,85,0.6,8,8,64,,105,细颗粒物(PM2.5)
娄底市,市监测站,111.9975,27.725,2025-01-29T0300,282,355,0.9,57,41,4,,332,细颗粒物(PM2.5)
娄底市,市委党校,112.0194,27.7314,2025-01-29T0300,405,511,1.0,40,38,17,,437,细颗粒物(PM2.5)
娄底市,涟钢,111.9561,27.7569,2025-01-29T0300,609,746,0.8,33,24,12,,500,"颗粒物(PM10),细颗粒物(PM2.5)"
娄底市,市政府,111.9892,27.7044,2025-01-29T0300,650,732,1.1,36,45,4,,500,"颗粒物(PM10),细颗粒物(PM2.5)"
泸州市,九狮山,105.4324,28.9634,2025-01-29T0300,,,,,,,,,
泸州市,小市上码头,105.4427,28.9063,2025-01-29T0300,226,287,1.2,45,7,14,,276,细颗粒物(PM2.5)
泸州市,兰田宪桥,105.4241,28.8573,2025-01-29T0300,232,253,1.5,26,4,14,,282,细颗粒物(PM2.5)
泸州市,市环监站,105.4379,28.8833,2025-01-29T0300,210,267,1.1,28,11,22,,260,细颗粒物(PM2.5)
泸州市,纳溪区环保局,105.3617,28.7703,2025-01-29T0300,199,251,1.3,16,11,16,,249,细颗粒物(PM2.5)
吕梁市,环保局,111.1406,37.5211,2025-01-29T0300,42,100,0.4,12,5,44,,75,颗粒物(PM10)
吕梁市,自来水公司,111.1297,37.5136,2025-01-29T0300,92,161,0.5,22,15,29,,122,细颗粒物(PM2.5)
吕梁市,马茂庄小学,111.1283,37.51,2025-01-29T0300,55,161,0.4,18,11,39,,106,颗粒物(PM10)
洛阳市,市委党校,112.3931,34.6516,2025-01-29T0300,198,231,1.1,15,15,52,,248,细颗粒物(PM2.5)
洛阳市,河南林校,112.494,34.6886,2025-01-29T0300,286,,0.9,24,14,33,,336,细颗粒物(PM2.5)
洛阳市,开发区管委会,112.3844,34.623,2025-01-29T0300,248,289,1.0,21,19,45,,298,细颗粒物(PM2.5)
洛阳市,市委新办公区,112.4267,34.6258,2025-01-29T0300,219,278,0.8,18,10,42,,269,细颗粒物(PM2.5)
洛阳市,伊滨,112.6005,34.6326,2025-01-29T0300,168,454,1.0,14,17,51,,343,颗粒物(PM10)
洛阳市,中移产业园,112.4951,34.6332,2025-01-29T0300,156,195,0.8,21,18,54,,206,细颗粒物(PM2.5)
洛阳市,吉利监测站,112.5736,34.8993,2025-01-29T0300,148,190,0.2,10,3,46,,198,细颗粒物(PM2.5)
洛阳市,河科大西苑校区,112.3677,34.662,2025-01-29T0300,321,424,1.2,35,36,16,,371,细颗粒物(PM2.5)
洛阳市,英才小学,112.4388,34.6781,2025-01-29T0300,247,313,0.9,21,26,34,,297,细颗粒物(PM2.5)
洛阳市,春都路1号院,112.4600,34.6949,2025-01-29T0300,359,468,1.5,31,20,18,,406,细颗粒物(PM2.5)
漯河市,三五一五工厂,114.051,33.5699,2025-01-29T0300,748,,0.8,45,66,20,,500,"颗粒物(PM10),细颗粒物(PM2.5)"
漯河市,漯河大学,114.0055,33.5698,2025-01-29T0300,407,436,0.7,33,83,39,,438,细颗粒物(PM2.5)
漯河市,市水利局,114.0138,33.5828,2025-01-29T0300,442,530,1.0,33,70,36,,462,细颗粒物(PM2.5)
漯河市,市广电局,114.0261,33.5698,2025-01-29T0300,533,640,1.0,50,73,14,,500,"颗粒物(PM10),细颗粒物(PM2.5)"
漯河市,市图书馆,113.9749,33.5664,2025-01-29T0300,346,414,0.8,23,54,65,,396,细颗粒物(PM2.5)
漯河市,召陵区卫健委,114.0967,33.5906,2025-01-29T0300,,,,,,,,,
马鞍山市,湖东路四小,118.5092,31.6837,2025-01-29T0300,144,211,0.9,38,5,14,,192,细颗粒物(PM2.5)
马鞍山市,开发区,118.5024,31.6449,2025-01-29T0300,120,158,1.2,46,11,15,,158,细颗粒物(PM2.5)
马鞍山市,濮塘,118.6245,31.7241,2025-01-29T0300,62,73,0.9,11,11,67,,84,细颗粒物(PM2.5)
马鞍山市,雨山,118.4918,31.6809,2025-01-29T0300,99,138,0.9,35,6,28,,130,细颗粒物(PM2.5)
马鞍山市,慈湖高新区,118.5274,31.72227,2025-01-29T0300,74,120,1.1,12,13,55,,99,细颗粒物(PM2.5)
茂名市,电白南海,111.0286,21.4688,2025-01-29T0300,332,420,0.6,19,97,56,,382,细颗粒物(PM2.5)
茂名市,茂石化七小,110.9294,21.6533,2025-01-29T0300,246,298,0.6,12,63,59,,296,细颗粒物(PM2.5)
茂名市,健康路,110.9107,21.6687,2025-01-29T0300,146,195,0.5,13,42,72,,195,细颗粒物(PM2.5)
茂名市,高岭,110.8592,21.6828,2025-01-29T0300,144,197,0.7,13,38,54,,192,细颗粒物(PM2.5)
茂名市,电白水东,111.01,21.5165,2025-01-29T0300,149,210,0.6,13,48,68,,199,细颗粒物(PM2.5)
眉山市,黑龙滩水库,104.0308,30.0478,2025-01-29T0300,,,,,,,,,
眉山市,气象局,103.8416,30.0874,2025-01-29T0300,429,527,1.1,24,14,7,,453,细颗粒物(PM2.5)
眉山市,市委党校,103.8578,30.0744,2025-01-29T0300,332,398,1.1,37,9,6,,382,细颗粒物(PM2.5)
眉山市,区人社局,103.8291,30.0564,2025-01-29T0300,469,,1.3,40,12,5,,480,细颗粒物(PM2.5)
梅州市,梅江月梅,116.1231,24.3284,2025-01-29T0300,98,156,0.2,5,19,50,,129,细颗粒物(PM2.5)
梅州市,梅县新城,116.0797,24.2719,2025-01-29T0300,338,392,0.6,18,28,21,,388,细颗粒物(PM2.5)
梅州市,环境监控中心,116.1248,24.2654,2025-01-29T0300,212,275,0.4,12,34,25,,262,细颗粒物(PM2.5)
梅州市,梅龙,116.1233,24.2991,2025-01-29T0300,154,163,0.5,15,26,35,,204,细颗粒物(PM2.5)
绵阳市,富乐山,104.7778,31.4741,2025-01-29T0300,109,151,1.1,36,2,15,,143,细颗粒物(PM2.5)
绵阳市,高新区自来水公司,104.6697,31.4668,2025-01-29T0300,227,326,1.3,32,3,5,,277,细颗粒物(PM2.5)
绵阳市,三水厂,104.7287,31.5075,2025-01-29T0300,249,306,1.8,31,7,6,,299,细颗粒物(PM2.5)
绵阳市,西科大附属小学,104.69,31.5322,2025-01-29T0300,253,310,1.3,21,8,30,,303,细颗粒物(PM2.5)
绵阳市,安州区旅游局,104.5648,31.5343,2025-01-29T0300,280,343,1.7,26,12,8,,330,细颗粒物(PM2.5)
绵阳市,绵阳市气象局,104.7651,31.4531,2025-01-29T0300,187,216,1.5,42,9,5,,237,细颗粒物(PM2.5)
牡丹江市,环保大楼,129.61,44.561,2025-01-29T0300,90,102,0.4,13,21,53,,119,细颗粒物(PM2.5)
牡丹江市,文化广场,129.6115,44.5782,2025-01-29T0300,64,82,0.6,13,19,58,,87,细颗粒物(PM2.5)
牡丹江市,第一医院,129.5904,44.5963,2025-01-29T0300,38,52,0.4,10,13,54,,54,细颗粒物(PM2.5)
牡丹江市,机车工厂,129.6364,44.6075,2025-01-29T0300,25,41,0.5,8,10,57,,41,
牡丹江市,第一中学,129.6386,44.5462,2025-01-29T0300,72,93,0.6,12,14,48,,97,细颗粒物(PM2.5)
内江市,市监测站,105.0703,29.61,2025-01-29T0300,244,,0.2,16,14,32,,294,细颗粒物(PM2.5)
内江市,东兴区政府,105.0717,29.5947,2025-01-29T0300,184,185,0.6,30,5,28,,234,细颗粒物(PM2.5)
内江市,内江二中,105.0653,29.5817,2025-01-29T0300,200,221,0.7,30,15,29,,250,细颗粒物(PM2.5)
内江市,内江日报社,105.0406,29.5822,2025-01-29T0300,155,180,0.6,31,12,41,,205,细颗粒物(PM2.5)
那曲市,那曲监测站,92.0657,31.4846,2025-01-29T0300,26,42,1.9,20,7,40,,42,
那曲市,那曲会议中心,92.0506,31.4797,2025-01-29T0300,10,29,1.2,5,2,59,,29,
南昌市,省外办,115.8931,28.6843,2025-01-29T0300,163,183,0.8,45,6,24,,213,细颗粒物(PM2.5)
南昌市,省林业公司,115.8886,28.7003,2025-01-29T0300,127,163,0.7,22,11,37,,168,细颗粒物(PM2.5)
南昌市,林科所,115.8126,28.7442,2025-01-29T0300,58,92,0.6,12,15,69,,79,细颗粒物(PM2.5)
南昌市,建工学校,115.8518,28.687,2025-01-29T0300,138,150,1.0,22,12,46,,183,细颗粒物(PM2.5)
南昌市,象湖,115.8921,28.6424,2025-01-29T0300,124,196,1.0,29,7,28,,163,细颗粒物(PM2.5)
南昌市,武术学校,115.7423,28.7996,2025-01-29T0300,33,,0.5,8,2,17,,48,
南昌市,机电学校,115.9084,28.6062,2025-01-29T0300,168,226,0.8,27,17,36,,218,细颗粒物(PM2.5)
南昌市,外国语学校,115.9721,28.7031,2025-01-29T0300,270,287,0.7,27,18,,,320,细颗粒物(PM2.5)
南昌市,南京东路235号,115.9316,28.68677,2025-01-29T0300,222,,0.7,42,9,16,,272,细颗粒物(PM2.5)
南充市,西山风景区,106.056,30.8064,2025-01-29T0300,104,148,0.4,11,6,69,,137,细颗粒物(PM2.5)
南充市,南充市委,106.0789,30.8023,2025-01-29T0300,212,268,0.7,16,5,22,,262,细颗粒物(PM2.5)
南充市,南充炼油厂,106.1031,30.8217,2025-01-29T0300,236,268,0.8,36,8,9,,286,细颗粒物(PM2.5)
南充市,嘉陵区环保局,106.0642,30.7636,2025-01-29T0300,190,241,0.9,40,6,10,,240,细颗粒物(PM2.5)
南充市,市环境监测站,106.1087,30.8388,2025-01-29T0300,265,361,0.8,30,12,11,,315,细颗粒物(PM2.5)
南充市,梨树横街98号,106.1083,30.7884,2025-01-29T0300,319,418,1.1,38,8,2,,369,细颗粒物(PM2.5)
南京市,迈皋桥,118.8086,32.1065,2025-01-29T0300,48,57,0.4,18,4,57,,67,细颗粒物(PM2.5)
南京市,草场门,118.7538,32.0551,2025-01-29T0300,44,73,0.4,18,8,60,,62,"颗粒物(PM10),细颗粒物(PM2.5)"
南京市,山西路,118.7794,32.0745,2025-01-29T0300,46,73,0.4,19,4,67,,64,细颗粒物(PM2.5)
南京市,中华门,118.7752,32.0023,2025-01-29T0300,75,83,0.6,31,7,34,,100,细颗粒物(PM2.5)
南京市,瑞金路,118.8109,32.0309,2025-01-29T0300,70,83,0.9,52,6,10,,94,细颗粒物(PM2.5)
南京市,玄武湖,118.7997,32.0754,2025-01-29T0300,39,65,0.8,10,7,50,,58,颗粒物(PM10)
南京市,浦口,118.6414,32.0931,2025-01-29T0300,32,66,0.5,10,8,71,,58,颗粒物(PM10)
南京市,奥体中心,118.7356,31.9996,2025-01-29T0300,83,107,0.6,29,7,38,,110,细颗粒物(PM2.5)
南京市,仙林大学城,118.9125,32.1028,2025-01-29T0300,92,112,0.6,38,6,19,,122,细颗粒物(PM2.5)
南京市,江宁彩虹桥,118.8436,31.9198,2025-01-29T0300,351,474,0.7,36,13,34,,401,细颗粒物(PM2.5)
南京市,溧水永阳,119.0138,31.6494,2025-01-29T0300,131,141,0.6,12,5,38,,173,细颗粒物(PM2.5)
南京市,六合雄州,118.8554,32.3578,2025-01-29T0300,214,267,0.7,16,18,43,,264,细颗粒物(PM2.5)
南京市,汶溪路181号,118.8708,31.3402,2025-01-29T0300,124,,0.3,5,16,48,,163,细颗粒物(PM2.5)
南宁市,二十一中,108.3103,22.7881,2025-01-29T0300,299,,0.8,34,45,31,,349,细颗粒物(PM2.5)
南宁市,北湖,108.3141,22.8528,2025-01-29T0300,231,277,0.8,20,57,36,,281,细颗粒物(PM2.5)
南宁市,市监测站,108.3206,22.8225,2025-01-29T0300,234,333,1.0,32,54,21,,284,细颗粒物(PM2.5)
南宁市,大自然花园,108.3829,22.8037,2025-01-29T0300,147,,1.0,32,19,29,,196,细颗粒物(PM2.5)
南宁市,仙葫,108.4394,22.7904,2025-01-29T0300,604,,0.7,47,47,15,,500,细颗粒物(PM2.5)
南宁市,区农职院,108.2397,22.8467,2025-01-29T0300,130,267,0.6,14,24,40,,172,细颗粒物(PM2.5)
南宁市,英华嘉园,108.3275,22.735,2025-01-29T0300,206,,0.6,14,28,48,,256,细颗粒物(PM2.5)
南宁市,红星社区,108.4834,22.7618,2025-01-29T0300,270,354,0.8,28,61,40,,320,细颗粒物(PM2.5)
南宁市,乐贤路16号,108.2177,22.7774,2025-01-29T0300,203,291,0.9,20,52,36,,253,细颗粒物(PM2.5)
南平市,茫荡山,118.0966,26.6761,2025-01-29T0300,,,,,,,,,
南平市,南平市监测站,118.1681,26.6369,2025-01-29T0300,115,,0.3,6,20,31,,150,细颗粒物(PM2.5)
南平市,南平铝业有限公司,118.1825,26.6489,2025-01-29T0300,198,,0.4,7,34,29,,248,细颗粒物(PM2.5)
南平市,南平七中,118.1756,26.6272,2025-01-29T0300,140,,0.6,5,25,29,,186,细颗粒物(PM2.5)
南通市,狼山街道,120.9098,31.9663,2025-01-29T0300,90,100,0.8,8,8,56,,119,细颗粒物(PM2.5)
南通市,虹桥,120.86,32.0005,2025-01-29T0300,160,175,0.8,14,20,59,,210,细颗粒物(PM2.5)
南通市,城中,120.87,32.02,2025-01-29T0300,147,191,0.7,18,19,57,,196,细颗粒物(PM2.5)
南通市,星湖花园,120.94,31.93,2025-01-29T0300,89,108,0.6,28,10,46,,118,细颗粒物(PM2.5)
南通市,紫琅学院,120.81,32.0417,2025-01-29T0300,229,265,0.6,17,18,48,,279,细颗粒物(PM2.5)
南通市,通州监测站,121.067,32.062,2025-01-29T0300,200,219,0.7,19,11,52,,250,细颗粒物(PM2.5)
南通市,环境教育馆,120.9348,31.9883,2025-01-29T0300,96,107,0.5,8,10,67,,127,细颗粒物(PM2.5)
南阳市,瓦房庄,112.5224,33.0122,2025-01-29T0300,743,772,1.4,46,66,7,,500,"颗粒物(PM10),细颗粒物(PM2.5)"
南阳市,汉画馆,112.5003,32.9735,2025-01-29T0300,717,792,1.4,41,43,7,,500,"颗粒物(PM10),细颗粒物(PM2.5)"
南阳市,气象站,112.5573,33.027,2025-01-29T0300,324,458,1.0,24,44,37,,374,细颗粒物(PM2.5)
南阳市,理工学院,112.5481,32.9689,2025-01-29T0300,443,483,0.9,33,51,27,,462,细颗粒物(PM2.5)
南阳市,卧龙区政府,112.5234,32.9922,2025-01-29T0300,598,688,1.2,46,55,9,,500,"颗粒物(PM10),细颗粒物(PM2.5)"
宁波市,区环保大楼,121.8358,29.911,2025-01-29T0300,60,77,0.6,4,7,71,,82,细颗粒物(PM2.5)
宁波市,万里学院,121.56,29.82,2025-01-29T0300,68,86,0.4,5,5,66,,92,细颗粒物(PM2.5)
宁波市,龙赛医院,121.713,29.9572,2025-01-29T0300,59,105,0.4,4,10,71,,80,细颗粒物(PM2.5)
宁波市,钱湖水厂,121.633,29.7733,2025-01-29T0300,54,93,0.3,4,5,61,,74,细颗粒物(PM2.5)
宁波市,太古小学,121.5856,29.8635,2025-01-29T0300,72,112,0.6,16,9,51,,97,细颗粒物(PM2.5)
宁波市,市环境监测中心,121.524,29.8674,2025-01-29T0300,86,132,0.7,13,7,42,,114,细颗粒物(PM2.5)
宁波市,万里国际学校,121.6147,29.9017,2025-01-29T0300,77,78,0.4,9,9,65,,103,细颗粒物(PM2.5)
宁波市,白沙活动中心,121.5594,29.8975,2025-01-29T0300,85,94,0.7,10,7,53,,113,细颗粒物(PM2.5)
宁德市,金涵水库,119.5001,26.6946,2025-01-29T0300,,,,,,,,,
宁德市,宁德市监测站,119.5388,26.6612,2025-01-29T0300,76,,0.5,6,6,53,,102,细颗粒物(PM2.5)
宁德市,宁德一中,119.5231,26.6562,2025-01-29T0300,131,169,0.7,13,8,43,,173,细颗粒物(PM2.5)
怒江傈僳族自治州,州监测站,98.8601,25.8567,2025-01-29T0300,95,125,0.9,12,8,14,,125,细颗粒物(PM2.5)
怒江傈僳族自治州,泸水一中,98.8546,25.8417,2025-01-29T0300,88,,0.8,12,6,8,,117,细颗粒物(PM2.5)
攀枝花市,弄弄坪,101.6891,26.571,2025-01-29T0300,28,37,0.8,16,17,29,,40,
攀枝花市,河门口,101.5769,26.5928,2025-01-29T0300,16,24,1.2,15,16,33,,24,
攀枝花市,炳草岗,101.7169,26.585,2025-01-29T0300,35,,0.8,14,20,31,,50,
攀枝花市,仁和,101.7369,26.5008,2025-01-29T0300,50,69,0.8,12,14,22,,69,细颗粒物(PM2.5)
攀枝花市,四十中小,101.7227,26.567,2025-01-29T0300,33,48,0.8,15,23,19,,48,
盘锦市,开发区,122.0303,41.1489,2025-01-29T0300,222,271,1.4,47,19,15,,272,细颗粒物(PM2.5)
盘锦市,兴隆台,122.0485,41.0883,2025-01-29T0300,273,,2.0,54,18,10,,323,细颗粒物(PM2.5)
盘锦市,新生街道,121.8297,41.1028,2025-01-29T0300,132,162,1.5,43,26,20,,175,细颗粒物(PM2.5)
平顶山市,新华旅馆,113.3257,33.742,2025-01-29T0300,365,465,0.5,53,42,15,,410,细颗粒物(PM2.5)
平顶山市,规划设计院,113.2919,33.737,2025-01-29T0300,583,873,1.3,48,24,7,,500,"颗粒物(PM10),细颗粒物(PM2.5)"
平顶山市,平顶山工学院,113.182,33.774,2025-01-29T0300,132,231,0.8,17,19,60,,175,细颗粒物(PM2.5)
平顶山市,规划局,113.3025,33.73,2025-01-29T0300,625,747,1.1,51,34,4,,500,"颗粒物(PM10),细颗粒物(PM2.5)"
平顶山市,石龙区,112.8867,33.9116,2025-01-29T0300,126,162,0.6,17,,55,,166,细颗粒物(PM2.5)
平凉市,聚贤嘉苑,106.6692,35.5461,2025-01-29T0300,29,38,0.6,15,13,80,,42,
平凉市,博物馆,106.7021,35.5307,2025-01-29T0300,49,85,1.2,20,16,58,,68,"颗粒物(PM10),细颗粒物(PM2.5)"
萍乡市,武功山,114.0997,27.5002,2025-01-29T0300,83,102,0.8,8,4,31,,110,细颗粒物(PM2.5)
萍乡市,中医院,113.8385,27.6434,2025-01-29T0300,76,112,0.6,6,14,80,,102,细颗粒物(PM2.5)
萍乡市,市政府车库,113.8493,27.6253,2025-01-29T0300,86,106,0.8,13,15,66,,114,细颗粒物(PM2.5)
萍乡市,市环保局,113.8676,27.6435,2025-01-29T0300,85,124,0.8,12,15,68,,113,细颗粒物(PM2.5)
萍乡市,安源区政府,113.866,27.6198,2025-01-29T0300,82,136,0.8,11,18,57,,109,细颗粒物(PM2.5)
莆田市,荔城区仓后路,119.0141,25.4325,2025-01-29T0300,46,52,0.4,4,4,72,,64,细颗粒物(PM2.5)
莆田市,莆田市监测站,119.0015,25.4553,2025-01-29T0300,65,79,0.5,4,5,62,,88,细颗粒物(PM2.5)
莆田市,涵江区六中,119.1119,25.4561,2025-01-29T0300,36,47,0.5,3,3,82,,52,细颗粒物(PM2.5)
莆田市,秀屿区政府,119.1013,25.3215,2025-01-29T0300,74,104,0.5,5,9,77,,99,细颗粒物(PM2.5)
莆田市,东圳水库,118.981,25.4792,2025-01-29T0300,,,,,,,,,
濮阳市,环保局,115.0312,35.7636,2025-01-29T0300,81,114,0.8,18,12,45,,108,细颗粒物(PM2.5)
濮阳市,油田运输公司,115.0574,35.7609,2025-01-29T0300,86,123,0.9,15,11,44,,114,细颗粒物(PM2.5)
濮阳市,濮水河管理处,115,35.7668,2025-01-29T0300,81,110,0.8,12,5,40,,108,细颗粒物(PM2.5)
濮阳市,任丘路479号,115.0924,35.7686,2025-01-29T0300,95,137,0.5,10,19,51,,125,细颗粒物(PM2.5)
普洱市,市环保局,100.98,22.7633,2025-01-29T0300,6,61,0.6,5,6,40,,56,颗粒物(PM10)
普洱市,普洱第二中学,100.9817,22.8322,2025-01-29T0300,24,60,0.6,6,4,34,,55,颗粒物(PM10)
七台河市,新一中,131.0518,45.8751,2025-01-29T0300,46,54,1.9,10,14,71,,64,细颗粒物(PM2.5)
七台河市,中波台,131.0577,45.7879,2025-01-29T0300,33,41,0.2,7,9,57,,48,
七台河市,人民广场,131.0176,45.7761,2025-01-29T0300,30,40,0.2,12,9,64,,43,
七台河市,新建矿广场,130.8781,45.8222,2025-01-29T0300,30,,0.2,12,6,47,,43,
齐齐哈尔市,安居小区,123.9305,47.3636,2025-01-29T0300,80,,0.5,8,10,70,,107,细颗粒物(PM2.5)
齐齐哈尔市,中心广场,123.9488,47.3386,2025-01-29T0300,30,,0.3,6,7,59,,43,
齐齐哈尔市,农牧车辆厂,123.9483,47.3227,2025-01-29T0300,34,36,0.2,5,8,62,,49,
齐齐哈尔市,市环境监测站,123.945,47.2988,2025-01-29T0300,28,47,0.2,8,6,60,,47,
齐齐哈尔市,富区青少年活动中心,123.6333,47.2075,2025-01-29T0300,26,,0.4,5,8,63,,38,
黔东南苗族侗族自治州,市环境监测站,107.9783,26.5747,2025-01-29T0300,107,136,0.6,10,11,57,,140,细颗粒物(PM2.5)
黔东南苗族侗族自治州,凯里学院,107.8908,26.5311,2025-01-29T0300,41,68,0.7,2,8,66,,59,颗粒物(PM10)
黔南布依族苗族自治州,小围寨,107.5228,26.2403,2025-01-29T0300,112,134,0.6,11,20,42,,147,细颗粒物(PM2.5)
黔南布依族苗族自治州,沙坝,107.5175,26.2978,2025-01-29T0300,146,183,0.7,11,22,32,,195,细颗粒物(PM2.5)
黔西南布依族苗族自治州,场坝街,104.9022,25.0925,2025-01-29T0300,100,114,0.3,9,29,48,,132,细颗粒物(PM2.5)
黔西南布依族苗族自治州,坪东大道,104.8811,25.0992,2025-01-29T0300,113,131,0.4,11,22,46,,148,细颗粒物(PM2.5)
钦州市,市环保站,108.6236,21.9667,2025-01-29T0300,244,307,0.8,20,51,56,,294,细颗粒物(PM2.5)
钦州市,沙埠小学,108.6549,21.9481,2025-01-29T0300,127,,0.6,15,17,60,,168,细颗粒物(PM2.5)
钦州市,港区一小,108.5989,21.7431,2025-01-29T0300,122,197,0.8,14,34,69,,160,细颗粒物(PM2.5)
钦州市,北职校,108.5959,21.9633,2025-01-29T0300,142,148,0.8,12,20,62,,189,细颗粒物(PM2.5)
秦皇岛市,第一关,119.7493,40.0116,2025-01-29T0300,42,,0.4,23,6,62,,59,细颗粒物(PM2.5)
秦皇岛市,监测站,119.5897,39.9499,2025-01-29T0300,62,86,0.7,20,6,43,,84,细颗粒物(PM2.5)
秦皇岛市,建设大厦,119.5251,39.9041,2025-01-29T0300,89,132,0.6,19,14,45,,118,细颗粒物(PM2.5)
秦皇岛市,文明里,119.610547,39.943889,2025-01-29T0300,95,148,0.5,19,11,42,,125,细颗粒物(PM2.5)
秦皇岛市,北戴河轮滑馆,119.5090,39.8253,2025-01-29T0300,143,175,1.7,27,14,20,,190,细颗粒物(PM2.5)
青岛市,仰口,120.6659,36.2403,2025-01-29T0300,13,18,,5,4,85,,,
青岛市,市南区东部子站,120.4134,36.0658,2025-01-29T0300,51,73,0.6,20,20,53,,70,细颗粒物(PM2.5)
青岛市,四方区子站,120.3664,36.1032,2025-01-29T0300,80,88,0.8,11,16,65,,107,细颗粒物(PM2.5)
青岛市,市南区西部子站,120.2994,36.054,2025-01-29T0300,83,110,0.6,17,18,62,,110,细颗粒物(PM2.5)
青岛市,崂山区子站,120.4581,36.0858,2025-01-29T0300,53,61,0.7,,20,58,,,
青岛市,黄岛区子站,120.1983,35.9608,2025-01-29T0300,51,61,0.9,12,19,66,,70,细颗粒物(PM2.5)
青岛市,城阳区子站,120.3999,36.3083,2025-01-29T0300,90,144,0.9,8,28,52,,119,细颗粒物(PM2.5)
青岛市,黄岛区4号,120.0405,35.8735,2025-01-29T0300,110,129,0.8,15,29,57,,144,细颗粒物(PM2.5)
青岛市,即墨2号,120.5014,36.4034,2025-01-29T0300,134,169,1.2,27,40,41,,178,细颗粒物(PM2.5)
青岛市,市北区南部,120.3503,36.0736,2025-01-29T0300,90,100,0.7,17,15,56,,119,细颗粒物(PM2.5)
青岛市,李沧区北部,120.3948,36.1805,2025-01-29T0300,95,105,0.8,22,26,51,,125,细颗粒物(PM2.5)
清远市,环保大楼,113.0426,23.691,2025-01-29T0300,22,27,0.5,2,7,86,,32,
清远市,凤城街办,113.0208,23.7106,2025-01-29T0300,36,63,0.5,2,8,72,,57,颗粒物(PM10)
清远市,技师学院,113.0477,23.6344,2025-01-29T0300,110,170,0.6,11,27,58,,144,细颗粒物(PM2.5)
清远市,清新太和,112.9903,23.7403,2025-01-29T0300,50,84,0.7,9,18,65,,69,细颗粒物(PM2.5)
清远市,清城东城,113.076,23.7198,2025-01-29T0300,26,51,0.6,3,9,72,,51,颗粒物(PM10)
庆阳市,庆阳五中,107.6325,35.7357,2025-01-29T0300,74,92,0.5,6,6,88,,99,细颗粒物(PM2.5)
庆阳市,市环保局,107.6364,35.7067,2025-01-29T0300,80,103,0.7,30,33,63,,107,细颗粒物(PM2.5)
曲靖市,环境监测站,103.7897,25.5035,2025-01-29T0300,73,103,0.8,13,7,32,,98,细颗粒物(PM2.5)
曲靖市,烟厂办公区,103.8,25.5364,2025-01-29T0300,74,98,0.5,11,3,34,,99,细颗粒物(PM2.5)
曲靖市,南苑二区,103.7947,25.462,2025-01-29T0300,99,123,0.6,13,9,37,,130,细颗粒物(PM2.5)
曲靖市,曲靖师范学院,103.7444,25.5261,2025-01-29T0300,111,118,0.6,12,8,36,,145,细颗粒物(PM2.5)
衢州市,环保大楼,118.8692,28.9398,2025-01-29T0300,202,266,0.8,17,8,36,,252,细颗粒物(PM2.5)
衢州市,实验学校,118.8709,28.9666,2025-01-29T0300,202,231,0.4,19,17,38,,252,细颗粒物(PM2.5)
衢州市,衢州学院,118.8621,28.9808,2025-01-29T0300,212,253,0.6,15,14,33,,262,细颗粒物(PM2.5)
泉州市,涂山街,118.5819,24.9117,2025-01-29T0300,41,60,0.5,5,8,90,,58,细颗粒物(PM2.5)
泉州市,津头埔,118.5972,24.8978,2025-01-29T0300,68,94,0.6,7,10,84,,92,细颗粒物(PM2.5)
泉州市,万安,118.6663,24.9424,2025-01-29T0300,49,75,0.5,4,7,93,,68,细颗粒物(PM2.5)
泉州市,清源山,118.6117,24.9604,2025-01-29T0300,,,,,,,,,
泉州市,城华南路,118.6333,24.9264,2025-01-29T0300,86,119,0.4,2,11,82,,114,细颗粒物(PM2.5)
日喀则市,日喀则监测站,88.8876,29.2718,2025-01-29T0300,103,141,1.6,56,7,14,,135,细颗粒物(PM2.5)
日喀则市,林业技术推广中心,88.8781,29.2426,2025-01-29T0300,42,42,0.6,4,11,58,,59,细颗粒物(PM2.5)
日照市,监测站,119.471,35.4209,2025-01-29T0300,162,200,1.6,49,22,5,,212,细颗粒物(PM2.5)
日照市,市政府广场,119.523,35.4216,2025-01-29T0300,88,107,0.8,21,14,40,,117,细颗粒物(PM2.5)
日照市,港务局,119.5587,35.4044,2025-01-29T0300,98,124,0.9,42,17,22,,129,细颗粒物(PM2.5)
日照市,职业技术学院,119.5328,35.4625,2025-01-29T0300,48,56,0.7,12,15,57,,67,细颗粒物(PM2.5)
日照市,岚山环保分局,119.3266,35.1044,2025-01-29T0300,47,70,1.3,12,120,66,,65,细颗粒物(PM2.5)
三门峡市,市政府,111.1922,34.7752,2025-01-29T0300,55,81,0.7,10,10,66,,75,细颗粒物(PM2.5)
三门峡市,开发区,111.1587,34.7942,2025-01-29T0300,116,134,0.6,10,3,45,,152,细颗粒物(PM2.5)
三门峡市,风景区,111.143,34.7955,2025-01-29T0300,72,97,0.7,12,7,50,,97,细颗粒物(PM2.5)
三门峡市,三门峡市第一小学,111.1911,34.7829,2025-01-29T0300,82,92,1.0,10,4,56,,109,细颗粒物(PM2.5)
三门峡市,富达温泉假日酒店,111.1,34.7167,2025-01-29T0300,90,108,0.8,9,6,47,,119,细颗粒物(PM2.5)
三明市,三钢,117.6211,26.2625,2025-01-29T0300,149,,0.6,9,20,34,,199,细颗粒物(PM2.5)
三明市,三明二中,117.635,26.2714,2025-01-29T0300,145,218,0.3,8,20,28,,193,细颗粒物(PM2.5)
三明市,三元区政府,117.6028,26.2378,2025-01-29T0300,46,,0.8,6,7,28,,64,细颗粒物(PM2.5)
三明市,洋溪,117.7275,26.3108,2025-01-29T0300,,,,,,,,,
三亚市,河东子站,109.5078,18.2489,2025-01-29T0300,22,34,0.3,2,2,93,,34,
三亚市,河西子站,109.4964,18.2681,2025-01-29T0300,30,44,0.4,4,4,84,,44,
三亚市,君悦子站,109.7348,18.3443,2025-01-29T0300,50,104,0.5,8,8,79,,77,颗粒物(PM10)
山南市,山南监测站,91.7608,29.2313,2025-01-29T0300,16,22,0.3,4,4,66,,23,
山南市,山南人民医院,91.7706,29.2436,2025-01-29T0300,39,53,0.7,17,9,51,,55,细颗粒物(PM2.5)
汕头市,金平子站,116.6794,23.3667,2025-01-29T0300,40,45,0.8,11,7,81,,57,细颗粒物(PM2.5)
汕头市,龙湖子站,116.7244,23.3633,2025-01-29T0300,27,46,0.7,10,6,80,,46,
汕头市,濠江子站,116.7258,23.2775,2025-01-29T0300,34,,0.7,4,4,84,,49,
汕头市,澄海子站,116.7519,23.4714,2025-01-29T0300,46,52,0.6,10,10,80,,64,细颗粒物(PM2.5)
汕头市,潮阳子站,116.6092,23.2539,2025-01-29T0300,26,68,0.6,3,7,81,,59,颗粒物(PM10)
汕头市,潮南峡山,116.454,23.2684,2025-01-29T0300,42,70,0.6,7,9,70,,60,颗粒物(PM10)
汕头市,潮南子站,116.4069,23.2533,2025-01-29T0300,43,82,0.6,9,9,78,,66,颗粒物(PM10)
汕尾市,市环保局,115.3653,22.775,2025-01-29T0300,187,200,0.6,12,21,55,,237,细颗粒物(PM2.5)
汕尾市,市政府,115.3706,22.7898,2025-01-29T0300,196,273,0.5,8,26,58,,246,细颗粒物(PM2.5)
汕尾市,新城中学,115.3622,22.7925,2025-01-29T0300,184,262,0.5,9,24,63,,234,细颗粒物(PM2.5)
商洛市,监测站,109.9154,33.8715,2025-01-29T0300,193,,0.7,14,12,34,,243,细颗粒物(PM2.5)
商洛市,商州区中学,109.9643,33.8471,2025-01-29T0300,378,435,1.2,23,41,27,,419,细颗粒物(PM2.5)
商丘市,环境监测站,115.6702,34.4285,2025-01-29T0300,228,,0.5,17,22,53,,278,细颗粒物(PM2.5)
商丘市,粮食局,115.6458,34.4045,2025-01-29T0300,167,209,0.5,13,14,68,,217,细颗粒物(PM2.5)
商丘市,睢阳区环保局,115.6293,34.3948,2025-01-29T0300,212,,0.4,17,22,62,,262,细颗粒物(PM2.5)
商丘市,梁园区档案局,115.6071,34.4465,2025-01-29T0300,234,,0.6,14,27,62,,284,细颗粒物(PM2.5)
上海市,普陀,121.4,31.238,2025-01-29T0300,92,125,0.8,21,17,61,,122,细颗粒物(PM2.5)
上海市,十五厂,121.478,31.2036,2025-01-29T0300,80,110,0.8,18,14,67,,107,细颗粒物(PM2.5)
上海市,虹口,121.467,31.3008,2025-01-29T0300,149,160,1.0,27,18,55,,199,细颗粒物(PM2.5)
上海市,静安监测站,121.425,31.2261,2025-01-29T0300,86,121,0.8,21,16,65,,114,细颗粒物(PM2.5)
上海市,浦东川沙,121.703,31.1907,2025-01-29T0300,64,132,0.8,22,10,59,,91,颗粒物(PM10)
上海市,浦东新区监测站,121.533,31.2284,2025-01-29T0300,90,114,0.8,25,17,63,,119,细颗粒物(PM2.5)
上海市,浦东张江,121.577,31.2071,2025-01-29T0300,80,111,0.7,25,12,62,,107,细颗粒物(PM2.5)
上海市,宝山庙行,121.4316,31.3322,2025-01-29T0300,171,187,0.9,20,20,58,,221,细颗粒物(PM2.5)
上海市,崇明上实东滩,121.8791,31.4662,2025-01-29T0300,147,168,0.6,12,12,66,,196,细颗粒物(PM2.5)
上海市,嘉定南翔,121.3162,31.2838,2025-01-29T0300,94,133,0.4,55,12,17,,124,细颗粒物(PM2.5)
上海市,金山新城,121.3359,30.7456,2025-01-29T0300,75,105,0.6,11,13,71,,100,细颗粒物(PM2.5)
上海市,闵行浦江,121.4996,31.0739,2025-01-29T0300,88,134,0.6,32,14,46,,117,细颗粒物(PM2.5)
上海市,青浦徐泾,121.2886,31.1663,2025-01-29T0300,97,145,0.8,22,15,55,,128,细颗粒物(PM2.5)
上海市,松江图书馆,121.2186,31.0378,2025-01-29T0300,76,107,0.7,16,13,62,,102,细颗粒物(PM2.5)
上海市,长宁仙霞,121.3902,31.2059,2025-01-29T0300,111,134,1.0,33,10,39,,145,细颗粒物(PM2.5)
上海市,浦东惠南,121.7965,31.0507,2025-01-29T0300,112,168,1.0,29,16,53,,147,细颗粒物(PM2.5)
上海市,奉贤南桥新城,121.4891,30.925,2025-01-29T0300,92,144,0.7,18,15,59,,122,细颗粒物(PM2.5)
上海市,冠生园路458号,121.4174,31.16637,2025-01-29T0300,100,146,0.9,23,6,46,,132,细颗粒物(PM2.5)
上海市,宁武路151号,121.5419,31.2683,2025-01-29T0300,112,132,0.6,21,13,62,,147,细颗粒物(PM2.5)
上饶市,百草园,118.005,28.4572,2025-01-29T0300,207,,0.8,7,25,34,,257,细颗粒物(PM2.5)
上饶市,市监测站,117.9756,28.4436,2025-01-29T0300,181,242,0.6,14,20,36,,231,细颗粒物(PM2.5)
上饶市,凤凰光学,117.9519,28.4628,2025-01-29T0300,269,329,0.8,16,30,26,,319,细颗粒物(PM2.5)
上饶市,双创科技城,117.897,28.4315,2025-01-29T0300,172,228,0.8,14,37,24,,222,细颗粒物(PM2.5)
上饶市,裕丰大道,118.1904,28.4448,2025-01-29T0300,325,,0.6,17,23,28,,375,细颗粒物(PM2.5)
韶关市,市八中,113.5824,24.7733,2025-01-29T0300,99,140,0.4,13,6,54,,130,细颗粒物(PM2.5)
韶关市,园林处,113.5917,24.7972,2025-01-29T0300,106,120,0.3,11,17,68,,139,细颗粒物(PM2.5)
韶关市,韶关学院,113.6735,24.7791,2025-01-29T0300,164,192,0.5,13,10,23,,214,细颗粒物(PM2.5)
韶关市,曲江监测站,113.5971,24.6863,2025-01-29T0300,249,314,0.5,21,27,30,,299,细颗粒物(PM2.5)
韶关市,碧湖山庄,113.5556,24.8082,2025-01-29T0300,211,271,0.5,11,32,49,,261,细颗粒物(PM2.5)
邵阳市,市水土所,111.5239,27.3033,2025-01-29T0300,,,,,,,,,
邵阳市,市化工厂,111.5283,27.2442,2025-01-29T0300,478,566,0.4,26,38,22,,486,细颗粒物(PM2.5)
邵阳市,市环保局,111.4328,27.2272,2025-01-29T0300,370,410,1.0,26,30,29,,414,细颗粒物(PM2.5)
邵阳市,邵阳卫生学校,111.4399,27.2495,2025-01-29T0300,431,437,0.9,24,27,20,,454,细颗粒物(PM2.5)
邵阳市,邵阳市第二中学图书馆,111.4684,27.2316,2025-01-29T0300,378,400,0.8,29,25,30,,419,细颗粒物(PM2.5)
绍兴市,城东开发委,120.6053,29.9928,2025-01-29T0300,146,180,0.6,5,7,49,,195,细颗粒物(PM2.5)
绍兴市,树下王站,120.5483,30.0003,2025-01-29T0300,76,86,0.5,10,6,49,,102,细颗粒物(PM2.5)
绍兴市,绍兴中专,120.5683,29.9361,2025-01-29T0300,74,86,0.4,8,2,56,,99,细颗粒物(PM2.5)
绍兴市,柯桥区政府,120.4906,30.0861,2025-01-29T0300,119,165,0.5,17,8,50,,156,细颗粒物(PM2.5)
绍兴市,重华小学,120.8752,30.0249,2025-01-29T0300,100,101,0.4,5,11,56,,132,细颗粒物(PM2.5)
绍兴市,上虞中学,120.8369,30.0137,2025-01-29T0300,134,,0.5,9,7,44,,178,细颗粒物(PM2.5)
绍兴市,柯桥妇保,120.4722,30.0415,2025-01-29T0300,117,142,0.5,16,6,42,,153,细颗粒物(PM2.5)
绍兴市,袍江中学,120.6153,30.0764,2025-01-29T0300,155,179,0.8,16,4,46,,205,细颗粒物(PM2.5)
深圳市,通心岭子站,114.1063,22.5545,2025-01-29T0300,48,68,0.5,5,,72,,,
深圳市,洪湖,114.117,22.5625,2025-01-29T0300,57,82,0.3,4,8,68,,78,细颗粒物(PM2.5)
深圳市,华侨城,113.987,22.5417,2025-01-29T0300,50,72,0.5,4,7,67,,69,细颗粒物(PM2.5)
深圳市,南海子站,113.9181,22.5171,2025-01-29T0300,45,83,0.4,11,8,70,,67,颗粒物(PM10)
深圳市,盐田,114.2458,22.5689,2025-01-29T0300,28,70,0.6,57,9,27,,60,颗粒物(PM10)
深圳市,龙岗,114.2283,22.7244,2025-01-29T0300,91,120,0.5,4,20,64,,120,细颗粒物(PM2.5)
深圳市,南澳,114.494,22.5422,2025-01-29T0300,11,24,0.5,3,6,60,,24,
深圳市,葵涌,114.41,22.6342,2025-01-29T0300,133,145,0.6,11,12,40,,176,细颗粒物(PM2.5)
深圳市,梅沙,114.297,22.5978,2025-01-29T0300,44,74,0.6,6,11,77,,62,"颗粒物(PM10),细颗粒物(PM2.5)"
深圳市,观澜,114.0678,22.738,2025-01-29T0300,139,181,0.5,10,16,42,,185,细颗粒物(PM2.5)
深圳市,莲花,114.0731,22.559,2025-01-29T0300,58,92,0.7,5,8,64,,79,细颗粒物(PM2.5)
深圳市,民治,114.0261,22.6198,2025-01-29T0300,62,93,0.3,9,10,68,,84,细颗粒物(PM2.5)
深圳市,横岗,114.1871,22.6451,2025-01-29T0300,78,111,0.4,3,11,68,,104,细颗粒物(PM2.5)
深圳市,坪山,114.3551,22.7151,2025-01-29T0300,107,142,0.4,9,20,62,,140,细颗粒物(PM2.5)
深圳市,西乡,113.8953,22.5861,2025-01-29T0300,65,116,0.4,9,13,61,,88,细颗粒物(PM2.5)
沈阳市,森林路,123.6836,41.9339,2025-01-29T0300,,,,,,,,,
沈阳市,浑南东路,123.505,41.7406,2025-01-29T0300,122,175,0.8,27,25,38,,160,细颗粒物(PM2.5)
沈阳市,新秀街,123.4231,41.6989,2025-01-29T0300,131,254,0.7,22,20,42,,173,细颗粒物(PM2.5)
沈阳市,东陵路,123.5903,41.8411,2025-01-29T0300,106,168,0.7,24,13,42,,139,细颗粒物(PM2.5)
沈阳市,陵东街,123.4264,41.8467,2025-01-29T0300,99,139,0.7,20,18,47,,130,细颗粒物(PM2.5)
沈阳市,文化路,123.4114,41.7653,2025-01-29T0300,102,193,0.9,26,28,47,,134,细颗粒物(PM2.5)
沈阳市,小河沿,123.4678,41.7867,2025-01-29T0300,64,101,0.6,30,28,39,,87,细颗粒物(PM2.5)
沈阳市,太原街,123.4017,41.7972,2025-01-29T0300,121,147,0.8,28,30,42,,159,细颗粒物(PM2.5)
沈阳市,京沈街,123.3783,41.9228,2025-01-29T0300,129,195,0.6,14,23,46,,170,细颗粒物(PM2.5)
沈阳市,沈辽西路,123.2444,41.7347,2025-01-29T0300,84,140,0.8,13,22,52,,112,细颗粒物(PM2.5)
沈阳市,裕农路,123.5953,41.9086,2025-01-29T0300,105,174,0.8,32,11,34,,138,细颗粒物(PM2.5)
十堰市,武当山,111.0419,32.395,2025-01-29T0300,13,33,0.5,6,9,80,,33,
十堰市,滨河新村,110.78,32.6494,2025-01-29T0300,80,110,0.9,7,8,35,,107,细颗粒物(PM2.5)
十堰市,刘家沟,110.7258,32.6389,2025-01-29T0300,68,88,1.3,17,12,22,,92,细颗粒物(PM2.5)
十堰市,铁二处,110.8839,32.5714,2025-01-29T0300,78,91,0.7,9,7,22,,104,细颗粒物(PM2.5)
十堰市,郧阳区金沙路,110.8054,32.8401,2025-01-29T0300,136,,0.7,4,4,46,,180,细颗粒物(PM2.5)
石河子市,艾青诗歌馆,86.0497,44.2967,2025-01-29T0300,90,187,0.8,32,16,49,,119,"颗粒物(PM10),细颗粒物(PM2.5)"
石河子市,南区管委会,86.047,44.2331,2025-01-29T0300,104,132,1.1,31,18,58,,137,细颗粒物(PM2.5)
石河子市,世纪广场,86.0791,44.3017,2025-01-29T0300,295,414,1.0,59,40,15,,345,细颗粒物(PM2.5)
石家庄市,职工医院,114.4422,38.0444,2025-01-29T0300,296,324,0.7,42,31,16,,346,细颗粒物(PM2.5)
石家庄市,高新区,114.6063,38.0266,2025-01-29T0300,169,209,0.8,27,24,40,,219,细颗粒物(PM2.5)
石家庄市,西北水源,114.4898,38.1328,2025-01-29T0300,278,317,0.6,31,19,22,,328,细颗粒物(PM2.5)
石家庄市,西南高教,114.4586,38.0058,2025-01-29T0300,288,376,0.7,32,38,29,,338,细颗粒物(PM2.5)
石家庄市,世纪公园,114.5331,38.0178,2025-01-29T0300,146,169,0.8,22,28,40,,195,细颗粒物(PM2.5)
石家庄市,人民会堂,114.509,38.0457,2025-01-29T0300,153,181,0.7,17,31,46,,203,细颗粒物(PM2.5)
石家庄市,封龙山,114.3524,37.8911,2025-01-29T0300,14,58,0.3,2,18,80,,54,颗粒物(PM10)
石家庄市,22中南校区,114.5481,38.0378,2025-01-29T0300,147,178,0.8,20,27,40,,196,细颗粒物(PM2.5)
石家庄市,鹿泉一中,114.289,38.0906,2025-01-29T0300,67,95,0.7,17,14,46,,90,细颗粒物(PM2.5)
石家庄市,藁城区实验学校,114.8506765,38.0322033,2025-01-29T0300,174,236,0.8,23,31,42,,224,细颗粒物(PM2.5)
石家庄市,井陉矿区区委大楼,114.0504658,38.0591645,2025-01-29T0300,116,169,0.8,56,27,6,,152,细颗粒物(PM2.5)
石家庄市,栾城区星河路,114.6549,37.9020,2025-01-29T0300,283,332,1.1,24,50,32,,333,细颗粒物(PM2.5)
石嘴山市,沙湖旅游区,106.3394,38.817,2025-01-29T0300,,,,,,,,,
石嘴山市,大武口朝阳西街,106.3668,39.0145,2025-01-29T0300,288,820,1.2,23,30,53,,500,颗粒物(PM10)
石嘴山市,惠农南大街,106.7704,39.2282,2025-01-29T0300,101,141,0.7,16,22,54,,133,细颗粒物(PM2.5)
石嘴山市,红果子镇惠新街,106.7099,39.1325,2025-01-29T0300,101,104,0.8,19,14,53,,133,细颗粒物(PM2.5)
石嘴山市,妇女儿童医院,106.3495,38.9836,2025-01-29T0300,201,243,1.0,26,7,65,,251,细颗粒物(PM2.5)
石嘴山市,石大公路,106.7492,39.2069,2025-01-29T0300,100,160,0.8,19,8,45,,132,细颗粒物(PM2.5)
双鸭山市,双合村,131.1511,46.6937,2025-01-29T0300,61,,0.3,5,13,59,,83,细颗粒物(PM2.5)
双鸭山市,南小市,131.1652,46.6191,2025-01-29T0300,36,44,0.4,10,12,62,,52,细颗粒物(PM2.5)
双鸭山市,环保局,131.1524,46.6554,2025-01-29T0300,42,45,0.4,8,11,62,,59,细颗粒物(PM2.5)
双鸭山市,苗圃,131.12,46.5656,2025-01-29T0300,51,,0.6,16,8,51,,70,细颗粒物(PM2.5)
朔州市,平朔,112.4397,39.3522,2025-01-29T0300,233,707,1.9,55,124,18,,500,颗粒物(PM10)
朔州市,朔唯,112.4575,39.3617,2025-01-29T0300,,,1.3,43,110,24,,,
朔州市,区政府,112.4258,39.3197,2025-01-29T0300,341,803,2.4,65,183,27,,500,颗粒物(PM10)
朔州市,市环保局,112.4072,39.3278,2025-01-29T0300,735,,2.8,59,211,27,,500,"颗粒物(PM10),细颗粒物(PM2.5)"
朔州市,市二中,112.4272,39.3681,2025-01-29T0300,172,333,1.6,46,108,18,,222,细颗粒物(PM2.5)
朔州市,一水厂,112.2931,39.53,2025-01-29T0300,50,195,1.0,19,31,54,,123,颗粒物(PM10)
四平市,一商场,124.4002,43.1713,2025-01-29T0300,85,,0.2,8,7,66,,113,细颗粒物(PM2.5)
四平市,境园,124.388,43.193,2025-01-29T0300,64,99,0.3,11,12,59,,87,细颗粒物(PM2.5)
四平市,植物园,124.4036,43.1411,2025-01-29T0300,67,94,0.3,8,6,60,,90,细颗粒物(PM2.5)
四平市,世纪城,124.3419,43.1666,2025-01-29T0300,48,67,0.4,4,7,66,,67,细颗粒物(PM2.5)
松原市,江南,124.8006,45.1214,2025-01-29T0300,59,,0.8,9,8,60,,80,细颗粒物(PM2.5)
松原市,江北,124.7965,45.1722,2025-01-29T0300,61,74,0.7,8,5,60,,83,细颗粒物(PM2.5)
苏州市,上方山,120.561,31.2472,2025-01-29T0300,,,,,,,,,
苏州市,彩香,120.591,31.3019,2025-01-29T0300,76,92,0.6,15,11,68,,102,细颗粒物(PM2.5)
苏州市,轧钢厂,120.596,31.3264,2025-01-29T0300,106,131,1.0,22,8,43,,139,细颗粒物(PM2.5)
苏州市,吴中区,120.613,31.2703,2025-01-29T0300,85,108,1.0,13,10,71,,113,细颗粒物(PM2.5)
苏州市,苏州新区,120.543,31.2994,2025-01-29T0300,84,102,0.8,14,11,74,,112,细颗粒物(PM2.5)
苏州市,苏州工业园区,120.669,31.3097,2025-01-29T0300,93,110,0.9,15,12,63,,123,细颗粒物(PM2.5)
苏州市,相城区,120.641,31.3708,2025-01-29T0300,96,111,1.0,18,14,62,,127,细颗粒物(PM2.5)
苏州市,方洲路,120.743,31.3188,2025-01-29T0300,97,121,0.8,14,8,61,,128,细颗粒物(PM2.5)
苏州市,木渎中学,120.5031,31.2774,2025-01-29T0300,64,81,0.6,12,11,76,,87,细颗粒物(PM2.5)
苏州市,越秀幼儿园,120.624,31.1733,2025-01-29T0300,62,79,0.5,14,10,78,,84,细颗粒物(PM2.5)
苏州市,高铁新城,120.6505,31.416,2025-01-29T0300,115,142,0.9,22,14,56,,150,细颗粒物(PM2.5)
宿迁市,宿迁学院,118.293,33.9528,2025-01-29T0300,258,,0.6,18,19,42,,308,细颗粒物(PM2.5)
宿迁市,宿迁中学,118.2442,33.9592,2025-01-29T0300,203,,0.6,22,12,48,,253,细颗粒物(PM2.5)
宿迁市,市供电局,118.283,33.965,2025-01-29T0300,140,,0.8,40,3,28,,186,细颗粒物(PM2.5)
宿迁市,宿豫区政府,118.3225,33.9447,2025-01-29T0300,266,,0.9,43,14,12,,316,细颗粒物(PM2.5)
宿州市,远航博物馆,116.9509,33.666,2025-01-29T0300,145,182,0.6,19,9,50,,193,细颗粒物(PM2.5)
宿州市,社会福利中心,116.9708,33.591,2025-01-29T0300,167,220,0.6,19,23,55,,217,细颗粒物(PM2.5)
宿州市,宿州学院,116.9884,33.6305,2025-01-29T0300,179,207,0.4,19,20,59,,229,细颗粒物(PM2.5)
宿州市,皖北煤电集团,116.9648,33.6252,2025-01-29T0300,156,189,0.5,16,12,56,,206,细颗粒物(PM2.5)
绥化市,人和东街,126.9785,46.6365,2025-01-29T0300,90,112,0.5,12,9,59,,119,细颗粒物(PM2.5)
绥化市,党政办公中心,126.964,46.6528,2025-01-29T0300,65,79,0.5,11,9,62,,88,细颗粒物(PM2.5)
随州市,市委党校,113.3583,31.7275,2025-01-29T0300,209,264,0.9,30,19,34,,259,细颗粒物(PM2.5)
随州市,市林业局,113.3833,31.6908,2025-01-29T0300,228,260,1.1,29,23,34,,278,细颗粒物(PM2.5)
随州市,市立交桥水厂,113.3983,31.7308,2025-01-29T0300,227,293,1.1,22,21,35,,277,细颗粒物(PM2.5)
遂宁市,石溪浩,105.5453,30.5678,2025-01-29T0300,288,364,1.0,18,4,8,,338,细颗粒物(PM2.5)
遂宁市,市监测站,105.5582,30.5232,2025-01-29T0300,283,372,0.7,28,6,9,,333,细颗粒物(PM2.5)
遂宁市,行政中心,105.5861,30.5366,2025-01-29T0300,302,393,0.7,31,17,10,,352,细颗粒物(PM2.5)
遂宁市,美宁食品公司,105.5918,30.4728,2025-01-29T0300,250,313,0.9,27,7,6,,300,细颗粒物(PM2.5)
塔城地区,东门外小游园,82.9994,46.7432,2025-01-29T0300,59,,0.0,,5,28,,,
台州市,黄岩环保大楼,121.273,28.6459,2025-01-29T0300,60,89,0.7,9,4,59,,82,细颗粒物(PM2.5)
台州市,台州环保大楼,121.419,28.6542,2025-01-29T0300,83,114,0.4,7,6,52,,110,细颗粒物(PM2.5)
台州市,路桥田洋王,121.377,28.5773,2025-01-29T0300,182,212,0.5,6,8,46,,232,细颗粒物(PM2.5)
台州市,台州科技职业学院,121.2568,28.6681,2025-01-29T0300,114,194,0.8,10,10,49,,149,细颗粒物(PM2.5)
太原市,尖草坪,112.522,37.8873,2025-01-29T0300,496,622,0.8,50,53,15,,500,颗粒物(PM10)
太原市,上兰,112.434,38.0108,2025-01-29T0300,42,59,0.4,9,7,65,,59,细颗粒物(PM2.5)
太原市,晋源,112.469,37.7124,2025-01-29T0300,726,,2.3,76,107,14,,500,细颗粒物(PM2.5)
太原市,小店,112.5583,37.7394,2025-01-29T0300,499,734,1.8,77,119,18,,500,"颗粒物(PM10),细颗粒物(PM2.5)"
太原市,桃园,112.5369,37.8692,2025-01-29T0300,673,981,0.7,65,76,10,,500,"颗粒物(PM10),细颗粒物(PM2.5)"
太原市,坞城,112.57,37.8195,2025-01-29T0300,509,572,1.3,57,104,16,,500,细颗粒物(PM2.5)
太原市,南寨,112.549,37.9854,2025-01-29T0300,189,,0.7,19,7,33,,239,细颗粒物(PM2.5)
太原市,金胜,112.4719,37.7831,2025-01-29T0300,372,450,1.4,66,75,23,,415,细颗粒物(PM2.5)
太原市,育英中学,112.5608,37.8807,2025-01-29T0300,934,,0.8,64,89,10,,500,"颗粒物(PM10),细颗粒物(PM2.5)"
泰安市,监测站,117.1437,36.1937,2025-01-29T0300,327,581,1.5,50,30,12,,481,颗粒物(PM10)
泰安市,人口学校,117.0885,36.2017,2025-01-29T0300,37,48,0.5,10,9,57,,53,细颗粒物(PM2.5)
泰安市,电力学校,117.1089,36.1758,2025-01-29T0300,608,771,2.8,78,71,28,,500,"颗粒物(PM10),细颗粒物(PM2.5)"
泰安市,国网新校,117.1812,36.2275,2025-01-29T0300,88,100,0.8,14,11,54,,117,细颗粒物(PM2.5)
泰安市,交通技校,117.0313,36.2018,2025-01-29T0300,223,342,1.3,64,22,14,,273,细颗粒物(PM2.5)
泰安市,山东第一医科大学,117.0829,36.13,2025-01-29T0300,544,647,2.2,69,71,14,,500,"颗粒物(PM10),细颗粒物(PM2.5)"
泰州市,公园路,119.905,32.4878,2025-01-29T0300,339,385,1.3,30,31,31,,389,细颗粒物(PM2.5)
泰州市,莲花,119.9189,32.4625,2025-01-29T0300,317,383,0.9,28,28,38,,367,细颗粒物(PM2.5)
泰州市,留学生创业园,119.888,32.4639,2025-01-29T0300,372,416,0.6,29,24,36,,415,细颗粒物(PM2.5)
泰州市,王营,119.8767,32.3289,2025-01-29T0300,210,232,0.5,19,25,54,,260,细颗粒物(PM2.5)
泰州市,姜堰区政府广场,120.1259,32.5099,2025-01-29T0300,202,222,0.7,19,24,52,,252,细颗粒物(PM2.5)
泰州市,周山河街区,119.9192,32.4322,2025-01-29T0300,266,368,1.1,28,29,47,,316,细颗粒物(PM2.5)
唐山市,物资局,118.1725,39.6334,2025-01-29T0300,131,149,0.6,22,20,38,,173,细颗粒物(PM2.5)
唐山市,十二中,118.1705,39.6506,2025-01-29T0300,113,148,0.6,34,12,30,,148,细颗粒物(PM2.5)
唐山市,小山,118.1869,39.622,2025-01-29T0300,145,178,0.7,25,17,34,,193,细颗粒物(PM2.5)
唐山市,冀东油田职工医院,118.4359,39.2762,2025-01-29T0300,151,160,0.6,14,16,55,,201,细颗粒物(PM2.5)
唐山市,正泰大街热力站,118.09279,39.58089,2025-01-29T0300,148,177,0.5,24,11,24,,198,细颗粒物(PM2.5)
唐山市,丰润区政府,118.1562,39.8322,2025-01-29T0300,151,177,1.3,29,13,24,,201,细颗粒物(PM2.5)
唐山市,金山小学,118.43673,39.73809,2025-01-29T0300,116,168,1.3,39,16,15,,152,细颗粒物(PM2.5)
唐山市,政府服务中心,118.24498,39.66941,2025-01-29T0300,128,144,1.1,36,20,22,,169,细颗粒物(PM2.5)
唐山市,消防缸窑路中队,118.2059,39.6585,2025-01-29T0300,162,201,1.5,37,16,16,,212,细颗粒物(PM2.5)
唐山市,路南电大,118.1436,39.6202,2025-01-29T0300,135,176,0.8,30,13,28,,179,细颗粒物(PM2.5)
唐山市,友谊北路34号,118.1309,39.6360,2025-01-29T0300,139,161,0.7,30,16,33,,185,细颗粒物(PM2.5)
天津市,勤俭道,117.1444,39.1661,2025-01-29T0300,341,389,0.7,23,43,53,,391,细颗粒物(PM2.5)
天津市,前进道,117.202,39.0927,2025-01-29T0300,344,386,0.6,28,45,41,,394,细颗粒物(PM2.5)
天津市,淮河道,117.1837,39.2133,2025-01-29T0300,524,621,0.6,46,56,24,,500,"颗粒物(PM10),细颗粒物(PM2.5)"
天津市,跃进路,117.307,39.0877,2025-01-29T0300,556,708,0.6,47,97,26,,500,"颗粒物(PM10),细颗粒物(PM2.5)"
天津市,第四大街,117.707,39.0343,2025-01-29T0300,253,314,0.7,25,44,42,,303,细颗粒物(PM2.5)
天津市,永明路,117.457,38.8394,2025-01-29T0300,153,175,1.3,34,25,33,,203,细颗粒物(PM2.5)
天津市,汉北路,117.764,39.1587,2025-01-29T0300,214,256,0.6,19,12,41,,264,细颗粒物(PM2.5)
天津市,团泊洼,117.157,38.9194,2025-01-29T0300,,,,,,,,,
天津市,河西一经路,117.7918,39.2474,2025-01-29T0300,232,340,0.6,22,21,45,,282,细颗粒物(PM2.5)
天津市,津沽路,117.3747,38.9846,2025-01-29T0300,224,297,0.7,18,25,51,,274,细颗粒物(PM2.5)
天津市,宾水西道,117.1589,39.0845,2025-01-29T0300,300,,0.6,22,26,39,,350,细颗粒物(PM2.5)
天津市,大理道,117.1941,39.1067,2025-01-29T0300,300,,0.7,20,37,70,,350,细颗粒物(PM2.5)
天津市,中山北路,117.2101,39.1699,2025-01-29T0300,590,738,0.7,65,70,9,,500,"颗粒物(PM10),细颗粒物(PM2.5)"
天津市,西四道,117.3876,39.1488,2025-01-29T0300,443,544,0.7,42,77,28,,462,细颗粒物(PM2.5)
天津市,雍阳西道,117.0365,39.3828,2025-01-29T0300,415,522,0.4,45,52,29,,444,细颗粒物(PM2.5)
天津市,辛老路,117.0296,39.0605,2025-01-29T0300,210,282,0.7,14,29,51,,260,细颗粒物(PM2.5)
天津市,地纬路,116.9638,38.9375,2025-01-29T0300,201,208,0.8,18,22,46,,251,细颗粒物(PM2.5)
天津市,北环路,117.4067,40.0583,2025-01-29T0300,181,228,0.4,13,23,48,,231,细颗粒物(PM2.5)
天津市,建设路,117.3045,39.7169,2025-01-29T0300,,,,,,,67,,
天津市,滨水东路,117.8199,39.3521,2025-01-29T0300,314,394,0.7,23,36,50,,364,细颗粒物(PM2.5)
天津市,光华路,117.2437,39.1029,2025-01-29T0300,334,,0.8,30,61,35,,384,细颗粒物(PM2.5)
天水市,麦积山,106.0055,34.343,2025-01-29T0300,,,,,,,,,
天水市,公园小学,105.7205,34.5786,2025-01-29T0300,172,206,1.2,26,19,32,,222,细颗粒物(PM2.5)
天水市,麦积国土局,105.8945,34.5538,2025-01-29T0300,309,405,2.0,45,34,17,,359,细颗粒物(PM2.5)
铁岭市,汇工街西,123.8139,42.3022,2025-01-29T0300,118,175,1.1,22,14,42,,155,细颗粒物(PM2.5)
铁岭市,水上乐园,123.8649,42.2923,2025-01-29T0300,75,122,0.6,14,10,55,,100,细颗粒物(PM2.5)
铁岭市,银州路东段,123.8486,42.2867,2025-01-29T0300,131,180,0.7,18,8,51,,173,细颗粒物(PM2.5)
铁岭市,金沙江路北,123.7153,42.2217,2025-01-29T0300,153,195,0.8,18,9,50,,203,细颗粒物(PM2.5)
通化市,光明,125.9358,41.7173,2025-01-29T0300,29,38,0.8,9,11,57,,42,
通化市,铁路,125.9446,41.7325,2025-01-29T0300,28,43,0.5,9,7,58,,43,
通辽市,艺术职业学校,122.2532,43.6801,2025-01-29T0300,16,47,0.3,20,9,62,,47,
通辽市,老干部活动中心,122.2584,43.6333,2025-01-29T0300,37,40,0.4,9,10,63,,53,细颗粒物(PM2.5)
通辽市,东方明珠社区,122.2922,43.6189,2025-01-29T0300,40,42,0.2,9,12,64,,57,细颗粒物(PM2.5)
铜川市,党校,109.0656,35.0994,2025-01-29T0300,,,,,,,,,
铜川市,王益区政府,109.0697,35.0697,2025-01-29T0300,102,135,0.8,27,5,38,,134,细颗粒物(PM2.5)
铜川市,新区管委会,108.9344,34.9058,2025-01-29T0300,66,76,0.5,9,9,63,,89,细颗粒物(PM2.5)
铜川市,旺旺集团,108.9543,34.8732,2025-01-29T0300,109,140,0.8,14,15,63,,143,细颗粒物(PM2.5)
铜陵市,市第四中学,117.8177,30.9412,2025-01-29T0300,83,129,0.6,19,9,39,,110,细颗粒物(PM2.5)
铜陵市,市公路局,117.8059,30.9273,2025-01-29T0300,74,76,0.7,25,12,43,,99,细颗粒物(PM2.5)
铜陵市,市新民污水厂,117.7807,30.9413,2025-01-29T0300,104,162,0.9,43,10,14,,137,细颗粒物(PM2.5)
铜陵市,市第九中学,117.7439,30.8792,2025-01-29T0300,81,112,1.0,29,16,36,,108,细颗粒物(PM2.5)
铜陵市,车站新区,117.846,30.9413,2025-01-29T0300,105,127,0.5,25,6,37,,138,细颗粒物(PM2.5)
铜陵市,市职教基地,117.8483,30.97,2025-01-29T0300,162,194,0.7,14,8,32,,212,细颗粒物(PM2.5)
铜仁市,铜仁卫校,109.1839,27.7344,2025-01-29T0300,296,375,0.9,21,7,6,,346,细颗粒物(PM2.5)
铜仁市,铜仁七中,109.1753,27.6944,2025-01-29T0300,337,,0.7,19,10,8,,387,细颗粒物(PM2.5)
吐鲁番市,市环保局,89.1904,42.9418,2025-01-29T0300,78,250,1.3,38,10,29,,150,颗粒物(PM10)
吐鲁番市,地区环保局,89.1673,42.9559,2025-01-29T0300,43,180,1.0,37,4,37,,115,颗粒物(PM10)
威海市,华夏技校,122.1214,37.4236,2025-01-29T0300,12,17,0.2,4,4,73,,23,
威海市,山大分校,122.0508,37.5236,2025-01-29T0300,7,22,0.3,10,6,82,,26,
威海市,市监测站,122.1067,37.5072,2025-01-29T0300,7,17,0.3,18,2,73,,23,
威海市,文登开发区,122.0693,37.2174,2025-01-29T0300,27,40,0.2,6,5,58,,40,
威海市,临港区管委会,122.1379,37.3414,2025-01-29T0300,18,29,0.3,7,5,56,,29,
潍坊市,环保局,119.1437,36.7023,2025-01-29T0300,228,263,1.2,39,36,23,,278,细颗粒物(PM2.5)
潍坊市,坊子邮政,119.1641,36.6523,2025-01-29T0300,175,200,1.2,27,31,31,,225,细颗粒物(PM2.5)
潍坊市,潍坊七中,119.0587,36.721,2025-01-29T0300,279,337,1.2,32,49,25,,329,细颗粒物(PM2.5)
潍坊市,高新实验学校,119.1977,36.6872,2025-01-29T0300,237,273,1.1,33,30,32,,287,细颗粒物(PM2.5)
潍坊市,潍坊学院,119.1755,36.7149,2025-01-29T0300,172,222,1.1,21,47,40,,222,细颗粒物(PM2.5)
潍坊市,寒亭区实验一小,119.2041,36.7699,2025-01-29T0300,175,212,1.3,29,41,44,,225,细颗粒物(PM2.5)
渭南市,农科所,109.5293,34.5101,2025-01-29T0300,,,,,,,,,
