area,positionname,longitude,latitude,timepoint,pm2_5,pm10,co,no2,so2,o3,o3_8h,aqi,primarypollutant
阿坝藏族羌族自治州,州农科所,102.1879,31.914,2025-01-22T2300,12,39,0.9,18,6,49,68,39,
阿坝藏族羌族自治州,马师校,102.2502,31.8896,2025-01-22T2300,19,28,0.5,31,6,35,69,28,
阿坝藏族羌族自治州,马尔康中学西区,102.2165,31.9024,2025-01-22T2300,22,37,0.5,21,5,33,66,37,
阿克苏地区,电视台,80.292,41.1694,2025-01-22T2300,102,168,2.0,86,4,9,50,134,细颗粒物(PM2.5)
阿克苏地区,艺术中心,80.2613,41.1551,2025-01-22T2300,86,137,1.6,69,4,3,46,114,细颗粒物(PM2.5)
阿拉善盟,西城区西花园,105.6467,38.8363,2025-01-22T2300,44,64,1.1,50,14,32,86,62,细颗粒物(PM2.5)
阿拉善盟,蒙二幼,105.6985,38.8411,2025-01-22T2300,36,88,1.0,38,10,39,84,69,颗粒物(PM10)
阿拉善盟,环保局新楼,105.724,38.8516,2025-01-22T2300,10,19,0.5,10,10,81,84,26,
阿勒泰地区,市站,88.1264,47.8517,2025-01-22T2300,14,15,0.6,24,11,,63,,
阿里地区,阿里监测站,80.1161,32.5,2025-01-22T2300,3,6,0.6,1,9,,94,,
阿里地区,阿里藏医院,80.0903,32.5028,2025-01-22T2300,3,7,0.5,1,5,83,83,26,
安康市,香溪洞,109.0318,32.6537,2025-01-22T2300,110,126,1.5,59,12,21,49,144,细颗粒物(PM2.5)
安康市,汉滨区检察院,109.0072,32.6975,2025-01-22T2300,144,179,1.7,63,8,9,28,192,细颗粒物(PM2.5)
安康市,市邮政管理局,109.0325,32.6913,2025-01-22T2300,157,205,2.0,69,9,4,25,207,细颗粒物(PM2.5)
安庆市,环科院,117.0809,30.5177,2025-01-22T2300,143,161,1.0,24,10,122,91,190,细颗粒物(PM2.5)
安庆市,马山宾馆,117.0331,30.5119,2025-01-22T2300,145,156,1.1,24,11,125,91,193,细颗粒物(PM2.5)
安庆市,安庆大学,116.9896,30.6145,2025-01-22T2300,159,191,1.1,21,11,140,108,209,细颗粒物(PM2.5)
安庆市,市人大,117.0598,30.5351,2025-01-22T2300,144,175,1.0,30,10,122,84,192,细颗粒物(PM2.5)
安顺市,伍家关,105.9606,26.2611,2025-01-22T2300,57,79,0.9,13,14,150,145,78,细颗粒物(PM2.5)
安顺市,凤凰山,105.9408,26.2431,2025-01-22T2300,60,80,0.7,15,21,140,137,82,细颗粒物(PM2.5)
安顺市,金钟山,105.9439,26.2564,2025-01-22T2300,55,81,1.0,14,19,136,135,75,细颗粒物(PM2.5)
安顺市,娄家坡,105.8983,26.2481,2025-01-22T2300,61,76,0.9,16,19,132,131,83,细颗粒物(PM2.5)
安阳市,棉研所,114.4839,36.0621,2025-01-22T2300,40,62,0.6,36,10,34,64,57,细颗粒物(PM2.5)
安阳市,红庙街,114.3551,36.1017,2025-01-22T2300,53,65,0.7,18,10,46,71,73,细颗粒物(PM2.5)
安阳市,银杏小区,114.361,36.0681,2025-01-22T2300,51,70,0.7,26,8,46,71,70,细颗粒物(PM2.5)
安阳市,信访局,114.3922,36.0878,2025-01-22T2300,42,75,0.4,31,6,39,70,63,颗粒物(PM10)
安阳市,左辅环卫站,114.4705,36.0637,2025-01-22T2300,42,72,0.5,26,5,45,75,61,颗粒物(PM10)
安阳市,安钢职工学校,114.2917,36.0949,2025-01-22T2300,52,66,1.3,45,22,36,70,72,细颗粒物(PM2.5)
鞍山市,深沟寺,123.044,41.1196,2025-01-22T2300,53,76,0.7,28,9,30,62,73,细颗粒物(PM2.5)
鞍山市,太阳城,123.011,41.0931,2025-01-22T2300,66,97,0.9,48,8,22,58,89,细颗粒物(PM2.5)
鞍山市,太平,123.0485,41.1442,2025-01-22T2300,106,155,1.6,58,13,12,62,139,细颗粒物(PM2.5)
鞍山市,铁西三道街,122.9642,41.0971,2025-01-22T2300,86,120,1.0,52,10,19,65,114,细颗粒物(PM2.5)
鞍山市,明达新区,123.022,41.0821,2025-01-22T2300,56,84,0.6,47,15,29,57,77,细颗粒物(PM2.5)
鞍山市,千山,123.1289,41.0228,2025-01-22T2300,,,,,,,38,,
鞍山市,兴盛南路290号,122.9446,41.0826,2025-01-22T2300,176,252,2.1,63,18,12,58,226,细颗粒物(PM2.5)
巴彦淖尔市,附二中,107.4212,40.761,2025-01-22T2300,60,141,1.0,67,26,17,58,96,颗粒物(PM10)
巴彦淖尔市,市环保大楼,107.37,40.7372,2025-01-22T2300,72,112,1.3,80,10,4,60,97,细颗粒物(PM2.5)
巴音郭楞蒙古自治州,孔雀公园,86.1472,41.7538,2025-01-22T2300,63,87,0.9,54,4,32,67,85,细颗粒物(PM2.5)
巴音郭楞蒙古自治州,棉纺厂,86.1972,41.7166,2025-01-22T2300,54,91,0.9,73,2,15,63,74,细颗粒物(PM2.5)
巴音郭楞蒙古自治州,经济开发区,86.2357,41.7173,2025-01-22T2300,33,64,0.7,27,3,65,73,57,颗粒物(PM10)
巴中市,苏山坪,106.7677,31.8794,2025-01-22T2300,108,122,0.9,24,4,28,44,142,细颗粒物(PM2.5)
巴中市,丽阳花园,106.7656,31.8545,2025-01-22T2300,180,240,2.0,41,5,4,5,230,细颗粒物(PM2.5)
巴中市,圣泉水务公司,106.7418,31.8654,2025-01-22T2300,145,180,1.3,39,5,4,6,193,细颗粒物(PM2.5)
巴中市,市中心医院,106.7616,31.8344,2025-01-22T2300,185,230,1.8,44,5,4,5,235,细颗粒物(PM2.5)
白城市,洮北区环保局,122.7911,45.6077,2025-01-22T2300,64,,0.5,19,3,54,62,87,细颗粒物(PM2.5)
白城市,市环保局,122.8738,45.5725,2025-01-22T2300,60,68,0.6,34,3,36,52,82,细颗粒物(PM2.5)
白山市,喜丰,126.4219,41.9171,2025-01-22T2300,37,77,0.8,33,19,36,71,64,颗粒物(PM10)
白山市,环保局,126.4077,41.9419,2025-01-22T2300,42,72,0.8,6,9,50,67,61,颗粒物(PM10)
白银市,第三小学,104.1724,36.5446,2025-01-22T2300,95,235,1.2,43,45,49,74,143,颗粒物(PM10)
白银市,动力公司,104.1465,36.5482,2025-01-22T2300,78,122,1.3,43,14,47,91,104,细颗粒物(PM2.5)
百色市,市监测站,106.6103,23.9011,2025-01-22T2300,44,59,1.1,23,11,81,142,62,细颗粒物(PM2.5)
百色市,市中心血站,106.6538,23.8859,2025-01-22T2300,54,67,0.9,35,10,95,143,74,细颗粒物(PM2.5)
百色市,祈福高中,106.6085,23.8798,2025-01-22T2300,48,67,1.3,50,10,63,145,67,细颗粒物(PM2.5)
蚌埠市,工人疗养院,117.396,32.939,2025-01-22T2300,101,127,0.8,42,6,50,101,133,细颗粒物(PM2.5)
蚌埠市,百货大楼,117.3605,32.9427,2025-01-22T2300,81,112,0.5,25,6,62,98,108,细颗粒物(PM2.5)
蚌埠市,蚌埠学院,117.4185,32.8911,2025-01-22T2300,87,114,0.6,50,11,40,76,115,细颗粒物(PM2.5)
蚌埠市,淮上区政府,117.3533,32.9673,2025-01-22T2300,87,117,0.8,27,9,62,100,115,细颗粒物(PM2.5)
蚌埠市,高新区,117.3145,32.8977,2025-01-22T2300,85,100,0.8,49,9,55,102,113,细颗粒物(PM2.5)
蚌埠市,蚌埠田家炳中学,117.3092,32.9314,2025-01-22T2300,107,147,0.7,69,7,25,104,140,细颗粒物(PM2.5)
包头市,市环境监测站,109.8756,40.6532,2025-01-22T2300,193,280,2.5,81,33,7,50,243,细颗粒物(PM2.5)
包头市,包头八中,109.9991,40.5842,2025-01-22T2300,81,185,1.5,71,19,9,46,118,颗粒物(PM10)
包头市,青山宾馆,109.8538,40.6821,2025-01-22T2300,121,217,3.0,79,26,5,46,159,细颗粒物(PM2.5)
包头市,惠龙物流,109.8642,40.6288,2025-01-22T2300,148,236,2.9,88,37,8,54,198,细颗粒物(PM2.5)
包头市,东河鸿龙湾,110.0377,40.5546,2025-01-22T2300,122,224,1.8,71,24,7,50,160,细颗粒物(PM2.5)
包头市,滨河大厦,109.9154,40.5685,2025-01-22T2300,120,171,2.1,84,22,6,48,158,细颗粒物(PM2.5)
包头市,包头市委党校,109.9447,40.6261,2025-01-22T2300,62,109,1.4,78,12,7,54,84,细颗粒物(PM2.5)
包头市,昆区政府,109.8331,40.6576,2025-01-22T2300,99,282,3.0,86,39,3,46,166,颗粒物(PM10)
宝鸡市,庙沟村,107.185,34.3063,2025-01-22T2300,182,208,1.4,47,15,94,127,232,细颗粒物(PM2.5)
宝鸡市,竹园沟,107.0708,34.3017,2025-01-22T2300,177,188,1.4,34,8,62,121,227,细颗粒物(PM2.5)
宝鸡市,三陆医院,107.1906,34.3672,2025-01-22T2300,200,240,1.6,59,15,71,123,250,细颗粒物(PM2.5)
宝鸡市,监测站,107.1431,34.3547,2025-01-22T2300,201,236,1.7,50,12,46,122,251,细颗粒物(PM2.5)
宝鸡市,技工学校,107.1186,34.3739,2025-01-22T2300,187,215,1.5,54,14,69,117,237,细颗粒物(PM2.5)
宝鸡市,陈仓区环保局家属楼,107.3906,34.3528,2025-01-22T2300,233,253,1.7,70,18,46,116,283,细颗粒物(PM2.5)
宝鸡市,文理学院,107.2058,34.3497,2025-01-22T2300,213,242,1.7,55,16,73,125,263,细颗粒物(PM2.5)
宝鸡市,三迪小学,107.2386,34.3622,2025-01-22T2300,211,229,1.7,55,18,62,116,261,细颗粒物(PM2.5)
保定市,游泳馆,115.493,38.8632,2025-01-22T2300,47,80,0.8,50,8,26,62,65,"颗粒物(PM10),细颗粒物(PM2.5)"
保定市,华电二区,115.5213,38.8959,2025-01-22T2300,64,87,0.7,40,4,22,96,87,细颗粒物(PM2.5)
保定市,接待中心,115.4713,38.9108,2025-01-22T2300,41,78,0.4,29,2,40,58,64,颗粒物(PM10)
保定市,地表水厂,115.4612,38.8416,2025-01-22T2300,52,72,0.5,48,4,40,74,72,细颗粒物(PM2.5)
保定市,满城区生态环境分局,115.31981,38.95208,2025-01-22T2300,80,119,1.1,72,8,13,68,107,细颗粒物(PM2.5)
保定市,清苑区第二中学,115.47694,38.76408,2025-01-22T2300,111,155,0.8,58,7,21,61,145,细颗粒物(PM2.5)
保定市,徐水物探局,115.62909,39.02311,2025-01-22T2300,61,72,0.5,46,10,32,64,83,细颗粒物(PM2.5)
保定市,双鹰农机,115.4202,38.8656,2025-01-22T2300,49,68,0.8,38,3,38,70,68,细颗粒物(PM2.5)
保定市,植保所站,115.5150,38.8590,2025-01-22T2300,58,77,0.6,41,4,30,57,79,细颗粒物(PM2.5)
保山市,市环境监测站,99.1678,25.1081,2025-01-22T2300,21,33,0.4,8,5,64,86,33,
保山市,市环保局,99.1711,25.1328,2025-01-22T2300,29,32,0.3,4,6,73,87,42,
北海市,牛尾岭水库,109.2262,21.588,2025-01-22T2300,71,76,0.7,,5,28,52,,
北海市,海滩公园,109.1436,21.4086,2025-01-22T2300,90,104,1.2,20,9,110,153,119,细颗粒物(PM2.5)
北海市,新市环保局,109.0981,21.4661,2025-01-22T2300,90,,0.9,24,10,102,136,119,细颗粒物(PM2.5)
北海市,北海工业园,109.1778,21.5233,2025-01-22T2300,103,122,0.9,20,11,96,144,135,细颗粒物(PM2.5)
北海市,龙潭自来水厂,109.1911,21.4415,2025-01-22T2300,94,,1.0,15,8,96,140,124,细颗粒物(PM2.5)
北京市,万寿西宫,116.3621,39.8784,2025-01-22T2300,48,71,0.9,55,10,24,54,67,细颗粒物(PM2.5)
北京市,定陵,116.2202,40.2915,2025-01-22T2300,,,,,,,,,
北京市,东四,116.4174,39.9289,2025-01-22T2300,51,81,1.0,45,9,19,48,70,细颗粒物(PM2.5)
北京市,天坛,116.4072,39.8863,2025-01-22T2300,65,82,1.1,51,2,18,55,88,细颗粒物(PM2.5)
北京市,农展馆,116.462,39.9365,2025-01-22T2300,49,79,1.2,53,8,30,57,68,细颗粒物(PM2.5)
北京市,官园,116.3392,39.9295,2025-01-22T2300,47,74,1.0,44,11,29,52,65,细颗粒物(PM2.5)
北京市,海淀万柳,116.2878,39.9611,2025-01-22T2300,47,74,1.4,70,5,3,46,65,细颗粒物(PM2.5)
北京市,顺义新城,116.6636,40.135,2025-01-22T2300,75,135,1.3,64,3,8,60,100,细颗粒物(PM2.5)
北京市,怀柔镇,116.6275,40.3275,2025-01-22T2300,38,58,0.6,23,3,38,58,54,"颗粒物(PM10),细颗粒物(PM2.5)"
北京市,昌平镇,116.2296,40.217,2025-01-22T2300,38,59,1.0,32,2,34,50,55,颗粒物(PM10)
北京市,奥体中心,116.3966,39.9821,2025-01-22T2300,48,77,1.2,57,9,23,51,67,细颗粒物(PM2.5)
北京市,延庆夏都,115.9718,40.4529,2025-01-22T2300,40,67,0.7,29,5,32,56,59,颗粒物(PM10)
北京市,平谷新城,117.0709,40.1465,2025-01-22T2300,66,94,1.6,31,2,14,60,89,细颗粒物(PM2.5)
北京市,密云新城,116.8336,40.4095,2025-01-22T2300,58,96,1.1,30,4,31,68,79,细颗粒物(PM2.5)
北京市,门头沟三家店,116.088,39.9726,2025-01-22T2300,44,70,0.7,34,3,15,48,62,细颗粒物(PM2.5)
北京市,丰台云岗,116.1541,39.8204,2025-01-22T2300,50,82,0.6,38,7,31,56,69,细颗粒物(PM2.5)
北京市,通州东关,116.6804,39.9081,2025-01-22T2300,51,81,0.8,26,6,15,52,70,细颗粒物(PM2.5)
北京市,房山燕山,115.9577,39.7603,2025-01-22T2300,44,58,0.7,27,4,36,60,62,细颗粒物(PM2.5)
北京市,大兴旧宫,116.4672,39.7733,2025-01-22T2300,46,76,0.7,37,1,26,52,64,细颗粒物(PM2.5)
北京市,延庆石河营,115.986,40.4563,2025-01-22T2300,44,65,0.8,32,4,29,56,62,细颗粒物(PM2.5)
北京市,怀柔新城,116.6151,40.3053,2025-01-22T2300,38,53,0.5,20,3,39,54,54,细颗粒物(PM2.5)
北京市,丰台小屯,116.2545,39.8768,2025-01-22T2300,55,97,1.2,92,6,2,45,75,细颗粒物(PM2.5)
北京市,密云镇,116.84,40.3844,2025-01-22T2300,57,89,1.1,54,3,8,64,78,细颗粒物(PM2.5)
北京市,八角,116.1942,39.91583,2025-01-22T2300,46,79,1.0,57,2,5,50,65,颗粒物(PM10)
本溪市,大峪,123.8275,41.3064,2025-01-22T2300,53,86,1.1,44,6,20,59,73,细颗粒物(PM2.5)
本溪市,溪湖,123.7567,41.3325,2025-01-22T2300,63,117,1.0,52,9,7,53,85,细颗粒物(PM2.5)
本溪市,彩屯,123.7169,41.3094,2025-01-22T2300,63,87,1.1,36,8,25,54,85,细颗粒物(PM2.5)
本溪市,东明,123.7669,41.2864,2025-01-22T2300,106,151,1.6,61,10,4,48,139,细颗粒物(PM2.5)
本溪市,新立屯,123.7992,41.2664,2025-01-22T2300,39,61,0.7,47,6,20,50,56,颗粒物(PM10)
本溪市,威宁,123.8142,41.3472,2025-01-22T2300,61,105,1.0,47,3,9,54,83,细颗粒物(PM2.5)
毕节市,八中,105.2864,27.3125,2025-01-22T2300,30,40,1.1,12,7,36,52,43,
毕节市,师专,105.31,27.2944,2025-01-22T2300,27,40,1.1,13,6,38,53,40,
毕节市,长征村,105.3631,27.3533,2025-01-22T2300,39,49,1.1,10,7,43,58,55,细颗粒物(PM2.5)
滨州市,第二水厂,118.0018,37.3617,2025-01-22T2300,19,34,0.5,25,8,37,59,34,
滨州市,北中新校,117.9776,37.393,2025-01-22T2300,24,56,0,34,5,36,66,53,颗粒物(PM10)
滨州市,中海酒店,117.9378,37.3956,2025-01-22T2300,17,24,0.4,24,4,45,65,25,
滨州市,开发区一中,117.9378,37.3553,2025-01-22T2300,14,31,0.3,29,7,44,68,31,
滨州市,金海六路,118.0917,37.694,2025-01-22T2300,9,24,0.5,18,5,55,70,24,
滨州市,滨州市西街道办事处,117.9956,37.3753,2025-01-22T2300,24,31,0,26,5,37,64,35,
亳州市,污水处理厂,115.8072,33.8399,2025-01-22T2300,99,147,1.0,35,10,27,92,130,细颗粒物(PM2.5)
亳州市,三国揽胜宫,115.7789,33.8518,2025-01-22T2300,100,179,1.1,41,8,33,98,132,细颗粒物(PM2.5)
亳州市,亳州学院,115.7633,33.8034,2025-01-22T2300,95,159,1.2,39,9,31,94,125,细颗粒物(PM2.5)
博尔塔拉蒙古自治州,市党校,82.0485,44.8556,2025-01-22T2300,64,98,1.2,35,12,40,89,87,细颗粒物(PM2.5)
博尔塔拉蒙古自治州,市环保局,82.0806,44.8969,2025-01-22T2300,46,81,1.8,67,11,31,80,66,颗粒物(PM10)
沧州市,沧县城建局,116.8842,38.2991,2025-01-22T2300,34,64,0.5,59,4,12,64,57,颗粒物(PM10)
沧州市,电视转播站,116.8584,38.3254,2025-01-22T2300,39,58,0.5,56,4,5,64,55,细颗粒物(PM2.5)
沧州市,市环保局,116.8709,38.3228,2025-01-22T2300,37,51,0.4,38,4,21,62,53,细颗粒物(PM2.5)
沧州市,河北水利电力学院,116.8136,38.3004,2025-01-22T2300,26,46,0.4,31,9,33,62,46,
昌都市,昌都监测站,97.1806,31.1273,2025-01-22T2300,98,157,3.2,74,12,7,74,129,细颗粒物(PM2.5)
昌都市,昌都会议中心,97.1714,31.1406,2025-01-22T2300,19,50,0.5,9,4,54,83,50,
昌吉回族自治州,天山天池,88.1236,43.8886,2025-01-22T2300,11,14,0.6,4,6,98,101,31,
昌吉回族自治州,新区政务中心,87.2717,44.0297,2025-01-22T2300,165,198,1.7,82,2,2,44,215,细颗粒物(PM2.5)
昌吉回族自治州,亚心广场,87.3095,44.0142,2025-01-22T2300,122,156,1.3,50,6,37,51,160,细颗粒物(PM2.5)
长春市,食品厂,125.3325,43.9166,2025-01-22T2300,78,81,0.8,70,8,10,57,104,细颗粒物(PM2.5)
长春市,客车厂,125.2863,43.9027,2025-01-22T2300,122,139,1.1,76,10,13,62,160,细颗粒物(PM2.5)
长春市,邮电学院,125.2841,43.8463,2025-01-22T2300,66,86,1.0,48,11,30,63,89,细颗粒物(PM2.5)
长春市,劳动公园,125.3716,43.8772,2025-01-22T2300,94,120,1.2,72,9,12,67,124,细颗粒物(PM2.5)
长春市,园林处,125.3297,43.8805,2025-01-22T2300,57,84,0.6,51,13,27,60,78,细颗粒物(PM2.5)
长春市,净月潭,125.4605,43.79,2025-01-22T2300,49,61,0.6,20,6,40,52,68,细颗粒物(PM2.5)
长春市,甩湾子,125.7194,43.515,2025-01-22T2300,,,,,,,,,
长春市,经开区环卫处,125.3863,43.8447,2025-01-22T2300,114,231,1.8,73,12,5,51,149,细颗粒物(PM2.5)
长春市,高新区管委会,125.245,43.7783,2025-01-22T2300,202,,1.9,64,8,17,60,252,细颗粒物(PM2.5)
长春市,岱山公园,125.1761,43.8325,2025-01-22T2300,107,109,1.5,78,14,10,65,140,细颗粒物(PM2.5)
长沙市,经开区环保局,113.0833,28.2325,2025-01-22T2300,103,165,1.0,68,7,35,109,135,细颗粒物(PM2.5)
长沙市,高开区环保局,112.8872,28.2189,2025-01-22T2300,96,141,1.0,42,10,58,116,127,细颗粒物(PM2.5)
长沙市,马坡岭,113.0792,28.2053,2025-01-22T2300,112,164,0.9,65,8,44,73,147,细颗粒物(PM2.5)
长沙市,湖南师范大学,112.9394,28.19,2025-01-22T2300,95,135,1.2,42,11,63,110,125,细颗粒物(PM2.5)
长沙市,雨花区环保局,113.0178,28.1322,2025-01-22T2300,102,153,1.2,54,10,62,97,134,细颗粒物(PM2.5)
长沙市,伍家岭,112.9792,28.2597,2025-01-22T2300,,167,1.1,39,7,,90,109,颗粒物(PM10)
长沙市,火车新站,113.0014,28.1944,2025-01-22T2300,107,154,1.1,60,7,59,96,140,细颗粒物(PM2.5)
长沙市,天心区环保局,112.9844,28.1178,2025-01-22T2300,90,142,1.2,53,5,65,100,119,细颗粒物(PM2.5)
长沙市,湖南中医药大学,112.8908,28.1308,2025-01-22T2300,96,128,1.1,30,10,75,93,127,细颗粒物(PM2.5)
长沙市,沙坪,112.9581,28.3611,2025-01-22T2300,103,122,1.2,39,10,49,116,135,细颗粒物(PM2.5)
长治市,清华站,113.1147,36.1547,2025-01-22T2300,41,56,1.0,29,19,57,92,58,细颗粒物(PM2.5)
长治市,审计局,113.0886,36.2125,2025-01-22T2300,48,69,1.4,32,22,51,101,67,细颗粒物(PM2.5)
长治市,长治八中,113.0844,36.1856,2025-01-22T2300,71,84,1.1,27,16,55,100,95,细颗粒物(PM2.5)
长治市,德盛苑,113.1569,36.1911,2025-01-22T2300,61,72,1.2,29,14,58,102,83,细颗粒物(PM2.5)
长治市,向阳小学,113.06,36.0464,2025-01-22T2300,104,148,2.3,50,31,42,100,137,细颗粒物(PM2.5)
长治市,屯留一中,112.8792,36.3144,2025-01-22T2300,42,60,1.2,48,19,49,91,59,细颗粒物(PM2.5)
长治市,英华南巷50号,113.1131,36.19948,2025-01-22T2300,48,76,1.6,46,25,44,106,67,细颗粒物(PM2.5)
长治市,学府街1号,113.2367,36.3344,2025-01-22T2300,29,54,1.4,47,25,28,89,52,颗粒物(PM10)
常德市,市二中,111.6975,28.9703,2025-01-22T2300,191,202,1.1,22,12,75,109,241,细颗粒物(PM2.5)
常德市,白鹤山,111.7158,29.1456,2025-01-22T2300,,,,,,,,,
常德市,武陵区永安,111.7153,29.0289,2025-01-22T2300,199,228,0.9,28,13,78,110,249,细颗粒物(PM2.5)
常德市,鼎城区玉霞,111.6892,28.9881,2025-01-22T2300,181,185,1.2,28,15,71,111,231,细颗粒物(PM2.5)
常德市,武陵区长庚,111.6625,29.0531,2025-01-22T2300,222,276,1.1,28,8,63,113,272,细颗粒物(PM2.5)
常州市,市监测站,119.9633,31.762,2025-01-22T2300,56,71,0.9,110,8,10,132,77,细颗粒物(PM2.5)
常州市,武进监测站,119.9468,31.7069,2025-01-22T2300,49,64,1.2,83,14,22,136,68,细颗粒物(PM2.5)
常州市,安家,119.9255,31.9087,2025-01-22T2300,56,70,0.8,97,8,12,114,77,细颗粒物(PM2.5)
常州市,行政中心,119.9805,31.8174,2025-01-22T2300,37,43,0.5,48,14,44,86,53,细颗粒物(PM2.5)
常州市,经开区,120.0522,31.7748,2025-01-22T2300,32,68,0.4,61,10,40,126,59,颗粒物(PM10)
常州市,钟楼,119.9025,31.7964,2025-01-22T2300,55,69,0.9,88,8,20,133,75,细颗粒物(PM2.5)
常州市,武进经发区,119.8598,31.7066,2025-01-22T2300,61,87,1.0,89,7,26,137,83,细颗粒物(PM2.5)
常州市,金坛城区,119.5826,31.7245,2025-01-22T2300,62,82,0.7,40,8,70,141,84,细颗粒物(PM2.5)
朝阳市,西梁,120.4318,41.5881,2025-01-22T2300,64,83,1.4,60,24,10,54,87,细颗粒物(PM2.5)
朝阳市,河畔小区,120.4521,41.5646,2025-01-22T2300,88,123,1.4,50,20,10,57,117,细颗粒物(PM2.5)
朝阳市,八里堡,120.4176,41.5648,2025-01-22T2300,92,133,2.0,56,25,16,58,122,细颗粒物(PM2.5)
朝阳市,农业园区,120.3806,41.5969,2025-01-22T2300,54,73,0.9,40,16,19,55,74,细颗粒物(PM2.5)
潮州市,西园路,116.6367,23.6719,2025-01-22T2300,74,,0.9,32,3,25,86,99,细颗粒物(PM2.5)
潮州市,市政府,116.6183,23.6608,2025-01-22T2300,51,70,0.7,28,4,44,96,70,细颗粒物(PM2.5)
潮州市,金山,116.6461,23.6761,2025-01-22T2300,60,64,0.9,26,5,16,81,82,细颗粒物(PM2.5)
郴州市,马头岭,113.0073,25.9061,2025-01-22T2300,39,68,0.8,23,16,107,126,59,颗粒物(PM10)
郴州市,市职中,113.0116,25.8226,2025-01-22T2300,62,120,1.1,59,11,10,104,85,颗粒物(PM10)
郴州市,兴隆步行街,113.0161,25.8001,2025-01-22T2300,,,,,,,,,
郴州市,市审计局,113.0383,25.8071,2025-01-22T2300,71,101,1.4,57,12,19,100,95,细颗粒物(PM2.5)
郴州市,市环保局,113.0348,25.7759,2025-01-22T2300,66,104,1.1,87,10,7,99,89,细颗粒物(PM2.5)
成都市,金泉两河,103.9728,30.7236,2025-01-22T2300,159,174,1.2,75,3,1,38,209,细颗粒物(PM2.5)
成都市,十里店,104.176,30.6872,2025-01-22T2300,145,178,0.9,66,2,6,36,193,细颗粒物(PM2.5)
成都市,三瓦窑,104.079,30.5706,2025-01-22T2300,136,174,1.0,67,2,7,32,180,细颗粒物(PM2.5)
成都市,沙河铺,104.1114,30.63,2025-01-22T2300,138,150,1.1,51,4,12,35,183,细颗粒物(PM2.5)
成都市,君平街,104.0786,30.6531,2025-01-22T2300,144,159,1.0,71,6,11,39,192,细颗粒物(PM2.5)
成都市,灵岩寺,103.613,31.0283,2025-01-22T2300,,,,,,,,,
成都市,大石西路,104.0239,30.65639,2025-01-22T2300,139,166,1.1,67,4,10,39,185,细颗粒物(PM2.5)
成都市,龙泉驿区区政府,104.2725,30.5589,2025-01-22T2300,129,149,1.1,38,3,30,62,170,细颗粒物(PM2.5)
成都市,金博路,104.0106,30.6931,2025-01-22T2300,137,202,1.2,74,2,1,36,182,细颗粒物(PM2.5)
成都市,华阳,104.0578,30.5225,2025-01-22T2300,139,168,1.1,44,1,22,39,185,细颗粒物(PM2.5)
成都市,青白江技师分院,104.3853,30.7453,2025-01-22T2300,172,193,1.0,44,5,10,45,222,细颗粒物(PM2.5)
成都市,科学城,104.0789,30.4072,2025-01-22T2300,144,169,1.2,25,4,25,37,192,细颗粒物(PM2.5)
成都市,光华大道三段,103.8506,30.6947,2025-01-22T2300,142,169,1.1,58,2,16,38,189,细颗粒物(PM2.5)
成都市,鲸龙路1057号,104.2433,30.5353,2025-01-22T2300,137,186,1.2,52,2,14,55,182,细颗粒物(PM2.5)
承德市,铁路,117.9531,40.9081,2025-01-22T2300,40,50,1.0,43,12,10,45,57,细颗粒物(PM2.5)
承德市,中国银行,117.9392,40.9763,2025-01-22T2300,58,104,1.1,45,5,3,49,79,细颗粒物(PM2.5)
承德市,开发区,117.9503,40.928,2025-01-22T2300,47,80,1.1,48,8,8,54,65,"颗粒物(PM10),细颗粒物(PM2.5)"
承德市,文化中心,117.8051,40.9655,2025-01-22T2300,53,97,1.0,55,11,4,51,74,颗粒物(PM10)
承德市,离宫,117.9268,41.0026,2025-01-22T2300,41,68,0.8,40,6,14,53,59,颗粒物(PM10)
池州市,池州学院,117.47,30.6618,2025-01-22T2300,135,165,1.1,62,10,46,91,179,细颗粒物(PM2.5)
池州市,展览馆,117.4918,30.6617,2025-01-22T2300,84,121,1.0,76,5,10,63,112,细颗粒物(PM2.5)
池州市,第八中学,117.5627,30.695,2025-01-22T2300,156,197,1.1,66,15,59,92,206,细颗粒物(PM2.5)
池州市,第十二中学,117.5038,30.6243,2025-01-22T2300,119,150,1.0,70,8,34,76,156,细颗粒物(PM2.5)
赤峰市,松山一中,118.9233,42.2816,2025-01-22T2300,120,198,1.8,63,50,11,54,158,细颗粒物(PM2.5)
赤峰市,哈达街,118.9576,42.2728,2025-01-22T2300,177,259,1.8,70,42,8,59,227,细颗粒物(PM2.5)
赤峰市,天义路,118.8788,42.2554,2025-01-22T2300,173,243,1.2,50,20,7,52,223,细颗粒物(PM2.5)
赤峰市,银河街,119.2658,42.0353,2025-01-22T2300,258,307,2.3,58,67,10,51,308,细颗粒物(PM2.5)
赤峰市,桥北物流园区,118.9359,42.3147,2025-01-22T2300,131,,1.3,57,32,5,49,173,细颗粒物(PM2.5)
崇左市,市环保局江州分局,107.3476,22.4136,2025-01-22T2300,48,91,1.0,19,6,102,151,71,颗粒物(PM10)
崇左市,城南新区,107.3702,22.3707,2025-01-22T2300,68,95,0.9,20,8,107,156,92,细颗粒物(PM2.5)
滁州市,老年大学,118.3093,32.3153,2025-01-22T2300,76,105,0.5,46,4,44,115,102,细颗粒物(PM2.5)
滁州市,人大宾馆,118.3244,32.2786,2025-01-22T2300,57,81,0.7,43,7,49,107,78,细颗粒物(PM2.5)
滁州市,市政府原办公楼,118.3118,32.3038,2025-01-22T2300,59,69,0.2,30,5,56,104,80,细颗粒物(PM2.5)
滁州市,图书馆,118.3267,32.2634,2025-01-22T2300,44,102,0.5,30,5,47,105,76,颗粒物(PM10)
楚雄彝族自治州,州环境监测站,101.5482,25.0441,2025-01-22T2300,37,53,0.8,48,8,21,86,53,细颗粒物(PM2.5)
楚雄彝族自治州,市经济开发区,101.538,25.0492,2025-01-22T2300,59,69,1.1,46,7,30,82,80,细颗粒物(PM2.5)
达州市,达州职业技术学院,107.5277,31.2827,2025-01-22T2300,231,270,1.9,37,6,3,9,281,细颗粒物(PM2.5)
达州市,市环境监测站,107.5086,31.2186,2025-01-22T2300,205,246,2.5,56,9,6,7,255,细颗粒物(PM2.5)
达州市,凤凰小区,107.4988,31.2132,2025-01-22T2300,200,251,2.4,61,12,6,8,250,细颗粒物(PM2.5)
达州市,达县机关宾馆,107.5082,31.1986,2025-01-22T2300,199,259,2.3,57,10,5,7,249,细颗粒物(PM2.5)
达州市,市政中心,107.4644,31.2124,2025-01-22T2300,202,284,2.9,74,9,3,3,252,细颗粒物(PM2.5)
大理白族自治州,大理市环境监测站,100.1542,25.7054,2025-01-22T2300,25,40,0.6,6,7,80,84,40,
大理白族自治州,大理古城,100.2171,25.5811,2025-01-22T2300,49,51,1.0,21,6,59,91,68,细颗粒物(PM2.5)
大连市,甘井子,121.612,38.9741,2025-01-22T2300,22,40,0.4,34,10,34,48,40,
大连市,周水子,121.565,38.9511,2025-01-22T2300,29,39,0.8,37,12,39,63,42,
大连市,星海三站,121.5637,38.8845,2025-01-22T2300,28,42,1.1,15,11,58,62,42,
大连市,青泥洼桥,121.6302,38.9117,2025-01-22T2300,20,33,0.5,19,14,45,54,33,
大连市,傅家庄,121.6251,38.8638,2025-01-22T2300,17,33,0.5,23,13,47,58,33,
大连市,七贤岭,121.5213,38.8661,2025-01-22T2300,15,28,0.6,11,9,70,71,28,
大连市,旅顺,121.2529,38.8061,2025-01-22T2300,50,57,0.9,32,15,44,73,69,细颗粒物(PM2.5)
大连市,金州,121.7485,39.1311,2025-01-22T2300,38,44,0.9,22,13,48,69,54,细颗粒物(PM2.5)
大连市,开发区,121.7811,39.0496,2025-01-22T2300,28,40,0.5,26,23,47,63,40,
大连市,双D港,121.9762,39.0631,2025-01-22T2300,27,38,0.9,17,13,64,78,39,
大庆市,大同区,124.81117,46.03138,2025-01-22T2300,65,76,0.7,18,6,54,64,88,细颗粒物(PM2.5)
大庆市,龙凤区,125.129,46.533,2025-01-22T2300,81,99,1.0,69,7,13,52,108,细颗粒物(PM2.5)
大庆市,红岗区,124.902,46.408,2025-01-22T2300,52,68,0.6,31,6,47,60,72,细颗粒物(PM2.5)
大庆市,萨尔图区,125.153,46.586,2025-01-22T2300,70,83,0.8,42,5,38,54,94,细颗粒物(PM2.5)
大庆市,让胡路区,124.9042,46.6215,2025-01-22T2300,,,0.6,46,8,32,60,,
大庆市,萨区政府监测点,125.141,46.634,2025-01-22T2300,58,84,0.7,32,5,48,58,79,细颗粒物(PM2.5)
大同市,果树场,113.3819,40.1097,2025-01-22T2300,,,,,,,,,
大同市,云冈宾馆,113.2994,40.0758,2025-01-22T2300,94,152,1.6,63,15,6,53,124,细颗粒物(PM2.5)
大同市,大同大学,113.3444,40.0917,2025-01-22T2300,62,137,1.1,48,35,20,59,94,颗粒物(PM10)
大同市,安家小村,113.2661,40.1269,2025-01-22T2300,52,110,4.1,60,18,9,54,80,颗粒物(PM10)
大同市,教育学院,113.2711,40.0844,2025-01-22T2300,125,179,1.6,72,21,5,41,165,细颗粒物(PM2.5)
大同市,大同市卫生学校,113.3397,40.0597,2025-01-22T2300,85,129,1.6,71,16,4,54,113,细颗粒物(PM2.5)
大同市,云冈站,113.1367,40.1122,2025-01-22T2300,63,144,1.1,59,34,7,42,97,颗粒物(PM10)
大同市,图书馆,113.1186,40.2556,2025-01-22T2300,64,103,1.2,43,11,9,44,87,细颗粒物(PM2.5)
大同市,区一中,113.5931,40.0461,2025-01-22T2300,42,,0.8,29,19,53,60,,
大同市,魏都大道141号,113.2798,40.0997,2025-01-22T2300,92,186,2.6,67,25,9,48,122,细颗粒物(PM2.5)
大兴安岭地区,科技局,124.1069,50.4097,2025-01-22T2300,46,74,0.5,12,8,46,61,64,细颗粒物(PM2.5)
大兴安岭地区,红旗社区,124.1164,50.4278,2025-01-22T2300,100,102,1.1,44,10,10,50,132,细颗粒物(PM2.5)
丹东市,江湾东路,124.3303,40.0625,2025-01-22T2300,42,54,1.1,26,10,51,71,59,细颗粒物(PM2.5)
丹东市,临江后街,124.4256,40.1503,2025-01-22T2300,43,57,0.8,23,11,49,72,60,细颗粒物(PM2.5)
丹东市,元宝山,124.3933,40.1461,2025-01-22T2300,26,40,1.0,14,9,50,65,40,
丹东市,民主桥,124.3633,40.1092,2025-01-22T2300,30,51,0.9,20,13,56,66,51,颗粒物(PM10)
儋州市,第一中学子站,109.5726,19.5167,2025-01-22T2300,36,60,0.7,8,5,112,107,55,颗粒物(PM10)
儋州市,东坡学校子站,109.5567,19.5187,2025-01-22T2300,37,52,0.7,6,6,118,111,53,细颗粒物(PM2.5)
德宏傣族景颇族自治州,德宏州监测站,98.5842,24.428,2025-01-22T2300,48,75,1.1,41,6,28,94,67,细颗粒物(PM2.5)
德宏傣族景颇族自治州,芒市人民政府综合楼,98.5881,24.4368,2025-01-22T2300,40,58,0.7,14,6,50,84,57,细颗粒物(PM2.5)
德阳市,东山公园,104.4239,31.1208,2025-01-22T2300,170,184,1.3,35,2,23,46,220,细颗粒物(PM2.5)
德阳市,西小区,104.3826,31.1317,2025-01-22T2300,192,201,1.3,53,4,4,29,242,细颗粒物(PM2.5)
德阳市,耐火材料厂,104.3553,31.1091,2025-01-22T2300,189,196,1.1,45,4,4,28,239,细颗粒物(PM2.5)
德阳市,市教育局,104.4019,31.1244,2025-01-22T2300,170,172,1.2,53,4,9,36,220,细颗粒物(PM2.5)
德州市,儿童乐园,116.3032,37.4674,2025-01-22T2300,36,68,0.7,24,8,33,63,59,颗粒物(PM10)
德州市,监理站,116.2991,37.4451,2025-01-22T2300,41,68,0.8,35,17,35,70,59,颗粒物(PM10)
德州市,九衢泉纯净水厂,116.2721,37.4379,2025-01-22T2300,34,68,0.6,32,16,38,70,59,颗粒物(PM10)
德州市,开发区人民医院,116.3728,37.4403,2025-01-22T2300,44,78,0.2,41,13,29,46,64,颗粒物(PM10)
德州市,太阳城中学,116.3572,37.4094,2025-01-22T2300,41,61,0.6,28,13,40,70,58,细颗粒物(PM2.5)
德州市,陵城艺术中心,116.5652,37.3319,2025-01-22T2300,61,92,0.8,33,18,26,64,83,细颗粒物(PM2.5)
迪庆藏族自治州,迪庆州站,99.7056,27.8317,2025-01-22T2300,31,48,0.7,18,9,54,71,48,
迪庆藏族自治州,质量技术监督局,99.7136,27.8094,2025-01-22T2300,22,,0.6,10,8,64,73,32,
定西市,东关小学,104.6241,35.5734,2025-01-22T2300,65,99,1.3,39,19,24,65,88,细颗粒物(PM2.5)
定西市,供电公司,104.6194,35.5934,2025-01-22T2300,,,,,,,,,
东莞市,莞城梨川,113.7547,23.0494,2025-01-22T2300,37,64,0.6,29,5,74,126,57,颗粒物(PM10)
东莞市,东城石井,113.7944,23.0128,2025-01-22T2300,30,47,0.4,21,5,83,121,47,
东莞市,南城西平,113.7383,22.9658,2025-01-22T2300,26,48,0.6,24,3,80,123,48,
东莞市,万江金泰,113.7338,23.0381,2025-01-22T2300,32,59,0.5,25,7,79,133,55,颗粒物(PM10)
东莞市,南城元岭,113.7533,23.0202,2025-01-22T2300,31,52,0.6,20,6,79,121,51,颗粒物(PM10)
东莞市,东城主山,113.7875,23.0457,2025-01-22T2300,29,54,0.7,29,6,66,118,52,颗粒物(PM10)
东营市,市环保局,118.6614,37.4309,2025-01-22T2300,17,,,,3,,72,,
东营市,开发区管委会,118.6904,37.4338,2025-01-22T2300,12,16,0.4,16,2,62,67,20,
东营市,垦利区民丰路,118.5719,37.565,2025-01-22T2300,9,24,0.2,19,8,46,65,24,
东营市,河口城区,118.5055,37.8612,2025-01-22T2300,12,29,0.8,19,3,55,69,29,
东营市,胜利站,118.4978,37.4623,2025-01-22T2300,14,36,0.7,24,5,42,65,36,
东营市,理想之城,118.35,37.26,2025-01-22T2300,22,36,0.4,,3,28,76,,
鄂尔多斯市,综合楼,110.0023,39.8129,2025-01-22T2300,100,168,1.5,76,36,9,72,132,细颗粒物(PM2.5)
鄂尔多斯市,巴音孟克林场办事处,109.9486,39.8261,2025-01-22T2300,92,161,1.1,70,37,15,70,122,细颗粒物(PM2.5)
鄂尔多斯市,康泽苑,109.7736,39.5986,2025-01-22T2300,31,61,0.7,42,9,29,63,56,颗粒物(PM10)
鄂尔多斯市,华泰汽车城,109.8119,39.5989,2025-01-22T2300,41,75,0.6,54,5,8,66,63,颗粒物(PM10)
鄂尔多斯市,奥林花园,109.9734,39.7884,2025-01-22T2300,,346,2.1,76,25,6,70,,
鄂州市,市政府,114.8938,30.3994,2025-01-22T2300,172,207,1.7,,,59,102,222,细颗粒物(PM2.5)
鄂州市,赵家坝,114.8989,30.3714,2025-01-22T2300,159,,1.7,24,10,88,117,209,细颗粒物(PM2.5)
鄂州市,精准医疗中心,114.8094,30.4089,2025-01-22T2300,182,,1.1,37,7,92,126,232,细颗粒物(PM2.5)
恩施土家族苗族自治州,湖北民院,109.4978,30.2981,2025-01-22T2300,152,152,1.7,20,8,3,22,202,细颗粒物(PM2.5)
恩施土家族苗族自治州,州电力总公司,109.4707,30.2798,2025-01-22T2300,131,132,1.6,69,8,10,25,173,细颗粒物(PM2.5)
恩施土家族苗族自治州,龙凤新区,109.5061,30.3772,2025-01-22T2300,125,147,1.7,33,6,8,28,165,细颗粒物(PM2.5)
防城港市,沙万,108.3411,21.6158,2025-01-22T2300,45,56,1.7,19,7,80,103,63,细颗粒物(PM2.5)
防城港市,防城档案局,108.3514,21.7731,2025-01-22T2300,69,117,0.9,32,6,31,96,93,细颗粒物(PM2.5)
防城港市,大海花园,108.3506,21.6414,2025-01-22T2300,43,60,0.9,24,4,,76,,
佛山市,湾梁,113.1294,23.0067,2025-01-22T2300,48,119,0.7,72,6,40,99,85,颗粒物(PM10)
佛山市,华材职中,113.1083,23.0478,2025-01-22T2300,58,102,0.8,59,7,52,117,79,细颗粒物(PM2.5)
佛山市,南海气象局,113.144,23.0453,2025-01-22T2300,50,85,1.0,56,7,44,107,69,细颗粒物(PM2.5)
佛山市,顺德苏岗,113.2881,22.8094,2025-01-22T2300,63,89,0.8,53,8,28,98,85,细颗粒物(PM2.5)
佛山市,高明孔堂,112.8383,22.8678,2025-01-22T2300,45,60,0.6,35,4,60,99,63,细颗粒物(PM2.5)
佛山市,三水监测站,112.8836,23.1588,2025-01-22T2300,74,114,1.0,106,8,5,71,99,细颗粒物(PM2.5)
佛山市,三水云东海,112.867,23.185,2025-01-22T2300,42,75,1.0,122,8,0,106,63,颗粒物(PM10)
佛山市,容桂街道办,113.2544,22.7642,2025-01-22T2300,56,73,0.8,55,6,37,105,77,细颗粒物(PM2.5)
福州市,鼓山,119.3903,26.0543,2025-01-22T2300,,,,,,,105,,
福州市,师大,119.2681,26.0504,2025-01-22T2300,55,92,0.8,57,4,18,113,75,细颗粒物(PM2.5)
福州市,五四北路,119.2984,26.1028,2025-01-22T2300,54,77,0.8,53,1,30,119,74,细颗粒物(PM2.5)
福州市,杨桥西路,119.2648,26.0768,2025-01-22T2300,50,89,0.9,71,1,1,112,70,颗粒物(PM10)
福州市,紫阳,119.317,26.0746,2025-01-22T2300,63,106,0.9,88,4,3,117,85,细颗粒物(PM2.5)
福州市,九龙,119.5799,26.0936,2025-01-22T2300,30,49,0.8,21,2,59,116,49,
福州市,吴航,119.5189,25.9664,2025-01-22T2300,20,32,1.2,34,2,27,123,32,
抚顺市,望花区,123.7977,41.8491,2025-01-22T2300,172,181,1.8,64,8,14,52,222,细颗粒物(PM2.5)
抚顺市,顺城区,123.9161,41.8822,2025-01-22T2300,81,214,1.8,59,9,14,51,132,颗粒物(PM10)
抚顺市,东洲区,124.0436,41.8611,2025-01-22T2300,120,188,1.2,36,10,25,53,158,细颗粒物(PM2.5)
抚顺市,新抚区,123.9247,41.8642,2025-01-22T2300,140,194,1.6,54,4,13,54,186,细颗粒物(PM2.5)
抚顺市,大伙房水库,124.0972,41.8961,2025-01-22T2300,76,107,1.1,34,8,28,56,102,细颗粒物(PM2.5)
抚顺市,沈抚新城,123.7086,41.8391,2025-01-22T2300,122,145,1.3,57,5,13,51,160,细颗粒物(PM2.5)
抚州市,桐源党溪,116.2127,28.0814,2025-01-22T2300,45,62,0.5,5,1,39,92,63,细颗粒物(PM2.5)
抚州市,市站,116.3544,27.9831,2025-01-22T2300,64,100,0.9,42,19,50,90,87,细颗粒物(PM2.5)
抚州市,血防站,116.3565,27.963,2025-01-22T2300,55,84,1.2,36,12,62,100,75,细颗粒物(PM2.5)
抚州市,采茶剧团,116.3564,28.0007,2025-01-22T2300,54,84,1.8,25,10,58,91,74,细颗粒物(PM2.5)
抚州市,医学分院,116.385,27.9647,2025-01-22T2300,44,87,1.1,36,8,41,90,69,颗粒物(PM10)
阜新市,工业园区,121.6094,41.998,2025-01-22T2300,98,168,1.1,47,67,13,68,129,细颗粒物(PM2.5)
阜新市,长青街,121.6697,42.0279,2025-01-22T2300,92,129,1.0,43,41,12,61,122,细颗粒物(PM2.5)
阜新市,农业园区,121.6673,42.0705,2025-01-22T2300,41,80,0.7,15,28,54,60,65,颗粒物(PM10)
阜新市,东苑,121.6717,42.0224,2025-01-22T2300,82,132,1.4,47,32,22,54,109,细颗粒物(PM2.5)
阜新市,玉龙新城,121.6506,42.0498,2025-01-22T2300,65,120,1.4,50,17,15,65,88,细颗粒物(PM2.5)
阜阳市,市监测站,115.8277,32.8929,2025-01-22T2300,264,302,1.6,53,10,55,104,314,细颗粒物(PM2.5)
阜阳市,开发区,115.8554,32.8605,2025-01-22T2300,236,339,1.6,54,12,53,102,286,细颗粒物(PM2.5)
阜阳市,阜阳职业技术学院,115.784,32.8892,2025-01-22T2300,256,296,1.6,42,11,60,112,306,细颗粒物(PM2.5)
阜阳市,市规划展馆,115.7901,32.8613,2025-01-22T2300,240,285,1.7,46,13,72,118,290,细颗粒物(PM2.5)
阜阳市,枣园社区,115.836,32.9183,2025-01-22T2300,258,334,1.7,48,11,56,119,308,细颗粒物(PM2.5)
甘南藏族自治州,州政府,102.9099,34.9841,2025-01-22T2300,63,94,0.9,37,19,36,71,85,细颗粒物(PM2.5)
甘南藏族自治州,甘肃民族师范学院,102.8914,34.9617,2025-01-22T2300,37,68,0.7,38,7,34,78,59,颗粒物(PM10)
甘孜藏族自治州,水桥子,101.9603,30.0475,2025-01-22T2300,26,32,0.8,20,2,41,80,38,
甘孜藏族自治州,州环保局,101.9533,29.9972,2025-01-22T2300,9,26,0.6,14,4,48,83,26,
赣江新区,桑海产业园,115.8347,28.932,2025-01-22T2300,58,92,0.6,112,12,1,100,79,细颗粒物(PM2.5)
赣州市,通天岩,114.9017,25.9149,2025-01-22T2300,6,33,0.5,10,8,64,128,33,
赣州市,地委,114.9367,25.8664,2025-01-22T2300,40,72,1.5,65,1,32,143,61,颗粒物(PM10)
赣州市,气象台,114.9461,25.8481,2025-01-22T2300,,,1.1,79,10,28,144,,
赣州市,市图书馆,114.9322,25.8333,2025-01-22T2300,46,84,1.3,82,4,30,141,67,颗粒物(PM10)
赣州市,华坚鞋城,114.8905,25.8471,2025-01-22T2300,50,92,1.0,82,8,10,137,71,颗粒物(PM10)
赣州市,赣县区卫计委,115.0093,25.8613,2025-01-22T2300,58,85,1.2,57,5,27,124,79,细颗粒物(PM2.5)
固原市,马园,106.2319,36.1417,2025-01-22T2300,55,77,1.0,46,12,63,91,75,细颗粒物(PM2.5)
固原市,监测站,106.2792,36.0022,2025-01-22T2300,74,114,1.2,58,17,66,112,99,细颗粒物(PM2.5)
固原市,新区,106.2375,36.0211,2025-01-22T2300,64,83,1.2,64,11,56,106,87,细颗粒物(PM2.5)
固原市,原州区十五小,106.2177,35.9959,2025-01-22T2300,59,89,0.9,24,12,99,102,80,细颗粒物(PM2.5)
广安市,小平旧居,106.6308,30.5278,2025-01-22T2300,,,,,,,,,
广安市,市委,106.6303,30.4576,2025-01-22T2300,194,240,1.6,53,6,9,35,244,细颗粒物(PM2.5)
广安市,友谊中学,106.6271,30.4663,2025-01-22T2300,183,220,1.6,59,6,4,29,233,细颗粒物(PM2.5)
广安市,广电花园,106.6388,30.4551,2025-01-22T2300,182,210,1.7,56,4,5,29,232,细颗粒物(PM2.5)
广安市,北辰小学,106.6351,30.4865,2025-01-22T2300,183,217,1.6,50,7,4,28,233,细颗粒物(PM2.5)
广元市,黑石坡,105.8945,32.4535,2025-01-22T2300,83,135,1.5,68,3,0,22,110,细颗粒物(PM2.5)
广元市,老城,105.821,32.4444,2025-01-22T2300,108,167,1.8,56,4,1,7,142,细颗粒物(PM2.5)
广元市,监测站,105.8628,32.4287,2025-01-22T2300,70,91,1.2,50,7,5,13,94,细颗粒物(PM2.5)
广元市,经开区,105.8047,32.4166,2025-01-22T2300,115,149,1.8,53,11,4,7,150,细颗粒物(PM2.5)
广州市,广雅中学,113.2347,23.1423,2025-01-22T2300,79,116,1.2,89,4,24,102,105,细颗粒物(PM2.5)
广州市,市五中,113.2612,23.105,2025-01-22T2300,65,112,1.1,70,4,41,112,88,细颗粒物(PM2.5)
广州市,广东商学院,113.3478,23.0916,2025-01-22T2300,77,114,1.1,84,5,30,108,103,细颗粒物(PM2.5)
广州市,市八十六中,113.4332,23.1047,2025-01-22T2300,59,105,1.0,96,4,26,102,80,细颗粒物(PM2.5)
广州市,番禺中学,113.3505,22.9483,2025-01-22T2300,83,108,1.0,72,4,40,116,110,细颗粒物(PM2.5)
广州市,花都师范,113.2146,23.3916,2025-01-22T2300,60,91,0.9,49,6,58,110,82,细颗粒物(PM2.5)
广州市,市监测站,113.2597,23.1331,2025-01-22T2300,46,82,1.1,84,6,41,120,66,颗粒物(PM10)
广州市,九龙镇镇龙,113.5618,23.312,2025-01-22T2300,49,92,0.9,81,4,3,114,71,颗粒物(PM10)
广州市,麓湖,113.2765,23.1544,2025-01-22T2300,34,54,1.1,95,3,4,108,52,颗粒物(PM10)
广州市,帽峰山森林公园,113.443,23.3035,2025-01-22T2300,15,30,0.5,17,5,105,121,33,
广州市,体育西,113.3221,23.1322,2025-01-22T2300,59,98,1.0,43,6,29,104,80,细颗粒物(PM2.5)
广州市,从化街口,113.5717,23.5491,2025-01-22T2300,66,86,1.0,60,6,17,114,89,细颗粒物(PM2.5)
广州市,白云竹料,113.3472,23.3692,2025-01-22T2300,76,117,1.2,66,6,16,115,102,细颗粒物(PM2.5)
广州市,白云嘉禾,113.2981,23.237,2025-01-22T2300,41,92,1.8,99,7,7,107,71,颗粒物(PM10)
广州市,黄埔科学城,113.4256,23.1716,2025-01-22T2300,36,69,1.0,72,6,12,108,60,颗粒物(PM10)
广州市,番禺大学城,113.3942,23.0483,2025-01-22T2300,80,168,1.7,76,9,28,106,109,颗粒物(PM10)
广州市,南沙黄阁,113.4922,22.8168,2025-01-22T2300,47,59,0.9,55,3,33,99,65,细颗粒物(PM2.5)
广州市,南沙街,113.5342,22.7896,2025-01-22T2300,29,36,0.8,34,4,58,103,42,
广州市,花都梯面,113.2902,23.5544,2025-01-22T2300,35,51,0.8,57,4,23,125,51,颗粒物(PM10)
广州市,从化良口,113.7858,23.7478,2025-01-22T2300,23,30,2.6,,5,61,112,,
广州市,增城荔城,113.8051,23.2614,2025-01-22T2300,46,74,0.7,30,4,40,125,64,细颗粒物(PM2.5)
贵港市,德智高中,109.568,23.1478,2025-01-22T2300,,,,,,,,,
贵港市,江南子站,109.6047,23.0666,2025-01-22T2300,133,171,1.4,45,10,60,150,176,细颗粒物(PM2.5)
贵港市,贵城子站,109.6014,23.0948,2025-01-22T2300,106,181,1.2,44,13,63,144,139,细颗粒物(PM2.5)
贵港市,荷城子站,109.5669,23.1065,2025-01-22T2300,102,151,1.2,66,14,32,133,134,细颗粒物(PM2.5)
贵港市,新世纪学校,109.5886,23.1172,2025-01-22T2300,98,146,1.3,62,8,51,151,129,细颗粒物(PM2.5)
贵阳市,马鞍山,106.6899,26.5998,2025-01-22T2300,53,80,0.7,19,4,76,128,73,细颗粒物(PM2.5)
贵阳市,鉴湖路,106.6243,26.6266,2025-01-22T2300,61,92,0.7,25,10,116,128,83,细颗粒物(PM2.5)
贵阳市,燕子冲,106.7487,26.6343,2025-01-22T2300,66,80,0.8,22,12,96,140,89,细颗粒物(PM2.5)
贵阳市,碧云窝,106.6555,26.4365,2025-01-22T2300,68,97,0.8,22,30,107,147,92,细颗粒物(PM2.5)
贵阳市,红边门,106.7109,26.6027,2025-01-22T2300,88,119,1.1,41,42,100,130,117,细颗粒物(PM2.5)
贵阳市,新华路,106.7164,26.5699,2025-01-22T2300,66,100,0.8,30,3,116,154,89,细颗粒物(PM2.5)
贵阳市,太慈桥,106.674,26.5424,2025-01-22T2300,66,88,0.8,37,10,77,142,89,细颗粒物(PM2.5)
贵阳市,桐木岭,106.805,26.3003,2025-01-22T2300,53,84,0.9,4,24,128,139,73,细颗粒物(PM2.5)
贵阳市,花果园大街66号,106.6882,26.5695,2025-01-22T2300,70,95,0.4,44,27,111,124,94,细颗粒物(PM2.5)
贵阳市,漓江路57号,106.6873,26.5169,2025-01-22T2300,132,149,0.7,35,,88,120,175,细颗粒物(PM2.5)
桂林市,电子科大尧山校区,110.4144,25.3167,2025-01-22T2300,53,74,0.8,13,9,108,139,73,细颗粒物(PM2.5)
桂林市,监测站,110.2819,25.2697,2025-01-22T2300,66,84,1.3,31,12,95,120,89,细颗粒物(PM2.5)
桂林市,龙隐路小学,110.3089,25.2708,2025-01-22T2300,72,83,0.8,24,15,106,146,97,细颗粒物(PM2.5)
桂林市,八中,110.2869,25.2178,2025-01-22T2300,71,92,0.9,35,11,83,122,95,细颗粒物(PM2.5)
桂林市,创业大厦,110.1764,25.2381,2025-01-22T2300,78,102,1.0,45,16,80,131,104,细颗粒物(PM2.5)
桂林市,旅游学院,110.296,25.1253,2025-01-22T2300,70,97,1.2,44,13,75,132,94,细颗粒物(PM2.5)
果洛藏族自治州,玛沁县大武镇,100.2561,34.4714,2025-01-22T2300,32,93,0.6,10,11,48,85,72,颗粒物(PM10)
哈尔滨市,岭北,126.5422,45.755,2025-01-22T2300,148,187,0.8,78,16,25,62,198,细颗粒物(PM2.5)
哈尔滨市,松北商大,126.561,45.8167,2025-01-22T2300,119,122,1.0,66,2,21,59,156,细颗粒物(PM2.5)
哈尔滨市,阿城会宁,126.979,45.5419,2025-01-22T2300,193,,1.2,46,4,29,75,243,细颗粒物(PM2.5)
哈尔滨市,南岗学府路,126.599,45.7222,2025-01-22T2300,115,133,0.8,49,4,40,59,150,细颗粒物(PM2.5)
哈尔滨市,太平宏伟公园,126.689,45.7733,2025-01-22T2300,126,155,1.1,76,9,4,47,166,细颗粒物(PM2.5)
哈尔滨市,道外承德广场,126.635,45.7667,2025-01-22T2300,119,154,1.0,48,6,36,46,156,细颗粒物(PM2.5)
哈尔滨市,香坊红旗大街,126.685,45.7319,2025-01-22T2300,139,151,1.2,69,8,15,49,185,细颗粒物(PM2.5)
哈尔滨市,动力和平路,126.6411,45.7258,2025-01-22T2300,102,,0.9,32,3,47,59,134,细颗粒物(PM2.5)
哈尔滨市,道里建国路,126.593,45.7478,2025-01-22T2300,126,,1.0,45,8,38,53,166,细颗粒物(PM2.5)
哈尔滨市,平房东轻厂,126.615,45.61,2025-01-22T2300,117,132,1.0,90,15,7,55,153,细颗粒物(PM2.5)
哈尔滨市,呼兰师专,126.595,45.9855,2025-01-22T2300,221,224,1.7,81,24,11,56,271,细颗粒物(PM2.5)
哈尔滨市,省农科院,126.6206,45.6842,2025-01-22T2300,159,191,1.7,85,14,7,59,209,细颗粒物(PM2.5)
哈密市,地区监测站,93.5128,42.8172,2025-01-22T2300,46,97,0.6,35,3,49,61,74,颗粒物(PM10)
哈密市,哈密师范学校,93.4961,42.8328,2025-01-22T2300,50,95,0.8,45,8,38,62,73,颗粒物(PM10)
海北藏族自治州,海晏县西海镇,100.9048,36.9639,2025-01-22T2300,21,38,0.5,10,16,55,87,38,
海东市,平安区公安北苑,102.0738,36.5056,2025-01-22T2300,92,,1.4,,33,44,91,122,细颗粒物(PM2.5)
海口市,东寨港,110.576,19.9507,2025-01-22T2300,22,54,0.4,5,14,117,125,52,颗粒物(PM10)
海口市,海南大学,110.3232,20.0574,2025-01-22T2300,30,64,0.5,15,5,132,146,57,颗粒物(PM10)
海口市,秀英海南医院,110.283,20.0053,2025-01-22T2300,28,68,0.5,12,3,134,144,59,颗粒物(PM10)
海口市,海南师范大学,110.338,19.9969,2025-01-22T2300,29,64,0.5,10,5,137,148,57,颗粒物(PM10)
海口市,龙华路环保局宿舍,110.33,20.0356,2025-01-22T2300,30,58,0.5,12,6,136,148,54,颗粒物(PM10)
海口市,桂林洋子站,110.5111,19.9736,2025-01-22T2300,29,58,0.4,7,5,130,140,54,颗粒物(PM10)
海南藏族自治州,共和县恰卜恰镇,100.6188,36.2866,2025-01-22T2300,27,67,0.7,37,18,16,89,59,颗粒物(PM10)
海西蒙古族藏族自治州,德令哈市,97.3731,37.3753,2025-01-22T2300,14,35,0.6,9,17,45,76,35,
邯郸市,东污水处理厂,114.5302,36.6116,2025-01-22T2300,46,65,0.5,38,5,28,65,64,细颗粒物(PM2.5)
邯郸市,矿院,114.4918,36.5713,2025-01-22T2300,34,63,0.5,30,4,32,62,57,颗粒物(PM10)
邯郸市,丛台公园,114.484,36.6133,2025-01-22T2300,40,77,0.6,48,5,22,67,64,颗粒物(PM10)
邯郸市,香泉濮院小区,114.7895,36.5593,2025-01-22T2300,50,78,0.6,35,8,36,74,69,细颗粒物(PM2.5)
邯郸市,永年区实验高中,114.50634,36.77178,2025-01-22T2300,48,85,1.0,66,9,11,65,68,颗粒物(PM10)
邯郸市,峰峰矿区临水派出所,114.20016,36.44293,2025-01-22T2300,36,52,0.7,19,10,57,77,52,细颗粒物(PM2.5)
汉中市,汉川机床厂子校,106.9893,33.1842,2025-01-22T2300,178,,2.3,37,7,8,30,228,细颗粒物(PM2.5)
汉中市,市监测站,107.0154,33.0706,2025-01-22T2300,189,228,2.9,71,9,13,16,239,细颗粒物(PM2.5)
汉中市,鑫源开发区,107.0089,33.1138,2025-01-22T2300,195,218,2.2,52,7,12,23,245,细颗粒物(PM2.5)
汉中市,南郑大河坎水厂,107.007,33.0323,2025-01-22T2300,236,268,2.4,56,8,14,20,286,细颗粒物(PM2.5)
杭州市,滨江,120.2072,30.2111,2025-01-22T2300,56,92,1.0,98,6,9,101,77,细颗粒物(PM2.5)
杭州市,西溪,120.0633,30.2747,2025-01-22T2300,60,84,0.8,53,6,4,105,82,细颗粒物(PM2.5)
杭州市,下沙,120.3461,30.3153,2025-01-22T2300,36,45,0.7,76,7,3,106,52,细颗粒物(PM2.5)
杭州市,卧龙桥,120.1269,30.2456,2025-01-22T2300,62,68,0.7,47,6,24,101,84,细颗粒物(PM2.5)
杭州市,浙江农大,120.1903,30.2692,2025-01-22T2300,59,88,0.9,85,6,4,97,80,细颗粒物(PM2.5)
杭州市,和睦小学,120.1197,30.3119,2025-01-22T2300,79,107,1.4,109,7,4,105,105,细颗粒物(PM2.5)
杭州市,临平镇,120.3019,30.4183,2025-01-22T2300,29,55,0.8,54,6,27,124,53,颗粒物(PM10)
杭州市,城厢镇,120.2697,30.1819,2025-01-22T2300,82,122,1.6,98,6,4,102,109,细颗粒物(PM2.5)
杭州市,云栖,120.0883,30.1808,2025-01-22T2300,47,68,0.7,39,5,45,104,65,细颗粒物(PM2.5)
杭州市,镇二中,119.9464,30.0494,2025-01-22T2300,99,100,1.4,72,5,6,87,130,细颗粒物(PM2.5)
杭州市,市府大楼,119.7183,30.2367,2025-01-22T2300,122,140,1.2,48,9,39,109,160,细颗粒物(PM2.5)
杭州市,消防大队,120.1556,30.2864,2025-01-22T2300,68,95,1.0,81,10,24,109,92,细颗粒物(PM2.5)
合肥市,明珠广场,117.1959,31.7848,2025-01-22T2300,210,254,1.4,105,14,20,128,260,细颗粒物(PM2.5)
合肥市,三里街,117.3072,31.8764,2025-01-22T2300,219,271,1.3,82,13,35,114,269,细颗粒物(PM2.5)
合肥市,琥珀山庄,117.2588,31.8707,2025-01-22T2300,179,263,1.3,106,10,21,104,229,细颗粒物(PM2.5)
合肥市,董铺水库,117.1604,31.9052,2025-01-22T2300,202,271,1.2,90,8,24,133,252,细颗粒物(PM2.5)
合肥市,长江中路,117.25,31.8571,2025-01-22T2300,229,268,1.4,87,14,39,128,279,细颗粒物(PM2.5)
合肥市,庐阳区,117.266,31.9436,2025-01-22T2300,222,283,1.3,75,7,35,127,272,细颗粒物(PM2.5)
合肥市,瑶海区,117.336,31.8586,2025-01-22T2300,216,261,1.2,82,12,39,108,266,细颗粒物(PM2.5)
合肥市,包河区,117.3027,31.7964,2025-01-22T2300,210,244,1.4,114,11,15,110,260,细颗粒物(PM2.5)
合肥市,滨湖新区,117.2776,31.7385,2025-01-22T2300,178,256,1.3,122,12,21,124,228,细颗粒物(PM2.5)
合肥市,高新区,117.1318,31.8403,2025-01-22T2300,243,285,1.6,74,18,60,134,293,细颗粒物(PM2.5)
合肥市,高教基地,117.3803,31.9147,2025-01-22T2300,188,243,1.1,53,10,55,123,238,细颗粒物(PM2.5)
和田地区,地区环保局,79.924,37.0877,2025-01-22T2300,56,123,0.5,31,1,50,84,87,颗粒物(PM10)
和田地区,市环保局,79.9131,37.113,2025-01-22T2300,64,136,1.5,45,8,43,87,93,颗粒物(PM10)
河池市,东仁乐园,108.2011,24.715,2025-01-22T2300,120,208,1.2,84,9,26,120,158,细颗粒物(PM2.5)
河池市,市环保站,108.0497,24.6947,2025-01-22T2300,79,104,1.2,47,10,42,109,105,细颗粒物(PM2.5)
河池市,市疾控中心,108.0983,24.6989,2025-01-22T2300,92,120,1.1,71,5,26,113,122,细颗粒物(PM2.5)
河源市,源西,114.6778,23.7569,2025-01-22T2300,23,45,0.5,38,5,50,107,45,
河源市,东埔,114.6944,23.7586,2025-01-22T2300,27,57,0.7,40,3,56,114,54,颗粒物(PM10)
河源市,老城,114.6892,23.7233,2025-01-22T2300,42,50,0.8,37,4,37,111,59,细颗粒物(PM2.5)
菏泽市,气象局,115.4208,35.2464,2025-01-22T2300,135,201,0.8,39,14,39,54,179,细颗粒物(PM2.5)
菏泽市,定陶老年大学,115.5564,35.0891,2025-01-22T2300,63,110,0.6,36,19,40,54,85,细颗粒物(PM2.5)
菏泽市,永昌路1号,115.4797,35.24401,2025-01-22T2300,74,128,0.6,32,13,45,56,99,细颗粒物(PM2.5)
菏泽市,长城路999号,115.4715,35.2800,2025-01-22T2300,62,119,1.1,32,10,37,49,85,颗粒物(PM10)
贺州市,环保小区,111.5264,24.4172,2025-01-22T2300,65,93,1.1,34,9,108,166,88,细颗粒物(PM2.5)
贺州市,政协大楼,111.5608,24.4078,2025-01-22T2300,57,87,0.9,27,9,100,159,78,细颗粒物(PM2.5)
贺州市,西湾,111.4744,24.4553,2025-01-22T2300,73,110,0.8,56,8,58,166,98,细颗粒物(PM2.5)
鹤壁市,市监测站,114.17,35.9019,2025-01-22T2300,37,68,1.0,16,11,49,73,59,颗粒物(PM10)
鹤壁市,市交警支队,114.2956,35.7511,2025-01-22T2300,37,67,0.6,24,8,49,67,59,颗粒物(PM10)
鹤壁市,迎宾馆,114.2878,35.7306,2025-01-22T2300,36,70,0.7,32,4,46,71,60,颗粒物(PM10)
鹤壁市,大新区,114.2617,35.6822,2025-01-22T2300,34,62,0.6,30,10,47,73,56,颗粒物(PM10)
鹤壁市,南山宾馆,114.1572,35.9603,2025-01-22T2300,60,86,1.4,22,12,54,80,82,细颗粒物(PM2.5)
鹤岗市,哈啤分公司,130.2537,47.3416,2025-01-22T2300,31,37,0.7,9,15,39,48,45,
鹤岗市,斯达机电,130.2684,47.3086,2025-01-22T2300,41,47,0.5,7,15,53,54,58,细颗粒物(PM2.5)
鹤岗市,东山纸板厂,130.3114,47.3388,2025-01-22T2300,27,367,4.3,60,15,14,37,225,颗粒物(PM10)
鹤岗市,五号水库,130.1097,47.3382,2025-01-22T2300,14,20,0.3,11,7,66,94,21,
黑河市,交通局,127.4833,50.2524,2025-01-22T2300,47,60,0.8,29,8,27,48,65,细颗粒物(PM2.5)
黑河市,环保局,127.5144,50.2341,2025-01-22T2300,68,106,1.2,53,11,7,49,92,细颗粒物(PM2.5)
黑河市,大黑河岛,127.5291,50.2472,2025-01-22T2300,55,66,,8,2,5,17,,
衡水市,电机北厂,115.6838,37.7541,2025-01-22T2300,38,60,0.5,39,16,22,59,55,颗粒物(PM10)
衡水市,市监测站,115.6303,37.7316,2025-01-22T2300,19,40,0.4,27,10,49,63,40,
衡水市,市城管局,115.6683,37.7217,2025-01-22T2300,36,54,0.5,28,7,41,59,52,"颗粒物(PM10),细颗粒物(PM2.5)"
衡水市,地表水厂,115.5989,37.5491,2025-01-22T2300,24,42,0.4,23,6,41,69,42,
衡阳市,原169医院,112.5003,26.9167,2025-01-22T2300,74,108,1.0,37,13,66,137,99,细颗粒物(PM2.5)
衡阳市,衡阳化工总厂,112.6194,26.9258,2025-01-22T2300,82,,0.9,22,12,95,126,109,细颗粒物(PM2.5)
衡阳市,珠晖区环保局,112.6211,26.8956,2025-01-22T2300,65,77,1.2,44,10,82,118,88,细颗粒物(PM2.5)
衡阳市,市委党校,112.6197,26.8733,2025-01-22T2300,68,92,1.0,27,13,98,132,92,细颗粒物(PM2.5)
衡阳市,市监测站,112.6006,26.8919,2025-01-22T2300,,98,0.9,18,13,101,116,,
衡阳市,真空机电公司,112.5664,26.9056,2025-01-22T2300,71,105,1.1,23,10,99,109,95,细颗粒物(PM2.5)
衡阳市,师范学院,112.6703,26.882,2025-01-22T2300,72,92,0.8,21,14,112,131,97,细颗粒物(PM2.5)
红河哈尼族彝族自治州,污水处理厂,103.3772,23.3993,2025-01-22T2300,71,75,0.6,12,8,82,128,95,细颗粒物(PM2.5)
红河哈尼族彝族自治州,监测站,103.3861,23.35,2025-01-22T2300,55,,0.5,7,8,90,144,75,细颗粒物(PM2.5)
红河哈尼族彝族自治州,州图书馆,103.3758,23.368,2025-01-22T2300,37,45,0.5,12,8,81,134,53,细颗粒物(PM2.5)
呼和浩特市,呼市一监,111.6507,40.7517,2025-01-22T2300,182,249,1.4,73,23,11,65,232,细颗粒物(PM2.5)
呼和浩特市,小召,111.6572,40.8033,2025-01-22T2300,142,244,1.4,78,29,8,60,189,细颗粒物(PM2.5)
呼和浩特市,如意水处理厂,111.7516,40.8369,2025-01-22T2300,58,96,1.1,78,21,4,58,79,细颗粒物(PM2.5)
呼和浩特市,二十九中,111.7276,40.8062,2025-01-22T2300,81,168,0.9,74,12,5,51,109,颗粒物(PM10)
呼和浩特市,工大金川校区,111.5512,40.7866,2025-01-22T2300,70,104,0.9,74,16,6,51,94,细颗粒物(PM2.5)
呼和浩特市,化肥厂生活区,111.717,40.7612,2025-01-22T2300,135,187,1.3,80,17,11,58,179,细颗粒物(PM2.5)
呼和浩特市,红旗小学,111.5968,40.8178,2025-01-22T2300,72,100,0.9,71,15,16,53,97,细颗粒物(PM2.5)
呼和浩特市,海东办,111.6518,40.8389,2025-01-22T2300,101,185,1.1,77,16,4,51,133,细颗粒物(PM2.5)
呼伦贝尔市,区环保局,119.7594,49.2261,2025-01-22T2300,61,69,0.7,56,110,11,49,83,细颗粒物(PM2.5)
呼伦贝尔市,国华电力东,119.7512,49.1577,2025-01-22T2300,55,66,0.7,33,4,24,62,75,细颗粒物(PM2.5)
湖州市,城西水厂,120.0751,30.8669,2025-01-22T2300,32,51,0.4,56,9,36,120,51,颗粒物(PM10)
湖州市,仁皇山新区,120.0875,30.8955,2025-01-22T2300,46,65,0.9,64,7,32,116,64,细颗粒物(PM2.5)
湖州市,吴兴区站,120.1844,30.8596,2025-01-22T2300,31,38,0.4,36,6,50,124,45,
湖州市,南浔区站,120.4148,30.8538,2025-01-22T2300,18,28,0.4,33,7,53,130,28,
葫芦岛市,龙港区,120.9092,40.7136,2025-01-22T2300,52,,0.8,38,15,23,,,
葫芦岛市,化工街,120.8392,40.7514,2025-01-22T2300,80,134,1.8,63,27,8,54,107,细颗粒物(PM2.5)
葫芦岛市,新区,120.8341,40.7073,2025-01-22T2300,118,,1.9,73,15,6,42,155,细颗粒物(PM2.5)
葫芦岛市,东城区,120.8695,40.7677,2025-01-22T2300,126,156,1.2,54,64,11,60,166,细颗粒物(PM2.5)
怀化市,林科所,109.5981,27.5721,2025-01-22T2300,75,84,1.3,32,6,38,43,100,细颗粒物(PM2.5)
怀化市,河西地税局,109.9453,27.5444,2025-01-22T2300,104,147,1.1,47,5,6,17,137,细颗粒物(PM2.5)
怀化市,市四医院,109.9781,27.5342,2025-01-22T2300,154,183,2.4,56,18,24,27,204,细颗粒物(PM2.5)
怀化市,监测楼,109.9972,27.5578,2025-01-22T2300,133,183,1.7,58,11,9,29,176,细颗粒物(PM2.5)
怀化市,市委党校,110.0394,27.583,2025-01-22T2300,124,173,1.8,49,10,12,39,163,细颗粒物(PM2.5)
淮安市,钵池山,119.036,33.5981,2025-01-22T2300,43,,0.6,20,6,62,92,60,细颗粒物(PM2.5)
淮安市,北京南路,119.007,33.575,2025-01-22T2300,36,39,0.5,18,7,62,86,52,细颗粒物(PM2.5)
淮安市,市监测站,118.989,33.6067,2025-01-22T2300,46,,0.7,25,6,60,96,64,细颗粒物(PM2.5)
淮安市,楚州区监测站,119.135,33.5039,2025-01-22T2300,35,42,0.5,22,6,55,87,50,
淮安市,淮阴区监测站,119.0186,33.6297,2025-01-22T2300,47,56,0.5,33,6,43,87,65,细颗粒物(PM2.5)
淮安市,新华书店,118.8755,33.2894,2025-01-22T2300,36,45,0.5,30,8,51,94,52,细颗粒物(PM2.5)
淮北市,监测站,116.8004,33.975,2025-01-22T2300,56,135,0.6,21,7,59,109,93,颗粒物(PM10)
淮北市,烈山区政府,116.8091,33.9007,2025-01-22T2300,54,82,0.6,25,5,70,130,74,细颗粒物(PM2.5)
淮北市,杜集区检察院,116.8873,33.9836,2025-01-22T2300,44,94,0.7,18,5,66,126,72,颗粒物(PM10)
淮北市,市博物馆,116.7923,33.9535,2025-01-22T2300,52,94,0.9,29,7,62,122,72,"颗粒物(PM10),细颗粒物(PM2.5)"
淮南市,潘集区政府,116.8305,32.7727,2025-01-22T2300,169,195,1.0,51,9,40,99,219,细颗粒物(PM2.5)
淮南市,谢家集区政府,116.8569,32.5951,2025-01-22T2300,143,173,1.0,47,10,54,114,190,细颗粒物(PM2.5)
淮南市,八公山区政府,116.8281,32.633,2025-01-22T2300,148,188,0.8,32,12,60,119,198,细颗粒物(PM2.5)
淮南市,焦岗湖风景区管理处,116.6325,32.6201,2025-01-22T2300,159,231,0.8,42,9,12,62,209,细颗粒物(PM2.5)
淮南市,经济技术开发区消防队,117.0566,32.6531,2025-01-22T2300,131,168,0.8,42,8,42,101,173,细颗粒物(PM2.5)
淮南市,山南新区,117.0108,32.5893,2025-01-22T2300,111,139,0.8,31,10,71,115,145,细颗粒物(PM2.5)
淮南市,国庆中路369号,117.0031,32.6445,2025-01-22T2300,168,211,0.9,54,14,35,98,218,细颗粒物(PM2.5)
黄冈市,职工中心,114.9028,30.4742,2025-01-22T2300,164,199,0.9,35,11,80,127,214,细颗粒物(PM2.5)
黄冈市,红卫路,114.8858,30.4519,2025-01-22T2300,162,202,1.3,36,9,75,123,212,细颗粒物(PM2.5)
黄冈市,市林业局,114.9136,30.4445,2025-01-22T2300,162,184,1.1,31,13,82,127,212,细颗粒物(PM2.5)
黄南藏族自治州,同仁县隆务镇,102.0199,35.5102,2025-01-22T2300,43,56,0.8,6,10,69,82,60,细颗粒物(PM2.5)
黄山市,延安路89号,118.2903,29.6963,2025-01-22T2300,48,86,0.6,24,4,30,95,68,颗粒物(PM10)
黄山市,黄山东路89号,118.327,29.7178,2025-01-22T2300,46,79,0.7,29,4,24,92,65,颗粒物(PM10)
黄山市,黄山区政府5号楼,118.1371,30.2756,2025-01-22T2300,59,63,0.9,21,7,25,90,80,细颗粒物(PM2.5)
黄石市,沈家营,115.0601,30.2313,2025-01-22T2300,91,116,1.2,46,17,69,115,120,细颗粒物(PM2.5)
黄石市,铁山,114.8988,30.2019,2025-01-22T2300,139,182,1.3,96,22,11,115,185,细颗粒物(PM2.5)
黄石市,团城山,115.0307,30.2092,2025-01-22T2300,94,112,1.2,44,15,71,114,124,细颗粒物(PM2.5)
黄石市,笔架山北路,115.0235,30.1578,2025-01-22T2300,145,173,1.7,62,16,65,116,193,细颗粒物(PM2.5)
黄石市,磁湖东路29号,115.0780,30.21118,2025-01-22T2300,113,157,1.8,86,9,27,99,148,细颗粒物(PM2.5)
惠州市,河南岸金山湖子站,114.4183,23.0528,2025-01-22T2300,38,52,0.7,24,6,38,93,54,细颗粒物(PM2.5)
惠州市,下埔横江三路子站,114.4053,23.0822,2025-01-22T2300,43,60,0.8,34,5,43,102,60,细颗粒物(PM2.5)
惠州市,江北云山西路子站,114.4103,23.1142,2025-01-22T2300,35,56,1.0,28,6,54,106,53,颗粒物(PM10)
惠州市,惠阳区承修路船湖子站,114.4645,22.7833,2025-01-22T2300,39,64,0.8,27,7,44,96,57,颗粒物(PM10)
惠州市,大亚湾管委会子站,114.5317,22.7422,2025-01-22T2300,26,42,0.6,21,6,73,116,42,
惠州市,惠阳秋长,114.4338,22.8134,2025-01-22T2300,37,61,1.0,,11,24,108,,
惠州市,大亚湾霞涌,114.6517,22.775,2025-01-22T2300,24,41,0.2,13,5,60,103,41,
鸡西市,环保局,130.9762,45.3001,2025-01-22T2300,102,123,0.9,,7,48,46,134,细颗粒物(PM2.5)
鸡西市,第一中学,130.9429,45.3039,2025-01-22T2300,89,106,0.7,21,4,55,51,118,细颗粒物(PM2.5)
鸡西市,欧美日汽修厂,131.0207,45.3073,2025-01-22T2300,187,215,1.3,36,13,47,40,237,细颗粒物(PM2.5)
鸡西市,市政设施管理处,130.9967,45.3106,2025-01-22T2300,154,178,1.3,54,9,28,40,204,细颗粒物(PM2.5)
吉安市,红声器材厂,114.9754,27.0803,2025-01-22T2300,40,72,0.6,25,13,99,142,61,颗粒物(PM10)
吉安市,市森林工业局,114.9658,27.0999,2025-01-22T2300,46,78,0.7,27,14,85,126,64,"颗粒物(PM10),细颗粒物(PM2.5)"
吉安市,市环境监测站,114.99,27.1312,2025-01-22T2300,48,75,0,19,12,109,136,67,细颗粒物(PM2.5)
吉安市,青原区法院,115.0093,27.0968,2025-01-22T2300,44,78,0.6,42,14,86,142,64,颗粒物(PM10)
吉林市,哈达湾,126.54,43.8622,2025-01-22T2300,128,144,1.6,78,16,34,78,169,细颗粒物(PM2.5)
吉林市,东局子,126.5844,43.8358,2025-01-22T2300,107,125,0.9,53,7,19,73,140,细颗粒物(PM2.5)
吉林市,电力学院,126.5052,43.8245,2025-01-22T2300,88,95,1.6,50,10,16,74,117,细颗粒物(PM2.5)
吉林市,江北,126.6133,43.8972,2025-01-22T2300,79,93,1.3,40,11,32,70,105,细颗粒物(PM2.5)
吉林市,江南公园,126.555,43.8306,2025-01-22T2300,159,189,1.4,64,6,14,70,209,细颗粒物(PM2.5)
吉林市,丰满,126.7061,43.7133,2025-01-22T2300,,,,,,,,,
吉林市,九站,126.4739,43.953,2025-01-22T2300,107,132,1.7,65,7,11,65,140,细颗粒物(PM2.5)
济南市,科干所,116.9862,36.6114,2025-01-22T2300,54,90,0.9,59,15,19,46,74,细颗粒物(PM2.5)
济南市,农科所,116.9376,36.665,2025-01-22T2300,42,78,0.8,53,21,24,58,64,颗粒物(PM10)
济南市,开发区,117.1265,36.6734,2025-01-22T2300,63,93,0.9,46,16,22,53,85,细颗粒物(PM2.5)
济南市,省种子仓库,117.0624,36.6868,2025-01-22T2300,46,95,1.0,52,17,14,55,73,颗粒物(PM10)
济南市,机床二厂,116.9489,36.6447,2025-01-22T2300,51,88,1.0,53,21,20,58,70,细颗粒物(PM2.5)
济南市,市监测站,117.0495,36.663,2025-01-22T2300,56,98,1.0,60,19,17,55,77,细颗粒物(PM2.5)
济南市,长清党校,116.7675,36.5484,2025-01-22T2300,51,98,1.0,64,19,21,62,74,颗粒物(PM10)
济南市,技术学院,117.6795,36.229,2025-01-22T2300,119,153,1.3,68,13,21,96,156,细颗粒物(PM2.5)
济南市,东山小学,117.532,36.6868,2025-01-22T2300,42,81,0.8,37,12,38,59,66,颗粒物(PM10)
济南市,泰兴公司,117.7161,36.2049,2025-01-22T2300,124,161,1.3,65,14,20,98,163,细颗粒物(PM2.5)
济南市,莱芜战役纪念馆,117.6867,36.2171,2025-01-22T2300,112,168,1.3,63,12,26,98,147,细颗粒物(PM2.5)
济南市,济阳区政府,117.1673,36.9782,2025-01-22T2300,27,,0.6,15,14,40,61,39,
济南市,锦屏中学,117.1171,36.63,2025-01-22T2300,71,112,0.8,57,13,16,56,95,细颗粒物(PM2.5)
济南市,济南四建,116.9814,36.6819,2025-01-22T2300,,,,,,,,,
济宁市,火炬城,116.6251,35.4302,2025-01-22T2300,95,144,1.4,53,20,26,66,125,细颗粒物(PM2.5)
济宁市,电化厂,116.5491,35.4042,2025-01-22T2300,107,185,1.4,76,25,10,70,140,细颗粒物(PM2.5)
济宁市,北湖一中,116.5814,35.3707,2025-01-22T2300,102,147,2.1,82,16,22,71,134,细颗粒物(PM2.5)
济宁市,服务中心,116.8249,35.5593,2025-01-22T2300,121,190,1.6,73,18,8,84,159,细颗粒物(PM2.5)
济宁市,市第七中学,116.5907,35.4054,2025-01-22T2300,107,116,1.6,56,16,27,71,140,细颗粒物(PM2.5)
佳木斯市,佳纺,130.2751,46.8028,2025-01-22T2300,182,183,1.9,63,5,20,35,232,细颗粒物(PM2.5)
佳木斯市,发电厂,130.3995,46.8307,2025-01-22T2300,187,204,1.8,65,11,14,30,237,细颗粒物(PM2.5)
佳木斯市,环保局,130.3258,46.7975,2025-01-22T2300,181,192,2.3,73,11,7,34,231,细颗粒物(PM2.5)
佳木斯市,十一中,130.3648,46.8032,2025-01-22T2300,200,,2.1,88,9,18,23,250,细颗粒物(PM2.5)
佳木斯市,四丰,130.3794,46.7588,2025-01-22T2300,112,161,1.5,20,1,62,66,147,细颗粒物(PM2.5)
嘉兴市,清河小学,120.7436,30.778,2025-01-22T2300,12,27,0.3,40,3,34,120,27,
嘉兴市,嘉兴学院,120.726,30.7478,2025-01-22T2300,12,39,0.7,48,6,17,121,39,
嘉兴市,南湖区残联,120.7846,30.7525,2025-01-22T2300,11,44,0.6,59,8,22,122,44,
嘉兴市,秀洲住建,120.6916,30.7739,2025-01-22T2300,14,,0.3,32,5,32,123,20,
嘉峪关市,气象局,98.2908,39.7711,2025-01-22T2300,39,88,0.5,35,12,44,80,69,颗粒物(PM10)
嘉峪关市,酒钢宾馆,98.2672,39.7978,2025-01-22T2300,31,92,0.4,21,13,53,59,71,颗粒物(PM10)
嘉峪关市,雄关区,98.2643,39.7724,2025-01-22T2300,34,75,0.3,40,8,41,80,63,颗粒物(PM10)
江门市,北街,113.1064,22.6058,2025-01-22T2300,73,,0.8,36,2,54,102,98,细颗粒物(PM2.5)
江门市,西区,113.0731,22.5835,2025-01-22T2300,56,,0.8,32,5,67,104,77,细颗粒物(PM2.5)
江门市,圭峰西,113.0219,22.5311,2025-01-22T2300,61,,0.7,31,3,68,96,83,细颗粒物(PM2.5)
江门市,东湖,113.0828,22.5947,2025-01-22T2300,45,88,0.6,27,4,42,106,69,颗粒物(PM10)
江门市,江海富民,113.1075,22.5647,2025-01-22T2300,61,84,0.9,38,4,56,104,83,细颗粒物(PM2.5)
江门市,新会银湖,113.05,22.4667,2025-01-22T2300,86,,0.9,41,5,38,90,114,细颗粒物(PM2.5)
焦作市,市环保局,113.227,35.2125,2025-01-22T2300,68,125,0.7,50,12,29,64,92,细颗粒物(PM2.5)
焦作市,影视城,113.1992,35.2590,2025-01-22T2300,63,87,0.8,25,15,60,68,85,细颗粒物(PM2.5)
焦作市,太极体育中心,113.2725,35.2067,2025-01-22T2300,49,105,0.6,47,14,36,62,78,颗粒物(PM10)
焦作市,马村街道办,113.3137,35.2641,2025-01-22T2300,108,143,1.3,65,21,17,53,142,细颗粒物(PM2.5)
焦作市,焦作技师学院,113.2465,35.2373,2025-01-22T2300,48,96,1.0,32,11,43,64,73,颗粒物(PM10)
焦作市,中站许衡医院,113.1656,35.2539,2025-01-22T2300,65,89,1.1,43,18,41,61,88,细颗粒物(PM2.5)
焦作市,原李万街道办,113.2449,35.1803,2025-01-22T2300,66,142,1.0,63,18,15,65,96,颗粒物(PM10)
揭阳市,新兴,116.3701,23.5345,2025-01-22T2300,43,48,0.9,26,6,60,103,60,细颗粒物(PM2.5)
揭阳市,西马,116.3264,23.5443,2025-01-22T2300,52,57,0.9,28,6,61,98,72,细颗粒物(PM2.5)
揭阳市,东兴,116.3611,23.5626,2025-01-22T2300,48,67,0.8,25,5,60,97,67,细颗粒物(PM2.5)
揭阳市,渔湖,116.4151,23.5294,2025-01-22T2300,32,50,0.6,24,6,66,106,50,
揭阳市,曲溪,116.403,23.5699,2025-01-22T2300,41,62,0.9,36,4,60,108,58,细颗粒物(PM2.5)
金昌市,天庆家园,102.1692,38.5167,2025-01-22T2300,44,70,0.9,22,129,71,85,62,细颗粒物(PM2.5)
金昌市,金川区人防中心,102.1647,38.5371,2025-01-22T2300,35,75,1.4,15,30,81,86,63,颗粒物(PM10)
金昌市,长春路96号,102.1930,38.5319,2025-01-22T2300,32,43,0.9,15,48,87,91,46,
金华市,十五中,119.647,29.077,2025-01-22T2300,57,104,1.1,60,4,24,114,78,细颗粒物(PM2.5)
金华市,监测站,119.686,29.1029,2025-01-22T2300,57,92,0.9,77,6,12,97,78,细颗粒物(PM2.5)
金华市,气象局,119.656,29.1131,2025-01-22T2300,62,110,1.4,95,6,1,100,84,细颗粒物(PM2.5)
锦州市,南山,121.1115,41.0879,2025-01-22T2300,59,,1.2,60,34,22,70,80,细颗粒物(PM2.5)
锦州市,开发区,121.0533,40.8434,2025-01-22T2300,62,153,2.0,83,32,7,57,102,颗粒物(PM10)
锦州市,百股街道,121.1836,41.1119,2025-01-22T2300,102,,1.5,56,23,13,67,134,细颗粒物(PM2.5)
锦州市,天安街道,121.1178,41.1222,2025-01-22T2300,95,,1.7,63,25,9,60,125,细颗粒物(PM2.5)
锦州市,北湖公园,121.1303,41.1386,2025-01-22T2300,91,102,1.4,59,21,10,60,120,细颗粒物(PM2.5)
晋城市,自来水公司,112.85,35.5051,2025-01-22T2300,102,159,1.4,42,18,50,100,134,细颗粒物(PM2.5)
晋城市,白云商贸,112.8318,35.4936,2025-01-22T2300,90,161,1.4,43,18,56,102,119,细颗粒物(PM2.5)
晋城市,市环保局,112.8508,35.4887,2025-01-22T2300,112,169,1.4,44,18,50,100,147,细颗粒物(PM2.5)
晋城市,技术学院,112.8676,35.4897,2025-01-22T2300,117,182,1.5,53,18,50,113,153,细颗粒物(PM2.5)
晋城市,白马寺,112.8453,35.546,2025-01-22T2300,,,,,,,42,,
晋城市,泽州一中,112.8271,35.4828,2025-01-22T2300,112,174,1.2,47,19,52,103,147,细颗粒物(PM2.5)
晋中市,南都小区,112.7249,37.7067,2025-01-22T2300,60,97,0.7,67,16,26,91,82,细颗粒物(PM2.5)
晋中市,榆次区政府,112.6991,37.6982,2025-01-22T2300,50,102,0.7,56,13,32,85,76,颗粒物(PM10)
晋中市,榆次三中,112.7195,37.6828,2025-01-22T2300,58,100,0.7,52,14,37,86,79,细颗粒物(PM2.5)
晋中市,榆次一中,112.7478,37.6954,2025-01-22T2300,51,90,0.6,54,11,39,93,70,"颗粒物(PM10),细颗粒物(PM2.5)"
荆门市,竹园小学,112.2014,31.0481,2025-01-22T2300,186,247,1.3,37,12,79,104,236,细颗粒物(PM2.5)
荆门市,掇刀,112.1969,30.9891,2025-01-22T2300,184,220,1.1,34,19,91,87,234,细颗粒物(PM2.5)
荆门市,石化一小,112.2213,31.0386,2025-01-22T2300,174,235,1.2,31,13,83,103,224,细颗粒物(PM2.5)
荆门市,西山林语,112.1849,31.0362,2025-01-22T2300,174,230,1.2,29,10,95,113,224,细颗粒物(PM2.5)
荆门市,龙泉中学南校,112.1632,31.0138,2025-01-22T2300,175,230,1.2,27,20,93,112,225,细颗粒物(PM2.5)
荆州市,市图书馆,112.2494,30.3197,2025-01-22T2300,253,,1.5,45,10,64,82,303,细颗粒物(PM2.5)
荆州市,市委党校,112.2008,30.3544,2025-01-22T2300,240,,1.1,40,14,70,86,290,细颗粒物(PM2.5)
荆州市,管委会,112.2747,30.3122,2025-01-22T2300,283,360,1.3,39,12,87,97,333,细颗粒物(PM2.5)
荆州市,学苑路,112.1655,30.3364,2025-01-22T2300,234,261,1.7,47,12,62,86,284,细颗粒物(PM2.5)
景德镇市,王港中学,117.3102,29.3867,2025-01-22T2300,,,,,,,,,
景德镇市,老干部活动中心,117.2117,29.2933,2025-01-22T2300,46,84,0.8,50,5,20,88,67,颗粒物(PM10)
景德镇市,兽医站,117.1894,29.2789,2025-01-22T2300,45,92,0.6,36,3,40,92,71,颗粒物(PM10)
景德镇市,台达陶瓷,117.1547,29.2617,2025-01-22T2300,55,87,0.8,48,4,23,88,75,细颗粒物(PM2.5)
景德镇市,陶研所,117.2461,29.2956,2025-01-22T2300,77,,0.7,52,4,20,94,103,细颗粒物(PM2.5)
九江市,十里,115.9872,29.6815,2025-01-22T2300,89,130,1.4,77,12,23,92,118,细颗粒物(PM2.5)
九江市,茅山头,115.9584,29.7046,2025-01-22T2300,105,161,1.4,105,4,9,32,138,细颗粒物(PM2.5)
九江市,西园,115.9877,29.7295,2025-01-22T2300,108,130,1.1,128,15,13,78,142,细颗粒物(PM2.5)
九江市,综合工业园,115.9114,29.6038,2025-01-22T2300,117,134,1.0,65,8,31,84,153,细颗粒物(PM2.5)
九江市,石化总厂,116.0721,29.7535,2025-01-22T2300,100,133,1.1,82,14,29,95,132,细颗粒物(PM2.5)
九江市,庐山气象台,115.9773,29.5698,2025-01-22T2300,30,45,0.8,10,12,134,132,45,
九江市,外国语学校,116.0254,29.6994,2025-01-22T2300,101,138,0.7,26,22,84,102,133,细颗粒物(PM2.5)
九江市,莲花大道8号,116.0102,29.6594,2025-01-22T2300,65,82,0.7,28,14,73,104,88,细颗粒物(PM2.5)
酒泉市,仓门街子站,98.5061,39.7443,2025-01-22T2300,75,146,1.1,41,14,19,80,100,细颗粒物(PM2.5)
酒泉市,玉门东路5号,98.4958,39.7339,2025-01-22T2300,53,141,1.1,41,10,15,76,96,颗粒物(PM10)
喀什地区,巡警大队,76.0072,39.4467,2025-01-22T2300,84,145,2.4,114,15,17,81,112,细颗粒物(PM2.5)
喀什地区,吾办,75.9755,39.4694,2025-01-22T2300,109,186,2.6,120,9,11,76,143,细颗粒物(PM2.5)
喀什地区,老干局,75.9483,39.4689,2025-01-22T2300,124,278,4.1,123,12,8,75,164,颗粒物(PM10)
开封市,肿瘤医院,114.3389,34.7781,2025-01-22T2300,61,86,0.8,19,4,48,68,83,细颗粒物(PM2.5)
开封市,世纪星幼儿园,114.2885,34.7965,2025-01-22T2300,61,76,0.5,26,7,45,64,83,细颗粒物(PM2.5)
开封市,龙亭公园,114.3438,34.8106,2025-01-22T2300,55,106,0.3,26,6,45,66,78,颗粒物(PM10)
开封市,汴京公园,114.3644,34.7964,2025-01-22T2300,60,88,0.7,25,7,46,66,82,细颗粒物(PM2.5)
开封市,技师学院,114.2485,34.8306,2025-01-22T2300,57,83,1.1,29,5,43,63,78,细颗粒物(PM2.5)
开封市,祥符区生态环境局,114.4644,34.7556,2025-01-22T2300,78,116,0.7,30,6,29,62,104,细颗粒物(PM2.5)
克拉玛依市,长征新村,84.895,45.6094,2025-01-22T2300,80,108,1.0,34,8,70,66,107,细颗粒物(PM2.5)
克拉玛依市,南林小区,84.8988,45.5893,2025-01-22T2300,74,92,1.1,18,4,73,75,99,细颗粒物(PM2.5)
克拉玛依市,独山子区,84.905,44.3396,2025-01-22T2300,68,,0.7,30,5,94,106,92,细颗粒物(PM2.5)
克拉玛依市,乌尔禾区商贸楼,85.6979,46.098,2025-01-22T2300,128,150,1.5,27,5,87,96,169,细颗粒物(PM2.5)
克拉玛依市,白碱滩区新站,85.1045,45.6899,2025-01-22T2300,81,105,1.2,17,6,67,80,108,细颗粒物(PM2.5)
克孜勒苏柯尔克孜自治州,市人民政府,76.1454,39.7142,2025-01-22T2300,50,107,1.3,34,6,59,94,79,颗粒物(PM10)
克孜勒苏柯尔克孜自治州,克州文化中心,76.1658,39.7157,2025-01-22T2300,57,69,0.9,52,11,56,93,78,细颗粒物(PM2.5)
昆明市,呈贡新区,102.8204,24.8886,2025-01-22T2300,28,,0.5,37,7,46,91,40,
昆明市,西山森林公园,102.6251,24.9608,2025-01-22T2300,,,,,,,,,
昆明市,龙泉镇,102.7252,25.0902,2025-01-22T2300,40,60,1.1,49,8,25,90,57,细颗粒物(PM2.5)
昆明市,东风东路,102.7266,25.0375,2025-01-22T2300,30,44,0.5,25,6,56,88,44,
昆明市,金鼎山,102.6742,25.0669,2025-01-22T2300,52,70,0.7,51,10,29,84,72,细颗粒物(PM2.5)
昆明市,碧鸡广场,102.6644,25.0401,2025-01-22T2300,49,73,0.7,74,8,9,87,68,细颗粒物(PM2.5)
昆明市,官渡区博物馆,102.7494,25.0119,2025-01-22T2300,22,38,0.5,17,6,61,93,38,
昆明市,青年创业园,102.8017,24.8336,2025-01-22T2300,26,36,0.6,57,7,11,96,38,
昆明市,昆明学院,102.7997,24.9786,2025-01-22T2300,25,38,0.3,16,8,68,93,38,
昆明市,晋宁区生态环境分局,102.5967,24.6736,2025-01-22T2300,14,31,0.6,5,3,82,92,31,
昆明市,云天化总部,102.6678,24.9856,2025-01-22T2300,33,48,0.5,11,6,68,99,48,
拉萨市,八廓街,91.1319,29.6514,2025-01-22T2300,37,55,1.6,71,10,31,111,53,"颗粒物(PM10),细颗粒物(PM2.5)"
拉萨市,市环保局,91.1221,29.6747,2025-01-22T2300,44,59,2.0,49,10,31,95,62,细颗粒物(PM2.5)
拉萨市,区监测站,91.0874,29.6475,2025-01-22T2300,9,11,0.5,18,7,82,98,26,
拉萨市,西藏大学,91.1774,29.6541,2025-01-22T2300,30,,1.2,40,8,60,98,43,
拉萨市,区辐射站,90.9798,29.6588,2025-01-22T2300,19,34,1.0,38,10,61,94,34,
拉萨市,拉萨火车站,91.0834,29.6292,2025-01-22T2300,6,8,0.5,12,4,96,106,30,
来宾市,来宾技工学校,109.2203,23.7256,2025-01-22T2300,97,135,1.6,66,11,25,137,128,细颗粒物(PM2.5)
来宾市,兴宾区政府,109.1781,23.7297,2025-01-22T2300,64,86,1.0,20,8,98,149,87,细颗粒物(PM2.5)
来宾市,中南小学,109.2416,23.7461,2025-01-22T2300,71,117,1.3,94,12,10,142,95,细颗粒物(PM2.5)
兰州市,榆中兰大校区,104.1373,35.9454,2025-01-22T2300,,,,,,,,,
兰州市,生物制品所,103.8412,36.0726,2025-01-22T2300,,,,,,,,,
兰州市,铁路设计院,103.831,36.0464,2025-01-22T2300,87,126,2.1,121,22,4,39,115,细颗粒物(PM2.5)
兰州市,百合公园,103.7439,36.0842,2025-01-22T2300,107,141,2.1,104,21,6,77,140,细颗粒物(PM2.5)
兰州市,和平,103.9611,35.998,2025-01-22T2300,64,81,1.2,33,16,74,89,87,细颗粒物(PM2.5)
兰州市,庄浪东路808号,103.6293,36.0938,2025-01-22T2300,70,86,1.3,80,14,31,75,94,细颗粒物(PM2.5)
兰州市,安宁西路88号,103.7251,36.1043,2025-01-22T2300,83,137,1.3,93,24,10,92,110,细颗粒物(PM2.5)
兰州新区,新区管委会,103.6633,36.533,2025-01-22T2300,76,98,1.1,26,27,59,96,102,细颗粒物(PM2.5)
兰州新区,舟曲中学,103.6975,36.4789,2025-01-22T2300,72,127,1.1,48,39,62,90,97,细颗粒物(PM2.5)
廊坊市,药材公司,116.6708,39.5111,2025-01-22T2300,46,73,0.4,35,5,34,61,64,细颗粒物(PM2.5)
廊坊市,开发区,116.7214,39.5589,2025-01-22T2300,41,59,0.5,,5,44,60,,
廊坊市,北华航天学院,116.7244,39.5269,2025-01-22T2300,31,53,0.7,20,5,44,62,52,颗粒物(PM10)
廊坊市,河北工业大学,116.7022,39.5453,2025-01-22T2300,38,49,0.4,28,8,44,60,54,细颗粒物(PM2.5)
乐山市,花湖湾,103.7723,29.5462,2025-01-22T2300,204,230,1.2,29,6,27,39,254,细颗粒物(PM2.5)
乐山市,牛耳桥,103.7627,29.5844,2025-01-22T2300,205,221,1.2,43,6,3,27,255,细颗粒物(PM2.5)
乐山市,市第三水厂,103.7508,29.6006,2025-01-22T2300,166,222,1.5,52,4,5,34,216,细颗粒物(PM2.5)
乐山市,市监测站,103.7571,29.5664,2025-01-22T2300,145,177,1.3,41,5,6,30,193,细颗粒物(PM2.5)
乐山市,理工大学,103.7311,29.5628,2025-01-22T2300,164,187,1.4,45,9,7,40,214,细颗粒物(PM2.5)
丽江市,西南郊,100.2143,26.8576,2025-01-22T2300,34,52,0.6,5,5,82,84,51,颗粒物(PM10)
丽江市,丽江古城,100.2497,26.8802,2025-01-22T2300,36,47,1.1,13,9,70,75,52,细颗粒物(PM2.5)
丽江市,市中心,100.2203,26.8906,2025-01-22T2300,39,,0.7,10,9,72,72,55,细颗粒物(PM2.5)
丽水市,监测站大楼,119.914,28.4514,2025-01-22T2300,80,106,2.6,57,6,9,92,107,细颗粒物(PM2.5)
丽水市,莲都小学,119.93,28.4586,2025-01-22T2300,44,80,1.3,57,6,11,102,65,颗粒物(PM10)
丽水市,余庄前,119.879,28.4231,2025-01-22T2300,29,48,0.7,30,4,25,106,48,
连云港市,市环境监测站,119.176,34.5885,2025-01-22T2300,24,24,0.5,10,6,81,108,35,
连云港市,德源药业,119.3581,34.6972,2025-01-22T2300,31,46,0.5,21,5,66,83,46,
连云港市,新城一中,119.178,34.844,2025-01-22T2300,45,66,0.6,26,7,69,87,63,细颗粒物(PM2.5)
连云港市,胡沟管理处,119.3608,34.7519,2025-01-22T2300,31,53,0.8,18,4,65,64,52,颗粒物(PM10)
连云港市,矿山设计院,119.1478,34.5911,2025-01-22T2300,29,41,0.5,30,7,47,101,42,
连云港市,工贸学校,119.2413,34.6539,2025-01-22T2300,27,35,0.7,10,8,82,107,39,
连云港市,连云街道,119.4172,34.7341,2025-01-22T2300,45,66,0.7,25,5,59,89,63,细颗粒物(PM2.5)
凉山彝族自治州,青龙寺,102.3431,27.8099,2025-01-22T2300,15,43,0.7,5,6,62,88,43,
凉山彝族自治州,邛海宾馆,102.2721,27.8415,2025-01-22T2300,36,49,0.7,18,9,51,84,52,细颗粒物(PM2.5)
凉山彝族自治州,西昌市政府,102.2625,27.898,2025-01-22T2300,33,43,0.7,9,10,59,80,48,
凉山彝族自治州,凉山州政府,102.2685,27.8851,2025-01-22T2300,36,50,0.8,16,8,47,82,52,细颗粒物(PM2.5)
凉山彝族自治州,长安,102.237,27.8914,2025-01-22T2300,31,44,0.7,9,10,66,80,45,
辽阳市,宏伟区,123.2,41.1953,2025-01-22T2300,81,128,1.1,43,48,29,64,108,细颗粒物(PM2.5)
辽阳市,新华园,123.1683,41.2495,2025-01-22T2300,223,240,3.7,72,28,11,57,273,细颗粒物(PM2.5)
辽阳市,滨河路,123.2354,41.2639,2025-01-22T2300,91,110,1.1,54,6,12,64,120,细颗粒物(PM2.5)
辽阳市,铁西工业园,123.149,41.2991,2025-01-22T2300,139,165,1.3,59,6,13,70,185,细颗粒物(PM2.5)
辽源市,环保局,125.1358,42.8845,2025-01-22T2300,105,154,2.4,47,14,11,68,138,细颗粒物(PM2.5)
辽源市,银鹰制药,125.0764,42.9078,2025-01-22T2300,85,103,1.4,45,4,6,46,113,细颗粒物(PM2.5)
聊城市,区政府,115.9848,36.4372,2025-01-22T2300,31,62,0.7,24,17,49,57,56,颗粒物(PM10)
聊城市,聊大东校,116.0072,36.4343,2025-01-22T2300,41,70,0.8,36,14,38,53,60,颗粒物(PM10)
聊城市,监控中心,115.9819,36.4978,2025-01-22T2300,36,73,0.7,29,16,46,57,62,颗粒物(PM10)
聊城市,九州社区,116.0445,36.4361,2025-01-22T2300,38,65,0.6,34,19,41,56,58,颗粒物(PM10)
聊城市,星美广场,116.0567,36.4608,2025-01-22T2300,39,68,0.6,33,17,32,50,59,颗粒物(PM10)
林芝市,林芝监测站,94.3681,29.6376,2025-01-22T2300,8,,0.2,2,6,70,80,,
林芝市,林芝人民医院,94.3616,29.6616,2025-01-22T2300,,,0.2,,,68,71,,
临沧市,市环保局,100.0781,23.8982,2025-01-22T2300,40,53,0.7,19,9,50,96,57,细颗粒物(PM2.5)
临沧市,市气象局,100.0894,23.8822,2025-01-22T2300,48,64,0.6,16,8,54,95,67,细颗粒物(PM2.5)
临汾市,临钢医院,111.5531,36.0783,2025-01-22T2300,110,168,1.4,34,17,47,73,144,细颗粒物(PM2.5)
临汾市,技工学校,111.5028,36.0714,2025-01-22T2300,121,188,1.6,60,20,29,66,159,细颗粒物(PM2.5)
临汾市,市委,111.5018,36.0855,2025-01-22T2300,128,200,1.0,63,20,28,68,169,细颗粒物(PM2.5)
临汾市,唐尧大酒店,111.505,36.1014,2025-01-22T2300,130,196,1.3,75,21,18,68,172,细颗粒物(PM2.5)
临汾市,启星学校,111.4879,36.0530,2025-01-22T2300,130,203,1.7,78,13,3,66,172,细颗粒物(PM2.5)
临夏回族自治州,环保局,103.2069,35.5993,2025-01-22T2300,58,247,3.3,68,29,15,93,149,颗粒物(PM10)
临夏回族自治州,建设大厦,103.2417,35.6057,2025-01-22T2300,93,218,2.5,60,27,21,98,134,颗粒物(PM10)
临沂市,沂河小区,118.3429,35.0532,2025-01-22T2300,64,80,0.6,23,12,61,88,87,细颗粒物(PM2.5)
临沂市,鲁南制药厂,118.295,35.0583,2025-01-22T2300,55,68,0.5,18,10,66,92,75,细颗粒物(PM2.5)
临沂市,新光毛纺厂,118.2794,34.9976,2025-01-22T2300,58,73,0.7,25,10,59,90,79,细颗粒物(PM2.5)
临沂市,河东保险公司,118.3956,35.0888,2025-01-22T2300,52,73,0.5,29,7,54,91,72,细颗粒物(PM2.5)
临沂市,十里堡居委,118.3564,35.0215,2025-01-22T2300,66,83,0.8,28,10,50,90,89,细颗粒物(PM2.5)
临沂市,南坊新区,118.3604,35.1084,2025-01-22T2300,51,68,0.6,33,6,56,92,70,细颗粒物(PM2.5)
临沂市,皇山花园小区,118.3920,35.0300,2025-01-22T2300,56,83,0.8,40,8,46,91,77,细颗粒物(PM2.5)
柳州市,柳东小学,109.4856,24.3895,2025-01-22T2300,74,119,1.1,43,22,73,129,99,细颗粒物(PM2.5)
柳州市,环保监测站,109.4157,24.3277,2025-01-22T2300,69,129,1.2,53,23,60,130,93,细颗粒物(PM2.5)
柳州市,河西水厂,109.389,24.341,2025-01-22T2300,98,207,1.6,88,15,19,131,129,"颗粒物(PM10),细颗粒物(PM2.5)"
柳州市,市四中,109.4311,24.2921,2025-01-22T2300,102,132,2.0,85,30,33,128,134,细颗粒物(PM2.5)
柳州市,市九中,109.4006,24.3631,2025-01-22T2300,58,130,1.5,66,13,32,133,90,颗粒物(PM10)
柳州市,古亭山,109.4958,24.3134,2025-01-22T2300,58,81,1.1,33,23,81,129,79,细颗粒物(PM2.5)
柳州市,市二中,109.5422,24.3996,2025-01-22T2300,78,119,1.1,49,11,28,107,104,细颗粒物(PM2.5)
六安市,监测大楼,116.5079,31.737,2025-01-22T2300,280,284,1.4,42,17,76,137,330,细颗粒物(PM2.5)
六安市,皖西学院,116.4738,31.7643,2025-01-22T2300,289,314,1.4,51,15,66,137,339,细颗粒物(PM2.5)
六安市,朝阳厂,116.4996,31.7905,2025-01-22T2300,279,283,1.3,57,14,68,133,329,细颗粒物(PM2.5)
六安市,开发区,116.5567,31.7886,2025-01-22T2300,261,350,1.6,71,12,59,128,311,细颗粒物(PM2.5)
六盘水市,窑上,104.8,26.5892,2025-01-22T2300,60,81,1.0,21,4,66,98,82,细颗粒物(PM2.5)
六盘水市,黄土坡,104.83,26.5917,2025-01-22T2300,67,,1.2,26,10,77,99,90,细颗粒物(PM2.5)
六盘水市,水钢,104.89,26.5939,2025-01-22T2300,76,81,0.8,18,7,86,114,102,细颗粒物(PM2.5)
六盘水市,民中,104.8475,26.5894,2025-01-22T2300,66,,1.1,22,10,79,103,89,细颗粒物(PM2.5)
六盘水市,双水,104.9544,26.5506,2025-01-22T2300,54,68,0.8,15,8,93,117,74,细颗粒物(PM2.5)
龙岩市,龙岩师专,117.0189,25.1181,2025-01-22T2300,,,,,,,,,
龙岩市,龙岩市监测站,117.0217,25.1033,2025-01-22T2300,29,54,0.7,24,5,81,113,52,颗粒物(PM10)
龙岩市,闽西职业技术学院,117.0258,25.0661,2025-01-22T2300,27,76,0.5,38,1,31,100,63,颗粒物(PM10)
龙岩市,龙岩学院,117.0196,25.0306,2025-01-22T2300,38,42,0.4,21,3,48,106,54,细颗粒物(PM2.5)
陇南市,汉王镇固水子,105.0822,33.3261,2025-01-22T2300,,,,,,,,,
陇南市,滨江中学,104.9339,33.3826,2025-01-22T2300,54,86,1.9,49,16,22,52,74,细颗粒物(PM2.5)
陇南市,市总工会,104.955,33.371,2025-01-22T2300,43,67,0.8,31,7,46,66,60,细颗粒物(PM2.5)
娄底市,电视发射台,111.9589,27.8901,2025-01-22T2300,66,68,0.9,17,9,99,134,89,细颗粒物(PM2.5)
娄底市,市监测站,111.9975,27.725,2025-01-22T2300,105,140,1.0,32,16,110,114,138,细颗粒物(PM2.5)
娄底市,市委党校,112.0194,27.7314,2025-01-22T2300,95,136,1.0,32,8,107,108,125,细颗粒物(PM2.5)
娄底市,涟钢,111.9561,27.7569,2025-01-22T2300,107,140,1.2,25,18,115,119,140,细颗粒物(PM2.5)
娄底市,市政府,111.9892,27.7044,2025-01-22T2300,108,141,1.2,48,12,86,106,142,细颗粒物(PM2.5)
泸州市,九狮山,105.4324,28.9634,2025-01-22T2300,,,,,,,,,
泸州市,小市上码头,105.4427,28.9063,2025-01-22T2300,188,215,1.3,58,4,7,55,238,细颗粒物(PM2.5)
泸州市,兰田宪桥,105.4241,28.8573,2025-01-22T2300,177,183,1.4,42,4,13,56,227,细颗粒物(PM2.5)
泸州市,市环监站,105.4379,28.8833,2025-01-22T2300,158,182,1.3,59,6,6,49,208,细颗粒物(PM2.5)
泸州市,纳溪区环保局,105.3617,28.7703,2025-01-22T2300,119,154,1.3,48,6,5,52,156,细颗粒物(PM2.5)
吕梁市,环保局,111.1406,37.5211,2025-01-22T2300,93,170,0.9,75,9,2,61,123,细颗粒物(PM2.5)
吕梁市,自来水公司,111.1297,37.5136,2025-01-22T2300,96,172,1.0,66,16,6,55,127,细颗粒物(PM2.5)
吕梁市,马茂庄小学,111.1283,37.51,2025-01-22T2300,112,207,1.2,73,19,3,61,147,细颗粒物(PM2.5)
洛阳市,市委党校,112.3931,34.6516,2025-01-22T2300,88,126,1.0,39,9,52,59,117,细颗粒物(PM2.5)
洛阳市,河南林校,112.494,34.6886,2025-01-22T2300,103,114,0.9,37,8,46,56,135,细颗粒物(PM2.5)
洛阳市,开发区管委会,112.3844,34.623,2025-01-22T2300,127,155,1.0,36,12,61,70,168,细颗粒物(PM2.5)
洛阳市,市委新办公区,112.4267,34.6258,2025-01-22T2300,109,180,1.0,50,12,44,62,143,细颗粒物(PM2.5)
洛阳市,伊滨,112.6005,34.6326,2025-01-22T2300,126,220,1.1,49,10,32,70,166,细颗粒物(PM2.5)
洛阳市,中移产业园,112.4951,34.6332,2025-01-22T2300,82,119,1.0,57,12,48,67,109,细颗粒物(PM2.5)
洛阳市,吉利监测站,112.5736,34.8993,2025-01-22T2300,54,121,0.9,37,12,49,64,86,颗粒物(PM10)
洛阳市,河科大西苑校区,112.3677,34.662,2025-01-22T2300,88,140,1.1,41,11,55,66,117,细颗粒物(PM2.5)
洛阳市,英才小学,112.4388,34.6781,2025-01-22T2300,80,129,0.9,40,14,46,58,107,细颗粒物(PM2.5)
洛阳市,春都路1号院,112.4600,34.6949,2025-01-22T2300,74,117,1.2,46,11,52,50,99,细颗粒物(PM2.5)
漯河市,三五一五工厂,114.051,33.5699,2025-01-22T2300,107,137,0.6,27,9,48,80,140,细颗粒物(PM2.5)
漯河市,漯河大学,114.0055,33.5698,2025-01-22T2300,88,134,0.8,27,11,48,82,117,细颗粒物(PM2.5)
漯河市,市水利局,114.0138,33.5828,2025-01-22T2300,95,146,0.7,25,8,44,78,125,细颗粒物(PM2.5)
漯河市,市广电局,114.0261,33.5698,2025-01-22T2300,97,154,0.7,25,12,45,79,128,细颗粒物(PM2.5)
漯河市,市图书馆,113.9749,33.5664,2025-01-22T2300,102,140,0.8,34,9,46,81,134,细颗粒物(PM2.5)
漯河市,召陵区卫健委,114.0967,33.5906,2025-01-22T2300,96,134,0.7,23,6,40,76,127,细颗粒物(PM2.5)
马鞍山市,湖东路四小,118.5092,31.6837,2025-01-22T2300,113,151,1.3,103,4,30,99,148,细颗粒物(PM2.5)
马鞍山市,开发区,118.5024,31.6449,2025-01-22T2300,132,179,1.0,100,6,13,106,175,细颗粒物(PM2.5)
马鞍山市,濮塘,118.6245,31.7241,2025-01-22T2300,94,108,0.7,31,5,111,140,124,细颗粒物(PM2.5)
马鞍山市,雨山,118.4918,31.6809,2025-01-22T2300,128,176,1.4,95,6,32,101,169,细颗粒物(PM2.5)
马鞍山市,慈湖高新区,118.5274,31.72227,2025-01-22T2300,92,146,1.1,80,8,33,114,122,细颗粒物(PM2.5)
茂名市,电白南海,111.0286,21.4688,2025-01-22T2300,41,73,0.5,18,18,93,116,62,颗粒物(PM10)
茂名市,茂石化七小,110.9294,21.6533,2025-01-22T2300,29,73,0.6,20,8,81,122,62,颗粒物(PM10)
茂名市,健康路,110.9107,21.6687,2025-01-22T2300,39,58,0.8,19,7,92,126,55,细颗粒物(PM2.5)
茂名市,高岭,110.8592,21.6828,2025-01-22T2300,34,66,0.7,15,10,98,121,58,颗粒物(PM10)
茂名市,电白水东,111.01,21.5165,2025-01-22T2300,34,68,0.8,16,6,87,108,59,颗粒物(PM10)
眉山市,黑龙滩水库,104.0308,30.0478,2025-01-22T2300,136,164,1.0,16,1,24,47,180,细颗粒物(PM2.5)
眉山市,气象局,103.8416,30.0874,2025-01-22T2300,180,223,1.5,56,6,5,32,230,细颗粒物(PM2.5)
眉山市,市委党校,103.8578,30.0744,2025-01-22T2300,190,224,1.7,56,8,3,24,240,细颗粒物(PM2.5)
眉山市,区人社局,103.8291,30.0564,2025-01-22T2300,188,194,1.5,72,8,6,28,238,细颗粒物(PM2.5)
梅州市,梅江月梅,116.1231,24.3284,2025-01-22T2300,35,54,0.9,40,8,33,116,52,颗粒物(PM10)
梅州市,梅县新城,116.0797,24.2719,2025-01-22T2300,55,61,0.9,45,4,29,106,75,细颗粒物(PM2.5)
梅州市,环境监控中心,116.1248,24.2654,2025-01-22T2300,44,57,0.7,45,10,25,102,62,细颗粒物(PM2.5)
梅州市,梅龙,116.1233,24.2991,2025-01-22T2300,48,73,1.1,46,7,32,114,67,细颗粒物(PM2.5)
绵阳市,富乐山,104.7778,31.4741,2025-01-22T2300,107,132,1.4,42,3,2,14,140,细颗粒物(PM2.5)
绵阳市,高新区自来水公司,104.6697,31.4668,2025-01-22T2300,112,173,1.5,51,8,2,8,147,细颗粒物(PM2.5)
绵阳市,三水厂,104.7287,31.5075,2025-01-22T2300,130,171,1.4,43,3,4,6,172,细颗粒物(PM2.5)
绵阳市,西科大附属小学,104.69,31.5322,2025-01-22T2300,117,151,1.2,40,6,7,16,153,细颗粒物(PM2.5)
绵阳市,安州区旅游局,104.5648,31.5343,2025-01-22T2300,132,151,1.4,35,10,6,13,175,细颗粒物(PM2.5)
绵阳市,绵阳市气象局,104.7651,31.4531,2025-01-22T2300,106,146,1.3,50,3,3,10,139,细颗粒物(PM2.5)
牡丹江市,环保大楼,129.61,44.561,2025-01-22T2300,99,111,0.9,39,8,45,53,130,细颗粒物(PM2.5)
牡丹江市,文化广场,129.6115,44.5782,2025-01-22T2300,106,126,1.3,42,10,43,58,139,细颗粒物(PM2.5)
牡丹江市,第一医院,129.5904,44.5963,2025-01-22T2300,122,127,1.1,74,9,13,68,160,细颗粒物(PM2.5)
牡丹江市,机车工厂,129.6364,44.6075,2025-01-22T2300,92,149,1.4,51,10,15,62,122,细颗粒物(PM2.5)
牡丹江市,第一中学,129.6386,44.5462,2025-01-22T2300,101,,1.2,45,8,25,57,133,细颗粒物(PM2.5)
内江市,市监测站,105.0703,29.61,2025-01-22T2300,212,,1.1,39,8,10,10,262,细颗粒物(PM2.5)
内江市,东兴区政府,105.0717,29.5947,2025-01-22T2300,193,,1.7,39,6,10,16,243,细颗粒物(PM2.5)
内江市,内江二中,105.0653,29.5817,2025-01-22T2300,188,210,1.7,40,11,7,18,238,细颗粒物(PM2.5)
内江市,内江日报社,105.0406,29.5822,2025-01-22T2300,193,,1.4,41,10,7,16,243,细颗粒物(PM2.5)
那曲市,那曲监测站,92.0657,31.4846,2025-01-22T2300,95,122,2.5,28,21,11,89,125,细颗粒物(PM2.5)
那曲市,那曲会议中心,92.0506,31.4797,2025-01-22T2300,33,53,1.5,33,10,31,92,52,颗粒物(PM10)
南昌市,省外办,115.8931,28.6843,2025-01-22T2300,70,106,1.0,58,7,31,76,94,细颗粒物(PM2.5)
南昌市,省林业公司,115.8886,28.7003,2025-01-22T2300,68,102,0.6,63,10,54,90,92,细颗粒物(PM2.5)
南昌市,林科所,115.8126,28.7442,2025-01-22T2300,51,73,1.9,92,6,36,103,70,细颗粒物(PM2.5)
南昌市,建工学校,115.8518,28.687,2025-01-22T2300,61,97,1.0,81,12,43,97,83,细颗粒物(PM2.5)
南昌市,象湖,115.8921,28.6424,2025-01-22T2300,68,142,1.1,64,8,64,96,96,颗粒物(PM10)
南昌市,武术学校,115.7423,28.7996,2025-01-22T2300,32,,0.5,21,4,32,77,46,
南昌市,机电学校,115.9084,28.6062,2025-01-22T2300,73,137,,69,,44,96,,
南昌市,外国语学校,115.9721,28.7031,2025-01-22T2300,71,108,0.7,69,8,37,109,95,细颗粒物(PM2.5)
南昌市,南京东路235号,115.9316,28.68677,2025-01-22T2300,71,109,0.8,68,6,42,95,95,细颗粒物(PM2.5)
南充市,西山风景区,106.056,30.8064,2025-01-22T2300,134,,1.3,14,1,23,53,178,细颗粒物(PM2.5)
南充市,南充市委,106.0789,30.8023,2025-01-22T2300,131,169,1.0,29,3,4,12,173,细颗粒物(PM2.5)
南充市,南充炼油厂,106.1031,30.8217,2025-01-22T2300,142,156,1.2,39,4,4,14,189,细颗粒物(PM2.5)
南充市,嘉陵区环保局,106.0642,30.7636,2025-01-22T2300,122,153,1.2,47,4,2,14,160,细颗粒物(PM2.5)
南充市,市环境监测站,106.1087,30.8388,2025-01-22T2300,128,169,1.1,37,6,2,17,169,细颗粒物(PM2.5)
南充市,梨树横街98号,106.1083,30.7884,2025-01-22T2300,123,161,1.1,44,9,3,15,162,细颗粒物(PM2.5)
南京市,迈皋桥,118.8086,32.1065,2025-01-22T2300,92,141,0.9,126,10,7,102,122,细颗粒物(PM2.5)
南京市,草场门,118.7538,32.0551,2025-01-22T2300,102,132,0.9,104,10,6,89,134,细颗粒物(PM2.5)
南京市,山西路,118.7794,32.0745,2025-01-22T2300,110,156,0.8,131,6,21,103,144,细颗粒物(PM2.5)
南京市,中华门,118.7752,32.0023,2025-01-22T2300,110,151,1.4,,11,5,105,144,细颗粒物(PM2.5)
南京市,瑞金路,118.8109,32.0309,2025-01-22T2300,102,156,1.7,116,4,4,97,134,细颗粒物(PM2.5)
南京市,玄武湖,118.7997,32.0754,2025-01-22T2300,108,162,1.2,68,9,0,95,142,细颗粒物(PM2.5)
南京市,浦口,118.6414,32.0931,2025-01-22T2300,109,168,1.3,63,10,24,101,143,细颗粒物(PM2.5)
南京市,奥体中心,118.7356,31.9996,2025-01-22T2300,,,,,,,95,,
南京市,仙林大学城,118.9125,32.1028,2025-01-22T2300,100,139,1.0,108,8,0,100,132,细颗粒物(PM2.5)
南京市,江宁彩虹桥,118.8436,31.9198,2025-01-22T2300,90,136,1.0,118,5,16,118,119,细颗粒物(PM2.5)
南京市,溧水永阳,119.0138,31.6494,2025-01-22T2300,108,114,1.2,93,4,11,127,142,细颗粒物(PM2.5)
南京市,高淳老职中,118.879,31.3302,2025-01-22T2300,,,,,,,80,,
南京市,六合雄州,118.8554,32.3578,2025-01-22T2300,27,55,0.5,12,4,44,79,53,颗粒物(PM10)
南宁市,二十一中,108.3103,22.7881,2025-01-22T2300,44,89,,20,7,104,140,,
南宁市,北湖,108.3141,22.8528,2025-01-22T2300,50,98,1.0,25,7,89,117,74,颗粒物(PM10)
南宁市,市监测站,108.3206,22.8225,2025-01-22T2300,42,57,1.0,21,10,101,139,59,细颗粒物(PM2.5)
南宁市,大自然花园,108.3829,22.8037,2025-01-22T2300,49,51,1.1,17,6,110,128,68,细颗粒物(PM2.5)
南宁市,仙葫,108.4394,22.7904,2025-01-22T2300,42,56,0.7,16,4,100,118,59,细颗粒物(PM2.5)
南宁市,区农职院,108.2397,22.8467,2025-01-22T2300,42,76,0.7,32,7,84,126,63,颗粒物(PM10)
南宁市,英华嘉园,108.3275,22.735,2025-01-22T2300,37,77,0.9,21,8,95,124,64,颗粒物(PM10)
南宁市,红星社区,108.4834,22.7618,2025-01-22T2300,52,82,1.0,42,10,55,124,72,细颗粒物(PM2.5)
南宁市,乐贤路16号,108.2177,22.7774,2025-01-22T2300,41,96,0.9,43,5,72,120,73,颗粒物(PM10)
南平市,茫荡山,118.0966,26.6761,2025-01-22T2300,,,,,,,,,
南平市,南平市监测站,118.1681,26.6369,2025-01-22T2300,48,67,0.9,39,5,23,86,67,细颗粒物(PM2.5)
南平市,南平铝业有限公司,118.1825,26.6489,2025-01-22T2300,47,60,0.7,41,5,22,89,65,细颗粒物(PM2.5)
南平市,南平七中,118.1756,26.6272,2025-01-22T2300,42,70,0.8,31,6,40,85,60,颗粒物(PM10)
南通市,狼山街道,120.9098,31.9663,2025-01-22T2300,29,48,0.5,22,5,51,91,48,
南通市,虹桥,120.86,32.0005,2025-01-22T2300,37,55,0.5,24,4,53,94,53,"颗粒物(PM10),细颗粒物(PM2.5)"
南通市,城中,120.87,32.02,2025-01-22T2300,34,50,0.6,33,6,53,94,50,
南通市,星湖花园,120.94,31.93,2025-01-22T2300,32,39,0.5,25,5,52,91,46,
南通市,紫琅学院,120.81,32.0417,2025-01-22T2300,30,50,0.7,35,2,44,87,50,
南通市,通州监测站,121.067,32.062,2025-01-22T2300,19,41,1.1,23,4,68,102,41,
南通市,环境教育馆,120.9348,31.9883,2025-01-22T2300,,,,,,,57,,
南阳市,瓦房庄,112.5224,33.0122,2025-01-22T2300,130,174,1.2,33,14,62,88,172,细颗粒物(PM2.5)
南阳市,汉画馆,112.5003,32.9735,2025-01-22T2300,117,169,1.0,31,13,71,85,153,细颗粒物(PM2.5)
南阳市,气象站,112.5573,33.027,2025-01-22T2300,112,192,1.1,32,14,66,90,147,细颗粒物(PM2.5)
南阳市,理工学院,112.5481,32.9689,2025-01-22T2300,110,160,0.9,31,13,71,88,144,细颗粒物(PM2.5)
南阳市,卧龙区政府,112.5234,32.9922,2025-01-22T2300,122,182,1.0,35,13,66,85,160,细颗粒物(PM2.5)
宁波市,区环保大楼,121.8358,29.911,2025-01-22T2300,6,25,0.8,54,6,28,93,27,
宁波市,万里学院,121.56,29.82,2025-01-22T2300,9,17,0.5,,5,49,102,,
宁波市,龙赛医院,121.713,29.9572,2025-01-22T2300,20,26,0.6,34,8,48,104,29,
宁波市,钱湖水厂,121.633,29.7733,2025-01-22T2300,8,12,0.7,10,4,68,117,22,
宁波市,太古小学,121.5856,29.8635,2025-01-22T2300,10,19,0.7,24,7,61,99,20,
宁波市,市环境监测中心,121.524,29.8674,2025-01-22T2300,17,26,0.7,38,5,48,101,26,
宁波市,万里国际学校,121.6147,29.9017,2025-01-22T2300,10,32,0.5,22,6,72,112,32,
宁波市,白沙活动中心,121.5594,29.8975,2025-01-22T2300,12,33,0.5,20,5,68,107,33,
宁德市,金涵水库,119.5001,26.6946,2025-01-22T2300,,,,,,,,,
宁德市,宁德市监测站,119.5388,26.6612,2025-01-22T2300,108,184,1.1,30,10,4,74,142,细颗粒物(PM2.5)
宁德市,宁德一中,119.5231,26.6562,2025-01-22T2300,108,122,1.2,39,7,18,79,142,细颗粒物(PM2.5)
怒江傈僳族自治州,州监测站,98.8601,25.8567,2025-01-22T2300,33,53,0.6,24,4,41,80,52,颗粒物(PM10)
怒江傈僳族自治州,泸水一中,98.8546,25.8417,2025-01-22T2300,38,38,0.7,24,8,29,68,54,细颗粒物(PM2.5)
攀枝花市,弄弄坪,101.6891,26.571,2025-01-22T2300,84,85,0.8,29,10,46,98,112,细颗粒物(PM2.5)
攀枝花市,河门口,101.5769,26.5928,2025-01-22T2300,59,86,1.1,32,13,44,98,80,细颗粒物(PM2.5)
攀枝花市,炳草岗,101.7169,26.585,2025-01-22T2300,67,105,1.4,77,13,4,100,90,细颗粒物(PM2.5)
攀枝花市,仁和,101.7369,26.5008,2025-01-22T2300,67,88,0.8,26,8,39,90,90,细颗粒物(PM2.5)
攀枝花市,四十中小,101.7227,26.567,2025-01-22T2300,62,98,1.5,83,19,9,82,84,细颗粒物(PM2.5)
盘锦市,开发区,122.0303,41.1489,2025-01-22T2300,,,,,,,54,,
盘锦市,兴隆台,122.0485,41.0883,2025-01-22T2300,114,131,1.1,41,18,32,64,149,细颗粒物(PM2.5)
盘锦市,新生街道,121.8297,41.1028,2025-01-22T2300,43,55,1.1,85,13,8,63,60,细颗粒物(PM2.5)
平顶山市,新华旅馆,113.3257,33.742,2025-01-22T2300,55,128,0.5,27,8,55,82,89,颗粒物(PM10)
平顶山市,规划设计院,113.2919,33.737,2025-01-22T2300,66,126,0.6,22,10,61,86,89,细颗粒物(PM2.5)
平顶山市,平顶山工学院,113.182,33.774,2025-01-22T2300,58,129,0.6,23,12,63,91,90,颗粒物(PM10)
平顶山市,规划局,113.3025,33.73,2025-01-22T2300,75,136,1.0,26,7,56,86,100,细颗粒物(PM2.5)
平顶山市,石龙区,112.8867,33.9116,2025-01-22T2300,92,157,1.0,24,13,55,90,122,细颗粒物(PM2.5)
平凉市,聚贤嘉苑,106.6692,35.5461,2025-01-22T2300,77,111,1.4,89,18,24,118,103,细颗粒物(PM2.5)
平凉市,博物馆,106.7021,35.5307,2025-01-22T2300,97,147,2.0,86,28,40,115,128,细颗粒物(PM2.5)
萍乡市,武功山,114.0997,27.5002,2025-01-22T2300,35,40,0.9,13,13,76,120,50,
萍乡市,中医院,113.8385,27.6434,2025-01-22T2300,82,127,1.5,63,13,32,103,109,细颗粒物(PM2.5)
萍乡市,市政府车库,113.8493,27.6253,2025-01-22T2300,106,126,2.1,82,17,14,114,139,细颗粒物(PM2.5)
萍乡市,市环保局,113.8676,27.6435,2025-01-22T2300,72,107,1.0,48,16,64,105,97,细颗粒物(PM2.5)
萍乡市,安源区政府,113.866,27.6198,2025-01-22T2300,77,127,1.9,64,16,27,95,103,细颗粒物(PM2.5)
莆田市,荔城区仓后路,119.0141,25.4325,2025-01-22T2300,35,52,1.0,23,1,27,114,51,颗粒物(PM10)
莆田市,莆田市监测站,119.0015,25.4553,2025-01-22T2300,21,27,0.3,14,3,35,124,30,
莆田市,涵江区六中,119.1119,25.4561,2025-01-22T2300,44,60,0.8,41,2,18,108,62,细颗粒物(PM2.5)
莆田市,秀屿区政府,119.1013,25.3215,2025-01-22T2300,45,,0.6,27,1,53,111,63,细颗粒物(PM2.5)
莆田市,东圳水库,118.981,25.4792,2025-01-22T2300,,,,,,,,,
濮阳市,环保局,115.0312,35.7636,2025-01-22T2300,48,70,0.7,30,8,46,55,67,细颗粒物(PM2.5)
濮阳市,油田运输公司,115.0574,35.7609,2025-01-22T2300,62,108,0.6,29,8,42,51,84,细颗粒物(PM2.5)
濮阳市,濮水河管理处,115,35.7668,2025-01-22T2300,57,98,0.9,44,6,21,54,78,细颗粒物(PM2.5)
濮阳市,任丘路479号,115.0924,35.7686,2025-01-22T2300,54,93,1.0,25,10,36,52,74,细颗粒物(PM2.5)
普洱市,市环保局,100.98,22.7633,2025-01-22T2300,16,62,0.7,15,4,50,84,56,颗粒物(PM10)
普洱市,普洱第二中学,100.9817,22.8322,2025-01-22T2300,28,53,0.7,36,5,22,83,52,颗粒物(PM10)
七台河市,新一中,131.0518,45.8751,2025-01-22T2300,127,142,2.4,34,16,76,82,168,细颗粒物(PM2.5)
七台河市,中波台,131.0577,45.7879,2025-01-22T2300,146,162,1.4,48,9,50,62,195,细颗粒物(PM2.5)
七台河市,人民广场,131.0176,45.7761,2025-01-22T2300,140,191,,54,9,48,61,186,细颗粒物(PM2.5)
七台河市,新建矿广场,130.8781,45.8222,2025-01-22T2300,150,168,1.4,43,9,37,46,200,细颗粒物(PM2.5)
齐齐哈尔市,安居小区,123.9305,47.3636,2025-01-22T2300,,,,,,,59,,
齐齐哈尔市,中心广场,123.9488,47.3386,2025-01-22T2300,124,175,1.6,57,3,26,54,163,细颗粒物(PM2.5)
齐齐哈尔市,农牧车辆厂,123.9483,47.3227,2025-01-22T2300,130,,0.8,42,7,33,53,172,细颗粒物(PM2.5)
齐齐哈尔市,市环境监测站,123.945,47.2988,2025-01-22T2300,153,156,1.3,67,3,12,51,203,细颗粒物(PM2.5)
齐齐哈尔市,富区青少年活动中心,123.6333,47.2075,2025-01-22T2300,224,279,2.8,61,15,25,64,274,细颗粒物(PM2.5)
黔东南苗族侗族自治州,市环境监测站,107.9783,26.5747,2025-01-22T2300,110,183,1.1,30,9,34,43,144,细颗粒物(PM2.5)
黔东南苗族侗族自治州,凯里学院,107.8908,26.5311,2025-01-22T2300,78,95,1.0,13,6,48,61,104,细颗粒物(PM2.5)
黔南布依族苗族自治州,小围寨,107.5228,26.2403,2025-01-22T2300,61,73,0.7,16,10,103,135,83,细颗粒物(PM2.5)
黔南布依族苗族自治州,沙坝,107.5175,26.2978,2025-01-22T2300,73,102,0.9,38,14,63,124,98,细颗粒物(PM2.5)
黔西南布依族苗族自治州,场坝街,104.9022,25.0925,2025-01-22T2300,118,126,0.8,22,8,110,114,155,细颗粒物(PM2.5)
黔西南布依族苗族自治州,坪东大道,104.8811,25.0992,2025-01-22T2300,105,109,0.7,26,8,101,110,138,细颗粒物(PM2.5)
钦州市,市环保站,108.6236,21.9667,2025-01-22T2300,80,149,1.3,75,9,19,104,107,细颗粒物(PM2.5)
钦州市,沙埠小学,108.6549,21.9481,2025-01-22T2300,73,139,1.2,71,6,11,111,98,细颗粒物(PM2.5)
钦州市,港区一小,108.5989,21.7431,2025-01-22T2300,42,98,1.1,100,8,5,99,74,颗粒物(PM10)
钦州市,北职校,108.5959,21.9633,2025-01-22T2300,55,84,0.9,43,5,45,101,75,细颗粒物(PM2.5)
秦皇岛市,北戴河环保局,119.5134,39.8207,2025-01-22T2300,,,,,,,24,,
秦皇岛市,第一关,119.7493,40.0116,2025-01-22T2300,33,35,0.6,68,7,1,63,48,
秦皇岛市,监测站,119.5897,39.9499,2025-01-22T2300,50,69,0.8,72,7,4,62,69,细颗粒物(PM2.5)
秦皇岛市,建设大厦,119.5251,39.9041,2025-01-22T2300,51,84,0.9,63,8,5,65,70,细颗粒物(PM2.5)
秦皇岛市,文明里,119.610547,39.943889,2025-01-22T2300,36,93,0.7,67,7,4,62,72,颗粒物(PM10)
青岛市,仰口,120.6659,36.2403,2025-01-22T2300,27,30,0.5,9,3,81,80,39,
青岛市,市南区东部子站,120.4134,36.0658,2025-01-22T2300,27,48,0.7,16,9,73,75,48,
青岛市,四方区子站,120.3664,36.1032,2025-01-22T2300,,,,,,,20,,
青岛市,市南区西部子站,120.2994,36.054,2025-01-22T2300,17,41,0.6,16,4,72,77,41,
青岛市,崂山区子站,120.4581,36.0858,2025-01-22T2300,29,46,0.6,16,9,74,82,46,
青岛市,黄岛区子站,120.1983,35.9608,2025-01-22T2300,22,39,0.6,20,7,71,74,39,
青岛市,城阳区子站,120.3999,36.3083,2025-01-22T2300,56,100,1.0,58,12,33,65,77,细颗粒物(PM2.5)
青岛市,黄岛区4号,120.0405,35.8735,2025-01-22T2300,19,36,0.8,20,11,78,75,36,
青岛市,即墨2号,120.5014,36.4034,2025-01-22T2300,58,65,0.8,19,7,67,74,79,细颗粒物(PM2.5)
青岛市,市北区南部,120.3503,36.0736,2025-01-22T2300,24,56,0.7,16,6,65,70,53,颗粒物(PM10)
青岛市,李沧区北部,120.3948,36.1805,2025-01-22T2300,119,151,1.1,67,14,18,41,156,细颗粒物(PM2.5)
清远市,环保大楼,113.0426,23.691,2025-01-22T2300,54,83,1.0,56,4,64,137,74,细颗粒物(PM2.5)
清远市,凤城街办,113.0208,23.7106,2025-01-22T2300,45,75,1.3,58,9,53,130,63,"颗粒物(PM10),细颗粒物(PM2.5)"
清远市,技师学院,113.0477,23.6344,2025-01-22T2300,62,115,1.0,79,7,18,132,84,细颗粒物(PM2.5)
清远市,清新太和,112.9903,23.7403,2025-01-22T2300,25,45,0.7,23,8,106,139,45,
清远市,清城东城,113.076,23.7198,2025-01-22T2300,37,65,1.2,25,10,71,135,58,颗粒物(PM10)
庆阳市,庆阳五中,107.6325,35.7357,2025-01-22T2300,94,105,1.1,38,12,101,122,124,细颗粒物(PM2.5)
庆阳市,市环保局,107.6364,35.7067,2025-01-22T2300,85,101,0.9,22,10,123,134,113,细颗粒物(PM2.5)
曲靖市,环境监测站,103.7897,25.5035,2025-01-22T2300,66,95,1.0,21,14,69,92,89,细颗粒物(PM2.5)
曲靖市,烟厂办公区,103.8,25.5364,2025-01-22T2300,54,84,0.5,18,4,69,84,74,细颗粒物(PM2.5)
曲靖市,南苑二区,103.7947,25.462,2025-01-22T2300,58,94,0.8,17,5,75,97,79,细颗粒物(PM2.5)
曲靖市,曲靖师范学院,103.7444,25.5261,2025-01-22T2300,66,77,0.6,19,10,73,105,89,细颗粒物(PM2.5)
衢州市,环保大楼,118.8692,28.9398,2025-01-22T2300,82,124,0.8,60,5,27,105,109,细颗粒物(PM2.5)
衢州市,实验学校,118.8709,28.9666,2025-01-22T2300,71,100,0.7,80,4,13,106,95,细颗粒物(PM2.5)
衢州市,衢州学院,118.8621,28.9808,2025-01-22T2300,57,79,0.6,70,4,24,106,78,细颗粒物(PM2.5)
泉州市,涂山街,118.5819,24.9117,2025-01-22T2300,45,58,0.8,27,4,44,112,63,细颗粒物(PM2.5)
泉州市,津头埔,118.5972,24.8978,2025-01-22T2300,44,57,0.8,24,2,51,105,62,细颗粒物(PM2.5)
泉州市,万安,118.6663,24.9424,2025-01-22T2300,45,61,0.8,54,3,27,117,63,细颗粒物(PM2.5)
泉州市,清源山,118.6117,24.9604,2025-01-22T2300,,,,,,,,,
泉州市,城华南路,118.6333,24.9264,2025-01-22T2300,46,82,0.6,32,3,49,112,66,颗粒物(PM10)
日喀则市,日喀则监测站,88.8876,29.2718,2025-01-22T2300,13,83,0.4,4,2,101,97,67,颗粒物(PM10)
日喀则市,林业技术推广中心,88.8781,29.2426,2025-01-22T2300,8,61,0.3,2,6,98,92,56,颗粒物(PM10)
日照市,监测站,119.471,35.4209,2025-01-22T2300,48,66,0.7,35,6,46,76,67,细颗粒物(PM2.5)
日照市,市政府广场,119.523,35.4216,2025-01-22T2300,31,53,0.6,17,4,77,84,52,颗粒物(PM10)
日照市,港务局,119.5587,35.4044,2025-01-22T2300,36,58,0.6,32,8,74,84,54,颗粒物(PM10)
日照市,职业技术学院,119.5328,35.4625,2025-01-22T2300,29,58,0.7,21,5,68,81,54,颗粒物(PM10)
日照市,岚山环保分局,119.3266,35.1044,2025-01-22T2300,37,61,0.9,26,5,69,87,56,颗粒物(PM10)
三门峡市,市政府,111.1922,34.7752,2025-01-22T2300,127,166,1.4,38,20,71,114,168,细颗粒物(PM2.5)
三门峡市,开发区,111.1587,34.7942,2025-01-22T2300,127,188,1.5,39,18,72,114,168,细颗粒物(PM2.5)
三门峡市,风景区,111.143,34.7955,2025-01-22T2300,130,158,1.6,38,21,67,118,172,细颗粒物(PM2.5)
三门峡市,三门峡市第一小学,111.1911,34.7829,2025-01-22T2300,112,144,1.4,37,21,66,109,147,细颗粒物(PM2.5)
三门峡市,富达温泉假日酒店,111.1,34.7167,2025-01-22T2300,135,181,1.5,61,19,61,108,179,细颗粒物(PM2.5)
三明市,三钢,117.6211,26.2625,2025-01-22T2300,43,45,0.6,42,3,31,101,60,细颗粒物(PM2.5)
三明市,三明二中,117.635,26.2714,2025-01-22T2300,34,46,1.0,40,4,27,94,49,
三明市,三元区政府,117.6028,26.2378,2025-01-22T2300,31,49,0.9,42,7,20,92,49,
三明市,洋溪,117.7275,26.3108,2025-01-22T2300,,,,,,,,,
三亚市,河东子站,109.5078,18.2489,2025-01-22T2300,28,46,0.5,12,1,86,125,46,
三亚市,河西子站,109.4964,18.2681,2025-01-22T2300,25,29,0.5,13,2,83,121,36,
三亚市,君悦子站,109.7348,18.3443,2025-01-22T2300,26,58,0.6,10,4,90,124,54,颗粒物(PM10)
山南市,山南监测站,91.7608,29.2313,2025-01-22T2300,10,21,0.4,7,5,73,96,23,
山南市,山南人民医院,91.7706,29.2436,2025-01-22T2300,3,18,0.4,2,2,80,90,25,
汕头市,金平子站,116.6794,23.3667,2025-01-22T2300,51,,1.1,23,6,96,118,70,细颗粒物(PM2.5)
汕头市,龙湖子站,116.7244,23.3633,2025-01-22T2300,37,47,0.9,19,5,95,112,53,细颗粒物(PM2.5)
汕头市,濠江子站,116.7258,23.2775,2025-01-22T2300,43,,0.9,12,3,100,113,60,细颗粒物(PM2.5)
汕头市,澄海子站,116.7519,23.4714,2025-01-22T2300,57,,1.1,24,9,84,112,78,细颗粒物(PM2.5)
汕头市,潮阳子站,116.6092,23.2539,2025-01-22T2300,26,45,0.6,15,6,88,114,45,
汕头市,潮南峡山,116.454,23.2684,2025-01-22T2300,42,136,0.8,15,8,74,108,93,颗粒物(PM10)
汕头市,潮南子站,116.4069,23.2533,2025-01-22T2300,39,65,0.8,20,8,81,110,58,颗粒物(PM10)
汕尾市,市环保局,115.3653,22.775,2025-01-22T2300,40,,0.9,16,7,77,123,57,细颗粒物(PM2.5)
汕尾市,市政府,115.3706,22.7898,2025-01-22T2300,29,39,0.7,10,10,77,115,42,
汕尾市,新城中学,115.3622,22.7925,2025-01-22T2300,29,57,0.5,8,7,80,120,54,颗粒物(PM10)
商洛市,监测站,109.9154,33.8715,2025-01-22T2300,115,148,1.1,37,9,110,119,150,细颗粒物(PM2.5)
商洛市,商州区中学,109.9643,33.8471,2025-01-22T2300,110,130,1.0,30,8,112,114,144,细颗粒物(PM2.5)
商丘市,环境监测站,115.6702,34.4285,2025-01-22T2300,102,130,0.7,54,8,16,62,134,细颗粒物(PM2.5)
商丘市,粮食局,115.6458,34.4045,2025-01-22T2300,86,110,0.7,39,4,27,73,114,细颗粒物(PM2.5)
商丘市,睢阳区环保局,115.6293,34.3948,2025-01-22T2300,,,,43,8,33,76,,
商丘市,梁园区档案局,115.6071,34.4465,2025-01-22T2300,89,94,0.6,34,10,35,73,118,细颗粒物(PM2.5)
上海市,普陀,121.4,31.238,2025-01-22T2300,13,36,0.6,44,5,56,99,36,
上海市,十五厂,121.478,31.2036,2025-01-22T2300,21,41,0.6,46,6,50,99,41,
上海市,虹口,121.467,31.3008,2025-01-22T2300,21,38,0.7,70,6,35,107,38,
上海市,静安监测站,121.425,31.2261,2025-01-22T2300,20,35,0.5,42,9,58,104,35,
上海市,浦东川沙,121.703,31.1907,2025-01-22T2300,20,38,0.4,79,6,4,101,40,
上海市,浦东新区监测站,121.533,31.2284,2025-01-22T2300,20,43,0.6,56,6,43,104,43,
上海市,浦东张江,121.577,31.2071,2025-01-22T2300,17,43,0.8,51,6,39,104,43,
上海市,宝山庙行,121.4316,31.3322,2025-01-22T2300,18,44,0.5,76,7,25,106,44,
上海市,崇明上实东滩,121.8791,31.4662,2025-01-22T2300,19,31,0.6,17,7,67,77,31,
上海市,嘉定南翔,121.3162,31.2838,2025-01-22T2300,16,34,0.4,45,6,50,100,34,
上海市,金山新城,121.3359,30.7456,2025-01-22T2300,12,16,0.4,26,3,66,102,21,
上海市,闵行浦江,121.4996,31.0739,2025-01-22T2300,22,44,0.2,69,5,22,102,44,
上海市,青浦徐泾,121.2886,31.1663,2025-01-22T2300,27,46,0.4,61,10,32,112,46,
上海市,松江图书馆,121.2186,31.0378,2025-01-22T2300,23,32,0.5,56,6,34,109,33,
上海市,长宁仙霞,121.3902,31.2059,2025-01-22T2300,17,36,0.4,41,8,59,104,36,
上海市,浦东惠南,121.7965,31.0507,2025-01-22T2300,20,32,0.4,30,5,55,102,32,
上海市,奉贤南桥新城,121.4891,30.925,2025-01-22T2300,18,31,0.4,37,6,58,100,31,
上海市,冠生园路458号,121.4174,31.16637,2025-01-22T2300,21,32,0.1,40,6,34,86,32,
上海市,宁武路151号,121.5419,31.2683,2025-01-22T2300,26,52,0.4,84,4,11,99,51,颗粒物(PM10)
上饶市,百草园,118.005,28.4572,2025-01-22T2300,42,67,0.9,32,32,49,114,59,"颗粒物(PM10),细颗粒物(PM2.5)"
上饶市,市监测站,117.9756,28.4436,2025-01-22T2300,41,77,0.8,31,20,54,111,64,颗粒物(PM10)
上饶市,凤凰光学,117.9519,28.4628,2025-01-22T2300,53,96,1.0,36,16,52,108,73,"颗粒物(PM10),细颗粒物(PM2.5)"
上饶市,双创科技城,117.897,28.4315,2025-01-22T2300,57,85,0.9,44,16,67,111,78,细颗粒物(PM2.5)
上饶市,裕丰大道,118.1904,28.4448,2025-01-22T2300,73,95,1.0,50,8,43,105,98,细颗粒物(PM2.5)
韶关市,市八中,113.5824,24.7733,2025-01-22T2300,79,136,1.5,83,8,12,127,105,细颗粒物(PM2.5)
韶关市,园林处,113.5917,24.7972,2025-01-22T2300,73,91,1.3,87,9,11,113,98,细颗粒物(PM2.5)
韶关市,韶关学院,113.6735,24.7791,2025-01-22T2300,77,113,1.6,50,10,19,100,103,细颗粒物(PM2.5)
韶关市,曲江监测站,113.5971,24.6863,2025-01-22T2300,55,96,0.8,46,14,40,102,75,细颗粒物(PM2.5)
韶关市,碧湖山庄,113.5556,24.8082,2025-01-22T2300,70,102,1.0,25,12,66,115,94,细颗粒物(PM2.5)
邵阳市,市水土所,111.5239,27.3033,2025-01-22T2300,,,,,,,,,
邵阳市,市化工厂,111.5283,27.2442,2025-01-22T2300,122,169,,30,14,82,113,160,细颗粒物(PM2.5)
邵阳市,市环保局,111.4328,27.2272,2025-01-22T2300,92,126,1.2,27,16,96,120,122,细颗粒物(PM2.5)
邵阳市,邵阳卫生学校,111.4399,27.2495,2025-01-22T2300,124,150,1.3,54,15,49,100,163,细颗粒物(PM2.5)
邵阳市,邵阳市第二中学图书馆,111.4684,27.2316,2025-01-22T2300,132,144,1.2,40,13,69,103,175,细颗粒物(PM2.5)
绍兴市,城东开发委,120.6053,29.9928,2025-01-22T2300,64,103,1.2,65,6,11,113,87,细颗粒物(PM2.5)
绍兴市,树下王站,120.5483,30.0003,2025-01-22T2300,75,96,1.1,54,6,17,118,100,细颗粒物(PM2.5)
绍兴市,绍兴中专,120.5683,29.9361,2025-01-22T2300,43,66,0.8,52,6,36,114,60,细颗粒物(PM2.5)
绍兴市,柯桥区政府,120.4906,30.0861,2025-01-22T2300,67,110,1.4,70,8,20,112,90,细颗粒物(PM2.5)
绍兴市,重华小学,120.8752,30.0249,2025-01-22T2300,52,70,1.1,50,9,20,115,72,细颗粒物(PM2.5)
绍兴市,上虞中学,120.8369,30.0137,2025-01-22T2300,60,77,1.0,46,7,26,117,82,细颗粒物(PM2.5)
绍兴市,柯桥妇保,120.4722,30.0415,2025-01-22T2300,48,69,0.9,31,6,51,114,67,细颗粒物(PM2.5)
绍兴市,袍江中学,120.6153,30.0764,2025-01-22T2300,72,93,1.3,76,2,4,109,97,细颗粒物(PM2.5)
深圳市,通心岭子站,114.1063,22.5545,2025-01-22T2300,50,73,0.6,27,6,48,107,69,细颗粒物(PM2.5)
深圳市,洪湖,114.117,22.5625,2025-01-22T2300,45,74,0.6,36,5,46,98,63,细颗粒物(PM2.5)
深圳市,华侨城,113.987,22.5417,2025-01-22T2300,29,50,0.7,22,5,53,108,50,
深圳市,南海子站,113.9181,22.5171,2025-01-22T2300,38,64,0.7,42,5,49,106,57,颗粒物(PM10)
深圳市,盐田,114.2458,22.5689,2025-01-22T2300,32,48,0.5,74,6,4,82,48,
深圳市,龙岗,114.2283,22.7244,2025-01-22T2300,63,73,0.7,44,6,20,105,85,细颗粒物(PM2.5)
深圳市,南澳,114.494,22.5422,2025-01-22T2300,21,33,0.6,7,7,88,140,33,
深圳市,葵涌,114.41,22.6342,2025-01-22T2300,26,39,0.7,18,4,45,107,39,
深圳市,梅沙,114.297,22.5978,2025-01-22T2300,21,32,0.6,14,6,61,125,32,
深圳市,观澜,114.0678,22.738,2025-01-22T2300,39,62,0.9,39,6,33,106,56,颗粒物(PM10)
深圳市,莲花,114.0731,22.559,2025-01-22T2300,46,61,0.7,20,3,26,100,64,细颗粒物(PM2.5)
深圳市,民治,114.0261,22.6198,2025-01-22T2300,42,69,0.8,26,6,63,109,60,颗粒物(PM10)
深圳市,横岗,114.1871,22.6451,2025-01-22T2300,54,76,0.8,52,7,22,110,74,细颗粒物(PM2.5)
深圳市,坪山,114.3551,22.7151,2025-01-22T2300,46,68,0.8,40,4,26,113,64,细颗粒物(PM2.5)
深圳市,西乡,113.8953,22.5861,2025-01-22T2300,28,51,0.6,28,7,44,91,51,颗粒物(PM10)
沈阳市,森林路,123.6836,41.9339,2025-01-22T2300,,,,,,,,,
沈阳市,浑南东路,123.505,41.7406,2025-01-22T2300,103,134,1.0,61,13,23,47,135,细颗粒物(PM2.5)
沈阳市,新秀街,123.4231,41.6989,2025-01-22T2300,112,168,1.1,51,16,14,47,147,细颗粒物(PM2.5)
沈阳市,东陵路,123.5903,41.8411,2025-01-22T2300,84,111,1.0,43,7,28,44,112,细颗粒物(PM2.5)
沈阳市,陵东街,123.4264,41.8467,2025-01-22T2300,128,169,1.7,81,9,5,54,169,细颗粒物(PM2.5)
沈阳市,文化路,123.4114,41.7653,2025-01-22T2300,108,154,1.0,49,15,37,55,142,细颗粒物(PM2.5)
沈阳市,小河沿,123.4678,41.7867,2025-01-22T2300,91,128,1.3,41,10,42,51,120,细颗粒物(PM2.5)
沈阳市,太原街,123.4017,41.7972,2025-01-22T2300,99,142,1.0,44,15,43,50,130,细颗粒物(PM2.5)
沈阳市,京沈街,123.3783,41.9228,2025-01-22T2300,117,118,0.8,40,24,37,58,153,细颗粒物(PM2.5)
沈阳市,沈辽西路,123.2444,41.7347,2025-01-22T2300,152,239,1.7,86,20,7,54,202,细颗粒物(PM2.5)
沈阳市,裕农路,123.5953,41.9086,2025-01-22T2300,83,124,0.9,32,9,49,52,110,细颗粒物(PM2.5)
十堰市,武当山,111.0419,32.395,2025-01-22T2300,110,131,1.1,27,19,143,160,144,细颗粒物(PM2.5)
十堰市,滨河新村,110.78,32.6494,2025-01-22T2300,179,213,1.2,25,15,101,114,229,细颗粒物(PM2.5)
十堰市,刘家沟,110.7258,32.6389,2025-01-22T2300,177,214,1.3,42,16,82,94,227,细颗粒物(PM2.5)
十堰市,铁二处,110.8839,32.5714,2025-01-22T2300,212,,1.4,40,14,82,108,262,细颗粒物(PM2.5)
十堰市,郧阳区金沙路,110.8054,32.8401,2025-01-22T2300,191,,1.4,46,11,67,76,241,细颗粒物(PM2.5)
石河子市,艾青诗歌馆,86.0497,44.2967,2025-01-22T2300,114,167,1.4,42,12,71,72,149,细颗粒物(PM2.5)
石河子市,南区管委会,86.047,44.2331,2025-01-22T2300,131,150,1.7,40,7,79,82,173,细颗粒物(PM2.5)
石河子市,世纪广场,86.0791,44.3017,2025-01-22T2300,110,179,1.3,55,8,68,74,144,细颗粒物(PM2.5)
石家庄市,职工医院,114.4422,38.0444,2025-01-22T2300,74,99,0.9,76,5,3,63,99,细颗粒物(PM2.5)
石家庄市,高新区,114.6063,38.0266,2025-01-22T2300,52,105,0.8,67,6,16,70,78,颗粒物(PM10)
石家庄市,西北水源,114.4898,38.1328,2025-01-22T2300,80,,0.8,69,4,5,64,107,细颗粒物(PM2.5)
石家庄市,西南高教,114.4586,38.0058,2025-01-22T2300,100,124,0.8,78,5,11,70,132,细颗粒物(PM2.5)
石家庄市,世纪公园,114.5331,38.0178,2025-01-22T2300,52,68,0.6,31,6,38,68,72,细颗粒物(PM2.5)
石家庄市,人民会堂,114.509,38.0457,2025-01-22T2300,60,87,0.6,37,8,31,67,82,细颗粒物(PM2.5)
石家庄市,封龙山,114.3524,37.8911,2025-01-22T2300,31,59,0.8,26,14,65,78,55,颗粒物(PM10)
石家庄市,22中南校区,114.5481,38.0378,2025-01-22T2300,80,99,0.8,61,8,13,62,107,细颗粒物(PM2.5)
石家庄市,鹿泉一中,114.289,38.0906,2025-01-22T2300,59,92,0.7,41,3,24,73,80,细颗粒物(PM2.5)
石家庄市,藁城区实验学校,114.8506765,38.0322033,2025-01-22T2300,82,120,0.8,62,10,16,63,109,细颗粒物(PM2.5)
石家庄市,井陉矿区区委大楼,114.0504658,38.0591645,2025-01-22T2300,46,95,0.8,60,22,18,54,73,颗粒物(PM10)
石家庄市,栾城区星河路,114.6549,37.9020,2025-01-22T2300,71,89,1.0,69,9,14,70,95,细颗粒物(PM2.5)
石嘴山市,沙湖旅游区,106.3394,38.817,2025-01-22T2300,,,,,,,,,
石嘴山市,大武口朝阳西街,106.3668,39.0145,2025-01-22T2300,68,104,1.8,56,42,26,57,92,细颗粒物(PM2.5)
石嘴山市,惠农南大街,106.7704,39.2282,2025-01-22T2300,60,147,2.3,74,38,5,49,99,颗粒物(PM10)
石嘴山市,红果子镇惠新街,106.7099,39.1325,2025-01-22T2300,91,185,1.7,81,39,8,51,120,细颗粒物(PM2.5)
石嘴山市,妇女儿童医院,106.3495,38.9836,2025-01-22T2300,114,158,2.0,89,48,8,59,149,细颗粒物(PM2.5)
石嘴山市,石大公路,106.7492,39.2069,2025-01-22T2300,79,151,3.0,74,32,16,57,105,细颗粒物(PM2.5)
双鸭山市,双合村,131.1511,46.6937,2025-01-22T2300,165,195,1.4,30,17,56,44,215,细颗粒物(PM2.5)
双鸭山市,南小市,131.1652,46.6191,2025-01-22T2300,147,149,1.0,36,12,62,59,196,细颗粒物(PM2.5)
双鸭山市,环保局,131.1524,46.6554,2025-01-22T2300,149,153,1.2,29,12,63,55,199,细颗粒物(PM2.5)
双鸭山市,苗圃,131.12,46.5656,2025-01-22T2300,124,,1.0,27,8,89,96,163,细颗粒物(PM2.5)
朔州市,平朔,112.4397,39.3522,2025-01-22T2300,168,349,1.7,63,32,15,48,218,细颗粒物(PM2.5)
朔州市,朔唯,112.4575,39.3617,2025-01-22T2300,196,319,1.4,76,43,13,51,246,细颗粒物(PM2.5)
朔州市,区政府,112.4258,39.3197,2025-01-22T2300,179,281,1.5,59,53,12,46,229,细颗粒物(PM2.5)
朔州市,市环保局,112.4072,39.3278,2025-01-22T2300,109,189,1.1,48,35,15,43,143,细颗粒物(PM2.5)
朔州市,市二中,112.4272,39.3681,2025-01-22T2300,113,314,1.5,65,32,14,48,182,颗粒物(PM10)
朔州市,一水厂,112.2931,39.53,2025-01-22T2300,93,166,1.0,63,24,8,43,123,细颗粒物(PM2.5)
四平市,一商场,124.4002,43.1713,2025-01-22T2300,94,142,1.4,56,7,14,66,124,细颗粒物(PM2.5)
四平市,境园,124.388,43.193,2025-01-22T2300,109,130,1.1,52,7,8,65,143,细颗粒物(PM2.5)
四平市,植物园,124.4036,43.1411,2025-01-22T2300,56,82,0.6,,4,13,68,,
四平市,世纪城,124.3419,43.1666,2025-01-22T2300,108,134,0.9,60,12,23,75,142,细颗粒物(PM2.5)
松原市,江南,124.8006,45.1214,2025-01-22T2300,218,234,1.6,60,16,20,69,268,细颗粒物(PM2.5)
松原市,江北,124.7965,45.1722,2025-01-22T2300,127,,1.1,56,2,16,72,168,细颗粒物(PM2.5)
苏州市,上方山,120.561,31.2472,2025-01-22T2300,,,,,,,,,
苏州市,彩香,120.591,31.3019,2025-01-22T2300,16,30,0.5,26,9,50,122,30,
苏州市,轧钢厂,120.596,31.3264,2025-01-22T2300,17,28,0.6,30,6,49,118,28,
苏州市,吴中区,120.613,31.2703,2025-01-22T2300,16,29,0.6,35,6,49,122,29,
苏州市,苏州新区,120.543,31.2994,2025-01-22T2300,16,28,0.6,44,8,53,129,28,
苏州市,苏州工业园区,120.669,31.3097,2025-01-22T2300,17,30,0.5,38,7,46,106,30,
苏州市,相城区,120.641,31.3708,2025-01-22T2300,15,33,0.5,49,8,35,88,33,
苏州市,方洲路,120.743,31.3188,2025-01-22T2300,14,32,0.6,52,5,35,117,32,
苏州市,木渎中学,120.5031,31.2774,2025-01-22T2300,15,29,0.6,32,8,56,126,29,
苏州市,越秀幼儿园,120.624,31.1733,2025-01-22T2300,26,37,0.8,49,7,34,124,38,
苏州市,高铁新城,120.6505,31.416,2025-01-22T2300,20,36,0.6,43,8,39,110,36,
宿迁市,宿迁学院,118.293,33.9528,2025-01-22T2300,32,50,0.8,12,2,56,110,50,
宿迁市,宿迁中学,118.2442,33.9592,2025-01-22T2300,28,49,0.6,20,5,57,106,49,
宿迁市,市供电局,118.283,33.965,2025-01-22T2300,63,,0.7,13,1,,108,,
宿迁市,宿豫区政府,118.3225,33.9447,2025-01-22T2300,32,64,0.6,,1,55,109,,
宿州市,远航博物馆,116.9509,33.666,2025-01-22T2300,57,75,0.2,17,3,70,115,78,细颗粒物(PM2.5)
宿州市,社会福利中心,116.9708,33.591,2025-01-22T2300,56,75,0.5,23,6,69,107,77,细颗粒物(PM2.5)
宿州市,宿州学院,116.9884,33.6305,2025-01-22T2300,60,99,0.3,14,5,64,102,82,细颗粒物(PM2.5)
宿州市,皖北煤电集团,116.9648,33.6252,2025-01-22T2300,55,90,0.8,25,4,71,114,75,细颗粒物(PM2.5)
绥化市,人和东街,126.9785,46.6365,2025-01-22T2300,137,145,1.0,47,4,36,70,182,细颗粒物(PM2.5)
绥化市,党政办公中心,126.964,46.6528,2025-01-22T2300,132,156,1.0,44,5,40,63,175,细颗粒物(PM2.5)
随州市,市委党校,113.3583,31.7275,2025-01-22T2300,162,211,1.5,56,12,71,109,212,细颗粒物(PM2.5)
随州市,市林业局,113.3833,31.6908,2025-01-22T2300,161,187,1.1,35,16,98,108,211,细颗粒物(PM2.5)
随州市,市立交桥水厂,113.3983,31.7308,2025-01-22T2300,146,189,1.1,34,14,90,107,195,细颗粒物(PM2.5)
遂宁市,石溪浩,105.5453,30.5678,2025-01-22T2300,130,161,1.2,28,3,4,8,172,细颗粒物(PM2.5)
遂宁市,市监测站,105.5582,30.5232,2025-01-22T2300,134,173,1.0,39,7,4,14,178,细颗粒物(PM2.5)
遂宁市,行政中心,105.5861,30.5366,2025-01-22T2300,136,168,0.9,41,9,5,12,180,细颗粒物(PM2.5)
遂宁市,美宁食品公司,105.5918,30.4728,2025-01-22T2300,122,181,1.1,39,8,7,14,160,细颗粒物(PM2.5)
塔城地区,东门外小游园,82.9994,46.7432,2025-01-22T2300,7,,0.0,19,4,45,56,15,
台州市,黄岩环保大楼,121.273,28.6459,2025-01-22T2300,37,58,0.6,32,3,34,97,54,颗粒物(PM10)
台州市,台州环保大楼,121.419,28.6542,2025-01-22T2300,31,50,0.5,33,4,43,85,50,
台州市,路桥田洋王,121.377,28.5773,2025-01-22T2300,26,39,0.6,32,3,44,82,39,
台州市,台州科技职业学院,121.2568,28.6681,2025-01-22T2300,52,87,0.8,40,4,28,83,72,细颗粒物(PM2.5)
太原市,尖草坪,112.522,37.8873,2025-01-22T2300,86,125,1.2,73,29,15,63,114,细颗粒物(PM2.5)
太原市,上兰,112.434,38.0108,2025-01-22T2300,77,93,1.1,40,10,40,70,103,细颗粒物(PM2.5)
太原市,晋源,112.469,37.7124,2025-01-22T2300,75,105,1.0,79,17,8,66,100,细颗粒物(PM2.5)
太原市,小店,112.5583,37.7394,2025-01-22T2300,70,101,0.9,52,17,44,70,94,细颗粒物(PM2.5)
太原市,桃园,112.5369,37.8692,2025-01-22T2300,98,159,1.8,87,33,8,65,129,细颗粒物(PM2.5)
太原市,坞城,112.57,37.8195,2025-01-22T2300,138,196,1.5,89,35,6,69,183,细颗粒物(PM2.5)
太原市,南寨,112.549,37.9854,2025-01-22T2300,72,111,0.9,41,14,29,67,97,细颗粒物(PM2.5)
太原市,金胜,112.4719,37.7831,2025-01-22T2300,69,103,1.0,44,21,40,72,93,细颗粒物(PM2.5)
太原市,育英中学,112.5608,37.8807,2025-01-22T2300,98,137,0.9,78,27,15,70,129,细颗粒物(PM2.5)
泰安市,监测站,117.1437,36.1937,2025-01-22T2300,119,158,1.3,35,15,49,106,156,细颗粒物(PM2.5)
泰安市,人口学校,117.0885,36.2017,2025-01-22T2300,131,173,1.2,38,15,45,90,173,细颗粒物(PM2.5)
泰安市,电力学校,117.1089,36.1758,2025-01-22T2300,131,166,1.5,39,16,47,102,173,细颗粒物(PM2.5)
泰安市,国网新校,117.1812,36.2275,2025-01-22T2300,112,149,1.5,56,18,55,117,147,细颗粒物(PM2.5)
泰安市,交通技校,117.0313,36.2018,2025-01-22T2300,112,149,1.4,66,12,24,82,147,细颗粒物(PM2.5)
泰安市,山东第一医科大学,117.0829,36.13,2025-01-22T2300,124,166,1.3,60,15,38,105,163,细颗粒物(PM2.5)
泰州市,公园路,119.905,32.4878,2025-01-22T2300,27,31,0.6,17,8,61,90,39,
泰州市,莲花,119.9189,32.4625,2025-01-22T2300,27,37,0.6,20,7,60,92,39,
泰州市,留学生创业园,119.888,32.4639,2025-01-22T2300,29,52,1.2,21,6,65,97,51,颗粒物(PM10)
泰州市,王营,119.8767,32.3289,2025-01-22T2300,46,58,0.9,29,5,34,72,64,细颗粒物(PM2.5)
泰州市,姜堰区政府广场,120.1259,32.5099,2025-01-22T2300,17,23,0.6,15,5,71,103,25,
泰州市,周山河街区,119.9192,32.4322,2025-01-22T2300,25,38,0.7,22,6,56,82,38,
唐山市,雷达站,118.131,39.6363,2025-01-22T2300,42,56,0.4,30,9,50,65,59,细颗粒物(PM2.5)
唐山市,物资局,118.1725,39.6334,2025-01-22T2300,41,66,0.6,44,14,34,59,58,"颗粒物(PM10),细颗粒物(PM2.5)"
唐山市,十二中,118.1705,39.6506,2025-01-22T2300,48,56,0.6,30,11,38,58,67,细颗粒物(PM2.5)
唐山市,小山,118.1869,39.622,2025-01-22T2300,51,72,0.6,40,12,37,65,70,细颗粒物(PM2.5)
唐山市,冀东油田职工医院,118.4359,39.2762,2025-01-22T2300,79,87,0.8,59,12,13,60,105,细颗粒物(PM2.5)
唐山市,正泰大街热力站,118.09279,39.58089,2025-01-22T2300,53,69,0.2,54,9,23,61,73,细颗粒物(PM2.5)
唐山市,丰润区政府,118.1562,39.8322,2025-01-22T2300,50,88,0.7,67,14,11,58,69,"颗粒物(PM10),细颗粒物(PM2.5)"
唐山市,金山小学,118.43673,39.73809,2025-01-22T2300,76,129,1.2,58,24,8,60,102,细颗粒物(PM2.5)
唐山市,政府服务中心,118.24498,39.66941,2025-01-22T2300,52,64,0.6,48,14,23,64,72,细颗粒物(PM2.5)
唐山市,消防缸窑路中队,118.2059,39.6585,2025-01-22T2300,40,75,0.6,40,9,30,66,63,颗粒物(PM10)
唐山市,路南电大,118.1436,39.6202,2025-01-22T2300,50,81,0.3,44,12,23,40,69,细颗粒物(PM2.5)
天津市,勤俭道,117.1444,39.1661,2025-01-22T2300,38,62,0.8,46,7,30,50,56,颗粒物(PM10)
天津市,前进道,117.202,39.0927,2025-01-22T2300,29,55,0.4,28,7,47,46,53,颗粒物(PM10)
天津市,淮河道,117.1837,39.2133,2025-01-22T2300,44,74,0.6,32,9,41,53,62,"颗粒物(PM10),细颗粒物(PM2.5)"
天津市,跃进路,117.307,39.0877,2025-01-22T2300,43,56,1.8,56,7,18,56,60,细颗粒物(PM2.5)
天津市,第四大街,117.707,39.0343,2025-01-22T2300,30,58,0.7,86,8,2,43,54,颗粒物(PM10)
天津市,永明路,117.457,38.8394,2025-01-22T2300,64,87,0.7,53,8,22,54,87,细颗粒物(PM2.5)
天津市,汉北路,117.764,39.1587,2025-01-22T2300,26,50,0.4,60,4,5,52,50,
天津市,团泊洼,117.157,38.9194,2025-01-22T2300,,,,,,,,,
天津市,河西一经路,117.7918,39.2474,2025-01-22T2300,63,111,0.6,41,7,27,59,85,细颗粒物(PM2.5)
天津市,津沽路,117.3747,38.9846,2025-01-22T2300,34,55,0.6,34,4,46,54,53,颗粒物(PM10)
天津市,宾水西道,117.1589,39.0845,2025-01-22T2300,35,54,0.4,32,5,37,46,52,颗粒物(PM10)
天津市,大理道,117.1941,39.1067,2025-01-22T2300,28,50,0.2,24,6,55,52,50,
天津市,中山北路,117.2101,39.1699,2025-01-22T2300,36,63,0.5,46,4,36,51,57,颗粒物(PM10)
天津市,西四道,117.3876,39.1488,2025-01-22T2300,30,60,0.6,70,7,8,50,55,颗粒物(PM10)
天津市,雍阳西道,117.0365,39.3828,2025-01-22T2300,60,109,0.6,68,8,10,63,82,细颗粒物(PM2.5)
天津市,辛老路,117.0296,39.0605,2025-01-22T2300,47,88,0.6,54,7,24,56,69,颗粒物(PM10)
天津市,地纬路,116.9638,38.9375,2025-01-22T2300,64,82,0.8,58,11,14,54,87,细颗粒物(PM2.5)
天津市,北环路,117.4067,40.0583,2025-01-22T2300,77,119,1.3,37,10,37,67,103,细颗粒物(PM2.5)
天津市,建设路,117.3045,39.7169,2025-01-22T2300,69,102,0.7,56,10,20,59,93,细颗粒物(PM2.5)
天津市,滨水东路,117.8199,39.3521,2025-01-22T2300,39,68,0.6,66,9,8,37,59,颗粒物(PM10)
天津市,光华路,117.2437,39.1029,2025-01-22T2300,43,62,0.8,28,7,36,46,60,细颗粒物(PM2.5)
天水市,麦积山,106.0055,34.343,2025-01-22T2300,,,,,,,,,
天水市,公园小学,105.7205,34.5786,2025-01-22T2300,76,92,0.9,32,19,,57,102,细颗粒物(PM2.5)
天水市,麦积国土局,105.8945,34.5538,2025-01-22T2300,60,94,1.0,30,27,110,84,82,细颗粒物(PM2.5)
铁岭市,汇工街西,123.8139,42.3022,2025-01-22T2300,167,183,1.8,55,13,9,58,217,细颗粒物(PM2.5)
铁岭市,水上乐园,123.8649,42.2923,2025-01-22T2300,127,138,1.2,40,22,36,60,168,细颗粒物(PM2.5)
铁岭市,银州路东段,123.8486,42.2867,2025-01-22T2300,116,154,1.1,39,6,37,55,152,细颗粒物(PM2.5)
铁岭市,金沙江路北,123.7153,42.2217,2025-01-22T2300,117,138,1.2,65,6,13,57,153,细颗粒物(PM2.5)
通化市,光明,125.9358,41.7173,2025-01-22T2300,56,79,0.7,30,8,28,54,77,细颗粒物(PM2.5)
通化市,铁路,125.9446,41.7325,2025-01-22T2300,91,109,1.0,48,15,15,65,120,细颗粒物(PM2.5)
通辽市,艺术职业学校,122.2532,43.6801,2025-01-22T2300,72,136,0.6,37,9,31,56,97,细颗粒物(PM2.5)
通辽市,老干部活动中心,122.2584,43.6333,2025-01-22T2300,49,73,0.5,21,9,57,58,68,细颗粒物(PM2.5)
通辽市,东方明珠社区,122.2922,43.6189,2025-01-22T2300,67,77,0.5,33,8,46,51,90,细颗粒物(PM2.5)
铜川市,党校,109.0656,35.0994,2025-01-22T2300,,,,,,,,,
铜川市,王益区政府,109.0697,35.0697,2025-01-22T2300,174,202,2.0,72,10,27,108,224,细颗粒物(PM2.5)
铜川市,新区管委会,108.9344,34.9058,2025-01-22T2300,161,200,1.4,41,18,73,114,211,细颗粒物(PM2.5)
铜川市,旺旺集团,108.9543,34.8732,2025-01-22T2300,179,210,1.8,43,24,76,124,229,细颗粒物(PM2.5)
铜陵市,市第四中学,117.8177,30.9412,2025-01-22T2300,158,231,1.1,82,17,65,58,208,细颗粒物(PM2.5)
铜陵市,市公路局,117.8059,30.9273,2025-01-22T2300,163,188,1.0,40,17,91,61,213,细颗粒物(PM2.5)
铜陵市,市新民污水厂,117.7807,30.9413,2025-01-22T2300,142,219,1.1,47,12,82,64,189,细颗粒物(PM2.5)
铜陵市,市第九中学,117.7439,30.8792,2025-01-22T2300,145,203,1.2,60,16,83,63,193,细颗粒物(PM2.5)
铜陵市,车站新区,117.846,30.9413,2025-01-22T2300,175,219,1.1,74,28,55,68,225,细颗粒物(PM2.5)
铜陵市,市职教基地,117.8483,30.97,2025-01-22T2300,176,202,1.3,59,14,60,83,226,细颗粒物(PM2.5)
铜仁市,铜仁卫校,109.1839,27.7344,2025-01-22T2300,120,187,1.6,36,1,2,4,158,细颗粒物(PM2.5)
铜仁市,铜仁七中,109.1753,27.6944,2025-01-22T2300,116,,1.4,38,4,3,8,152,细颗粒物(PM2.5)
吐鲁番市,市环保局,89.1904,42.9418,2025-01-22T2300,106,160,2.8,86,9,26,82,139,细颗粒物(PM2.5)
吐鲁番市,地区环保局,89.1673,42.9559,2025-01-22T2300,130,181,2.8,96,8,9,78,172,细颗粒物(PM2.5)
威海市,华夏技校,122.1214,37.4236,2025-01-22T2300,8,24,0.4,22,3,59,70,24,
威海市,山大分校,122.0508,37.5236,2025-01-22T2300,3,10,0.3,13,2,72,82,23,
威海市,市监测站,122.1067,37.5072,2025-01-22T2300,10,17,0.7,22,2,48,70,17,
威海市,文登开发区,122.0693,37.2174,2025-01-22T2300,36,46,0.7,39,4,33,70,52,细颗粒物(PM2.5)
威海市,临港区管委会,122.1379,37.3414,2025-01-22T2300,7,17,0.3,10,3,65,65,21,
潍坊市,环保局,119.1437,36.7023,2025-01-22T2300,75,97,1.1,43,14,32,65,100,细颗粒物(PM2.5)
潍坊市,坊子邮政,119.1641,36.6523,2025-01-22T2300,68,92,1.1,31,12,38,61,92,细颗粒物(PM2.5)
潍坊市,潍坊七中,119.0587,36.721,2025-01-22T2300,94,129,1.1,56,15,9,62,124,细颗粒物(PM2.5)
潍坊市,高新实验学校,119.1977,36.6872,2025-01-22T2300,92,122,1.1,58,13,18,65,122,细颗粒物(PM2.5)
潍坊市,潍坊学院,119.1755,36.7149,2025-01-22T2300,78,112,1.2,53,23,15,65,104,细颗粒物(PM2.5)
