area,positionname,longitude,latitude,timepoint,pm2_5,pm10,co,no2,so2,o3,o3_8h,aqi,primarypollutant
阿坝藏族羌族自治州,马师校,102.2503,31.8896,2026-01-14T1800,,,0.4,10,4,63,63,,
阿坝藏族羌族自治州,马尔康中学西区,102.2174,31.9016,2026-01-14T1800,17,41,0.5,8,5,67,64,41,
阿克苏地区,电视台,80.2899,41.1684,2026-01-14T1800,40,124,0.8,29,5,78,57,87,颗粒物(PM10)
阿克苏地区,艺术中心,80.2592,41.1541,2026-01-14T1800,65,116,0.7,33,9,73,58,88,细颗粒物(PM2.5)
阿拉善盟,蒙二幼,105.699,38.8409,2026-01-14T1800,65,227,0.6,9,10,80,82,139,颗粒物(PM10)
阿拉善盟,环保局新楼,105.7198,38.8508,2026-01-14T1800,58,228,0.5,6,8,76,76,139,颗粒物(PM10)
阿勒泰地区,市站,88.1266,47.8515,2026-01-14T1800,,,1.0,36,4,52,45,,
阿勒泰地区,阿勒泰路33号,88.1198,47.7931,2026-01-14T1800,67,,0.9,24,3,67,56,90,细颗粒物(PM2.5)
阿里地区,阿里监测站,80.1171,32.4999,2026-01-14T1800,3,,0.4,2,4,64,64,20,
阿里地区,阿里藏医院,80.0906,32.5029,2026-01-14T1800,3,8,0.5,2,9,94,75,30,
安康市,汉滨区检察院,109.0088,32.6974,2026-01-14T1800,65,89,1.2,33,6,56,47,88,细颗粒物(PM2.5)
安康市,市邮政管理局,109.0324,32.6913,2026-01-14T1800,74,102,1.6,51,7,30,35,99,细颗粒物(PM2.5)
安庆市,环科院,117.0806,30.5181,2026-01-14T1800,45,78,,42,,80,90,,
安庆市,马山宾馆,117.0331,30.5118,2026-01-14T1800,50,63,0.6,40,9,89,88,69,细颗粒物(PM2.5)
安庆市,安庆大学,116.9897,30.6146,2026-01-14T1800,32,49,0.4,28,8,101,100,49,
安庆市,市人大,117.0598,30.5351,2026-01-14T1800,40,64,0.5,25,24,106,96,57,"颗粒物(PM10),细颗粒物(PM2.5)"
安顺市,凤凰山,105.9408,26.2431,2026-01-14T1800,60,69,0.7,17,16,90,92,82,细颗粒物(PM2.5)
安顺市,金钟山,105.9443,26.2567,2026-01-14T1800,62,65,0.7,14,19,88,90,84,细颗粒物(PM2.5)
安顺市,娄家坡,105.8983,26.248,2026-01-14T1800,64,69,0.9,17,10,88,92,87,细颗粒物(PM2.5)
安阳市,红庙街,114.3552,36.1017,2026-01-14T1800,118,179,1.5,78,12,10,30,155,细颗粒物(PM2.5)
安阳市,银杏小区,114.361,36.0681,2026-01-14T1800,128,172,1.6,75,12,7,26,169,细颗粒物(PM2.5)
安阳市,信访局,114.3921,36.0879,2026-01-14T1800,122,200,1.5,71,15,14,29,160,细颗粒物(PM2.5)
安阳市,左辅环卫站,114.4706,36.0634,2026-01-14T1800,163,198,1.4,72,17,19,29,213,细颗粒物(PM2.5)
安阳市,钢三路198号,114.2918,36.0769,2026-01-14T1800,124,216,1.5,79,13,7,26,163,细颗粒物(PM2.5)
鞍山市,深沟寺,123.0441,41.1201,2026-01-14T1800,26,38,1.0,12,6,56,61,38,
鞍山市,太阳城,123.011,41.0931,2026-01-14T1800,21,90,0.9,13,9,62,69,70,颗粒物(PM10)
鞍山市,太平,123.0483,41.1445,2026-01-14T1800,20,44,0.7,20,8,51,55,44,
鞍山市,铁西三道街,122.964,41.0968,2026-01-14T1800,,,,45,15,32,52,,
鞍山市,明达新区,123.0219,41.0822,2026-01-14T1800,24,34,0.5,14,10,58,65,35,
鞍山市,兴盛南路290号,122.944647,41.082639,2026-01-14T1800,35,66,0.5,36,11,42,58,58,颗粒物(PM10)
巴彦淖尔市,附二中,107.4206,40.7609,2026-01-14T1800,36,154,0.4,12,3,64,71,102,颗粒物(PM10)
巴彦淖尔市,市环保大楼,107.37,40.7372,2026-01-14T1800,33,165,0.4,9,4,74,82,108,颗粒物(PM10)
巴音郭楞蒙古自治州,孔雀公园,86.1476,41.7529,2026-01-14T1800,40,85,0.5,13,9,80,51,68,颗粒物(PM10)
巴音郭楞蒙古自治州,棉纺厂,86.1971,41.7166,2026-01-14T1800,21,100,/,15,/,82,58,75,颗粒物(PM10)
巴音郭楞蒙古自治州,经济开发区,86.236,41.7172,2026-01-14T1800,24,66,0.4,12,7,75,51,58,颗粒物(PM10)
巴中市,市五中,106.776805,31.852614,2026-01-14T1800,47,64,0.8,32,6,50,41,65,细颗粒物(PM2.5)
巴中市,圣泉水务公司,106.7419,31.8654,2026-01-14T1800,50,60,0.8,48,6,38,46,69,细颗粒物(PM2.5)
巴中市,市中心医院,106.7617,31.8343,2026-01-14T1800,44,62,0.8,40,7,42,46,62,细颗粒物(PM2.5)
白城市,洮北区环保局,122.7909,45.608,2026-01-14T1800,38,,0.7,54,,16,53,,
白城市,市环保局,122.8741,45.5725,2026-01-14T1800,27,61,0.4,46,8,18,47,56,颗粒物(PM10)
白山市,喜丰,126.4219,41.9172,2026-01-14T1800,34,38,1.4,65,64,11,29,49,
白山市,环保局,126.4082,41.9416,2026-01-14T1800,32,41,1.2,51,14,14,32,46,
白银市,第三小学,104.1727,36.5448,2026-01-14T1800,53,224,0.5,36,9,62,75,137,颗粒物(PM10)
白银市,动力公司,104.1467,36.5482,2026-01-14T1800,57,220,0.6,20,7,69,77,135,颗粒物(PM10)
百色市,市监测站,106.6102,23.901,2026-01-14T1800,71,111,,,13,102,87,,
百色市,市中心血站,106.6524,23.8842,2026-01-14T1800,64,87,1.0,22,13,135,96,87,细颗粒物(PM2.5)
百色市,龙景西路,106.6273,23.8798,2026-01-14T1800,75,138,0.9,25,13,131,96,100,细颗粒物(PM2.5)
蚌埠市,工人疗养院,117.396,32.9389,2026-01-14T1800,61,106,0.8,55,8,76,96,83,细颗粒物(PM2.5)
蚌埠市,百货大楼,117.3606,32.9428,2026-01-14T1800,59,106,0.7,55,9,65,98,80,细颗粒物(PM2.5)
蚌埠市,蚌埠学院,117.4183,32.8909,2026-01-14T1800,86,129,0.7,59,10,75,103,114,细颗粒物(PM2.5)
蚌埠市,淮上区政府,117.3534,32.9672,2026-01-14T1800,57,97,0.8,47,5,87,105,78,细颗粒物(PM2.5)
蚌埠市,高新区,117.3143,32.8977,2026-01-14T1800,77,122,0.6,73,10,44,90,103,细颗粒物(PM2.5)
蚌埠市,蚌埠田家炳中学,117.3091,32.9314,2026-01-14T1800,78,125,0.7,66,10,64,89,104,细颗粒物(PM2.5)
包头市,市环境监测站,109.8761,40.6533,2026-01-14T1800,21,219,0.2,23,3,68,74,135,颗粒物(PM10)
包头市,包头八中,109.9992,40.5843,2026-01-14T1800,38,176,0.4,21,4,67,74,113,颗粒物(PM10)
包头市,惠龙物流,109.8641,40.6288,2026-01-14T1800,19,169,0.7,23,10,68,76,110,颗粒物(PM10)
包头市,东河鸿龙湾,110.0376,40.5546,2026-01-14T1800,20,177,0.6,10,6,76,78,114,颗粒物(PM10)
包头市,滨河大厦,109.9154,40.5684,2026-01-14T1800,29,181,0.4,10,4,72,76,116,颗粒物(PM10)
包头市,包头市委党校,109.9449,40.6259,2026-01-14T1800,,156,,,7,69,75,103,颗粒物(PM10)
包头市,昆区政府,109.8332,40.6577,2026-01-14T1800,34,177,0.6,27,5,63,66,114,颗粒物(PM10)
宝鸡市,竹园沟,107.0802,34.3129,2026-01-14T1800,30,87,,27,6,48,63,,
宝鸡市,监测站,107.1429,34.3549,2026-01-14T1800,26,104,0.7,46,4,41,59,77,颗粒物(PM10)
宝鸡市,技工学校,107.1172,34.3759,2026-01-14T1800,26,95,0.5,27,4,75,70,73,颗粒物(PM10)
宝鸡市,文理学院,107.2025,34.3518,2026-01-14T1800,23,94,0.4,32,4,64,62,72,颗粒物(PM10)
宝鸡市,三迪小学,107.2396,34.3626,2026-01-14T1800,24,120,0.4,29,4,78,64,85,颗粒物(PM10)
宝鸡市,滨河北路,107.1721,34.3558,2026-01-14T1800,20,72,0.4,37,4,61,61,61,颗粒物(PM10)
宝鸡市,陈仓区北开路21号,107.3898,34.3601,2026-01-14T1800,28,136,0,47,7,76,61,93,颗粒物(PM10)
保定市,游泳馆,115.4803,38.8568,2026-01-14T1800,78,136,0.7,66,7,6,26,104,细颗粒物(PM2.5)
保定市,华电二区,115.509,38.8895,2026-01-14T1800,79,110,0.6,59,6,3,24,105,细颗粒物(PM2.5)
保定市,接待中心,115.4588,38.9037,2026-01-14T1800,78,129,0.7,67,3,3,25,104,细颗粒物(PM2.5)
保定市,地表水厂,115.4484,38.8344,2026-01-14T1800,91,169,0.7,68,4,5,16,120,细颗粒物(PM2.5)
保定市,满城区生态环境分局,115.3136,38.9511,2026-01-14T1800,75,124,0.8,71,4,10,27,100,细颗粒物(PM2.5)
保定市,清苑区第二中学,115.4709,38.7628,2026-01-14T1800,90,156,0.7,59,4,12,18,119,细颗粒物(PM2.5)
保定市,徐水物探局,115.6231,39.0223,2026-01-14T1800,75,135,0.7,54,6,8,22,100,细颗粒物(PM2.5)
保定市,双鹰农机,115.4199,38.8665,2026-01-14T1800,,136,0.7,61,6,14,27,,
保定市,植保所站,115.515,38.8589,2026-01-14T1800,94,125,0.8,68,1,2,21,124,细颗粒物(PM2.5)
保山市,市环境监测站,99.1589,25.1137,2026-01-14T1800,21,27,0.1,7,2,89,80,30,
保山市,市环保局,99.1616,25.1381,2026-01-14T1800,22,37,0.4,4,4,92,87,37,
北海市,海滩公园,109.1435,21.4085,2026-01-14T1800,46,73,1.0,13,10,182,159,78,臭氧1小时(O3_1h)
北海市,新市环保局,109.0983,21.466,2026-01-14T1800,46,61,0.6,47,6,138,149,64,细颗粒物(PM2.5)
北海市,北海工业园,109.1775,21.5232,2026-01-14T1800,34,58,0.7,46,9,139,152,54,颗粒物(PM10)
北海市,龙潭自来水厂,109.1844,21.4396,2026-01-14T1800,40,53,0.5,13,12,169,154,62,臭氧1小时(O3_1h)
北京市,万寿西宫,116.3611,39.8786,2026-01-14T1800,60,94,0.7,75,3,3,13,82,细颗粒物(PM2.5)
北京市,东四,116.4174,39.9289,2026-01-14T1800,49,90,0.9,70,6,3,13,70,颗粒物(PM10)
北京市,天坛,116.4073,39.8858,2026-01-14T1800,51,87,0.8,67,3,7,14,70,细颗粒物(PM2.5)
北京市,农展馆,116.4622,39.9364,2026-01-14T1800,48,83,1.0,57,5,7,15,67,"颗粒物(PM10),细颗粒物(PM2.5)"
北京市,官园,116.3399,39.9293,2026-01-14T1800,60,99,1.0,70,6,0,13,82,细颗粒物(PM2.5)
北京市,海淀万柳,116.2879,39.9613,2026-01-14T1800,53,85,1.0,75,4,1,15,73,细颗粒物(PM2.5)
北京市,顺义新城,116.6635,40.1349,2026-01-14T1800,54,85,0.6,56,5,18,34,74,细颗粒物(PM2.5)
北京市,怀柔镇,116.6275,40.327,2026-01-14T1800,48,70,0.6,34,5,40,35,67,细颗粒物(PM2.5)
北京市,昌平镇,116.2295,40.217,2026-01-14T1800,48,92,0.9,57,6,12,26,71,颗粒物(PM10)
北京市,奥体中心,116.3968,39.982,2026-01-14T1800,55,93,1.0,85,4,1,13,75,细颗粒物(PM2.5)
北京市,密云新城,116.8336,40.4095,2026-01-14T1800,47,81,0.6,35,4,34,39,66,颗粒物(PM10)
北京市,门头沟三家店,116.0879,39.9725,2026-01-14T1800,45,86,0.7,58,4,8,23,68,颗粒物(PM10)
北京市,丰台云岗,116.1507,39.8246,2026-01-14T1800,51,87,0.8,65,3,2,18,70,细颗粒物(PM2.5)
北京市,房山燕山,115.9578,39.7602,2026-01-14T1800,53,105,0.6,70,4,5,20,78,颗粒物(PM10)
北京市,大兴旧宫,116.4669,39.7734,2026-01-14T1800,41,72,0.7,48,3,17,21,61,颗粒物(PM10)
北京市,延庆石河营,115.9859,40.4562,2026-01-14T1800,46,82,0.8,59,5,14,28,66,颗粒物(PM10)
北京市,怀柔新城,116.6151,40.3052,2026-01-14T1800,48,157,0.6,30,6,39,40,104,颗粒物(PM10)
北京市,丰台小屯,116.2542,39.8764,2026-01-14T1800,51,88,0.9,71,3,2,14,70,细颗粒物(PM2.5)
北京市,密云镇,116.8399,40.3843,2026-01-14T1800,45,86,0.6,32,2,35,36,68,颗粒物(PM10)
北京市,延庆百泉,115.9423,40.4431,2026-01-14T1800,50,93,0.7,55,3,14,22,72,颗粒物(PM10)
北京市,通州新华,116.6598,39.9164,2026-01-14T1800,37,81,0.6,50,5,19,19,66,颗粒物(PM10)
北京市,石景山八角,116.1942,39.9158,2026-01-14T1800,,,,,,,46,,
北京市,平谷新城,117.078628,40.151726,2026-01-14T1800,37,70,0.6,31,1,37,43,60,颗粒物(PM10)
本溪市,大峪,123.8274146,41.31234549,2026-01-14T1800,23,53,0.6,24,10,48,45,52,颗粒物(PM10)
本溪市,彩屯,123.7169,41.3094,2026-01-14T1800,18,40,1.8,26,16,50,45,40,
本溪市,东明,123.7672166,41.28649327,2026-01-14T1800,15,30,0.7,15,9,57,58,30,
本溪市,新立屯,123.799345,41.266614,2026-01-14T1800,14,18,0.5,10,9,64,59,20,
本溪市,威宁,123.829144,41.336777,2026-01-14T1800,25,30,0.6,24,9,42,41,36,
毕节市,八中,105.287,27.3133,2026-01-14T1800,64,66,0.7,12,11,86,82,87,细颗粒物(PM2.5)
毕节市,师专,105.3079,27.2987,2026-01-14T1800,60,71,0.8,14,9,90,89,82,细颗粒物(PM2.5)
毕节市,工业大道,105.3688,27.3598,2026-01-14T1800,52,68,/,16,11,91,89,72,细颗粒物(PM2.5)
滨州市,第二水厂,117.9961,37.3604,2026-01-14T1800,122,210,1.5,85,24,4,16,160,细颗粒物(PM2.5)
滨州市,北中新校,117.9789,37.3931,2026-01-14T1800,134,197,1.4,87,20,5,18,178,细颗粒物(PM2.5)
滨州市,中海酒店,117.9379,37.3959,2026-01-14T1800,141,227,1.3,83,21,12,21,188,细颗粒物(PM2.5)
滨州市,开发区一中,117.9381509,37.35547456,2026-01-14T1800,134,212,1.3,85,31,3,17,178,细颗粒物(PM2.5)
滨州市,金海六路,118.0914,37.6938,2026-01-14T1800,107,188,1.3,80,14,18,32,140,细颗粒物(PM2.5)
滨州市,滨州市西街道办事处,117.9955,37.3752,2026-01-14T1800,136,212,1.4,74,24,5,20,180,细颗粒物(PM2.5)
亳州市,污水处理厂,115.8071,33.8399,2026-01-14T1800,,153,0.8,,4,58,70,102,颗粒物(PM10)
亳州市,三国揽胜宫,115.7789,33.8519,2026-01-14T1800,99,149,0.7,38,5,75,78,130,细颗粒物(PM2.5)
亳州市,亳州学院,115.7631,33.803,2026-01-14T1800,103,140,0.7,40,4,72,76,135,细颗粒物(PM2.5)
博尔塔拉蒙古自治州,市党校,82.0482,44.8553,2026-01-14T1800,77,117,0.8,32,,54,60,103,细颗粒物(PM2.5)
博尔塔拉蒙古自治州,市环保局,82.0805,44.8966,2026-01-14T1800,76,137,1.2,18,8,66,62,102,细颗粒物(PM2.5)
沧州市,沧县城建局,116.8733,38.2922,2026-01-14T1800,79,115,0.9,73,8,10,25,105,细颗粒物(PM2.5)
沧州市,电视转播站,116.8462,38.3189,2026-01-14T1800,70,109,0.6,62,6,16,23,94,细颗粒物(PM2.5)
沧州市,市环保局,116.8588,38.3161,2026-01-14T1800,84,117,0.8,55,8,14,22,112,细颗粒物(PM2.5)
沧州市,河北水利电力学院,116.8011,38.294,2026-01-14T1800,60,117,0.7,67,6,10,23,84,颗粒物(PM10)
昌都市,昌都监测站,97.1813,31.1289,2026-01-14T1800,26,32,0.8,31,1,59,66,38,
昌都市,昌都会议中心,97.1707,31.1428,2026-01-14T1800,15,52,0.3,1,1,78,68,51,颗粒物(PM10)
昌吉回族自治州,新区政务中心,87.2722,44.0298,2026-01-14T1800,101,129,1.3,27,9,70,58,133,细颗粒物(PM2.5)
昌吉回族自治州,亚心广场,87.3069,44.0093,2026-01-14T1800,107,,1.1,17,,60,54,140,细颗粒物(PM2.5)
昌吉回族自治州,财政所,87.2057,43.9289,2026-01-14T1800,143,176,1.1,28,6,57,56,190,细颗粒物(PM2.5)
长春市,客车厂,125.2874,43.9024,2026-01-14T1800,39,,0.7,32,12,41,48,55,细颗粒物(PM2.5)
长春市,邮电学院,125.2943,43.8508,2026-01-14T1800,36,46,0.8,24,12,44,53,52,细颗粒物(PM2.5)
长春市,劳动公园,125.3648,43.8745,2026-01-14T1800,45,55,0.7,35,12,39,51,63,细颗粒物(PM2.5)
长春市,园林处,125.3233,43.8781,2026-01-14T1800,55,,0.9,36,14,35,48,75,细颗粒物(PM2.5)
长春市,净月潭,125.4604,43.7904,2026-01-14T1800,35,49,0.6,16,8,52,59,50,
长春市,经开区环卫处,125.38,43.8422,2026-01-14T1800,41,46,0.7,39,9,36,52,58,细颗粒物(PM2.5)
长春市,高新区管委会,125.234,43.7761,2026-01-14T1800,47,,0.5,24,9,49,57,65,细颗粒物(PM2.5)
长春市,岱山公园,125.1695,43.83,2026-01-14T1800,41,,0.7,40,8,34,45,58,细颗粒物(PM2.5)
长春市,北亚泰大街1068号,125.334645,43.916281,2026-01-14T1800,35,40,0.9,35,10,41,45,50,
长沙市,经开区环保局,113.082,28.2421,2026-01-14T1800,41,60,0.8,29,7,117,110,58,细颗粒物(PM2.5)
长沙市,高开区环保局,112.8873,28.2202,2026-01-14T1800,43,60,0.7,15,10,124,107,60,细颗粒物(PM2.5)
长沙市,马坡岭,113.0785,28.2012,2026-01-14T1800,41,48,,,8,113,110,,
长沙市,湖南师范大学,112.9448,28.1894,2026-01-14T1800,36,59,0.8,19,8,115,109,55,颗粒物(PM10)
长沙市,雨花区环保局,113.0177,28.1322,2026-01-14T1800,32,62,0.8,20,13,130,110,56,颗粒物(PM10)
长沙市,伍家岭,112.9795,28.2593,2026-01-14T1800,45,65,1.0,69,8,62,88,63,细颗粒物(PM2.5)
长沙市,火车新站,113.002,28.1944,2026-01-14T1800,61,86,0.9,54,12,92,104,83,细颗粒物(PM2.5)
长沙市,天心区环保局,112.9846,28.1177,2026-01-14T1800,38,49,0.9,24,10,124,125,54,细颗粒物(PM2.5)
长沙市,湖南中医药大学,112.8906,28.1307,2026-01-14T1800,50,72,1.1,69,9,68,101,69,细颗粒物(PM2.5)
长治市,清华站,113.1146,36.1547,2026-01-14T1800,24,39,0.4,13,12,78,74,39,
长治市,审计局,113.0887,36.2126,2026-01-14T1800,24,52,0.5,14,8,73,59,51,颗粒物(PM10)
长治市,长治八中,113.0845,36.1856,2026-01-14T1800,22,,0.5,23,8,62,66,,
长治市,德盛苑,113.1561,36.1912,2026-01-14T1800,19,55,0.4,16,9,76,74,53,颗粒物(PM10)
长治市,向阳小学,113.0603,36.0464,2026-01-14T1800,27,80,0.4,18,10,80,76,65,颗粒物(PM10)
长治市,屯留一中,112.8788,36.315,2026-01-14T1800,32,70,0.6,10,8,81,70,60,颗粒物(PM10)
长治市,英华南巷50号,113.113092,36.199482,2026-01-14T1800,22,63,0.6,13,8,79,66,57,颗粒物(PM10)
长治市,学府街1号,113.23666,36.33435,2026-01-14T1800,26,66,0.6,12,9,77,63,58,颗粒物(PM10)
常德市,市二中,111.696,28.9725,2026-01-14T1800,52,63,0.9,24,8,109,93,72,细颗粒物(PM2.5)
常德市,武陵区永安,111.7152,29.0288,2026-01-14T1800,49,66,0.8,24,6,97,95,68,细颗粒物(PM2.5)
常德市,鼎城区玉霞,111.6891,28.9881,2026-01-14T1800,51,54,0.6,26,9,96,91,70,细颗粒物(PM2.5)
常德市,武陵区长庚,111.6651,29.0526,2026-01-14T1800,50,72,0.8,24,6,90,95,69,细颗粒物(PM2.5)
常州市,市监测站,119.9524,31.7586,2026-01-14T1800,40,65,0.7,60,9,61,81,58,颗粒物(PM10)
常州市,武进监测站,119.9351,31.703,2026-01-14T1800,40,57,0.4,53,31,66,79,57,细颗粒物(PM2.5)
常州市,行政中心,119.9701,31.813,2026-01-14T1800,36,64,0.5,45,10,74,82,57,颗粒物(PM10)
常州市,经开区,120.0434,31.7726,2026-01-14T1800,42,69,0.5,56,6,65,87,60,颗粒物(PM10)
常州市,钟楼,119.8919,31.7892,2026-01-14T1800,50,69,0.5,52,10,70,80,69,细颗粒物(PM2.5)
常州市,武进经发区,119.8595,31.706,2026-01-14T1800,35,53,0.5,41,3,85,86,52,颗粒物(PM10)
常州市,金坛城区,119.5812,31.7256,2026-01-14T1800,59,,0.9,49,12,75,77,80,细颗粒物(PM2.5)
常州市,崇义南街5-H号,119.9551,31.863,2026-01-14T1800,25,58,0.9,91,6,25,81,54,颗粒物(PM10)
朝阳市,西梁,120.4318,41.588,2026-01-14T1800,128,158,2.3,60,20,3,28,169,细颗粒物(PM2.5)
朝阳市,河畔小区,120.452,41.565,2026-01-14T1800,43,56,1.1,35,11,37,35,60,细颗粒物(PM2.5)
朝阳市,八里堡,120.4176,41.5648,2026-01-14T1800,124,143,2.5,79,15,8,28,163,细颗粒物(PM2.5)
潮州市,市政府,116.6179,23.6608,2026-01-14T1800,37,64,0.5,32,5,117,117,57,颗粒物(PM10)
潮州市,金山,116.646,23.676,2026-01-14T1800,40,52,0.5,18,6,137,123,57,细颗粒物(PM2.5)
郴州市,市职中,113.0116,25.8228,2026-01-14T1800,30,39,0.6,15,8,99,101,43,
郴州市,市审计局,113.0381,25.8074,2026-01-14T1800,30,46,/,20,3,106,108,46,
郴州市,市环保局,113.0348,25.7757,2026-01-14T1800,30,48,0.3,14,4,107,106,48,
郴州市,好美居路49号,113.0138,25.8011,2026-01-14T1800,31,35,/,16,7,112,110,45,
成都市,金泉两河,103.9727,30.7242,2026-01-14T1800,28,45,0.7,35,2,75,82,45,
成都市,十里店,104.1423,30.6765,2026-01-14T1800,48,75,0.5,19,4,105,97,67,细颗粒物(PM2.5)
成都市,三瓦窑,104.0594,30.5765,2026-01-14T1800,44,54,0.5,24,4,103,85,62,细颗粒物(PM2.5)
成都市,沙河铺,104.1122,30.6306,2026-01-14T1800,63,63,0.5,25,4,84,82,85,细颗粒物(PM2.5)
成都市,大石西路,104.0219,30.6561,2026-01-14T1800,51,69,0.8,30,6,84,78,70,细颗粒物(PM2.5)
成都市,龙泉驿区区政府,104.2724,30.559,2026-01-14T1800,36,56,0.5,17,7,106,104,53,颗粒物(PM10)
成都市,金博路,104.0028,30.6891,2026-01-14T1800,48,77,0.7,32,5,84,82,67,细颗粒物(PM2.5)
成都市,华阳,104.056,30.5228,2026-01-14T1800,,,0.6,23,3,91,96,,
成都市,青石路225号,104.387954,30.746684,2026-01-14T1800,71,107,0.6,32,4,99,95,95,细颗粒物(PM2.5)
成都市,科学城,104.0788,30.4054,2026-01-14T1800,45,53,0.0,18,7,108,95,63,细颗粒物(PM2.5)
成都市,光华大道三段,103.8505,30.6946,2026-01-14T1800,54,73,0.2,21,4,102,92,74,细颗粒物(PM2.5)
成都市,八角井街185号,104.3257,30.6406,2026-01-14T1800,44,77,0.5,25,4,99,96,64,颗粒物(PM10)
成都市,鲸龙路1057号,104.2433276,30.53529463,2026-01-14T1800,42,52,0.5,23,6,100,99,59,细颗粒物(PM2.5)
承德市,铁路,117.9531,40.908,2026-01-14T1800,49,88,0.9,54,8,4,24,69,颗粒物(PM10)
承德市,中国银行,117.9397,40.9763,2026-01-14T1800,39,80,1.0,49,8,14,38,65,颗粒物(PM10)
承德市,杏林街1号,117.9462,40.95,2026-01-14T1800,43,61,0.9,26,10,33,34,60,细颗粒物(PM2.5)
承德市,滨河大街98号,117.7994,40.9605,2026-01-14T1800,30,57,0.8,28,10,32,31,54,颗粒物(PM10)
池州市,池州学院,117.4698,30.6617,2026-01-14T1800,47,70,,,22,93,86,,
池州市,展览馆,117.4918,30.6617,2026-01-14T1800,40,73,1.2,65,9,42,88,62,颗粒物(PM10)
池州市,第八中学,117.5626,30.695,2026-01-14T1800,38,60,0.9,31,13,97,102,55,颗粒物(PM10)
池州市,第十二中学,117.5037,30.6242,2026-01-14T1800,50,75,0.7,64,12,63,95,69,细颗粒物(PM2.5)
赤峰市,松山一中,118.9229,42.2816,2026-01-14T1800,33,78,1.3,52,22,18,28,64,颗粒物(PM10)
赤峰市,哈达街,118.9588,42.2733,2026-01-14T1800,37,106,2.3,57,37,9,30,78,颗粒物(PM10)
赤峰市,天义路,118.8792,42.2551,2026-01-14T1800,33,52,1.5,68,23,13,39,51,颗粒物(PM10)
赤峰市,银河街,119.2656,42.0356,2026-01-14T1800,41,109,1.5,36,35,30,48,80,颗粒物(PM10)
赤峰市,桥北物流园区,118.9359,42.3146,2026-01-14T1800,71,97,1.2,38,18,29,32,95,细颗粒物(PM2.5)
崇左市,市环保局江州分局,107.3473,22.4137,2026-01-14T1800,49,74,0.8,14,11,140,118,68,细颗粒物(PM2.5)
崇左市,石景林东路7号,107.375,22.3736,2026-01-14T1800,58,62,0.6,18,10,137,121,79,细颗粒物(PM2.5)
滁州市,市政府原办公楼,118.31131,32.3033,2026-01-14T1800,32,69,0.4,32,7,92,87,60,颗粒物(PM10)
滁州市,图书馆,118.3268,32.2633,2026-01-14T1800,22,46,0.5,25,11,95,96,46,
滁州市,银山路666号,118.3196,32.3335,2026-01-14T1800,39,59,0.5,26,5,85,83,55,"颗粒物(PM10),细颗粒物(PM2.5)"
滁州市,黄山路555号,118.3426,32.2979,2026-01-14T1800,38,81,0.9,71,12,68,103,66,颗粒物(PM10)
楚雄彝族自治州,市经济开发区,101.5379,25.0492,2026-01-14T1800,10,13,0.4,6,2,73,61,23,
楚雄彝族自治州,团结路562号,101.5536,25.0343,2026-01-14T1800,3,19,,4,4,72,10,,
达州市,市环境监测站,107.5087,31.2186,2026-01-14T1800,134,162,1.0,60,8,42,29,178,细颗粒物(PM2.5)
达州市,凤凰小区,107.4988,31.2132,2026-01-14T1800,136,183,1.2,65,7,25,25,180,细颗粒物(PM2.5)
达州市,达县机关宾馆,107.5081,31.1987,2026-01-14T1800,126,210,2.1,89,6,5,21,166,细颗粒物(PM2.5)
达州市,市政中心,107.4644,31.2124,2026-01-14T1800,122,175,,,7,42,35,160,细颗粒物(PM2.5)
大理白族自治州,大理市环境监测站,100.2168,25.5818,2026-01-14T1800,21,26,0.6,10,6,81,76,30,
大理白族自治州,大理古城,100.1542,25.7055,2026-01-14T1800,30,30,0.6,17,8,85,90,43,
大连市,甘井子,121.6119,38.974,2026-01-14T1800,32,56,0.3,41,7,28,71,53,颗粒物(PM10)
大连市,周水子,121.565,38.9509,2026-01-14T1800,29,49,0.5,50,6,14,67,49,
大连市,星海三站,121.5637,38.8849,2026-01-14T1800,27,41,0.6,31,5,40,70,41,
大连市,青泥洼桥,121.6301,38.9117,2026-01-14T1800,38,66,0.8,56,7,10,68,58,颗粒物(PM10)
大连市,傅家庄,121.6248,38.8643,2026-01-14T1800,21,66,0.3,22,8,51,64,58,颗粒物(PM10)
大连市,七贤岭,121.5117,38.8636,2026-01-14T1800,26,49,0.5,36,11,41,65,49,
大连市,金州,121.7507,39.1339,2026-01-14T1800,40,66,0.5,19,7,43,71,58,颗粒物(PM10)
大连市,开发区,121.7811,39.0495,2026-01-14T1800,42,59,0.7,22,6,35,60,59,细颗粒物(PM2.5)
大连市,双D港,121.9762,39.0631,2026-01-14T1800,27,43,0.6,15,6,57,78,43,
大连市,旅顺,121.2548,38.8188,2026-01-14T1800,35,64,0.5,24,6,49,68,57,颗粒物(PM10)
大庆市,大同区,124.8085,46.0381,2026-01-14T1800,52,72,1.0,51,13,22,51,72,细颗粒物(PM2.5)
大庆市,龙凤区,125.1166,46.5255,2026-01-14T1800,45,111,1.1,61,12,16,42,81,颗粒物(PM10)
大庆市,红岗区,124.8894,46.4007,2026-01-14T1800,25,35,0.6,34,5,24,39,36,
大庆市,萨尔图区,125.1391,46.578,2026-01-14T1800,20,51,0.6,39,8,20,41,51,颗粒物(PM10)
大庆市,让胡路区,124.9026,46.6217,2026-01-14T1800,24,24,0.6,44,8,29,63,35,
大庆市,萨区政府监测点,125.127,46.6277,2026-01-14T1800,22,44,0.6,41,10,22,52,44,
大同市,云冈宾馆,113.2926,40.0759,2026-01-14T1800,50,397,0.5,9,4,69,64,268,颗粒物(PM10)
大同市,大同大学,113.3437,40.0921,2026-01-14T1800,87,467,0.4,8,1,77,71,359,颗粒物(PM10)
大同市,安家小村,113.2637,40.129,2026-01-14T1800,67,503,0.3,8,4,68,61,403,颗粒物(PM10)
大同市,大同市卫生学校,113.3399,40.0586,2026-01-14T1800,84,458,0.3,14,2,70,65,348,颗粒物(PM10)
大同市,云冈站,113.1371,40.1122,2026-01-14T1800,61,474,0.5,8,3,71,67,368,颗粒物(PM10)
大同市,图书馆,113.1186,40.2556,2026-01-14T1800,65,408,0.3,8,2,74,73,283,颗粒物(PM10)
大同市,区一中,113.5931,40.0459,2026-01-14T1800,,,,,,,69,,
大同市,魏都大道141号,113.2798248,40.09972476,2026-01-14T1800,48,507,0.5,10,3,69,65,407,颗粒物(PM10)
大兴安岭地区,科技局,124.1068,50.4091,2026-01-14T1800,21,31,0.5,15,6,42,54,31,
大兴安岭地区,红旗社区,124.117,50.4279,2026-01-14T1800,36,,0.4,21,8,38,59,52,细颗粒物(PM2.5)
丹东市,江湾东路,124.33,40.0625,2026-01-14T1800,37,52,0.7,32,9,32,39,53,细颗粒物(PM2.5)
丹东市,临江后街,124.4242,40.1513,2026-01-14T1800,33,46,0.8,27,7,36,44,48,
丹东市,元宝山,124.3935,40.1461,2026-01-14T1800,26,38,0.6,21,10,39,33,38,
丹东市,民主桥,124.3634,40.1093,2026-01-14T1800,34,61,0.9,39,11,23,30,56,颗粒物(PM10)
儋州市,第一中学子站,109.5726195,19.51688767,2026-01-14T1800,19,38,0.5,4,3,92,90,38,
儋州市,东坡学校子站,109.5567,19.5187,2026-01-14T1800,22,27,0.4,4,6,100,99,32,
德宏傣族景颇族自治州,德宏州监测站,98.5611,24.4273,2026-01-14T1800,23,39,0.5,12,6,76,67,39,
德宏傣族景颇族自治州,芒市人民政府综合楼,98.5887,24.4366,2026-01-14T1800,23,56,0.5,9,4,72,62,53,颗粒物(PM10)
德阳市,东山公园,104.424,31.1209,2026-01-14T1800,40,48,0.4,12,5,104,88,57,细颗粒物(PM2.5)
德阳市,西小区,104.3827,31.1318,2026-01-14T1800,48,65,0.6,26,4,85,74,67,细颗粒物(PM2.5)
德阳市,耐火材料厂,104.3553,31.1091,2026-01-14T1800,41,64,0.6,24,2,93,77,58,细颗粒物(PM2.5)
德阳市,市林业局,104.4144,31.1495,2026-01-14T1800,37,83,0.1,29,4,84,68,67,颗粒物(PM10)
德州市,儿童乐园,116.3034,37.4675,2026-01-14T1800,163,256,1.7,80,22,15,23,213,细颗粒物(PM2.5)
德州市,监理站,116.2992,37.4449,2026-01-14T1800,163,254,1.6,82,25,,32,213,细颗粒物(PM2.5)
德州市,九衢泉纯净水厂,116.2722,37.438,2026-01-14T1800,158,232,1.5,86,14,11,21,208,细颗粒物(PM2.5)
德州市,开发区人民医院,116.3693,37.44,2026-01-14T1800,151,239,1.4,80,21,27,30,201,细颗粒物(PM2.5)
德州市,陵城艺术中心,116.5687,37.3331,2026-01-14T1800,141,232,1.5,83,19,5,20,188,细颗粒物(PM2.5)
德州市,新河东路,116.352738,37.420875,2026-01-14T1800,161,239,1.7,94,21,14,23,211,细颗粒物(PM2.5)
迪庆藏族自治州,迪庆州站,99.7054,27.8319,2026-01-14T1800,12,30,0.3,6,4,80,83,30,
迪庆藏族自治州,质量技术监督局,99.7122,27.8129,2026-01-14T1800,11,29,0.2,8,5,82,84,29,
定西市,将台街,104.6092,35.5962,2026-01-14T1800,32,112,0.3,13,10,86,81,81,颗粒物(PM10)
定西市,正龙路62号,104.6159,35.5701,2026-01-14T1800,33,107,0.5,5,9,90,81,79,颗粒物(PM10)
东莞市,东城石井,113.7943,23.0132,2026-01-14T1800,18,33,0.4,22,6,120,154,38,
东莞市,南城西平,113.7384,22.9659,2026-01-14T1800,44,59,0.6,59,8,,137,,
东莞市,万江金泰,113.7283,23.041,2026-01-14T1800,52,96,1.0,60,7,143,160,73,颗粒物(PM10)
东莞市,裕兴路,113.8666,23.1062,2026-01-14T1800,25,67,0.8,50,6,181,180,77,臭氧1小时(O3_1h)
东莞市,教育路1号,114.0076,22.9739,2026-01-14T1800,20,46,0.5,38,4,129,144,46,
东莞市,长怡路1号,113.7981,22.8124,2026-01-14T1800,26,58,0.7,58,8,85,97,54,颗粒物(PM10)
东营市,市环保局,118.6612,37.4313,2026-01-14T1800,122,183,1.5,98,30,6,26,160,细颗粒物(PM2.5)
东营市,开发区管委会,118.6903,37.4337,2026-01-14T1800,129,209,1.2,100,8,6,30,170,细颗粒物(PM2.5)
东营市,垦利区民丰路,118.5721,37.5654,2026-01-14T1800,127,205,1.4,88,15,8,25,168,细颗粒物(PM2.5)
东营市,河口城区,118.5063,37.8606,2026-01-14T1800,105,190,1.4,70,12,33,35,138,细颗粒物(PM2.5)
东营市,胜利站,118.4979,37.4623,2026-01-14T1800,139,197,1.8,103,28,4,21,185,细颗粒物(PM2.5)
东营市,理想之城,118.5753,37.4405,2026-01-14T1800,129,197,1.7,105,19,1,21,170,细颗粒物(PM2.5)
鄂尔多斯市,综合楼,110.0024,39.8127,2026-01-14T1800,48,393,0.4,11,4,74,77,262,颗粒物(PM10)
鄂尔多斯市,巴音孟克林场办事处,109.9485,39.8259,2026-01-14T1800,56,344,0.2,8,5,80,82,197,颗粒物(PM10)
鄂尔多斯市,康泽苑,109.7734,39.5987,2026-01-14T1800,53,320,0.3,6,5,84,87,185,颗粒物(PM10)
鄂尔多斯市,华泰汽车城,109.8121,39.5987,2026-01-14T1800,44,349,0.3,7,4,84,86,200,颗粒物(PM10)
鄂尔多斯市,奥林花园,109.9734,39.7884,2026-01-14T1800,,,,,,,69,,
鄂州市,市政府,114.894,30.3989,2026-01-14T1800,37,59,0.9,55,8,57,92,55,颗粒物(PM10)
鄂州市,赵家坝,114.8986,30.3714,2026-01-14T1800,47,76,1.0,44,11,,103,,
鄂州市,精准医疗中心,114.8093,30.4091,2026-01-14T1800,50,63,0.7,44,10,91,101,69,细颗粒物(PM2.5)
恩施土家族苗族自治州,湖北民院,109.4978,30.2979,2026-01-14T1800,126,,1.6,42,7,12,10,166,细颗粒物(PM2.5)
恩施土家族苗族自治州,龙凤新区,109.5061,30.3771,2026-01-14T1800,107,124,0.8,41,7,10,12,140,细颗粒物(PM2.5)
防城港市,沙万,108.3411,21.6159,2026-01-14T1800,31,57,2.2,42,17,130,138,54,颗粒物(PM10)
防城港市,防城档案局,108.3515,21.7733,2026-01-14T1800,23,49,0.6,18,8,133,139,49,
防城港市,大海花园,108.3506,21.6414,2026-01-14T1800,33,49,0.7,18,10,156,159,49,
佛山市,湾梁,113.1293,23.0065,2026-01-14T1800,21,61,/,36,/,114,126,56,颗粒物(PM10)
佛山市,华材职中,113.1082,23.0477,2026-01-14T1800,32,51,0.5,25,6,127,121,51,颗粒物(PM10)
佛山市,南海气象局,113.1439,23.045,2026-01-14T1800,,,/,33,/,112,115,,
佛山市,顺德苏岗,113.2879,22.8094,2026-01-14T1800,29,58,0.7,38,/,104,105,54,颗粒物(PM10)
佛山市,高明孔堂,112.8384,22.8678,2026-01-14T1800,30,38,/,10,/,127,130,43,
佛山市,三水监测站,112.8835,23.1584,2026-01-14T1800,38,70,0.8,48,2,148,120,60,颗粒物(PM10)
佛山市,三水云东海,112.8668,23.185,2026-01-14T1800,28,72,/,43,/,141,131,61,颗粒物(PM10)
佛山市,容桂街道办,113.2568,22.7629,2026-01-14T1800,24,44,/,32,/,107,108,44,
福州市,师大,119.2681,26.0506,2026-01-14T1800,14,47,0.4,23,4,111,116,47,
福州市,五四北路,119.2983,26.1028,2026-01-14T1800,16,52,0.6,22,5,105,111,51,颗粒物(PM10)
福州市,杨桥西路,119.2648,26.0769,2026-01-14T1800,15,46,/,18,4,107,122,46,
福州市,九龙,119.5799,26.0937,2026-01-14T1800,17,37,0.6,14,7,124,124,39,
福州市,吴航,119.5188,25.9666,2026-01-14T1800,12,30,0.6,13,5,121,114,38,
福州市,路通桥巷6号,119.3106,26.0648,2026-01-14T1800,16,38,/,16,/,106,108,38,
抚顺市,望花区,123.7974,41.8494,2026-01-14T1800,30,44,0.7,38,8,32,37,44,
抚顺市,顺城区,123.9161,41.8827,2026-01-14T1800,28,38,0.8,36,8,37,44,40,
抚顺市,东洲区,124.0437,41.8615,2026-01-14T1800,16,32,0.6,10,7,54,51,32,
抚顺市,新抚区,123.9246,41.8638,2026-01-14T1800,26,35,0.8,24,8,52,52,38,
抚顺市,大伙房水库,124.0972,41.8961,2026-01-14T1800,18,25,0.7,7,10,62,58,26,
抚顺市,沈抚新城,123.708,41.8386,2026-01-14T1800,54,86,2.6,65,20,14,25,74,细颗粒物(PM2.5)
抚州市,市站,116.3544,27.9833,2026-01-14T1800,25,46,0.7,20,9,90,91,46,
抚州市,血防站,116.3562,27.9631,2026-01-14T1800,24,43,0.7,21,6,99,86,43,
抚州市,采茶剧团,116.3561,28.0007,2026-01-14T1800,24,39,1.0,10,6,113,102,39,
抚州市,医学分院,116.3854,27.9648,2026-01-14T1800,24,40,0.6,10,6,104,96,40,
阜新市,工业园区,121.6095,41.9978,2026-01-14T1800,49,61,0.7,35,18,30,39,68,细颗粒物(PM2.5)
阜新市,长青街,121.6567,42.0188,2026-01-14T1800,37,55,0.7,27,11,41,37,53,"颗粒物(PM10),细颗粒物(PM2.5)"
阜新市,农业园区,121.6672,42.07,2026-01-14T1800,56,94,0.7,39,15,27,41,77,细颗粒物(PM2.5)
阜新市,玉龙新城,121.6343,42.0455,2026-01-14T1800,62,139,1.1,68,17,7,34,95,颗粒物(PM10)
阜阳市,市监测站,115.8276,32.8929,2026-01-14T1800,,,,,,,104,,
阜阳市,开发区,115.8551,32.8606,2026-01-14T1800,41,70,0.6,35,6,86,96,60,颗粒物(PM10)
阜阳市,阜阳职业技术学院,115.783962,32.889217,2026-01-14T1800,56,85,0.6,32,8,76,100,77,细颗粒物(PM2.5)
阜阳市,市规划展馆,115.79,32.8614,2026-01-14T1800,54,76,0.8,33,7,90,106,74,细颗粒物(PM2.5)
阜阳市,枣园社区,115.835101,32.918568,2026-01-14T1800,,,0.6,,7,83,94,,
甘南藏族自治州,州政府,102.9097,34.9841,2026-01-14T1800,,67,,,4,100,88,,
甘南藏族自治州,甘肃民族师范学院,102.8915,34.9618,2026-01-14T1800,3,37,0.4,2,6,95,87,37,
甘孜藏族自治州,水桥子,101.96,30.048,2026-01-14T1800,17,31,0.7,6,6,93,86,31,
甘孜藏族自治州,州环保局,101.9534,29.9976,2026-01-14T1800,9,35,0.6,8,6,94,87,35,
赣州市,地委,114.9368,25.8663,2026-01-14T1800,32,48,0.8,20,10,143,119,48,
赣州市,气象台,114.946,25.8483,2026-01-14T1800,28,56,0.4,37,4,129,120,53,颗粒物(PM10)
赣州市,市图书馆,114.932,25.8332,2026-01-14T1800,32,52,1.0,39,5,98,101,51,颗粒物(PM10)
赣州市,华坚鞋城,114.8905,25.8472,2026-01-14T1800,33,55,0.5,33,9,105,99,53,颗粒物(PM10)
赣州市,赣县区卫计委,115.0094,25.8614,2026-01-14T1800,31,45,0.7,38,7,87,96,45,
固原市,监测站,106.2753,36.0057,2026-01-14T1800,,,0.5,,,80,82,,
固原市,新区,106.2384,36.0189,2026-01-14T1800,17,91,0.2,11,4,82,85,71,颗粒物(PM10)
广安市,市委,106.6307,30.4577,2026-01-14T1800,145,,1.1,27,9,84,65,193,细颗粒物(PM2.5)
广安市,友谊中学,106.6266,30.4662,2026-01-14T1800,132,134,1.3,32,,74,61,175,细颗粒物(PM2.5)
广安市,广电花园,106.6386,30.4551,2026-01-14T1800,,,,,,,84,,
广安市,北辰小学,106.6347,30.4868,2026-01-14T1800,135,142,1.3,29,2,73,58,179,细颗粒物(PM2.5)
广元市,老城,105.8211,32.4444,2026-01-14T1800,16,59,0.6,32,16,65,81,55,颗粒物(PM10)
广元市,监测站,105.8629,32.429,2026-01-14T1800,16,74,0.6,18,2,78,82,62,颗粒物(PM10)
广元市,经开区,105.8047,32.4167,2026-01-14T1800,17,53,0.7,31,2,56,75,52,颗粒物(PM10)
广州市,广雅中学,113.2346,23.1423,2026-01-14T1800,25,46,1.0,18,3,120,123,46,
广州市,市五中,113.2611,23.105,2026-01-14T1800,25,44,/,32,8,135,150,44,
广州市,广东商学院,113.3477,23.0916,2026-01-14T1800,28,49,0.4,30,6,122,126,49,
广州市,市八十六中,113.4332,23.105,2026-01-14T1800,38,69,/,81,9,136,158,60,颗粒物(PM10)
广州市,番禺中学,113.3506,22.9488,2026-01-14T1800,27,49,0.6,33,,127,124,,
广州市,花都师范,113.2147,23.3918,2026-01-14T1800,29,57,0.5,39,,134,142,,
广州市,市监测站,113.2599,23.1329,2026-01-14T1800,25,43,/,29,2,121,127,43,
广州市,九龙镇镇龙,113.5618,23.3119,2026-01-14T1800,60,110,0.6,42,8,231,168,116,臭氧1小时(O3_1h)
广州市,麓湖,113.2764,23.1544,2026-01-14T1800,24,41,0.4,24,9,116,132,41,
广州市,体育西,113.3209,23.1323,2026-01-14T1800,26,49,0.5,31,6,115,123,49,
广州市,从化街口,113.5718,23.5493,2026-01-14T1800,61,93,0.8,55,11,190,138,88,臭氧1小时(O3_1h)
广州市,白云竹料,113.3463,23.369,2026-01-14T1800,40,71,0.6,41,4,174,147,68,臭氧1小时(O3_1h)
广州市,白云嘉禾,113.2981,23.2365,2026-01-14T1800,27,54,/,54,6,112,146,52,颗粒物(PM10)
广州市,黄埔科学城,113.4256,23.1716,2026-01-14T1800,40,70,0.6,43,8,167,166,60,颗粒物(PM10)
广州市,番禺大学城,113.3942,23.0485,2026-01-14T1800,26,56,0.5,32,12,138,147,53,颗粒物(PM10)
广州市,南沙黄阁,113.4923,22.8169,2026-01-14T1800,19,54,/,37,6,132,129,52,颗粒物(PM10)
广州市,南沙街,113.534,22.7893,2026-01-14T1800,19,56,0.5,32,5,118,120,53,颗粒物(PM10)
广州市,花都梯面,113.2905,23.5541,2026-01-14T1800,41,69,/,43,6,195,142,94,臭氧1小时(O3_1h)
广州市,从化良口,113.786,23.7479,2026-01-14T1800,33,41,/,14,10,115,112,48,
广州市,增城荔城,113.805,23.2614,2026-01-14T1800,43,73,0.5,28,7,192,164,90,臭氧1小时(O3_1h)
贵港市,江南子站,109.604387,23.066791,2026-01-14T1800,37,68,0.7,16,8,162,150,59,颗粒物(PM10)
贵港市,荷城子站,109.5669,23.1065,2026-01-14T1800,41,61,1.0,25,9,134,127,58,细颗粒物(PM2.5)
贵港市,新世纪学校,109.5886,23.1172,2026-01-14T1800,38,63,0.6,16,/,149,137,57,颗粒物(PM10)
贵港市,中山路155-3号,109.5933,23.095,2026-01-14T1800,35,58,0.5,18,/,162,140,54,颗粒物(PM10)
贵阳市,马鞍山,106.6863,26.6035,2026-01-14T1800,92,110,/,21,10,67,82,122,细颗粒物(PM2.5)
贵阳市,鉴湖路,106.6241,26.6266,2026-01-14T1800,73,107,1.1,22,7,74,84,98,细颗粒物(PM2.5)
贵阳市,燕子冲,106.7468,26.6344,2026-01-14T1800,,,,26,,65,76,,
贵阳市,碧云窝,106.6556,26.4362,2026-01-14T1800,83,107,/,28,16,56,102,110,细颗粒物(PM2.5)
贵阳市,红边门,106.6963,26.6063,2026-01-14T1800,,,,,,,72,,
贵阳市,新华路,106.7162383,26.56964667,2026-01-14T1800,88,119,0.8,27,10,62,63,117,细颗粒物(PM2.5)
贵阳市,太慈桥,106.6742,26.542,2026-01-14T1800,92,112,/,34,6,61,72,122,细颗粒物(PM2.5)
贵阳市,花果园大街66号,106.688212,26.56952,2026-01-14T1800,,,,,,,70,,
贵阳市,漓江路57号,106.687268,26.516892,2026-01-14T1800,95,110,1.2,32,14,62,72,125,细颗粒物(PM2.5)
桂林市,龙隐路小学,110.3091,25.2705,2026-01-14T1800,53,69,0.7,16,10,118,108,73,细颗粒物(PM2.5)
桂林市,八中,110.2849361,25.22909545,2026-01-14T1800,64,69,0.6,29,13,96,79,87,细颗粒物(PM2.5)
桂林市,旅游学院,110.296,25.1254,2026-01-14T1800,51,58,0.4,11,9,131,108,70,细颗粒物(PM2.5)
桂林市,环湖路276号,110.1835,25.2444,2026-01-14T1800,53,75,0.5,14,11,119,93,73,细颗粒物(PM2.5)
桂林市,信义路13号,110.2803,25.2773,2026-01-14T1800,48,73,0.9,21,9,129,108,67,细颗粒物(PM2.5)
果洛藏族自治州,玛沁县大武镇,100.2262,34.4854,2026-01-14T1800,26,56,0.3,1,12,110,104,53,颗粒物(PM10)
哈尔滨市,松北商大,126.5557,45.8109,2026-01-14T1800,43,58,0.8,52,7,20,50,60,细颗粒物(PM2.5)
哈尔滨市,南岗学府路,126.6162,45.719,2026-01-14T1800,72,82,1.1,56,15,16,48,97,细颗粒物(PM2.5)
哈尔滨市,太平宏伟公园,126.6894,45.7733,2026-01-14T1800,,,,,,,49,,
哈尔滨市,道外承德广场,126.6361,45.7672,2026-01-14T1800,55,85,0.9,64,14,20,44,75,细颗粒物(PM2.5)
哈尔滨市,动力和平路,126.644,45.7261,2026-01-14T1800,70,84,0.9,50,12,28,47,94,细颗粒物(PM2.5)
哈尔滨市,道里建国路,126.5933,45.7479,2026-01-14T1800,66,69,1.4,69,26,14,43,89,细颗粒物(PM2.5)
哈尔滨市,平房东轻厂,126.6127,45.6119,2026-01-14T1800,90,,1.4,70,8,13,48,119,细颗粒物(PM2.5)
哈尔滨市,呼兰师专,126.5875,45.9827,2026-01-14T1800,56,,0.8,45,16,22,48,77,细颗粒物(PM2.5)
哈尔滨市,省农科院,126.6299,45.6799,2026-01-14T1800,109,,0.9,72,14,11,48,143,细颗粒物(PM2.5)
哈尔滨市,华山路1号,126.6769,45.7379,2026-01-14T1800,72,112,1.0,60,23,16,40,97,细颗粒物(PM2.5)
哈尔滨市,解放大街52号,126.9717,45.5356,2026-01-14T1800,59,68,1.1,38,13,38,53,80,细颗粒物(PM2.5)
哈密市,地区监测站,93.5124,42.8176,2026-01-14T1800,132,648,0.8,,4,42,55,500,颗粒物(PM10)
哈密市,哈密师范学校,93.5014,42.8312,2026-01-14T1800,178,639,0.7,23,2,41,47,500,颗粒物(PM10)
海北藏族自治州,海晏县西海镇,100.9016,36.9464,2026-01-14T1800,,,,2,,89,85,,
海东市,平安区公安局北苑,102.074,36.5056,2026-01-14T1800,,,0.5,9,6,76,72,,
海东市,滨河路,102.0984,36.5119,2026-01-14T1800,23,71,0.6,20,5,82,80,61,颗粒物(PM10)
海口市,海南大学,110.3189,20.0596,2026-01-14T1800,33,48,0.3,14,6,196,207,95,臭氧1小时(O3_1h)
海口市,秀英海南医院,110.2827,20.0051,2026-01-14T1800,24,46,0.4,12,7,156,173,49,
海口市,海南师范大学,110.3391,19.9979,2026-01-14T1800,25,46,0.8,14,6,166,186,58,臭氧1小时(O3_1h)
海口市,龙华路环保局宿舍,110.3303,20.0359,2026-01-14T1800,33,45,0.8,12,/,181,191,77,臭氧1小时(O3_1h)
海口市,桂林洋子站,110.5111,19.9737,2026-01-14T1800,20,31,/,9,/,132,154,42,
海口市,长滨二路9号,110.1952,20.0451,2026-01-14T1800,29,38,/,13,/,177,180,72,臭氧1小时(O3_1h)
海南藏族自治州,共和县恰卜恰镇,100.6158,36.2985,2026-01-14T1800,29,52,0.3,1,9,100,99,51,颗粒物(PM10)
海西蒙古族藏族自治州,德令哈市,97.373,37.376,2026-01-14T1800,11,66,0.5,5,10,92,84,58,颗粒物(PM10)
邯郸市,矿院,114.492,36.5712,2026-01-14T1800,92,126,1.2,67,9,10,25,122,细颗粒物(PM2.5)
邯郸市,丛台公园,114.4839,36.6136,2026-01-14T1800,95,145,1.3,67,10,14,29,125,细颗粒物(PM2.5)
邯郸市,香泉濮院小区,114.7893,36.5592,2026-01-14T1800,100,155,1.1,56,10,18,35,132,细颗粒物(PM2.5)
邯郸市,峰峰矿区临水派出所,114.1998,36.4439,2026-01-14T1800,100,107,1.9,54,23,32,35,132,细颗粒物(PM2.5)
邯郸市,建安街268号,114.5209,36.7697,2026-01-14T1800,90,136,1.1,72,14,5,23,119,细颗粒物(PM2.5)
邯郸市,丛台东路558号,114.5488,36.6177,2026-01-14T1800,104,136,1.5,67,18,7,26,137,细颗粒物(PM2.5)
汉中市,市监测站,107.0155,33.0707,2026-01-14T1800,77,110,0.9,32,8,72,56,103,细颗粒物(PM2.5)
汉中市,鑫源开发区,107.0083,33.114,2026-01-14T1800,81,103,0.7,29,7,75,56,108,细颗粒物(PM2.5)
汉中市,南郑大河坎水厂,107.0072,33.0323,2026-01-14T1800,80,102,0.9,32,7,70,56,107,细颗粒物(PM2.5)
杭州市,滨江,120.2073,30.2111,2026-01-14T1800,,99,0.6,,8,37,77,,
杭州市,西溪,120.0625,30.2737,2026-01-14T1800,33,110,0.9,39,9,63,74,80,颗粒物(PM10)
杭州市,下沙,120.3417,30.315,2026-01-14T1800,66,103,0.7,109,11,41,85,89,细颗粒物(PM2.5)
杭州市,卧龙桥,120.1252,30.2465,2026-01-14T1800,26,47,0.3,45,9,49,79,47,
杭州市,浙江农大,120.1902,30.2691,2026-01-14T1800,64,113,0.8,125,7,9,79,87,细颗粒物(PM2.5)
杭州市,和睦小学,120.1195,30.3121,2026-01-14T1800,41,74,0.7,57,7,68,75,62,颗粒物(PM10)
杭州市,临平镇,120.3076,30.4146,2026-01-14T1800,66,113,0.6,83,11,57,75,89,细颗粒物(PM2.5)
杭州市,城厢镇,120.2753,30.1839,2026-01-14T1800,60,93,0.8,119,10,31,78,82,细颗粒物(PM2.5)
杭州市,云栖,120.0883,30.1808,2026-01-14T1800,34,96,0.5,55,5,56,77,73,颗粒物(PM10)
杭州市,镇二中,119.9463,30.0496,2026-01-14T1800,42,73,0.8,92,6,37,67,62,颗粒物(PM10)
杭州市,市府大楼,119.7184,30.2367,2026-01-14T1800,31,71,0.7,43,12,71,90,61,颗粒物(PM10)
杭州市,消防大队,120.1554,30.2863,2026-01-14T1800,53,77,0.5,78,8,50,67,73,细颗粒物(PM2.5)
合肥市,明珠广场,117.1957,31.7845,2026-01-14T1800,41,73,0.6,95,10,37,60,62,颗粒物(PM10)
合肥市,三里街,117.307,31.8765,2026-01-14T1800,39,51,0.9,80,7,37,66,55,细颗粒物(PM2.5)
合肥市,琥珀山庄,117.2587,31.8703,2026-01-14T1800,53,100,1.1,70,8,42,73,75,颗粒物(PM10)
合肥市,庐阳区,117.2593,31.9376,2026-01-14T1800,44,85,0.7,80,7,56,72,68,颗粒物(PM10)
合肥市,瑶海区,117.345251,31.861615,2026-01-14T1800,29,58,0.6,46,8,93,90,54,颗粒物(PM10)
合肥市,包河区,117.3033,31.7967,2026-01-14T1800,44,66,1.0,100,13,55,89,62,细颗粒物(PM2.5)
合肥市,滨湖新区,117.278,31.7392,2026-01-14T1800,44,66,0.9,48,7,85,95,62,细颗粒物(PM2.5)
合肥市,高新区,117.1324,31.8395,2026-01-14T1800,120,,0.7,,8,61,64,158,细颗粒物(PM2.5)
合肥市,高教基地,117.3802,31.9148,2026-01-14T1800,34,66,0.6,39,10,74,90,58,颗粒物(PM10)
合肥市,中国科学技术大学,117.2518,31.8404,2026-01-14T1800,32,83,0.7,61,11,71,77,67,颗粒物(PM10)
和田地区,地区环保局,79.9241,37.0878,2026-01-14T1800,24,117,0.1,6,2,89,76,84,颗粒物(PM10)
和田地区,市环保局,79.9132,37.1137,2026-01-14T1800,19,91,0.1,11,2,92,76,71,颗粒物(PM10)
河池市,市环保站,108.0496,24.6957,2026-01-14T1800,63,92,0.9,27,7,89,84,85,细颗粒物(PM2.5)
河池市,上任中路54号,108.0901,24.6945,2026-01-14T1800,69,82,0.9,28,8,97,86,93,细颗粒物(PM2.5)
河源市,东埔,114.6962,23.7538,2026-01-14T1800,30,45,0.8,22,7,130,112,45,
河源市,老城,114.6895,23.7232,2026-01-14T1800,48,54,0.5,17,7,124,114,67,细颗粒物(PM2.5)
菏泽市,定陶老年大学,115.5562,35.089,2026-01-14T1800,141,234,1.0,48,7,28,31,188,细颗粒物(PM2.5)
菏泽市,黄河路600号,115.4239,35.2593,2026-01-14T1800,161,264,1.0,75,9,27,28,211,细颗粒物(PM2.5)
菏泽市,菏泽市人社局,115.5025,35.2727,2026-01-14T1800,132,223,0.6,51,10,28,24,175,细颗粒物(PM2.5)
菏泽市,永昌路1号,115.479691,35.244011,2026-01-14T1800,156,245,0.9,65,8,26,24,206,细颗粒物(PM2.5)
菏泽市,长城路999号,115.471542,35.280012,2026-01-14T1800,141,237,1.1,69,12,32,31,188,细颗粒物(PM2.5)
贺州市,环保小区,111.5264,24.4178,2026-01-14T1800,48,94,0.5,28,10,137,120,72,颗粒物(PM10)
贺州市,政协大楼,111.561,24.4074,2026-01-14T1800,42,66,0.8,25,13,156,139,59,细颗粒物(PM2.5)
贺州市,西湾,111.4744,24.455,2026-01-14T1800,,,0.6,34,11,142,122,,
鹤壁市,市监测站,114.17,35.9019,2026-01-14T1800,132,186,1.7,68,14,6,22,175,细颗粒物(PM2.5)
鹤壁市,市交警支队,114.2953,35.7512,2026-01-14T1800,100,180,1.6,72,19,6,17,132,细颗粒物(PM2.5)
鹤壁市,迎宾馆,114.2877,35.7302,2026-01-14T1800,98,169,1.6,69,17,7,17,129,细颗粒物(PM2.5)
鹤壁市,大新区,114.2616,35.6824,2026-01-14T1800,67,173,1.3,65,13,23,18,112,颗粒物(PM10)
鹤壁市,南山宾馆,114.1573,35.9607,2026-01-14T1800,142,228,1.7,70,19,12,29,189,细颗粒物(PM2.5)
鹤岗市,哈啤分公司,130.2537,47.3416,2026-01-14T1800,34,,0.6,9,8,62,65,49,
鹤岗市,斯达机电,130.2683,47.3087,2026-01-14T1800,22,33,0.5,11,7,54,58,33,
鹤岗市,东山纸板厂,130.3114,47.3388,2026-01-14T1800,,,0.6,9,8,59,60,,
黑河市,交通局,127.4832,50.2524,2026-01-14T1800,32,38,0.6,32,12,26,54,46,
黑河市,环保局,127.5146,50.2339,2026-01-14T1800,18,19,0.3,20,12,40,52,26,
衡水市,电机北厂,115.6839,37.754,2026-01-14T1800,78,121,0.7,59,12,8,21,104,细颗粒物(PM2.5)
衡水市,市监测站,115.6303,37.7318,2026-01-14T1800,81,119,0.8,,11,19,25,108,细颗粒物(PM2.5)
衡水市,市城管局,115.6684,37.7216,2026-01-14T1800,79,101,0.8,58,12,16,24,105,细颗粒物(PM2.5)
衡水市,地表水厂,115.599,37.5491,2026-01-14T1800,80,139,0.9,65,13,6,27,107,细颗粒物(PM2.5)
衡阳市,衡阳化工总厂,112.6209,26.9268,2026-01-14T1800,48,86,0.9,22,13,110,98,68,颗粒物(PM10)
衡阳市,珠晖区环保局,112.621,26.8957,2026-01-14T1800,65,74,0.9,44,12,94,98,88,细颗粒物(PM2.5)
衡阳市,市委党校,112.628,26.8654,2026-01-14T1800,43,56,0.9,19,17,118,95,60,细颗粒物(PM2.5)
衡阳市,市监测站,112.6007,26.8977,2026-01-14T1800,54,78,1.5,55,11,50,78,74,细颗粒物(PM2.5)
衡阳市,真空机电公司,112.5658,26.9013,2026-01-14T1800,51,102,1.3,69,16,66,74,76,颗粒物(PM10)
衡阳市,师范学院,112.6703,26.8817,2026-01-14T1800,44,54,0.9,20,8,122,104,62,细颗粒物(PM2.5)
红河哈尼族彝族自治州,州图书馆,103.3757,23.3679,2026-01-14T1800,35,49,0.6,7,6,78,84,50,
红河哈尼族彝族自治州,蒙自市朝阳路,103.401,23.3561,2026-01-14T1800,36,,0.6,6,6,75,80,52,细颗粒物(PM2.5)
呼和浩特市,呼市一监,111.6506,40.7517,2026-01-14T1800,23,156,0.3,13,7,64,48,103,颗粒物(PM10)
呼和浩特市,如意水处理厂,111.7516,40.8369,2026-01-14T1800,23,126,0.3,11,9,70,47,88,颗粒物(PM10)
呼和浩特市,二十九中,111.727798,40.806187,2026-01-14T1800,24,148,0.4,12,13,68,47,99,颗粒物(PM10)
呼和浩特市,化肥厂生活区,111.717,40.7617,2026-01-14T1800,25,157,0.3,16,5,65,51,104,颗粒物(PM10)
呼和浩特市,海东办,111.6519,40.8389,2026-01-14T1800,22,185,0.3,13,4,72,43,118,颗粒物(PM10)
呼和浩特市,成吉思汗西街8号,111.591512,40.827312,2026-01-14T1800,23,188,0.4,21,5,58,38,119,颗粒物(PM10)
呼和浩特市,公园东路75号,111.6597,40.8077,2026-01-14T1800,23,178,0.3,17,6,60,41,114,颗粒物(PM10)
呼和浩特市,金海路35号,111.5427,40.7846,2026-01-14T1800,23,154,0.4,23,8,55,40,102,颗粒物(PM10)
呼伦贝尔市,国华电力东,119.7511,49.1576,2026-01-14T1800,31,35,0.6,23,6,42,54,45,
呼伦贝尔市,伊敏大街东7号,119.7569,49.2222,2026-01-14T1800,43,55,1.2,52,7,3,31,60,细颗粒物(PM2.5)
湖州市,城西水厂,120.075,30.867,2026-01-14T1800,45,70,0.6,70,8,43,57,63,细颗粒物(PM2.5)
湖州市,仁皇山新区,120.083,30.8929,2026-01-14T1800,54,74,0.8,79,8,46,56,74,细颗粒物(PM2.5)
湖州市,吴兴区站,120.1846,30.8592,2026-01-14T1800,44,73,0.8,52,8,72,74,62,"颗粒物(PM10),细颗粒物(PM2.5)"
湖州市,南浔区站,120.4146,30.8538,2026-01-14T1800,36,68,0.7,44,8,71,69,59,颗粒物(PM10)
葫芦岛市,龙港区,120.904878,40.721091,2026-01-14T1800,42,51,0.7,16,9,56,53,59,细颗粒物(PM2.5)
葫芦岛市,化工街,120.8382,40.7521,2026-01-14T1800,39,63,0.7,26,20,41,41,57,颗粒物(PM10)
葫芦岛市,新区,120.8339,40.7078,2026-01-14T1800,33,47,0.6,20,9,53,46,48,
葫芦岛市,东城区,120.8697,40.7679,2026-01-14T1800,38,40,0.7,28,14,45,44,54,细颗粒物(PM2.5)
怀化市,河西地税局,109.9297,27.5383,2026-01-14T1800,,,,,,,73,,
怀化市,市四医院,109.9783,27.5342,2026-01-14T1800,64,,0.7,19,6,66,67,87,细颗粒物(PM2.5)
怀化市,监测楼,109.9971,27.5579,2026-01-14T1800,54,62,0.1,13,5,82,80,74,细颗粒物(PM2.5)
淮安市,钵池山,119.0566,33.5991,2026-01-14T1800,93,119,1.1,41,15,88,75,123,细颗粒物(PM2.5)
淮安市,北京南路,119.0083,33.578,2026-01-14T1800,102,141,1.2,86,13,33,55,134,细颗粒物(PM2.5)
淮安市,市监测站,118.9938,33.6083,2026-01-14T1800,83,102,0.9,52,15,75,70,110,细颗粒物(PM2.5)
淮安市,楚州区监测站,119.135,33.5038,2026-01-14T1800,106,149,0.9,65,13,59,64,139,细颗粒物(PM2.5)
淮安市,新华书店,118.8757,33.2897,2026-01-14T1800,82,126,1.7,54,11,67,69,109,细颗粒物(PM2.5)
淮安市,枚皋中路89号,119.119691,33.550006,2026-01-14T1800,82,102,0.6,31,12,94,72,109,细颗粒物(PM2.5)
淮安市,承德北路606号,119.028838,33.631911,2026-01-14T1800,94,134,1.1,93,11,32,52,124,细颗粒物(PM2.5)
淮北市,监测站,116.8005,33.9749,2026-01-14T1800,165,210,1.2,85,12,27,54,215,细颗粒物(PM2.5)
淮北市,烈山区政府,116.8094,33.9008,2026-01-14T1800,144,199,0.9,64,14,51,58,192,细颗粒物(PM2.5)
淮北市,市博物馆,116.7926,33.9534,2026-01-14T1800,169,228,1.3,75,7,43,63,219,细颗粒物(PM2.5)
淮北市,杜集区第一实验学校,116.8322,33.9884,2026-01-14T1800,158,222,1.1,63,11,48,53,208,细颗粒物(PM2.5)
淮南市,潘集区政府,116.8304,32.7726,2026-01-14T1800,66,105,0.8,41,8,82,92,89,细颗粒物(PM2.5)
淮南市,谢家集区政府,116.8569,32.5949,2026-01-14T1800,55,85,0.7,41,12,90,94,75,细颗粒物(PM2.5)
淮南市,八公山区政府,116.8279,32.6333,2026-01-14T1800,46,64,0.5,22,11,100,102,64,细颗粒物(PM2.5)
淮南市,经济技术开发区消防队,117.0561,32.6536,2026-01-14T1800,65,110,0.8,58,10,73,91,88,细颗粒物(PM2.5)
淮南市,山南新区,117.011,32.5891,2026-01-14T1800,49,86,0.8,37,5,94,98,68,"颗粒物(PM10),细颗粒物(PM2.5)"
淮南市,国庆中路369号,117.003137,32.644456,2026-01-14T1800,71,123,1.3,58,13,54,75,95,细颗粒物(PM2.5)
黄冈市,职工中心,114.9021,30.474,2026-01-14T1800,39,56,0.9,40,11,86,99,55,细颗粒物(PM2.5)
黄冈市,红卫路,114.8858,30.4519,2026-01-14T1800,47,53,0.7,31,12,101,103,65,细颗粒物(PM2.5)
黄冈市,市林业局,114.9134,30.4446,2026-01-14T1800,42,79,0.8,44,8,93,100,65,颗粒物(PM10)
黄南藏族自治州,同仁县隆务镇,102.02,35.5101,2026-01-14T1800,13,39,0.3,3,9,83,81,39,
黄山市,延安路89号,118.2905,29.6965,2026-01-14T1800,23,38,0.5,22,4,78,86,38,
黄山市,黄山区政府5号楼,118.1369,30.2755,2026-01-14T1800,34,54,0.6,19,3,62,83,52,颗粒物(PM10)
黄山市,滨江东路7-2号,118.335445,29.720283,2026-01-14T1800,41,77,/,56,/,36,71,64,颗粒物(PM10)
黄石市,沈家营,115.0547,30.2332,2026-01-14T1800,36,74,,34,26,91,94,,
黄石市,铁山,114.899,30.211,2026-01-14T1800,66,77,0.7,45,13,73,101,89,细颗粒物(PM2.5)
黄石市,团城山,115.0259,30.2108,2026-01-14T1800,41,74,0.7,32,8,96,93,62,颗粒物(PM10)
黄石市,笔架山北路,115.0174,30.1591,2026-01-14T1800,50,86,1.2,31,15,78,95,69,细颗粒物(PM2.5)
黄石市,磁湖东路29号,115.078022,30.21118,2026-01-14T1800,64,86,1.4,72,10,51,84,87,细颗粒物(PM2.5)
惠州市,河南岸金山湖子站,114.4181,23.0528,2026-01-14T1800,21,40,0.5,17,4,122,118,40,
惠州市,下埔横江三路子站,114.4055,23.0824,2026-01-14T1800,21,40,0.5,20,6,131,129,41,
惠州市,惠阳区承修路船湖子站,114.4645,22.7832,2026-01-14T1800,20,38,0.5,14,7,,127,,
惠州市,大亚湾管委会子站,114.5316,22.7423,2026-01-14T1800,20,47,0.5,19,6,134,127,47,
惠州市,惠阳秋长,114.4334,22.8134,2026-01-14T1800,20,56,/,16,/,163,150,54,臭氧1小时(O3_1h)
惠州市,大亚湾霞涌,114.6521,22.7755,2026-01-14T1800,17,50,/,14,/,149,146,50,
惠州市,文华一路1号,114.4089,23.1147,2026-01-14T1800,22,42,/,26,/,148,141,47,
鸡西市,环保局,130.9618,45.2926,2026-01-14T1800,,,,32,,27,57,,
鸡西市,第一中学,130.9294,45.2959,2026-01-14T1800,12,18,0.5,15,6,49,57,18,
鸡西市,欧美日汽修厂,131.0069,45.2988,2026-01-14T1800,28,37,0.5,24,21,35,56,40,
吉安市,红声器材厂,114.9753,27.0803,2026-01-14T1800,21,45,0.5,25,9,110,97,45,
吉安市,市环境监测站,114.9903,27.1313,2026-01-14T1800,25,40,/,15,8,115,99,40,
吉安市,青原区法院,115.009527,27.096792,2026-01-14T1800,24,50,0.7,34,11,90,91,50,
吉林市,哈达湾,126.54,43.8622,2026-01-14T1800,22,31,1.0,15,9,63,67,32,
吉林市,东局子,126.5843,43.8358,2026-01-14T1800,24,69,0.7,,6,58,59,,
吉林市,电力学院,126.5051,43.8243,2026-01-14T1800,27,60,0.6,,13,56,63,,
吉林市,江北,126.6133,43.8971,2026-01-14T1800,24,40,1.0,13,8,60,60,40,
吉林市,江南公园,126.5549,43.8304,2026-01-14T1800,28,39,0.6,20,10,55,62,40,
吉林市,九站,126.4737,43.953,2026-01-14T1800,27,46,0.7,31,10,47,55,46,
济南市,科干所,116.9866,36.6118,2026-01-14T1800,83,149,0.7,28,11,94,69,110,细颗粒物(PM2.5)
济南市,农科所,116.9379,36.6652,2026-01-14T1800,85,156,0.9,49,14,65,22,113,细颗粒物(PM2.5)
济南市,开发区,117.1265,36.6736,2026-01-14T1800,125,261,1.7,107,17,2,6,165,细颗粒物(PM2.5)
济南市,省种子仓库,117.0616,36.6865,2026-01-14T1800,124,261,1.5,95,21,5,8,163,细颗粒物(PM2.5)
济南市,机床二厂,116.9495185,36.644937,2026-01-14T1800,115,166,0.7,55,17,60,34,150,细颗粒物(PM2.5)
济南市,市监测站,117.0496,36.6629,2026-01-14T1800,107,171,1.1,60,14,46,12,140,细颗粒物(PM2.5)
济南市,长清党校,116.7674,36.5458,2026-01-14T1800,110,168,,42,14,58,68,144,细颗粒物(PM2.5)
济南市,东山小学,117.5323,36.6865,2026-01-14T1800,88,142,,26,10,101,59,117,细颗粒物(PM2.5)
济南市,泰兴公司,117.7181,36.205,2026-01-14T1800,156,251,2.2,98,15,8,24,206,细颗粒物(PM2.5)
济南市,莱芜战役纪念馆,117.6861,36.2172,2026-01-14T1800,162,241,2.3,103,20,5,23,212,细颗粒物(PM2.5)
济南市,济阳区政府,117.1673,36.9782,2026-01-14T1800,112,215,1.2,86,16,9,16,147,细颗粒物(PM2.5)
济南市,锦屏中学,117.1168,36.6299,2026-01-14T1800,100,212,1.5,105,11,6,30,132,细颗粒物(PM2.5)
济南市,山财大街5号,117.7107,36.2385,2026-01-14T1800,113,197,1.9,103,18,18,34,148,细颗粒物(PM2.5)
济南市,无影山路12号,116.9744,36.6889,2026-01-14T1800,128,161,1.0,42,15,62,20,169,细颗粒物(PM2.5)
济宁市,火炬城,116.6229,35.4288,2026-01-14T1800,139,172,1.1,52,6,42,43,185,细颗粒物(PM2.5)
济宁市,北湖一中,116.5808,35.3703,2026-01-14T1800,147,171,1.1,52,11,38,40,196,细颗粒物(PM2.5)
济宁市,服务中心,116.8251,35.5592,2026-01-14T1800,128,191,1.3,57,17,35,31,169,细颗粒物(PM2.5)
济宁市,市第七中学,116.5907,35.4054,2026-01-14T1800,141,196,1.2,56,12,44,47,188,细颗粒物(PM2.5)
济宁市,任和路,116.6075,35.4566,2026-01-14T1800,139,217,1.2,55,10,35,31,185,细颗粒物(PM2.5)
济宁市,文体南路1号,116.5648,35.3921,2026-01-14T1800,150,218,1.1,59,10,30,38,200,细颗粒物(PM2.5)
佳木斯市,佳纺,130.2749,46.8028,2026-01-14T1800,,,,,,,51,,
佳木斯市,环保局,130.3258,46.7975,2026-01-14T1800,,,,,,,54,,
佳木斯市,顺和街,130.363,46.806,2026-01-14T1800,20,26,0.5,25,12,37,45,29,
佳木斯市,长安路196号,130.3952,46.8268,2026-01-14T1800,24,30,0.6,32,9,34,52,35,
嘉兴市,清河小学,120.7439,30.778,2026-01-14T1800,59,100,0.2,65,9,86,90,80,细颗粒物(PM2.5)
嘉兴市,嘉兴学院,120.7261,30.7477,2026-01-14T1800,56,101,0.8,55,9,90,89,77,细颗粒物(PM2.5)
嘉兴市,南湖区残联,120.7845,30.7524,2026-01-14T1800,60,91,0.6,,7,115,106,,
嘉兴市,秀洲住建,120.6915,30.7741,2026-01-14T1800,56,93,0.5,64,9,91,90,77,细颗粒物(PM2.5)
嘉峪关市,气象局,98.291,39.7705,2026-01-14T1800,12,66,0.3,7,10,88,76,58,颗粒物(PM10)
嘉峪关市,酒钢宾馆,98.2672,39.7978,2026-01-14T1800,14,70,0.5,9,23,83,73,60,颗粒物(PM10)
嘉峪关市,雄关区,98.2644,39.7723,2026-01-14T1800,13,49,0.4,10,16,86,74,49,
江门市,北街,113.1063,22.6058,2026-01-14T1800,15,32,/,12,/,119,128,38,
江门市,西区,113.073,22.5835,2026-01-14T1800,18,37,/,22,/,111,122,37,
江门市,圭峰西,113.0218,22.531,2026-01-14T1800,20,62,/,13,/,130,131,56,颗粒物(PM10)
江门市,东湖,113.0826,22.5947,2026-01-14T1800,23,27,0.7,20,8,123,130,39,
江门市,江海富民,113.1077,22.5647,2026-01-14T1800,24,62,0.8,25,/,125,135,56,颗粒物(PM10)
江门市,新会银湖,113.0496,22.4669,2026-01-14T1800,23,51,0.4,20,7,119,124,51,颗粒物(PM10)
焦作市,马村街道办,113.3137,35.2643,2026-01-14T1800,99,147,1.1,61,16,20,25,130,细颗粒物(PM2.5)
焦作市,焦作技师学院,113.2464,35.2374,2026-01-14T1800,,,,,,,66,,
焦作市,中站许衡医院,113.1656,35.2536,2026-01-14T1800,118,182,1.5,83,37,18,30,155,细颗粒物(PM2.5)
焦作市,原李万街道办,113.2456,35.18,2026-01-14T1800,75,184,0.8,56,13,22,26,117,颗粒物(PM10)
焦作市,新安路1731号,113.234,35.219,2026-01-14T1800,84,161,1.1,70,16,13,22,112,细颗粒物(PM2.5)
焦作市,人民路3066号,113.2722,35.2121,2026-01-14T1800,74,156,1.2,71,14,16,25,103,颗粒物(PM10)
揭阳市,新兴,116.3701,23.5345,2026-01-14T1800,26,52,0.6,30,9,,100,,
揭阳市,西马,116.3261,23.5442,2026-01-14T1800,20,63,0.6,21,5,113,117,57,颗粒物(PM10)
揭阳市,东兴,116.361,23.5627,2026-01-14T1800,24,52,/,20,9,111,108,51,颗粒物(PM10)
揭阳市,渔湖,116.4151,23.5295,2026-01-14T1800,19,61,/,23,5,122,122,56,颗粒物(PM10)
揭阳市,曲溪,116.4028,23.5699,2026-01-14T1800,24,55,0.7,25,2,125,124,53,颗粒物(PM10)
金昌市,天庆家园,102.1691,38.5166,2026-01-14T1800,30,90,0.5,15,5,75,79,70,颗粒物(PM10)
金昌市,金川区人防中心,102.1648,38.5369,2026-01-14T1800,27,90,0.6,,,79,80,,
金昌市,长春路96号,102.193042,38.531887,2026-01-14T1800,21,96,0.6,14,128,79,79,73,颗粒物(PM10)
金华市,十五中,119.6478,29.0773,2026-01-14T1800,74,99,1.1,85,5,79,102,99,细颗粒物(PM2.5)
金华市,监测站,119.6859,29.1032,2026-01-14T1800,46,82,0.6,72,4,58,70,66,颗粒物(PM10)
金华市,气象局,119.656,29.1132,2026-01-14T1800,54,94,0.7,65,4,82,93,74,细颗粒物(PM2.5)
锦州市,南山,121.1114,41.0879,2026-01-14T1800,43,44,0.6,35,8,39,48,60,细颗粒物(PM2.5)
锦州市,开发区,121.060361,40.842794,2026-01-14T1800,32,50,0.7,,9,29,48,,
锦州市,百股街道,121.1836,41.1118,2026-01-14T1800,34,40,0.8,31,7,43,54,49,
锦州市,天安街道,121.1176,41.1224,2026-01-14T1800,,,,,,,75,,
锦州市,北湖公园,121.1303,41.1385,2026-01-14T1800,34,53,0.6,34,8,33,43,52,颗粒物(PM10)
晋城市,自来水公司,112.8496,35.5051,2026-01-14T1800,31,70,0.9,22,8,70,59,60,颗粒物(PM10)
晋城市,市环保局,112.8509,35.4886,2026-01-14T1800,29,60,0.7,21,7,86,69,55,颗粒物(PM10)
晋城市,泽州一中,112.8258,35.4804,2026-01-14T1800,24,72,0.5,19,7,85,70,61,颗粒物(PM10)
晋城市,前书院路,112.8246,35.5152,2026-01-14T1800,31,99,0.5,23,8,74,68,75,颗粒物(PM10)
晋城市,祥云街666号,112.8864,35.4773,2026-01-14T1800,38,77,0.4,9,5,83,67,64,颗粒物(PM10)
晋中市,榆次区政府,112.6992,37.6984,2026-01-14T1800,84,344,0.2,11,9,83,53,197,颗粒物(PM10)
晋中市,榆次三中,112.7195,37.683,2026-01-14T1800,63,412,0.3,2,6,86,52,289,颗粒物(PM10)
晋中市,广安街188号,112.7375,37.7215,2026-01-14T1800,71,308,0.1,15,9,79,55,179,颗粒物(PM10)
晋中市,迎宾街26号,112.7478,37.6954,2026-01-14T1800,63,334,0.5,13,9,84,52,192,颗粒物(PM10)
荆门市,竹园小学,112.2012,31.048,2026-01-14T1800,117,147,1.5,34,7,78,84,153,细颗粒物(PM2.5)
荆门市,掇刀,112.1968,30.9892,2026-01-14T1800,98,132,0.5,30,9,95,94,129,细颗粒物(PM2.5)
荆门市,西山林语,112.1849,31.0361,2026-01-14T1800,96,136,0.7,31,13,86,88,127,细颗粒物(PM2.5)
荆门市,龙泉中学南校,112.1631,31.0134,2026-01-14T1800,116,158,1.0,20,11,92,96,152,细颗粒物(PM2.5)
荆门市,新台西路6号,112.2213,31.0654,2026-01-14T1800,107,138,0.7,27,15,85,89,140,细颗粒物(PM2.5)
荆州市,市图书馆,112.2493,30.3198,2026-01-14T1800,77,99,1.0,27,10,113,114,103,细颗粒物(PM2.5)
荆州市,市委党校,112.2009,30.3543,2026-01-14T1800,,,1.0,32,,94,89,,
荆州市,管委会,112.2749,30.3124,2026-01-14T1800,77,109,1.1,36,10,92,103,103,细颗粒物(PM2.5)
荆州市,学苑路85号,112.1722,30.3366,2026-01-14T1800,93,109,1.0,41,15,110,106,123,细颗粒物(PM2.5)
景德镇市,老干部活动中心,117.2114,29.2931,2026-01-14T1800,35,44,0.7,31,11,64,73,50,
景德镇市,兽医站,117.1893,29.2789,2026-01-14T1800,21,49,0.6,32,12,84,86,49,
景德镇市,陶研所,117.246,29.2958,2026-01-14T1800,38,42,0.5,30,4,57,75,54,细颗粒物(PM2.5)
景德镇市,青少年活动中心,117.154766,29.256967,2026-01-14T1800,36,58,/,52,39,65,70,54,颗粒物(PM10)
九江市,十里,115.9873,29.6816,2026-01-14T1800,,,,,,,78,,
九江市,茅山头,115.9583,29.7047,2026-01-14T1800,39,69,1.2,,6,38,84,,
九江市,西园,115.9877,29.7295,2026-01-14T1800,30,48,0.8,62,5,76,89,48,
九江市,综合工业园,115.9112,29.6038,2026-01-14T1800,35,48,0.8,61,7,84,98,50,
九江市,外国语学校,116.0254,29.6995,2026-01-14T1800,34,46,0.8,48,8,69,83,49,
九江市,莲花大道8号,116.010205,29.659402,2026-01-14T1800,23,46,0.5,27,6,62,88,46,
酒泉市,玉门东路5号,98.495752,39.733935,2026-01-14T1800,,,,11,,74,69,,
酒泉市,北大街108号,98.5099,39.7506,2026-01-14T1800,16,58,0.3,14,10,76,71,54,颗粒物(PM10)
喀什地区,巡警大队,76.0071,39.466,2026-01-14T1800,35,91,0.7,21,6,81,48,71,颗粒物(PM10)
喀什地区,吾办,75.9756,39.4693,2026-01-14T1800,,,0.6,21,3,,19,,
喀什地区,老干局,75.9485,39.4688,2026-01-14T1800,26,81,0.6,12,6,86,43,66,颗粒物(PM10)
开封市,肿瘤医院,114.3389,34.778,2026-01-14T1800,112,186,1.2,86,15,6,28,147,细颗粒物(PM2.5)
开封市,世纪星幼儿园,114.2884,34.7966,2026-01-14T1800,146,204,1.1,88,13,8,27,195,细颗粒物(PM2.5)
开封市,龙亭公园,114.3434,34.8101,2026-01-14T1800,141,200,1.4,90,16,8,26,188,细颗粒物(PM2.5)
开封市,汴京公园,114.3645,34.7955,2026-01-14T1800,136,220,1.3,88,13,8,26,180,细颗粒物(PM2.5)
开封市,技师学院,114.2485,34.8306,2026-01-14T1800,116,204,1.3,86,13,6,24,152,细颗粒物(PM2.5)
开封市,祥符区生态环境局,114.4518,34.7503,2026-01-14T1800,128,244,1.2,82,11,9,27,169,细颗粒物(PM2.5)
克拉玛依市,长征新村,84.886,45.6029,2026-01-14T1800,45,57,0.4,,5,,70,,
克拉玛依市,南林小区,84.8894,45.5827,2026-01-14T1800,29,55,0.6,17,3,66,72,53,颗粒物(PM10)
克拉玛依市,独山子区,84.896,44.3328,2026-01-14T1800,35,59,0.7,19,5,54,51,55,颗粒物(PM10)
克拉玛依市,乌尔禾区商贸楼,85.6888,46.0909,2026-01-14T1800,23,40,0.5,23,8,71,52,40,
克拉玛依市,白碱滩区新站,85.1045,45.6895,2026-01-14T1800,34,48,0.5,28,10,63,75,49,
克孜勒苏柯尔克孜自治州,市人民政府,76.1457,39.7143,2026-01-14T1800,54,109,0.3,14,4,99,79,80,颗粒物(PM10)
克孜勒苏柯尔克孜自治州,克州文化中心,76.1654,39.7157,2026-01-14T1800,40,104,0.6,15,7,88,72,77,颗粒物(PM10)
昆明市,呈贡新区,102.8203,24.889,2026-01-14T1800,17,36,0.5,17,,68,72,,
昆明市,龙泉镇,102.7253,25.0904,2026-01-14T1800,15,40,0.4,,13,90,82,,
昆明市,东风东路,102.7267,25.0378,2026-01-14T1800,15,21,0.3,16,11,87,84,28,
昆明市,金鼎山,102.6744,25.0671,2026-01-14T1800,12,39,0.6,13,14,85,80,39,
昆明市,碧鸡广场,102.6643,25.0401,2026-01-14T1800,14,20,0.3,14,12,82,80,26,
昆明市,官渡区博物馆,102.7491,25.012,2026-01-14T1800,9,25,0.0,12,5,91,89,29,
昆明市,青年创业园,102.8016,24.8336,2026-01-14T1800,12,17,0.4,4,4,87,85,28,
昆明市,昆明学院,102.8,24.9787,2026-01-14T1800,10,18,0.2,10,4,88,86,28,
昆明市,晋宁区生态环境分局,102.5969,24.6738,2026-01-14T1800,14,20,0.4,4,2,76,72,24,
昆明市,云天化总部,102.6673,24.9861,2026-01-14T1800,8,14,0.2,13,10,85,88,27,
拉萨市,八廓街,91.132,29.6515,2026-01-14T1800,9,22,0.1,7,7,100,85,32,
拉萨市,市环保局,91.1221,29.6748,2026-01-14T1800,15,20,0.5,15,7,88,74,28,
拉萨市,区监测站,91.0874,29.6476,2026-01-14T1800,7,10,0.5,11,4,93,76,30,
拉萨市,西藏大学,91.1774,29.6541,2026-01-14T1800,7,22,0.3,10,5,97,78,31,
拉萨市,区辐射站,90.9798,29.6586,2026-01-14T1800,9,23,0.4,20,3,87,68,28,
拉萨市,拉萨火车站,91.0831,29.6292,2026-01-14T1800,11,23,0.5,14,4,87,69,28,
来宾市,来宾技工学校,109.2203,23.7252,2026-01-14T1800,47,88,0.7,11,11,137,119,69,颗粒物(PM10)
来宾市,兴宾区政府,109.1781,23.7293,2026-01-14T1800,79,100,0.7,14,11,151,136,105,细颗粒物(PM2.5)
来宾市,中南小学,109.2312,23.7428,2026-01-14T1800,47,85,0.8,18,8,146,122,68,颗粒物(PM10)
兰州市,铁路设计院,103.8309,36.0467,2026-01-14T1800,,,,,,,,,
兰州市,百合公园,103.7439,36.0841,2026-01-14T1800,36,141,0.8,79,4,21,43,96,颗粒物(PM10)
兰州市,和平,103.9613,35.9985,2026-01-14T1800,22,101,0.4,2,2,87,64,76,颗粒物(PM10)
兰州市,庄浪东路808号,103.629272,36.093822,2026-01-14T1800,55,201,0.7,56,14,53,60,126,颗粒物(PM10)
兰州市,安宁西路88号,103.7251,36.104344,2026-01-14T1800,35,143,0.7,40,9,76,64,97,颗粒物(PM10)
兰州市,北滨河东路1号,103.846982,36.067567,2026-01-14T1800,26,140,0.8,74,7,,47,,
廊坊市,药材公司,116.6712,39.5109,2026-01-14T1800,52,85,1.0,52,5,14,25,72,细颗粒物(PM2.5)
廊坊市,开发区,116.7215,39.5592,2026-01-14T1800,61,98,0.8,57,5,11,21,83,细颗粒物(PM2.5)
廊坊市,北华航天学院,116.7246,39.5273,2026-01-14T1800,52,81,0.9,56,5,13,23,72,细颗粒物(PM2.5)
廊坊市,河北工业大学,116.7022,39.5454,2026-01-14T1800,54,86,0.8,52,6,15,20,74,细颗粒物(PM2.5)
乐山市,牛耳桥,103.7629,29.5844,2026-01-14T1800,40,48,,36,7,85,69,,
乐山市,市第三水厂,103.7501,29.6002,2026-01-14T1800,41,53,0.5,31,8,94,75,58,细颗粒物(PM2.5)
乐山市,市监测站,103.7571,29.5664,2026-01-14T1800,,,,,,,83,,
乐山市,理工大学,103.7313,29.563,2026-01-14T1800,37,49,0.3,17,7,101,79,53,细颗粒物(PM2.5)
丽江市,丽江古城,100.2497,26.8802,2026-01-14T1800,10,34,0.5,15,12,96,86,34,
丽江市,市中心,100.2203,26.8906,2026-01-14T1800,13,65,0.4,19,7,85,83,58,颗粒物(PM10)
丽水市,监测站大楼,119.9141,28.4513,2026-01-14T1800,48,60,0.9,53,6,54,79,67,细颗粒物(PM2.5)
丽水市,莲都小学,119.93,28.4589,2026-01-14T1800,20,44,/,17,/,112,92,44,
丽水市,余庄前,119.8794,28.4232,2026-01-14T1800,23,48,0.4,25,5,74,78,48,
连云港市,市环境监测站,119.1759,34.5885,2026-01-14T1800,141,183,1.2,85,18,23,66,188,细颗粒物(PM2.5)
连云港市,德源药业,119.3577,34.6971,2026-01-14T1800,144,205,1.3,77,8,25,51,192,细颗粒物(PM2.5)
连云港市,新城一中,119.178,34.8442,2026-01-14T1800,161,186,1.4,90,12,13,35,211,细颗粒物(PM2.5)
连云港市,胡沟管理处,119.3607,34.7519,2026-01-14T1800,110,210,1.0,116,28,9,56,144,细颗粒物(PM2.5)
连云港市,矿山设计院,119.1478,34.5913,2026-01-14T1800,132,207,1.5,94,20,12,65,175,细颗粒物(PM2.5)
连云港市,工贸学校,119.2414,34.6539,2026-01-14T1800,139,180,1.5,56,19,49,61,185,细颗粒物(PM2.5)
连云港市,连云街道,119.4171,34.734,2026-01-14T1800,121,207,1.2,102,16,1,64,159,细颗粒物(PM2.5)
凉山彝族自治州,西昌市政府,102.2629,27.8981,2026-01-14T1800,26,45,,14,10,95,74,,
凉山彝族自治州,凉山州政府,102.2686,27.885,2026-01-14T1800,31,34,0.5,14,10,91,72,45,
凉山彝族自治州,凯乐南路30号,102.2342,27.8859,2026-01-14T1800,20,40,0.4,19,8,86,69,40,
辽阳市,宏伟区,123.1978,41.2036,2026-01-14T1800,20,29,0.6,8,5,65,68,29,
辽阳市,新华园,123.1684,41.2497,2026-01-14T1800,,,,,,,65,,
辽阳市,滨河路,123.2355,41.2663,2026-01-14T1800,17,28,0.1,9,15,52,54,28,
辽阳市,铁西路150号,123.153,41.2874,2026-01-14T1800,20,29,0.6,13,8,58,59,29,
辽源市,环保局,125.1359,42.8845,2026-01-14T1800,25,44,0.5,35,7,48,47,44,
辽源市,安宁大街333号,125.0998,42.9134,2026-01-14T1800,30,44,0.5,18,7,54,52,44,
聊城市,区政府,115.9789,36.4372,2026-01-14T1800,144,229,1.5,75,17,23,32,192,细颗粒物(PM2.5)
聊城市,监控中心,115.9772,36.4986,2026-01-14T1800,161,232,1.4,72,10,26,34,211,细颗粒物(PM2.5)
聊城市,九州社区,116.0443,36.436,2026-01-14T1800,150,221,1.0,56,8,29,41,200,细颗粒物(PM2.5)
聊城市,星美广场,116.0564,36.4609,2026-01-14T1800,145,229,1.2,51,9,24,34,193,细颗粒物(PM2.5)
聊城市,利民路,116.0091,36.4495,2026-01-14T1800,152,225,1.3,74,14,18,28,202,细颗粒物(PM2.5)
林芝市,林芝监测站,94.3683,29.6373,2026-01-14T1800,3,12,0.3,3,4,,72,,
林芝市,林芝人民医院,94.3616,29.6634,2026-01-14T1800,6,25,0.3,5,2,84,48,27,
临沧市,市环保局,100.0779,23.8981,2026-01-14T1800,26,48,,6,7,87,75,,
临沧市,市气象局,100.0894,23.882,2026-01-14T1800,26,46,0.3,5,5,88,75,46,
临汾市,临钢医院,111.5552,36.0791,2026-01-14T1800,92,185,1.9,49,17,47,42,122,细颗粒物(PM2.5)
临汾市,技工学校,111.4984,36.0734,2026-01-14T1800,95,172,1.9,47,20,45,39,125,细颗粒物(PM2.5)
临汾市,市委,111.5017,36.0857,2026-01-14T1800,92,166,1.9,50,22,52,44,122,细颗粒物(PM2.5)
临汾市,唐尧大酒店,111.5048,36.1015,2026-01-14T1800,85,161,1.9,55,18,48,38,113,细颗粒物(PM2.5)
临汾市,启星学校,111.4879,36.053,2026-01-14T1800,94,171,1.9,56,21,50,40,124,细颗粒物(PM2.5)
临夏回族自治州,滨河东路1号,103.2464,35.6123,2026-01-14T1800,20,94,0.4,19,6,78,67,72,颗粒物(PM10)
临夏回族自治州,新华街21号,103.207136,35.599807,2026-01-14T1800,26,114,,20,8,62,61,,
临沂市,沂河小区,118.3429,35.0532,2026-01-14T1800,206,285,1.5,113,37,15,33,256,细颗粒物(PM2.5)
临沂市,鲁南制药厂,118.2962,35.0568,2026-01-14T1800,206,276,,120,47,8,19,256,细颗粒物(PM2.5)
临沂市,新光毛纺厂,118.2793,34.9976,2026-01-14T1800,,,,,,,51,,
临沂市,河东保险公司,118.3955,35.0889,2026-01-14T1800,173,261,1.5,101,23,18,31,223,细颗粒物(PM2.5)
临沂市,十里堡居委,118.3563,35.0215,2026-01-14T1800,195,290,1.6,107,46,10,35,245,细颗粒物(PM2.5)
临沂市,南坊新区,118.359,35.1067,2026-01-14T1800,168,234,1.7,112,24,14,34,218,细颗粒物(PM2.5)
临沂市,皇山花园小区,118.3915,35.0297,2026-01-14T1800,171,261,1.6,78,41,37,39,221,细颗粒物(PM2.5)
柳州市,柳东小学,109.4854,24.3898,2026-01-14T1800,62,86,0.7,15,12,171,139,84,细颗粒物(PM2.5)
柳州市,环保监测站,109.4109,24.3304,2026-01-14T1800,61,91,0.9,19,10,158,131,83,细颗粒物(PM2.5)
柳州市,河西水厂,109.3886,24.3408,2026-01-14T1800,61,93,0.8,24,10,164,127,83,细颗粒物(PM2.5)
柳州市,市四中,109.4263,24.2951,2026-01-14T1800,,,,26,,156,117,,
柳州市,市九中,109.396,24.3658,2026-01-14T1800,69,100,0.9,33,15,143,123,93,细颗粒物(PM2.5)
柳州市,古亭山,109.4912,24.3164,2026-01-14T1800,55,90,0.8,28,14,130,122,75,细颗粒物(PM2.5)
柳州市,市二中,109.5422,24.3994,2026-01-14T1800,51,74,0.7,19,16,154,126,70,细颗粒物(PM2.5)
六安市,监测大楼,116.5078,31.7369,2026-01-14T1800,49,63,0.4,29,5,97,76,68,细颗粒物(PM2.5)
六安市,皖西学院,116.4738,31.7642,2026-01-14T1800,50,68,0.5,25,7,111,87,69,细颗粒物(PM2.5)
六安市,朝阳厂,116.4997,31.7904,2026-01-14T1800,54,76,0.5,37,7,90,75,74,细颗粒物(PM2.5)
六安市,开发区,116.5566,31.7885,2026-01-14T1800,44,85,0.4,70,6,54,92,68,颗粒物(PM10)
六盘水市,黄土坡,104.8293,26.592,2026-01-14T1800,40,63,0.7,17,12,83,66,57,"颗粒物(PM10),细颗粒物(PM2.5)"
六盘水市,民中,104.8481,26.5898,2026-01-14T1800,46,51,0.6,18,6,79,63,64,细颗粒物(PM2.5)
六盘水市,双水,104.9541,26.5506,2026-01-14T1800,46,66,0.5,11,5,88,70,64,细颗粒物(PM2.5)
六盘水市,钟山大道中段564号,104.8899,26.5685,2026-01-14T1800,51,72,1.7,22,8,69,55,70,细颗粒物(PM2.5)
龙岩市,龙岩市监测站,117.022,25.1031,2026-01-14T1800,13,26,0.5,28,8,88,102,28,
龙岩市,闽西职业技术学院,117.0257,25.0662,2026-01-14T1800,13,27,0.5,28,7,82,108,27,
龙岩市,龙岩学院,117.0195,25.0306,2026-01-14T1800,19,38,/,12,9,90,109,38,
陇南市,滨江中学,104.9344,33.3827,2026-01-14T1800,32,136,1.4,63,10,29,54,93,颗粒物(PM10)
陇南市,市总工会,104.9551,33.3709,2026-01-14T1800,20,71,0.6,11,8,76,64,61,颗粒物(PM10)
娄底市,市监测站,111.9984,27.7346,2026-01-14T1800,54,75,0.8,22,12,121,106,74,细颗粒物(PM2.5)
娄底市,市政府,111.9888,27.7035,2026-01-14T1800,48,53,0.9,19,11,115,97,67,细颗粒物(PM2.5)
娄底市,涟钢职大,111.9812,27.7591,2026-01-14T1800,60,89,0.7,27,10,108,97,82,细颗粒物(PM2.5)
娄底市,娄底体校,112.0303,27.7457,2026-01-14T1800,55,73,0.8,37,6,80,86,75,细颗粒物(PM2.5)
泸州市,小市上码头,105.4427,28.9063,2026-01-14T1800,120,158,1.4,32,11,84,72,158,细颗粒物(PM2.5)
泸州市,兰田宪桥,105.4241,28.8573,2026-01-14T1800,108,158,1.3,,8,97,92,142,细颗粒物(PM2.5)
泸州市,市环监站,105.4378,28.8833,2026-01-14T1800,110,145,1.2,24,10,108,89,144,细颗粒物(PM2.5)
泸州市,纳溪中医医院,105.3689,28.7783,2026-01-14T1800,124,142,1.2,24,9,88,72,163,细颗粒物(PM2.5)
吕梁市,环保局,111.1447,37.5212,2026-01-14T1800,,,,,,,41,,
吕梁市,自来水公司,111.1285,37.5338,2026-01-14T1800,101,428,0.9,40,4,31,35,310,颗粒物(PM10)
吕梁市,马茂庄小学,111.1225,37.5093,2026-01-14T1800,106,461,0.5,62,4,15,38,352,颗粒物(PM10)
洛阳市,市委党校,112.3934,34.6517,2026-01-14T1800,36,73,0.7,34,13,65,52,62,颗粒物(PM10)
洛阳市,河南林校,112.494,34.6883,2026-01-14T1800,44,89,0.7,33,16,65,42,70,颗粒物(PM10)
洛阳市,开发区管委会,112.3843,34.623,2026-01-14T1800,43,76,0.8,26,14,67,58,63,颗粒物(PM10)
洛阳市,市委新办公区,112.4263,34.6249,2026-01-14T1800,36,77,0.5,31,13,71,60,64,颗粒物(PM10)
洛阳市,伊滨,112.6005,34.6323,2026-01-14T1800,,,0.5,,,63,46,,
洛阳市,中移产业园,112.495,34.6338,2026-01-14T1800,57,77,0.6,25,13,63,47,78,细颗粒物(PM2.5)
洛阳市,吉利监测站,112.5736,34.8993,2026-01-14T1800,36,77,0.7,27,12,73,59,64,颗粒物(PM10)
洛阳市,河科大西苑校区,112.3678,34.6623,2026-01-14T1800,36,78,0.7,33,14,68,57,64,颗粒物(PM10)
洛阳市,英才小学,112.4387,34.678,2026-01-14T1800,43,83,0.7,38,17,62,47,67,颗粒物(PM10)
洛阳市,春都路1号院,112.460027,34.694929,2026-01-14T1800,36,91,0.8,25,14,67,48,71,颗粒物(PM10)
漯河市,三五一五工厂,114.051,33.5721,2026-01-14T1800,133,196,0.9,72,14,21,31,176,细颗粒物(PM2.5)
漯河市,漯河大学,114.0055,33.5698,2026-01-14T1800,102,182,1.1,66,13,21,29,134,细颗粒物(PM2.5)
漯河市,市水利局,114.0134,33.5826,2026-01-14T1800,114,190,1.1,58,12,19,22,149,细颗粒物(PM2.5)
漯河市,市广电局,114.0261,33.5697,2026-01-14T1800,104,188,1.0,66,13,28,34,137,细颗粒物(PM2.5)
漯河市,市图书馆,113.9691,33.568,2026-01-14T1800,130,214,1.0,61,11,20,28,172,细颗粒物(PM2.5)
漯河市,韶山路11号,114.089259,33.588274,2026-01-14T1800,116,198,1.1,62,14,25,29,152,细颗粒物(PM2.5)
马鞍山市,湖东路四小,118.5084,31.6838,2026-01-14T1800,33,64,1.2,61,10,53,67,57,颗粒物(PM10)
马鞍山市,开发区,118.5019,31.6449,2026-01-14T1800,45,67,0.9,51,10,67,64,63,细颗粒物(PM2.5)
马鞍山市,雨山,118.4914,31.681,2026-01-14T1800,37,64,1.2,60,12,60,70,57,颗粒物(PM10)
马鞍山市,慈湖高新区,118.527362,31.722269,2026-01-14T1800,41,81,0.9,80,10,39,67,66,颗粒物(PM10)
茂名市,电白南海,111.0285,21.469,2026-01-14T1800,46,68,1.2,46,10,108,150,64,细颗粒物(PM2.5)
茂名市,茂石化七小,110.9294,21.6533,2026-01-14T1800,22,70,0.5,17,5,126,146,60,颗粒物(PM10)
茂名市,健康路,110.9108,21.6688,2026-01-14T1800,27,51,0.7,16,7,142,161,51,颗粒物(PM10)
茂名市,高岭,110.8592,21.6826,2026-01-14T1800,14,66,/,17,8,139,157,58,颗粒物(PM10)
茂名市,电白水东,111.0101,21.5165,2026-01-14T1800,29,58,/,14,7,127,146,54,颗粒物(PM10)
眉山市,气象局,103.8414,30.0871,2026-01-14T1800,31,72,,,11,104,84,,
眉山市,区人社局,103.829,30.0563,2026-01-14T1800,27,52,0.6,52,9,69,79,51,颗粒物(PM10)
眉山市,眉职院,103.8836,30.0695,2026-01-14T1800,27,46,0.5,17,1,105,79,46,
梅州市,梅江月梅,116.1248,24.3307,2026-01-14T1800,,,/,,/,133,113,,
梅州市,梅县新城,116.0798,24.2719,2026-01-14T1800,36,50,0.8,29,8,117,107,52,细颗粒物(PM2.5)
梅州市,梅龙,116.1234,24.2994,2026-01-14T1800,28,44,0.8,23,9,114,103,44,
绵阳市,富乐山,104.7775,31.4741,2026-01-14T1800,22,33,0.2,7,8,80,70,33,
绵阳市,高新区自来水公司,104.6698,31.4668,2026-01-14T1800,39,54,0.6,35,9,62,57,55,细颗粒物(PM2.5)
绵阳市,西科大附属小学,104.6899,31.5324,2026-01-14T1800,26,40,0.0,26,8,81,73,40,
绵阳市,安州区旅游局,104.5647,31.5343,2026-01-14T1800,48,60,0.5,35,11,78,72,67,细颗粒物(PM2.5)
绵阳市,科技城新区公安局,104.7092,31.4972,2026-01-14T1800,12,,0.3,,,91,77,,
绵阳市,绵阳市气象局,104.765114,31.453094,2026-01-14T1800,15,52,0.3,16,7,82,55,51,颗粒物(PM10)
牡丹江市,环保大楼,129.61,44.561,2026-01-14T1800,56,56,1.2,64,12,20,59,77,细颗粒物(PM2.5)
牡丹江市,机车工厂,129.6364,44.6075,2026-01-14T1800,41,54,0.8,45,6,23,52,58,细颗粒物(PM2.5)
牡丹江市,第一中学,129.6386,44.5462,2026-01-14T1800,37,54,0.7,66,11,6,56,53,细颗粒物(PM2.5)
牡丹江市,东晓云街98号,129.5992,44.5964,2026-01-14T1800,78,89,1.3,58,14,15,56,104,细颗粒物(PM2.5)
内江市,市监测站,105.0703,29.61,2026-01-14T1800,54,59,0.8,22,6,107,103,74,细颗粒物(PM2.5)
内江市,内江二中,105.0657,29.5807,2026-01-14T1800,59,75,0.8,27,5,98,87,80,细颗粒物(PM2.5)
内江市,内江日报社,105.0407,29.5828,2026-01-14T1800,55,86,0.6,34,3,98,92,75,细颗粒物(PM2.5)
内江市,玉峰路西段888号,105.0433,29.6105,2026-01-14T1800,52,77,0.9,,1,100,111,,
那曲市,那曲监测站,92.0653,31.4846,2026-01-14T1800,9,34,0.4,6,5,,68,,
那曲市,那曲市委宣传部,92.0515,31.4787,2026-01-14T1800,,,,,,,83,,
南昌市,省林业公司,115.8887,28.7006,2026-01-14T1800,44,66,0.9,32,10,96,72,62,细颗粒物(PM2.5)
南昌市,林科所,115.813,28.7443,2026-01-14T1800,41,70,0.4,62,11,66,83,60,颗粒物(PM10)
南昌市,建工学校,115.8518,28.687,2026-01-14T1800,51,79,0.9,51,19,83,71,70,细颗粒物(PM2.5)
南昌市,象湖,115.8926,28.6425,2026-01-14T1800,48,73,0.6,66,13,60,74,67,细颗粒物(PM2.5)
南昌市,机电学校,115.9084,28.6062,2026-01-14T1800,53,85,0.6,29,12,107,96,73,细颗粒物(PM2.5)
南昌市,外国语学校,115.9718,28.7032,2026-01-14T1800,42,72,0.6,46,16,80,84,61,颗粒物(PM10)
南昌市,工业二路,115.7923,28.6873,2026-01-14T1800,51,70,0.9,42,9,79,74,70,细颗粒物(PM2.5)
南昌市,南京东路235号,115.931587,28.686774,2026-01-14T1800,48,85,0.8,79,10,53,83,68,颗粒物(PM10)
南充市,南充市委,106.0791,30.8022,2026-01-14T1800,97,114,0.9,31,5,58,46,128,细颗粒物(PM2.5)
南充市,南充炼油厂,106.1038,30.8215,2026-01-14T1800,93,121,1.0,28,7,70,53,123,细颗粒物(PM2.5)
南充市,梨树横街98号,106.108336,30.788436,2026-01-14T1800,90,110,0.7,34,9,83,56,119,细颗粒物(PM2.5)
南充市,清泉寺北路188号,106.1172,30.843,2026-01-14T1800,94,99,0.7,,,75,58,124,细颗粒物(PM2.5)
南充市,同庆路1号,106.067,30.7616,2026-01-14T1800,85,97,0.9,22,8,74,57,113,细颗粒物(PM2.5)
南京市,迈皋桥,118.8033,32.1085,2026-01-14T1800,24,57,0.8,39,6,70,80,54,颗粒物(PM10)
南京市,草场门,118.7487,32.057,2026-01-14T1800,27,63,0.7,44,9,71,28,57,颗粒物(PM10)
南京市,中华门,118.770105,32.004342,2026-01-14T1800,31,53,0.6,40,6,72,74,52,颗粒物(PM10)
南京市,瑞金路,118.8059,32.0329,2026-01-14T1800,44,78,1.1,68,4,30,58,64,颗粒物(PM10)
南京市,玄武湖,118.7946,32.0774,2026-01-14T1800,22,42,0.8,11,4,74,68,42,
南京市,浦口,118.6415,32.0964,2026-01-14T1800,21,56,0.9,46,17,63,58,53,颗粒物(PM10)
南京市,奥体中心,118.730129,32.000956,2026-01-14T1800,24,58,0.7,41,11,76,70,54,颗粒物(PM10)
南京市,仙林大学城,118.9072,32.1047,2026-01-14T1800,24,61,1.3,50,16,62,68,56,颗粒物(PM10)
南京市,江宁彩虹桥,118.8443,31.919,2026-01-14T1800,22,38,0.4,32,3,67,71,38,
南京市,六合雄州,118.8497,32.3599,2026-01-14T1800,60,100,1.8,83,21,37,68,82,细颗粒物(PM2.5)
南京市,新模范马路66号,118.7641,32.0841,2026-01-14T1800,,,,43,4,90,89,,
南京市,汶溪路181号,118.8707617,31.34017673,2026-01-14T1800,37,56,0.7,38,8,85,90,53,"颗粒物(PM10),细颗粒物(PM2.5)"
南京市,中山西路1号,119.019,31.6512,2026-01-14T1800,25,31,0.5,20,4,88,85,36,
南宁市,二十一中,108.3098,22.788,2026-01-14T1800,47,62,0.5,16,6,154,128,65,细颗粒物(PM2.5)
南宁市,北湖,108.3135,22.8529,2026-01-14T1800,49,68,0.9,27,6,140,125,68,细颗粒物(PM2.5)
南宁市,市监测站,108.3205,22.8222,2026-01-14T1800,49,66,0.7,21,9,144,126,68,细颗粒物(PM2.5)
南宁市,大自然花园,108.3828,22.8038,2026-01-14T1800,50,66,0.7,16,8,166,138,69,细颗粒物(PM2.5)
南宁市,区农职院,108.2397,22.8462,2026-01-14T1800,39,56,0.9,20,10,143,122,55,细颗粒物(PM2.5)
南宁市,英华嘉园,108.3285,22.7356,2026-01-14T1800,40,73,0.7,30,6,146,124,62,颗粒物(PM10)
南宁市,红星社区,108.4829,22.762,2026-01-14T1800,41,66,0.8,19,8,154,132,58,"颗粒物(PM10),细颗粒物(PM2.5)"
南宁市,起凤路9号,108.2927,23.1477,2026-01-14T1800,42,63,0.7,17,4,143,136,59,细颗粒物(PM2.5)
南宁市,乐贤路16号,108.2177,22.7774,2026-01-14T1800,41,67,0.6,26,4,141,120,59,颗粒物(PM10)
南平市,南平市监测站,118.1682,26.6371,2026-01-14T1800,29,46,0.7,32,5,66,88,46,
南平市,南平七中,118.1757,26.6276,2026-01-14T1800,22,54,0.8,36,6,60,85,52,颗粒物(PM10)
南通市,狼山街道,120.9056,31.9669,2026-01-14T1800,52,70,0.5,51,4,52,77,72,细颗粒物(PM2.5)
南通市,城中,120.8635,32.0231,2026-01-14T1800,50,90,0.9,77,5,52,66,70,颗粒物(PM10)
南通市,星湖花园,120.9376,31.9301,2026-01-14T1800,,,0.6,,6,44,73,,
南通市,紫琅学院,120.8053,32.046,2026-01-14T1800,76,133,0.9,145,12,2,48,102,细颗粒物(PM2.5)
南通市,通州监测站,121.0631,32.0644,2026-01-14T1800,46,78,0.9,72,7,62,78,64,"颗粒物(PM10),细颗粒物(PM2.5)"
南通市,环境教育馆,120.9348,31.9874,2026-01-14T1800,45,70,0.7,62,6,57,76,63,细颗粒物(PM2.5)
南通市,洪江路,120.8692,31.9885,2026-01-14T1800,47,73,0.9,75,5,39,55,65,细颗粒物(PM2.5)
南阳市,瓦房庄,112.5338,33.0086,2026-01-14T1800,82,106,0.8,28,9,66,58,109,细颗粒物(PM2.5)
南阳市,汉画馆,112.5002,32.9734,2026-01-14T1800,73,125,0.8,37,9,59,58,98,细颗粒物(PM2.5)
南阳市,气象站,112.5778,33.0144,2026-01-14T1800,75,115,0.9,32,8,74,59,100,细颗粒物(PM2.5)
南阳市,理工学院,112.548,32.9687,2026-01-14T1800,60,101,0.8,33,8,67,53,82,细颗粒物(PM2.5)
南阳市,卧龙区政府,112.5233,32.9921,2026-01-14T1800,74,124,0.8,37,8,61,55,99,细颗粒物(PM2.5)
宁波市,区环保大楼,121.8352,29.9111,2026-01-14T1800,30,62,0.6,50,6,89,108,56,颗粒物(PM10)
宁波市,万里学院,121.5595,29.8208,2026-01-14T1800,28,68,0.5,41,5,125,121,59,颗粒物(PM10)
宁波市,龙赛医院,121.713,29.9564,2026-01-14T1800,33,66,0.7,33,3,103,113,58,颗粒物(PM10)
宁波市,太古小学,121.5855,29.8635,2026-01-14T1800,35,62,0.6,26,5,133,128,56,颗粒物(PM10)
宁波市,市环境监测中心,121.5239,29.8673,2026-01-14T1800,37,76,0.6,40,7,109,113,63,颗粒物(PM10)
宁波市,万里国际学校,121.6156,29.9015,2026-01-14T1800,30,56,0.4,33,5,133,130,53,颗粒物(PM10)
宁波市,白沙活动中心,121.5593,29.8976,2026-01-14T1800,29,58,0.6,31,5,120,117,54,颗粒物(PM10)
宁波市,中科路88号,121.8962,29.7529,2026-01-14T1800,19,44,0.2,17,5,136,131,44,
宁德市,宁德市监测站,119.5387,26.6611,2026-01-14T1800,32,59,1.0,38,7,77,98,55,颗粒物(PM10)
宁德市,宁德一中,119.5231,26.6562,2026-01-14T1800,36,53,0.6,18,7,99,102,52,"颗粒物(PM10),细颗粒物(PM2.5)"
怒江傈僳族自治州,州监测站,98.859,25.8541,2026-01-14T1800,16,45,,14,,80,71,,
怒江傈僳族自治州,泸水一中,98.8607,25.8168,2026-01-14T1800,21,39,0.6,13,6,72,61,39,
攀枝花市,弄弄坪,101.6891,26.571,2026-01-14T1800,28,,0.7,14,16,100,80,,
攀枝花市,河门口,101.577,26.5914,2026-01-14T1800,31,46,1.3,19,29,98,81,46,
攀枝花市,仁和,101.7365,26.4986,2026-01-14T1800,16,25,0.5,10,9,90,80,29,
攀枝花市,四十中小,101.7222,26.567,2026-01-14T1800,35,57,0.9,17,19,88,74,54,颗粒物(PM10)
盘锦市,开发区,122.0303,41.1489,2026-01-14T1800,47,,1.0,26,5,34,51,65,细颗粒物(PM2.5)
盘锦市,兴隆台,122.0486,41.0883,2026-01-14T1800,29,35,0.7,38,6,37,44,42,
盘锦市,新生街道,121.8297,41.1026,2026-01-14T1800,21,31,0.5,21,4,56,62,31,
平顶山市,新华旅馆,113.3257,33.7423,2026-01-14T1800,67,133,0.6,50,9,35,36,92,颗粒物(PM10)
平顶山市,规划设计院,113.2917,33.737,2026-01-14T1800,,,1.1,51,,26,34,,
平顶山市,平顶山工学院,113.182,33.7738,2026-01-14T1800,63,121,0.4,27,10,64,46,86,颗粒物(PM10)
平顶山市,石龙区,112.8736,33.9068,2026-01-14T1800,56,99,0.5,32,9,51,48,77,细颗粒物(PM2.5)
平顶山市,姚电大道23号,113.284,33.7139,2026-01-14T1800,86,184,0.8,76,12,18,31,117,颗粒物(PM10)
平凉市,聚贤嘉苑,106.6633,35.5338,2026-01-14T1800,22,98,0.6,24,15,71,91,74,颗粒物(PM10)
平凉市,博物馆,106.7021,35.5307,2026-01-14T1800,19,97,0.4,20,12,80,90,74,颗粒物(PM10)
萍乡市,中医院,113.8384,27.6436,2026-01-14T1800,36,66,1.2,31,5,99,116,58,颗粒物(PM10)
萍乡市,市环保局,113.8677,27.6438,2026-01-14T1800,25,37,0.8,22,16,120,125,38,
萍乡市,安源区政府,113.8663,27.6202,2026-01-14T1800,42,,0.8,19,11,96,90,59,细颗粒物(PM2.5)
萍乡市,联洪村委会,113.8686,27.6668,2026-01-14T1800,35,62,0.7,21,5,106,112,56,颗粒物(PM10)
莆田市,荔城区仓后路,119.0142,25.4324,2026-01-14T1800,20,63,/,20,/,107,117,57,颗粒物(PM10)
莆田市,莆田市监测站,119.0016,25.4553,2026-01-14T1800,23,52,0.6,20,3,105,120,51,颗粒物(PM10)
莆田市,涵江区六中,119.112,25.4561,2026-01-14T1800,22,52,0.6,17,/,111,123,51,颗粒物(PM10)
莆田市,秀屿区政府,119.1014,25.3215,2026-01-14T1800,23,60,0.4,13,4,115,124,55,颗粒物(PM10)
濮阳市,环保局,115.0312,35.7636,2026-01-14T1800,79,135,0.8,56,11,23,21,105,细颗粒物(PM2.5)
濮阳市,濮水河管理处,115,35.7667,2026-01-14T1800,84,176,1.3,63,12,18,23,113,颗粒物(PM10)
濮阳市,中原东路68号,115.0552,35.7816,2026-01-14T1800,85,162,0.9,61,11,22,24,113,细颗粒物(PM2.5)
濮阳市,任丘路479号,115.0923632,35.76857718,2026-01-14T1800,92,168,1.2,65,14,20,19,122,细颗粒物(PM2.5)
普洱市,市环保局,100.9801,22.7634,2026-01-14T1800,3,55,0.3,7,5,72,55,53,颗粒物(PM10)
普洱市,普洱第二中学,100.9763,22.8237,2026-01-14T1800,10,42,0.3,7,5,72,55,42,
七台河市,中波台,131.0413,45.7795,2026-01-14T1800,14,23,0.4,25,13,40,56,23,
七台河市,人民广场,131.0136,45.7688,2026-01-14T1800,,,0.6,44,10,27,55,,
七台河市,新建矿广场,130.8639,45.8144,2026-01-14T1800,30,73,0.4,21,10,39,50,62,颗粒物(PM10)
齐齐哈尔市,安居小区,123.9307,47.3641,2026-01-14T1800,68,,0.6,43,11,30,55,92,细颗粒物(PM2.5)
齐齐哈尔市,中心广场,123.9497,47.3389,2026-01-14T1800,24,24,0.8,36,9,30,48,35,
齐齐哈尔市,农牧车辆厂,123.9483,47.3229,2026-01-14T1800,12,44,0.5,19,9,35,51,44,
齐齐哈尔市,市环境监测站,123.9442,47.2994,2026-01-14T1800,21,43,0.9,30,8,38,54,43,
齐齐哈尔市,富区青少年活动中心,123.6341,47.2079,2026-01-14T1800,34,92,0.7,16,8,54,59,71,颗粒物(PM10)
黔东南苗族侗族自治州,市环境监测站,107.9765,26.5724,2026-01-14T1800,90,105,0.9,31,7,37,26,119,细颗粒物(PM2.5)
黔东南苗族侗族自治州,凯里学院,107.8909,26.531,2026-01-14T1800,90,102,0.8,38,4,33,57,119,细颗粒物(PM2.5)
黔南布依族苗族自治州,小围寨,107.5223,26.2371,2026-01-14T1800,75,78,0.9,11,6,62,87,100,细颗粒物(PM2.5)
黔南布依族苗族自治州,沙坝,107.5175,26.2977,2026-01-14T1800,66,78,1.1,16,5,61,79,89,细颗粒物(PM2.5)
黔西南布依族苗族自治州,场坝街,104.9022,25.0943,2026-01-14T1800,53,72,0.7,15,6,71,66,73,细颗粒物(PM2.5)
黔西南布依族苗族自治州,坪东大道,104.8812,25.0994,2026-01-14T1800,62,66,0.7,15,6,73,64,84,细颗粒物(PM2.5)
钦州市,市环保站,108.6238,21.9667,2026-01-14T1800,24,53,0.4,17,5,144,140,52,颗粒物(PM10)
钦州市,沙埠小学,108.655,21.9481,2026-01-14T1800,25,57,0.3,16,5,150,145,54,颗粒物(PM10)
钦州市,港区一小,108.5989,21.7435,2026-01-14T1800,38,79,0.7,27,8,152,137,65,颗粒物(PM10)
钦州市,北职校,108.5959,21.9634,2026-01-14T1800,27,58,0.7,21,9,145,139,54,颗粒物(PM10)
秦皇岛市,建设大厦,119.5247,39.9346,2026-01-14T1800,48,107,1.0,52,11,23,32,79,颗粒物(PM10)
秦皇岛市,文明里,119.5979,39.938,2026-01-14T1800,45,88,0.8,49,12,30,29,69,颗粒物(PM10)
秦皇岛市,南园路157号,119.7458,39.9952,2026-01-14T1800,42,100,0.8,40,9,32,31,75,颗粒物(PM10)
秦皇岛市,翠岛大街1号,119.5131,39.8858,2026-01-14T1800,63,,0.9,47,13,17,30,,
秦皇岛市,北戴河轮滑馆,119.509013,39.825305,2026-01-14T1800,,,0.8,,5,27,32,,
青岛市,市南区东部子站,120.404,36.0625,2026-01-14T1800,53,102,0.7,36,10,59,72,76,颗粒物(PM10)
青岛市,四方区子站,120.362344,36.10282,2026-01-14T1800,78,129,1.1,35,4,63,79,104,细颗粒物(PM2.5)
青岛市,市南区西部子站,120.294373,36.054183,2026-01-14T1800,44,90,1.1,36,8,70,72,70,颗粒物(PM10)
青岛市,崂山区子站,120.4581,36.0858,2026-01-14T1800,36,95,0.5,23,10,69,80,73,颗粒物(PM10)
青岛市,城阳区子站,120.3945,36.3083,2026-01-14T1800,63,149,1.2,74,11,57,74,100,颗粒物(PM10)
青岛市,市北区南部,120.3454,36.0735,2026-01-14T1800,,,1.0,22,2,83,80,,
青岛市,李沧区北部,120.3897,36.18,2026-01-14T1800,90,141,1.3,57,12,64,70,119,细颗粒物(PM2.5)
青岛市,盟旺路653号,120.5222,36.4089,2026-01-14T1800,79,148,0.9,68,9,57,78,105,细颗粒物(PM2.5)
青岛市,珠江路669号,120.196923,35.954556,2026-01-14T1800,51,85,0.8,31,10,63,81,70,细颗粒物(PM2.5)
青岛市,黄岛区人民政府广场,120.0424,35.8656,2026-01-14T1800,,,,,,,73,,
清远市,凤城街办,113.0218,23.7086,2026-01-14T1800,50,78,/,60,/,153,139,69,细颗粒物(PM2.5)
清远市,技师学院,113.0479,23.6343,2026-01-14T1800,41,63,0.5,36,7,197,166,97,臭氧1小时(O3_1h)
清远市,清新太和,112.9898,23.7403,2026-01-14T1800,47,77,0.6,39,6,165,159,65,细颗粒物(PM2.5)
清远市,清城东城,113.076,23.72,2026-01-14T1800,46,85,/,53,/,150,143,68,颗粒物(PM10)
庆阳市,庆阳五中,107.6325,35.7357,2026-01-14T1800,34,71,0.3,12,5,82,83,61,颗粒物(PM10)
庆阳市,市环保局,107.6361,35.7067,2026-01-14T1800,21,74,0.5,15,5,80,84,62,颗粒物(PM10)
曲靖市,环境监测站,103.7897,25.5036,2026-01-14T1800,14,39,0.3,11,7,116,104,39,
曲靖市,烟厂办公区,103.8013,25.5357,2026-01-14T1800,21,31,0.4,9,4,118,95,37,
曲靖市,南苑二区,103.7926,25.4651,2026-01-14T1800,16,24,0.3,8,7,116,100,37,
曲靖市,曲靖师范学院,103.7442,25.5259,2026-01-14T1800,18,43,0.3,10,4,116,96,43,
衢州市,环保大楼,118.8694,28.94,2026-01-14T1800,47,74,/,52,/,82,90,65,细颗粒物(PM2.5)
衢州市,衢州学院,118.8622,28.9809,2026-01-14T1800,34,56,0.5,43,6,80,83,53,颗粒物(PM10)
衢州市,衢州三中,118.9646,28.9832,2026-01-14T1800,42,65,0.8,32,6,98,82,59,细颗粒物(PM2.5)
泉州市,涂山街,118.5818,24.9116,2026-01-14T1800,25,59,0.5,19,5,117,122,55,颗粒物(PM10)
泉州市,津头埔,118.597,24.8976,2026-01-14T1800,23,60,0.6,25,6,108,120,55,颗粒物(PM10)
泉州市,万安,118.6669,24.9422,2026-01-14T1800,52,64,0.5,,,104,118,,
泉州市,霞新路6号,118.6355,24.9148,2026-01-14T1800,22,39,0.5,24,/,109,126,39,
日喀则市,日喀则监测站,88.8873,29.2723,2026-01-14T1800,9,15,0.3,5,19,97,71,31,
日喀则市,林业技术推广中心,88.8775,29.2425,2026-01-14T1800,11,13,0.3,5,10,107,82,34,
日照市,监测站,119.4711,35.421,2026-01-14T1800,116,193,2.7,99,26,2,24,152,细颗粒物(PM2.5)
日照市,市政府广场,119.523,35.4216,2026-01-14T1800,103,188,2.3,104,24,2,59,135,细颗粒物(PM2.5)
日照市,港务局,119.5511,35.4113,2026-01-14T1800,110,256,2.1,107,24,0,54,153,颗粒物(PM10)
日照市,职业技术学院,119.5326,35.4627,2026-01-14T1800,80,173,2.0,100,14,2,59,112,颗粒物(PM10)
日照市,岚山环保分局,119.3267,35.1043,2026-01-14T1800,128,188,1.2,88,16,22,64,169,细颗粒物(PM2.5)
三门峡市,市政府,111.1922,34.7752,2026-01-14T1800,95,124,1.2,67,16,30,33,125,细颗粒物(PM2.5)
三门峡市,开发区,111.1588,34.794,2026-01-14T1800,85,148,1.0,74,9,28,33,113,细颗粒物(PM2.5)
三门峡市,三门峡市第一小学,111.1911,34.7829,2026-01-14T1800,91,149,,65,16,32,30,120,细颗粒物(PM2.5)
三门峡市,富达温泉假日酒店,111.1031,34.719,2026-01-14T1800,88,148,1.1,81,19,17,27,117,细颗粒物(PM2.5)
三明市,三钢,117.621,26.2626,2026-01-14T1800,27,44,0.8,33,9,84,94,44,
三明市,三明二中,117.6352,26.2714,2026-01-14T1800,19,38,0.6,16,6,93,93,38,
三明市,三元区政府,117.6028,26.2377,2026-01-14T1800,29,42,0.9,44,6,69,89,42,
三亚市,河西子站,109.4962,18.2682,2026-01-14T1800,27,,0.4,11,2,165,139,,
三亚市,君悦子站,109.7348,18.3443,2026-01-14T1800,26,54,0.5,7,5,166,165,58,臭氧1小时(O3_1h)
三亚市,城东小学站,109.1714,18.3739,2026-01-14T1800,39,54,/,11,/,138,126,55,细颗粒物(PM2.5)
山南市,山南监测站,91.7592,29.234,2026-01-14T1800,14,14,0.4,6,5,89,71,28,
山南市,山南人民医院,91.7701,29.2436,2026-01-14T1800,3,15,0.3,6,8,83,69,26,
汕头市,金平子站,116.6795,23.3666,2026-01-14T1800,,,,,,,147,,
汕头市,龙湖子站,116.7248,23.3632,2026-01-14T1800,25,52,/,17,10,126,,51,颗粒物(PM10)
汕头市,濠江子站,116.7257,23.2774,2026-01-14T1800,27,50,/,16,7,136,121,50,
汕头市,澄海子站,116.7518,23.4712,2026-01-14T1800,25,56,0.7,,7,129,123,,
汕头市,潮阳子站,116.6088,23.2539,2026-01-14T1800,17,46,0.5,10,6,132,123,46,
汕头市,潮南峡山,116.4539,23.2684,2026-01-14T1800,23,46,0.6,15,9,133,131,46,
汕头市,潮南子站,116.4069,23.2533,2026-01-14T1800,25,52,/,17,8,121,118,51,颗粒物(PM10)
汕尾市,市环保局,115.3653,22.7751,2026-01-14T1800,24,42,0.6,17,7,128,112,42,
汕尾市,新城中学,115.362,22.7926,2026-01-14T1800,24,43,0.5,14,5,132,120,43,
商洛市,监测站,109.9155,33.8714,2026-01-14T1800,49,144,0.4,20,4,74,76,97,颗粒物(PM10)
商洛市,商州区中学,109.9647,33.8486,2026-01-14T1800,32,174,0.4,15,5,76,75,112,颗粒物(PM10)
商丘市,环境监测站,115.6701,34.4283,2026-01-14T1800,158,196,0.8,49,8,48,50,208,细颗粒物(PM2.5)
商丘市,粮食局,115.6458,34.4047,2026-01-14T1800,138,211,1.0,45,7,45,45,183,细颗粒物(PM2.5)
商丘市,梁园区档案局,115.6069,34.4465,2026-01-14T1800,161,199,0.8,51,9,42,43,211,细颗粒物(PM2.5)
商丘市,北海东路185号,115.6701,34.3767,2026-01-14T1800,144,214,0.9,54,4,34,49,192,细颗粒物(PM2.5)
商丘市,中山大街3号,115.6172,34.3704,2026-01-14T1800,163,232,0.6,55,7,29,46,213,细颗粒物(PM2.5)
上海市,普陀,121.401,31.2382,2026-01-14T1800,53,80,0.7,70,10,88,105,73,细颗粒物(PM2.5)
上海市,十五厂,121.4774,31.2043,2026-01-14T1800,51,84,1.0,66,9,84,102,70,细颗粒物(PM2.5)
上海市,虹口,121.4673,31.3011,2026-01-14T1800,55,89,0.7,65,10,82,96,75,细颗粒物(PM2.5)
上海市,静安监测站,121.4253,31.226,2026-01-14T1800,47,78,0.5,70,10,91,109,65,细颗粒物(PM2.5)
上海市,浦东川沙,121.7029,31.1905,2026-01-14T1800,41,85,0.5,66,8,79,114,68,颗粒物(PM10)
上海市,浦东新区监测站,121.5339,31.229,2026-01-14T1800,42,67,0.7,47,8,103,111,59,"颗粒物(PM10),细颗粒物(PM2.5)"
上海市,浦东张江,121.5776,31.2038,2026-01-14T1800,40,75,0.5,50,,102,119,,
上海市,宝山庙行,121.4242,31.3303,2026-01-14T1800,48,93,0.6,70,9,78,98,72,颗粒物(PM10)
上海市,崇明上实东滩,121.8789,31.4662,2026-01-14T1800,29,60,0.6,68,5,71,98,55,颗粒物(PM10)
上海市,嘉定南翔,121.316,31.2839,2026-01-14T1800,42,68,0.6,86,8,75,99,59,"颗粒物(PM10),细颗粒物(PM2.5)"
上海市,金山新城,121.3357,30.7455,2026-01-14T1800,57,68,0.8,56,,97,118,,
上海市,闵行浦江,121.4996,31.0741,2026-01-14T1800,49,85,0.6,57,8,102,117,68,"颗粒物(PM10),细颗粒物(PM2.5)"
上海市,青浦徐泾,121.2886,31.1663,2026-01-14T1800,52,75,0.7,49,9,106,110,72,细颗粒物(PM2.5)
上海市,松江图书馆,121.2193,31.0382,2026-01-14T1800,53,,0.6,50,11,108,123,,
上海市,长宁仙霞,121.3904,31.206,2026-01-14T1800,,82,0.4,70,10,92,102,,
上海市,浦东惠南,121.7964,31.0507,2026-01-14T1800,44,93,0.6,68,6,85,109,72,颗粒物(PM10)
上海市,奉贤南桥新城,121.4891,30.925,2026-01-14T1800,47,86,0.5,80,5,96,122,68,颗粒物(PM10)
上海市,冠生园路458号,121.417401,31.16637,2026-01-14T1800,50,78,0.6,68,7,81,102,69,细颗粒物(PM2.5)
上海市,宁武路151号,121.541914,31.268301,2026-01-14T1800,58,113,0.8,103,7,37,79,82,颗粒物(PM10)
上饶市,市监测站,117.9758,28.4439,2026-01-14T1800,15,36,/,32,6,72,79,36,
上饶市,凤凰光学,117.9521,28.4637,2026-01-14T1800,22,48,0.9,45,7,58,72,48,
上饶市,双创科技城,117.897,28.4316,2026-01-14T1800,36,49,0.7,33,6,85,80,52,细颗粒物(PM2.5)
上饶市,裕丰大道,118.190438,28.444845,2026-01-14T1800,28,39,0.8,46,13,74,96,40,
韶关市,市八中,113.5821,24.7733,2026-01-14T1800,42,69,0.6,25,12,137,109,60,颗粒物(PM10)
韶关市,园林处,113.5916,24.7973,2026-01-14T1800,39,44,/,29,10,133,105,55,细颗粒物(PM2.5)
韶关市,曲江监测站,113.5971,24.6864,2026-01-14T1800,43,58,0.6,28,15,122,99,60,细颗粒物(PM2.5)
韶关市,大学路288号,113.6668,24.7756,2026-01-14T1800,39,66,/,23,16,109,111,58,颗粒物(PM10)
韶关市,碧湖山庄,113.5556,24.8082,2026-01-14T1800,39,58,,,,152,119,,
邵阳市,市化工厂,111.5277,27.2442,2026-01-14T1800,43,53,1.0,39,11,82,92,60,细颗粒物(PM2.5)
邵阳市,市环保局,111.4327,27.2276,2026-01-14T1800,41,75,1.2,24,6,95,92,63,颗粒物(PM10)
邵阳市,北塔二期4-26地块,111.446,27.2472,2026-01-14T1800,55,77,1.3,62,11,44,78,75,细颗粒物(PM2.5)
邵阳市,邵水西路287号,111.4739,27.2282,2026-01-14T1800,54,59,0.9,25,11,82,36,74,细颗粒物(PM2.5)
绍兴市,城东开发委,120.6053,29.9927,2026-01-14T1800,57,82,0.5,55,9,81,100,78,细颗粒物(PM2.5)
绍兴市,树下王站,120.5482,30.0003,2026-01-14T1800,48,71,0.7,55,8,73,97,67,细颗粒物(PM2.5)
绍兴市,绍兴中专,120.5685,29.936,2026-01-14T1800,58,81,0.5,82,8,39,92,79,细颗粒物(PM2.5)
绍兴市,柯桥区政府,120.4905,30.086,2026-01-14T1800,46,70,0.6,66,7,75,103,64,细颗粒物(PM2.5)
绍兴市,重华小学,120.8751,30.0249,2026-01-14T1800,79,105,0.5,71,8,70,106,105,细颗粒物(PM2.5)
绍兴市,上虞中学,120.837,30.0137,2026-01-14T1800,80,99,0.5,63,8,96,112,107,细颗粒物(PM2.5)
绍兴市,柯桥妇保,120.4715,30.0414,2026-01-14T1800,38,65,0.6,54,6,75,97,58,颗粒物(PM10)
绍兴市,袍江中学,120.6156,30.0762,2026-01-14T1800,62,105,0.8,86,4,65,105,84,细颗粒物(PM2.5)
深圳市,通心岭子站,114.0948,22.5506,2026-01-14T1800,17,27,0.4,9,7,130,123,41,
深圳市,洪湖,114.1153,22.5713,2026-01-14T1800,18,34,0.6,14,8,130,123,41,
深圳市,华侨城,113.9823,22.5398,2026-01-14T1800,14,27,/,18,/,115,114,36,
深圳市,南海子站,113.9181,22.517,2026-01-14T1800,18,33,0.6,21,6,114,115,36,
深圳市,盐田,114.2345,22.565,2026-01-14T1800,18,36,0.6,19,8,134,125,42,
深圳市,南澳,114.4911,22.5381,2026-01-14T1800,20,31,/,15,/,134,132,42,
深圳市,葵涌,114.41,22.6346,2026-01-14T1800,21,37,0.6,19,8,126,125,40,
深圳市,梅沙,114.2967,22.5978,2026-01-14T1800,21,38,/,14,/,136,135,43,
深圳市,观澜,114.0563,22.7353,2026-01-14T1800,18,47,0.5,55,8,76,105,47,
深圳市,莲花,114.0614,22.556,2026-01-14T1800,16,32,/,16,/,116,113,37,
深圳市,民治,114.0144,22.6163,2026-01-14T1800,16,20,/,19,/,107,107,34,
深圳市,横岗,114.1756,22.6421,2026-01-14T1800,20,37,/,23,/,130,118,41,
深圳市,坪山,114.344,22.7115,2026-01-14T1800,23,42,0.6,26,10,133,127,42,
深圳市,西乡,113.8952,22.586,2026-01-14T1800,17,44,0.7,51,8,83,102,44,
深圳市,黄阁路,114.214113,22.713717,2026-01-14T1800,17,31,0.5,16,8,131,120,41,
沈阳市,浑南东路,123.5058,41.7084,2026-01-14T1800,33,46,1.2,43,14,31,40,48,
沈阳市,新秀街,123.4238,41.6992,2026-01-14T1800,28,57,1.2,38,10,32,38,54,颗粒物(PM10)
沈阳市,东陵路,123.5903,41.8412,2026-01-14T1800,41,54,1.6,61,11,9,34,58,细颗粒物(PM2.5)
沈阳市,陵东街,123.4267,41.8466,2026-01-14T1800,31,52,1.0,43,15,26,31,51,颗粒物(PM10)
沈阳市,文化路,123.4116,41.7654,2026-01-14T1800,33,52,1.4,32,12,41,40,51,颗粒物(PM10)
沈阳市,小河沿,123.4673,41.787,2026-01-14T1800,28,49,1.2,41,13,37,44,49,
沈阳市,太原街,123.4019,41.7978,2026-01-14T1800,,,,,,,29,,
沈阳市,京沈街,123.3778,41.9233,2026-01-14T1800,32,35,0.7,42,10,34,34,46,
沈阳市,沈辽西路,123.2429,41.7341,2026-01-14T1800,26,46,0.8,26,10,48,44,46,
沈阳市,裕农路,123.5951,41.9085,2026-01-14T1800,34,56,1.0,36,7,39,43,53,颗粒物(PM10)
十堰市,滨河新村,110.78,32.6494,2026-01-14T1800,36,58,1.0,,/,26,32,,
十堰市,刘家沟,110.7305,32.6408,2026-01-14T1800,38,54,/,19,/,56,50,54,细颗粒物(PM2.5)
十堰市,铁二处,110.8843,32.5712,2026-01-14T1800,110,138,1.7,76,9,4,14,144,细颗粒物(PM2.5)
十堰市,郧阳区金沙路,110.8053,32.8401,2026-01-14T1800,61,83,1.5,65,10,19,42,83,细颗粒物(PM2.5)
石河子市,艾青诗歌馆,86.0391,44.298,2026-01-14T1800,83,99,0.9,9,8,73,58,110,细颗粒物(PM2.5)
石河子市,南区管委会,86.047,44.2331,2026-01-14T1800,91,134,1.0,18,7,67,57,120,细颗粒物(PM2.5)
石河子市,世纪广场,86.0791,44.3018,2026-01-14T1800,,,0.6,14,,67,56,,
石河子市,城南景苑小区,86.0126,44.2349,2026-01-14T1800,80,120,0.9,16,4,77,67,107,细颗粒物(PM2.5)
石家庄市,高新区,114.5919,38.0328,2026-01-14T1800,85,136,1.0,70,10,6,17,113,细颗粒物(PM2.5)
石家庄市,西南高教,114.4556,38.0136,2026-01-14T1800,90,146,1.0,70,5,7,17,119,细颗粒物(PM2.5)
石家庄市,世纪公园,114.533,38.0177,2026-01-14T1800,77,115,1.0,60,11,8,19,103,细颗粒物(PM2.5)
石家庄市,人民会堂,114.5105,38.0489,2026-01-14T1800,85,124,1.0,69,4,7,21,113,细颗粒物(PM2.5)
石家庄市,鹿泉一中,114.2887,38.0905,2026-01-14T1800,83,143,1.0,66,6,5,16,110,细颗粒物(PM2.5)
石家庄市,栾城区星河路,114.6491,37.9014,2026-01-14T1800,86,116,0.9,65,14,9,15,114,细颗粒物(PM2.5)
石家庄市,裕华西路63号,114.4563,38.0365,2026-01-14T1800,89,112,1.3,70,7,6,20,118,细颗粒物(PM2.5)
石家庄市,和平路363号,114.5586,38.0581,2026-01-14T1800,83,139,1.1,67,6,3,19,110,细颗粒物(PM2.5)
石家庄市,廉州西路160号,114.8347,38.0213,2026-01-14T1800,103,150,0.9,56,4,5,12,135,细颗粒物(PM2.5)
石家庄市,北城路41号,114.4498,38.0729,2026-01-14T1800,71,140,1.0,65,6,9,26,95,"颗粒物(PM10),细颗粒物(PM2.5)"
石家庄市,矿区区委大楼,114.0494,38.059,2026-01-14T1800,58,254,0.6,43,15,38,39,152,颗粒物(PM10)
石嘴山市,大武口朝阳西街,106.3668,39.0145,2026-01-14T1800,34,121,0.3,5,1,88,84,86,颗粒物(PM10)
石嘴山市,惠农南大街,106.7713,39.2278,2026-01-14T1800,43,153,0.4,16,9,72,83,102,颗粒物(PM10)
石嘴山市,红果子镇惠新街,106.7074,39.1332,2026-01-14T1800,40,176,0.4,15,35,71,80,113,颗粒物(PM10)
石嘴山市,妇女儿童医院,106.3495,38.9837,2026-01-14T1800,15,121,0.3,8,5,93,85,86,颗粒物(PM10)
石嘴山市,石大公路,106.7495,39.2068,2026-01-14T1800,41,170,0.4,10,5,73,78,110,颗粒物(PM10)
双鸭山市,双合村,131.1509,46.6936,2026-01-14T1800,24,29,0.5,12,6,50,54,35,
双鸭山市,南小市,131.1651,46.6191,2026-01-14T1800,26,,0.7,25,10,35,48,38,
双鸭山市,环保局,131.1526,46.6554,2026-01-14T1800,14,44,0.5,27,5,36,49,44,
朔州市,平朔,112.4399,39.3521,2026-01-14T1800,36,333,0.2,7,4,78,74,192,颗粒物(PM10)
朔州市,朔唯,112.4574,39.362,2026-01-14T1800,37,317,/,6,4,71,65,184,颗粒物(PM10)
朔州市,区政府,112.426,39.3199,2026-01-14T1800,26,312,0.3,5,4,86,79,181,颗粒物(PM10)
朔州市,市环保局,112.4075,39.3277,2026-01-14T1800,35,295,/,8,3,86,78,173,颗粒物(PM10)
朔州市,市二中,112.4273,39.3682,2026-01-14T1800,41,318,/,6,4,83,78,184,颗粒物(PM10)
朔州市,一水厂,112.2938,39.5296,2026-01-14T1800,39,376,0.4,2,3,78,77,238,颗粒物(PM10)
四平市,境园,124.3744,43.1842,2026-01-14T1800,33,44,0.3,29,9,38,44,48,
四平市,植物园,124.4029,43.1411,2026-01-14T1800,27,27,0.4,38,9,38,54,39,
四平市,世纪城,124.3286,43.1726,2026-01-14T1800,48,66,0.7,44,9,30,48,67,细颗粒物(PM2.5)
松原市,江南,124.8007,45.1213,2026-01-14T1800,,,0.4,41,12,33,50,,
松原市,江北,124.7967,45.1721,2026-01-14T1800,20,36,0.6,27,8,43,54,36,
苏州市,轧钢厂,120.5974,31.3247,2026-01-14T1800,66,111,0.5,63,8,67,78,89,细颗粒物(PM2.5)
苏州市,吴中区,120.6329,31.2741,2026-01-14T1800,52,98,0.6,80,10,42,53,74,颗粒物(PM10)
苏州市,苏州新区,120.5566,31.3049,2026-01-14T1800,54,90,0.7,122,10,19,66,74,细颗粒物(PM2.5)
苏州市,苏州工业园区,120.668709,31.312523,2026-01-14T1800,56,83,0.8,70,9,72,72,77,细颗粒物(PM2.5)
苏州市,相城区,120.6408,31.3707,2026-01-14T1800,,,1.0,105,,47,82,,
苏州市,方洲路,120.7431,31.3188,2026-01-14T1800,50,80,0.5,61,9,74,76,69,细颗粒物(PM2.5)
苏州市,木渎中学,120.4979,31.2777,2026-01-14T1800,48,67,0.7,49,7,66,78,67,细颗粒物(PM2.5)
苏州市,越秀幼儿园,120.642,31.1733,2026-01-14T1800,55,98,0.8,68,8,68,79,75,细颗粒物(PM2.5)
苏州市,高铁新城,120.6502,31.4117,2026-01-14T1800,61,104,0.4,98,11,32,62,83,细颗粒物(PM2.5)
苏州市,学森路9号,120.4282,31.3228,2026-01-14T1800,46,184,0.5,83,11,50,83,117,颗粒物(PM10)
宿迁市,宿迁学院,118.2924,33.933,2026-01-14T1800,146,209,0.9,67,6,35,56,195,细颗粒物(PM2.5)
宿迁市,宿迁中学,118.2321,33.9572,2026-01-14T1800,150,204,,,8,46,49,200,细颗粒物(PM2.5)
宿迁市,市供电局,118.2781,33.9658,2026-01-14T1800,149,200,1.2,65,5,35,48,199,细颗粒物(PM2.5)
宿迁市,宿豫区政府,118.3243,33.95,2026-01-14T1800,151,206,1.2,102,8,21,47,201,细颗粒物(PM2.5)
宿迁市,春华路,118.352,33.7886,2026-01-14T1800,127,140,0.7,52,7,48,54,168,细颗粒物(PM2.5)
宿州市,远航博物馆,116.9508,33.666,2026-01-14T1800,86,129,0.8,42,7,69,67,114,细颗粒物(PM2.5)
宿州市,社会福利中心,116.9708,33.5911,2026-01-14T1800,104,154,0.9,53,9,52,66,137,细颗粒物(PM2.5)
宿州市,皖北煤电集团,116.9647,33.6252,2026-01-14T1800,,,1.0,,8,56,66,,
宿州市,中兴路,116.9929,33.6412,2026-01-14T1800,110,164,1.0,61,8,46,63,144,细颗粒物(PM2.5)
绥化市,人和东街,126.9783,46.6365,2026-01-14T1800,57,63,0.7,36,6,36,47,78,细颗粒物(PM2.5)
绥化市,党政办公中心,126.964,46.6527,2026-01-14T1800,48,58,0.7,35,6,40,46,67,细颗粒物(PM2.5)
随州市,市委党校,113.3587,31.7275,2026-01-14T1800,93,110,0.7,23,7,93,98,123,细颗粒物(PM2.5)
随州市,市林业局,113.3745,31.6926,2026-01-14T1800,96,114,0.8,21,8,89,80,127,细颗粒物(PM2.5)
随州市,市立交桥水厂,113.3984,31.7309,2026-01-14T1800,117,120,0.7,26,7,85,84,153,细颗粒物(PM2.5)
遂宁市,市监测站,105.5581,30.5231,2026-01-14T1800,55,99,0.7,34,9,69,62,75,"颗粒物(PM10),细颗粒物(PM2.5)"
遂宁市,美宁食品公司,105.5917,30.4727,2026-01-14T1800,,,,,,,65,,
遂宁市,环岛商务中心9号楼,105.5911,30.5368,2026-01-14T1800,73,90,0.7,33,13,63,62,98,细颗粒物(PM2.5)
塔城地区,东门外小游园,82.9993,46.7432,2026-01-14T1800,18,45,0.6,17,8,70,64,45,
塔城地区,文化广场,82.9716,46.7464,2026-01-14T1800,26,43,0.7,10,5,68,66,43,
台州市,黄岩环保大楼,121.2727,28.6461,2026-01-14T1800,24,53,/,19,/,114,112,52,颗粒物(PM10)
台州市,台州环保大楼,121.4188,28.6545,2026-01-14T1800,25,58,0.4,24,/,105,113,54,颗粒物(PM10)
台州市,路桥田洋王,121.3768,28.5772,2026-01-14T1800,28,71,0.7,34,6,99,118,61,颗粒物(PM10)
台州市,台州科技职业学院,121.25678,28.66823971,2026-01-14T1800,19,54,0.4,27,6,107,111,52,颗粒物(PM10)
太原市,尖草坪,112.5138,37.8916,2026-01-14T1800,69,341,0.1,14,,78,49,196,颗粒物(PM10)
太原市,晋源,112.4691,37.7125,2026-01-14T1800,61,140,0.2,7,2,88,61,95,颗粒物(PM10)
太原市,小店,112.5595,37.7391,2026-01-14T1800,85,285,0.2,7,4,86,53,168,颗粒物(PM10)
太原市,坞城,112.5705,37.8199,2026-01-14T1800,82,259,,10,5,79,44,155,颗粒物(PM10)
太原市,南寨,112.5495,37.9853,2026-01-14T1800,93,304,0.3,12,7,79,57,177,颗粒物(PM10)
太原市,金胜,112.4702,37.7821,2026-01-14T1800,80,358,0.2,13,2,83,51,212,颗粒物(PM10)
太原市,育英中学,112.5608,37.8807,2026-01-14T1800,73,262,0.3,13,7,80,50,156,颗粒物(PM10)
太原市,西矿街336号,112.449,37.8509,2026-01-14T1800,111,471,0.4,9,3,83,54,364,颗粒物(PM10)
太原市,迎宾北路9号,112.4792,37.9393,2026-01-14T1800,99,453,0.3,11,2,82,57,342,颗粒物(PM10)
太原市,迎泽大街248号,112.551,37.8575,2026-01-14T1800,46,334,0.4,13,4,76,44,192,颗粒物(PM10)
泰安市,监测站,117.1436,36.1938,2026-01-14T1800,110,183,1.0,42,11,54,55,144,细颗粒物(PM2.5)
泰安市,人口学校,117.0905,36.2002,2026-01-14T1800,141,183,1.3,61,12,47,59,188,细颗粒物(PM2.5)
泰安市,电力学校,117.0992,36.1757,2026-01-14T1800,149,178,1.0,53,12,53,54,199,细颗粒物(PM2.5)
泰安市,国网新校,117.1812,36.2273,2026-01-14T1800,110,166,1.1,42,11,62,52,144,细颗粒物(PM2.5)
泰安市,交通技校,117.0315,36.2017,2026-01-14T1800,128,159,1.1,44,10,65,68,169,细颗粒物(PM2.5)
泰安市,山东第一医科大学,117.083,36.13,2026-01-14T1800,142,180,0.6,83,10,19,41,189,细颗粒物(PM2.5)
泰州市,公园路,119.9042,32.488,2026-01-14T1800,63,83,1.0,59,11,54,68,85,细颗粒物(PM2.5)
泰州市,莲花,119.9189,32.4626,2026-01-14T1800,53,83,0.9,54,14,74,86,73,细颗粒物(PM2.5)
泰州市,留学生创业园,119.8877,32.4636,2026-01-14T1800,52,87,0.9,80,15,48,73,72,细颗粒物(PM2.5)
泰州市,王营,119.8767,32.3291,2026-01-14T1800,46,83,0.7,71,14,50,70,67,颗粒物(PM10)
泰州市,姜堰区政府广场,120.1226,32.515,2026-01-14T1800,74,98,0.8,54,14,63,66,99,细颗粒物(PM2.5)
泰州市,周山河街区,119.9186,32.4322,2026-01-14T1800,59,95,0.6,54,16,65,71,80,细颗粒物(PM2.5)
唐山市,十二中,118.1707,39.6505,2026-01-14T1800,54,92,1.4,66,8,7,26,74,细颗粒物(PM2.5)
唐山市,小山,118.1868,39.6219,2026-01-14T1800,61,91,1.4,55,9,7,28,83,细颗粒物(PM2.5)
唐山市,冀东油田职工医院,118.4357,39.277,2026-01-14T1800,74,112,1.4,61,10,4,29,99,细颗粒物(PM2.5)
唐山市,正泰大街热力站,118.0927,39.5807,2026-01-14T1800,70,114,1.3,54,6,4,19,94,细颗粒物(PM2.5)
唐山市,丰润区政府,118.1561,39.8322,2026-01-14T1800,56,91,1.0,51,10,14,32,77,细颗粒物(PM2.5)
唐山市,金山小学,118.436906,39.73802,2026-01-14T1800,61,100,1.5,61,9,8,33,83,细颗粒物(PM2.5)
唐山市,政府服务中心,118.2449,39.6693,2026-01-14T1800,50,78,1.1,56,13,6,17,69,细颗粒物(PM2.5)
唐山市,消防缸窑路中队,118.2043,39.6703,2026-01-14T1800,48,108,1.5,58,11,13,29,79,颗粒物(PM10)
唐山市,路南电大,118.1432,39.6203,2026-01-14T1800,66,112,1.3,51,6,10,27,89,细颗粒物(PM2.5)
唐山市,光明北路515号,118.1267,39.6579,2026-01-14T1800,68,129,1.5,,5,4,17,,
唐山市,友谊北路34号,118.130859,39.636026,2026-01-14T1800,66,97,1.4,54,4,10,28,89,细颗粒物(PM2.5)
天津市,勤俭道,117.1446,39.1659,2026-01-14T1800,52,94,0.9,75,10,6,15,72,"颗粒物(PM10),细颗粒物(PM2.5)"
天津市,前进道,117.2016,39.0928,2026-01-14T1800,56,102,1.1,72,8,3,16,77,细颗粒物(PM2.5)
天津市,淮河道,117.1837,39.2134,2026-01-14T1800,58,109,1.3,68,8,3,10,80,颗粒物(PM10)
天津市,跃进路,117.308261,39.088386,2026-01-14T1800,67,127,1.2,76,9,2,12,90,细颗粒物(PM2.5)
天津市,第四大街,117.707,39.0344,2026-01-14T1800,83,148,1.5,89,12,0,8,110,细颗粒物(PM2.5)
天津市,永明路,117.4573,38.8395,2026-01-14T1800,124,215,1.2,75,11,1,15,163,细颗粒物(PM2.5)
天津市,汉北路,117.7641,39.1588,2026-01-14T1800,62,120,1.2,61,12,0,15,85,颗粒物(PM10)
天津市,河西一经路,117.7917,39.2473,2026-01-14T1800,79,156,2.2,78,8,1,6,105,细颗粒物(PM2.5)
天津市,津沽路,117.3747,38.9845,2026-01-14T1800,92,144,2.8,78,12,2,14,122,细颗粒物(PM2.5)
天津市,宾水西道,117.159,39.0844,2026-01-14T1800,56,98,0.9,66,9,3,14,77,细颗粒物(PM2.5)
天津市,大理道,117.194,39.1069,2026-01-14T1800,57,106,1.1,73,10,2,14,78,"颗粒物(PM10),细颗粒物(PM2.5)"
天津市,中山北路,117.2096,39.1698,2026-01-14T1800,61,112,1.4,75,7,2,9,83,细颗粒物(PM2.5)
天津市,西四道,117.385,39.1483,2026-01-14T1800,54,102,1.7,75,11,2,14,76,颗粒物(PM10)
天津市,雍阳西道,117.0362,39.3827,2026-01-14T1800,,,,,,,21,,
天津市,辛老路,117.0291,39.0612,2026-01-14T1800,62,107,0.7,78,14,2,16,84,细颗粒物(PM2.5)
天津市,地纬路,116.9638,38.9374,2026-01-14T1800,61,107,0.6,69,10,4,15,83,细颗粒物(PM2.5)
天津市,北环路,117.4065,40.0583,2026-01-14T1800,56,87,1.4,39,6,28,35,77,细颗粒物(PM2.5)
天津市,建设路,117.3041,39.7167,2026-01-14T1800,50,89,1.2,52,12,15,26,70,颗粒物(PM10)
天津市,滨水东路,117.8201,39.3519,2026-01-14T1800,71,133,2.0,76,14,1,18,95,细颗粒物(PM2.5)
天津市,光华路,117.24369,39.102911,2026-01-14T1800,58,119,1.3,76,9,2,12,85,颗粒物(PM10)
天水市,公园小学,105.72058,34.57859,2026-01-14T1800,40,144,0.5,17,20,86,88,97,颗粒物(PM10)
天水市,麦积国土局,105.89428,34.55353,2026-01-14T1800,32,178,1.0,22,9,85,71,114,颗粒物(PM10)
铁岭市,水上乐园,123.865,42.292,2026-01-14T1800,29,44,0.6,31,10,46,51,44,
铁岭市,金沙江路北,123.7158,42.2218,2026-01-14T1800,33,37,0.8,25,7,50,57,48,
铁岭市,新华街20号,123.835,42.2853,2026-01-14T1800,15,49,0.6,24,10,53,55,49,
通化市,光明,125.9359,41.7174,2026-01-14T1800,27,76,3.1,59,34,9,28,63,颗粒物(PM10)
通化市,铁路,125.9446,41.7323,2026-01-14T1800,40,57,3.0,79,52,6,25,57,细颗粒物(PM2.5)
通辽市,艺术职业学校,122.253,43.6801,2026-01-14T1800,60,89,1.1,50,15,18,35,82,细颗粒物(PM2.5)
通辽市,老干部活动中心,122.2584,43.6333,2026-01-14T1800,46,86,1.1,45,10,30,44,68,颗粒物(PM10)
通辽市,东方明珠社区,122.2923,43.6189,2026-01-14T1800,89,119,1.3,54,15,18,36,118,细颗粒物(PM2.5)
铜川市,王益区政府,109.0696,35.0699,2026-01-14T1800,24,113,0.6,16,2,76,64,82,颗粒物(PM10)
铜川市,新区管委会,108.9345,34.9059,2026-01-14T1800,46,169,0.4,22,3,68,77,110,颗粒物(PM10)
铜川市,大唐三路,108.949652,34.870529,2026-01-14T1800,31,174,0.2,12,3,80,76,112,颗粒物(PM10)
铜陵市,市第四中学,117.8176,30.9412,2026-01-14T1800,46,77,0.9,54,16,62,92,64,"颗粒物(PM10),细颗粒物(PM2.5)"
铜陵市,市新民污水厂,117.7806,30.9413,2026-01-14T1800,43,,0.7,54,15,67,88,,
铜陵市,车站新区,117.846,30.9414,2026-01-14T1800,28,60,0.5,50,12,67,90,55,颗粒物(PM10)
铜陵市,市职教基地,117.8472,30.9699,2026-01-14T1800,35,65,0.9,34,18,86,93,58,颗粒物(PM10)
铜仁市,铜仁卫校,109.1839,27.7344,2026-01-14T1800,94,131,1.8,65,1,13,17,124,细颗粒物(PM2.5)
铜仁市,铜仁七中,109.1752,27.6945,2026-01-14T1800,89,90,1.2,56,3,25,32,118,细颗粒物(PM2.5)
吐鲁番市,市环保局,89.1905,42.9419,2026-01-14T1800,129,212,1.8,23,4,53,43,170,细颗粒物(PM2.5)
吐鲁番市,地区环保局,89.1674,42.9558,2026-01-14T1800,129,194,1.7,25,4,48,40,170,细颗粒物(PM2.5)
威海市,华夏技校,122.121,37.4231,2026-01-14T1800,25,51,0.4,32,/,65,73,51,颗粒物(PM10)
威海市,山大分校,122.0508,37.5236,2026-01-14T1800,20,49,/,,/,82,79,,
威海市,市监测站,122.1067,37.5067,2026-01-14T1800,32,68,0.7,29,4,69,80,59,颗粒物(PM10)
威海市,文登开发区,122.0693,37.2175,2026-01-14T1800,22,62,/,20,/,69,75,56,颗粒物(PM10)
威海市,临港区管委会,122.1379,37.3414,2026-01-14T1800,24,53,0.5,17,6,83,79,52,颗粒物(PM10)
潍坊市,环保局,119.1436,36.7022,2026-01-14T1800,91,188,1.2,73,10,31,55,120,细颗粒物(PM2.5)
潍坊市,坊子邮政,119.1638,36.6524,2026-01-14T1800,95,178,1.1,77,13,31,61,125,细颗粒物(PM2.5)
潍坊市,潍坊七中,119.0587,36.7209,2026-01-14T1800,121,188,1.0,47,11,49,53,159,细颗粒物(PM2.5)
潍坊市,高新实验学校,119.1978,36.6871,2026-01-14T1800,98,175,0.9,71,8,30,64,129,细颗粒物(PM2.5)
潍坊市,潍坊学院,119.1758,36.7139,2026-01-14T1800,95,171,1.0,63,11,42,61,125,细颗粒物(PM2.5)
潍坊市,寒亭区实验一小,119.2046,36.7696,2026-01-14T1800,97,173,1.0,78,12,26,61,128,细颗粒物(PM2.5)
渭南市,体育馆,109.4605,34.4927,2026-01-14T1800,59,278,0.4,37,4,58,55,164,颗粒物(PM10)
渭南市,高新一小,109.4257,34.5067,2026-01-14T1800,66,300,0.3,,4,66,66,175,颗粒物(PM10)
渭南市,渭花路4号,109.505065,34.492137,2026-01-14T1800,90,305,0.6,32,5,60,57,178,颗粒物(PM10)
温州市,瓯海,120.6342,28.0088,2026-01-14T1800,28,45,0.5,29,,94,98,,
温州市,南浦,120.6747,27.9881,2026-01-14T1800,29,53,0.5,46,6,80,100,52,颗粒物(PM10)
温州市,龙湾,120.76,27.9745,2026-01-14T1800,28,73,0.5,41,6,95,104,62,颗粒物(PM10)
温州市,茶山,120.6985,27.9252,2026-01-14T1800,16,44,/,22,/,109,113,44,
温州市,鹿城惠民路,120.6935,28.0114,2026-01-14T1800,20,61,0.4,31,/,100,102,56,颗粒物(PM10)
文山壮族苗族自治州,州水务局,104.2533,23.3595,2026-01-14T1800,30,37,0.4,6,,82,82,,
文山壮族苗族自治州,市便民服务中心,104.2319,23.3892,2026-01-14T1800,30,51,0.7,12,6,72,76,51,颗粒物(PM10)
乌海市,市林业局,106.8172,39.6972,2026-01-14T1800,39,209,0.4,,,90,93,130,颗粒物(PM10)
乌海市,中海勃湾学校,106.7907,39.6666,2026-01-14T1800,49,199,0.3,4,7,95,96,125,颗粒物(PM10)
乌海市,海北新区,106.8129,39.7274,2026-01-14T1800,40,247,0.3,5,13,85,85,149,颗粒物(PM10)
乌海市,海拉北路,106.8212,39.6741,2026-01-14T1800,42,233,0.4,4,14,78,80,142,颗粒物(PM10)
乌兰察布市,集宁新区,113.1306,40.9924,2026-01-14T1800,34,108,0.4,20,5,74,70,79,颗粒物(PM10)
乌兰察布市,光明街小学,113.1076,41.0385,2026-01-14T1800,67,166,0.4,21,6,66,62,108,颗粒物(PM10)
乌兰察布市,北京八中,113.1383,40.9513,2026-01-14T1800,44,137,0.6,16,8,64,61,94,颗粒物(PM10)
乌兰察布市,市委党校,113.1776,40.9779,2026-01-14T1800,31,100,0.5,15,4,78,70,75,颗粒物(PM10)
乌鲁木齐市,监测站,87.5796,43.8299,2026-01-14T1800,59,88,0.7,32,3,37,35,80,细颗粒物(PM2.5)
乌鲁木齐市,收费所,87.6044,43.7679,2026-01-14T1800,,,,33,,,37,,
乌鲁木齐市,铁路局,87.5529,43.8704,2026-01-14T1800,83,101,0.9,32,3,59,49,110,细颗粒物(PM2.5)
乌鲁木齐市,三十一中学,87.6408,43.8258,2026-01-14T1800,80,89,0.6,21,7,48,35,107,细颗粒物(PM2.5)
乌鲁木齐市,米东区环保局,87.7218,44.1747,2026-01-14T1800,141,172,1.1,29,10,79,64,188,细颗粒物(PM2.5)
乌鲁木齐市,培训基地,87.4652,43.4569,2026-01-14T1800,39,48,0.8,20,5,69,77,55,细颗粒物(PM2.5)
乌鲁木齐市,达坂城区环保局,88.3088,43.3637,2026-01-14T1800,34,60,0.7,28,8,60,74,55,颗粒物(PM10)
乌鲁木齐市,红光山片区,87.6132,43.8791,2026-01-14T1800,71,80,0.9,36,8,50,42,95,细颗粒物(PM2.5)
乌鲁木齐市,新师大温泉校区,87.7008,43.8003,2026-01-14T1800,64,84,0.7,19,4,58,45,87,细颗粒物(PM2.5)
乌鲁木齐市,大绿谷,87.4892,43.84,2026-01-14T1800,71,85,1.0,33,3,46,37,95,细颗粒物(PM2.5)
无锡市,雪浪,120.2693,31.4864,2026-01-14T1800,46,97,1.2,74,8,58,82,74,颗粒物(PM10)
无锡市,黄巷,120.2761,31.621,2026-01-14T1800,39,97,0.9,100,5,16,65,74,颗粒物(PM10)
无锡市,漆塘,120.2422,31.5037,2026-01-14T1800,75,116,0.9,41,10,62,80,100,细颗粒物(PM2.5)
无锡市,东亭,120.3489,31.5865,2026-01-14T1800,31,63,0.7,82,9,38,71,57,颗粒物(PM10)
无锡市,旺庄,120.3538,31.5474,2026-01-14T1800,56,107,0.9,96,6,39,73,79,颗粒物(PM10)
无锡市,荣巷,120.2447,31.5633,2026-01-14T1800,53,75,0.9,54,8,63,77,73,细颗粒物(PM2.5)
无锡市,堰桥,120.2986,31.6816,2026-01-14T1800,9,31,0.3,,9,43,54,,
无锡市,清舒道1号,120.3138,31.4927,2026-01-14T1800,47,71,0.6,59,9,75,88,65,细颗粒物(PM2.5)
无锡市,健康路105号,120.2925,31.5685,2026-01-14T1800,53,95,0.7,87,6,34,59,73,"颗粒物(PM10),细颗粒物(PM2.5)"
吴忠市,教育园区,106.1535,37.9648,2026-01-14T1800,41,122,0.2,2,6,88,85,86,颗粒物(PM10)
吴忠市,新区二泵站,106.1851,37.9957,2026-01-14T1800,30,180,0.2,6,4,79,80,115,颗粒物(PM10)
吴忠市,文卫南街,106.2176,37.9832,2026-01-14T1800,18,129,0.2,11,5,82,81,90,颗粒物(PM10)
芜湖市,监测站,118.3603,31.3515,2026-01-14T1800,52,63,1.1,48,14,71,66,72,细颗粒物(PM2.5)
芜湖市,科创中心,118.3716,31.4135,2026-01-14T1800,47,72,1.2,107,14,27,54,65,细颗粒物(PM2.5)
芜湖市,四水厂,118.3671,31.3132,2026-01-14T1800,51,78,0.9,63,14,63,62,70,细颗粒物(PM2.5)
芜湖市,市气象局,118.4209,31.3704,2026-01-14T1800,51,68,0.9,72,13,48,64,70,细颗粒物(PM2.5)
芜湖市,清苑社区,118.4783,31.3226,2026-01-14T1800,54,69,0.5,91,14,47,79,74,细颗粒物(PM2.5)
芜湖市,扬子职业技术学院,118.2746,31.2326,2026-01-14T1800,45,76,0.8,34,14,77,74,63,"颗粒物(PM10),细颗粒物(PM2.5)"
芜湖市,湾沚区人民法院,118.5726,31.1371,2026-01-14T1800,46,67,0.8,46,10,73,84,64,细颗粒物(PM2.5)
梧州市,市十一中,111.3126,23.4772,2026-01-14T1800,39,46,0,10,11,171,143,64,臭氧1小时(O3_1h)
梧州市,龙新,111.26,23.4794,2026-01-14T1800,36,81,0.4,34,7,149,125,66,颗粒物(PM10)
梧州市,政贤路18号,111.2416,23.4155,2026-01-14T1800,38,72,0.5,28,8,153,120,61,颗粒物(PM10)
五家渠市,农水大厦,87.5352,44.1606,2026-01-14T1800,89,100,0.9,,9,70,56,118,细颗粒物(PM2.5)
五家渠市,经开区管委会,87.5461,44.1909,2026-01-14T1800,90,132,1.0,16,8,,63,119,细颗粒物(PM2.5)
五家渠市,建设西街760号,87.055284,43.999117,2026-01-14T1800,149,168,1.2,30,5,64,64,199,细颗粒物(PM2.5)
武汉市,东湖梨园,114.3676,30.5584,2026-01-14T1800,32,46,0.9,27,6,84,76,46,
武汉市,汉阳月湖,114.2527,30.5578,2026-01-14T1800,51,110,0.8,25,,97,72,,
武汉市,汉口花桥,114.2819,30.6189,2026-01-14T1800,37,62,0.8,36,11,89,71,56,颗粒物(PM10)
武汉市,武昌紫阳,114.3024,30.5332,2026-01-14T1800,41,60,0.7,35,12,90,79,58,细颗粒物(PM2.5)
武汉市,青山钢花,114.3646,30.6217,2026-01-14T1800,51,71,1.1,92,6,34,71,70,细颗粒物(PM2.5)
武汉市,沌口新区,114.156697,30.482592,2026-01-14T1800,40,62,0.8,38,10,87,78,57,细颗粒物(PM2.5)
武汉市,汉口江滩,114.3013,30.5944,2026-01-14T1800,44,56,0.7,41,8,87,62,62,细颗粒物(PM2.5)
武汉市,吴家山,114.1285,30.6339,2026-01-14T1800,51,54,0.6,44,10,82,76,70,细颗粒物(PM2.5)
武汉市,民族大道182号,114.3876,30.4908,2026-01-14T1800,43,61,0.6,28,7,91,86,60,细颗粒物(PM2.5)
武威市,监测站,102.6203,37.925,2026-01-14T1800,,,0.3,7,11,82,72,,
武威市,钟楼街149号,102.6447,37.9293,2026-01-14T1800,20,58,0.3,5,9,87,74,54,颗粒物(PM10)
西安市,兴庆小区,108.9931,34.2629,2026-01-14T1800,38,220,0.5,22,3,68,62,135,颗粒物(PM10)
西安市,纺织城,109.0595,34.2569,2026-01-14T1800,43,247,0.2,40,2,53,57,149,颗粒物(PM10)
西安市,小寨,108.9377,34.2178,2026-01-14T1800,39,156,0.5,18,6,76,66,103,颗粒物(PM10)
西安市,市人民体育场,108.9522,34.2739,2026-01-14T1800,41,265,0.5,25,1,68,61,158,颗粒物(PM10)
西安市,高新西区,108.8923,34.2322,2026-01-14T1800,29,206,0.4,21,2,72,61,128,颗粒物(PM10)
西安市,经开区,108.9386,34.3446,2026-01-14T1800,46,254,0.4,17,2,66,59,152,颗粒物(PM10)
西安市,长安区,108.894,34.1557,2026-01-14T1800,36,204,0.2,12,4,78,68,127,颗粒物(PM10)
西安市,临潼区,109.213,34.3748,2026-01-14T1800,37,225,0.4,17,4,75,69,138,颗粒物(PM10)
西安市,广运潭,109.0508,34.321,2026-01-14T1800,49,256,0.4,20,1,71,63,153,颗粒物(PM10)
西安市,无线电监控中心,109.1019,34.5302,2026-01-14T1800,50,293,0.2,14,2,76,62,172,颗粒物(PM10)
西安市,行知小学,108.8869,34.2662,2026-01-14T1800,35,232,,22,,71,62,141,颗粒物(PM10)
西安市,西苑北路977号,108.596239,34.118792,2026-01-14T1800,40,179,0.2,18,2,85,76,115,颗粒物(PM10)
西安市,曲江池东路988号,108.9817,34.2035,2026-01-14T1800,30,219,0.3,10,1,82,69,135,颗粒物(PM10)
西宁市,城北区政府,101.7775,36.643,2026-01-14T1800,15,64,0.6,9,5,89,91,57,颗粒物(PM10)
西宁市,世纪职校,101.8304,36.5785,2026-01-14T1800,17,33,0.4,19,7,80,83,33,
西宁市,海晏路105号,101.6769,36.6535,2026-01-14T1800,10,62,0.2,4,2,89,85,56,颗粒物(PM10)
西双版纳傣族自治州,景洪市江南,100.8018,21.9995,2026-01-14T1800,29,48,0.6,8,6,81,66,48,
西双版纳傣族自治州,景洪市江北,100.7995,22.0238,2026-01-14T1800,23,36,0.5,12,4,91,77,36,
锡林郭勒盟,市环保监测站,116.1048,43.9318,2026-01-14T1800,17,80,0.3,10,5,68,69,65,颗粒物(PM10)
锡林郭勒盟,市政府,116.0778,43.9312,2026-01-14T1800,9,62,0.3,8,6,75,76,56,颗粒物(PM10)
厦门市,洪文,118.1519,24.4768,2026-01-14T1800,23,50,0.4,14,4,128,128,50,
厦门市,鼓浪屿,118.0671,24.4447,2026-01-14T1800,18,34,/,26,3,106,114,34,
厦门市,湖里中学,118.0937,24.5054,2026-01-14T1800,24,49,0.6,18,3,125,121,49,
厦门市,集美中学,118.0961,24.5689,2026-01-14T1800,21,42,0.5,18,4,134,127,42,
厦门市,同安二实小,118.1502,24.7246,2026-01-14T1800,22,45,0.5,30,3,121,122,45,
咸宁市,长江产业园,114.3379,29.8683,2026-01-14T1800,26,52,0.4,36,7,84,88,51,颗粒物(PM10)
咸宁市,双鹤路18号,114.3182,29.8447,2026-01-14T1800,30,47,0.6,25,3,101,100,47,
咸宁市,碧桂路,114.284,29.8595,2026-01-14T1800,33,56,0.7,,5,92,100,,
咸阳市,实验中学,108.6726,34.315,2026-01-14T1800,37,225,0.4,15,3,77,76,138,颗粒物(PM10)
咸阳市,师范学院,108.7226,34.3622,2026-01-14T1800,40,237,0.4,21,3,78,79,144,颗粒物(PM10)
咸阳市,奥体中心,108.6394,34.408,2026-01-14T1800,47,241,0.3,20,3,63,71,146,颗粒物(PM10)
咸阳市,五陵塬路2号,108.6601,34.3767,2026-01-14T1800,44,239,0.8,41,2,60,71,145,颗粒物(PM10)
咸阳市,胭脂路9号,108.6372,34.3031,2026-01-14T1800,45,227,0.3,42,2,52,68,139,颗粒物(PM10)
湘潭市,板塘,112.9508,27.8626,2026-01-14T1800,34,48,0.5,12,5,86,81,49,
湘潭市,市监测站,112.9114,27.8404,2026-01-14T1800,46,71,1.0,26,8,107,110,64,细颗粒物(PM2.5)
湘潭市,江麓,112.8935,27.8729,2026-01-14T1800,30,54,1.1,17,9,116,114,52,颗粒物(PM10)
湘潭市,岳塘,112.9227,27.8159,2026-01-14T1800,41,69,0.7,37,3,111,121,60,颗粒物(PM10)
湘潭市,科大,112.9073,27.9118,2026-01-14T1800,,,,8,4,99,89,,
湘潭市,昭山,113.0048,27.9153,2026-01-14T1800,32,51,0.4,25,7,115,110,51,颗粒物(PM10)
湘西土家族苗族自治州,州政府,109.7298,28.3164,2026-01-14T1800,125,145,1.6,79,4,14,34,165,细颗粒物(PM2.5)
湘西土家族苗族自治州,吉首市计生局,109.6957,28.2676,2026-01-14T1800,86,103,1.1,58,9,24,40,114,细颗粒物(PM2.5)
襄阳市,襄城运动路,112.1555,32.0197,2026-01-14T1800,71,92,0.8,35,9,61,64,95,细颗粒物(PM2.5)
襄阳市,高新管委会,112.1829,32.1146,2026-01-14T1800,69,104,0.8,33,12,57,58,93,细颗粒物(PM2.5)
襄阳市,襄州航空路,112.2105,32.0903,2026-01-14T1800,68,104,0.9,41,10,52,57,92,细颗粒物(PM2.5)
襄阳市,襄城隆中路,112.0764,32.0089,2026-01-14T1800,42,72,0.5,26,10,68,67,61,颗粒物(PM10)
襄阳市,高新台子湾,112.1154,32.103,2026-01-14T1800,42,77,0.4,,6,54,62,,
襄阳市,铁院东路4号,112.1433,32.0581,2026-01-14T1800,59,84,0.6,46,7,44,56,80,细颗粒物(PM2.5)
孝感市,东城区,113.9062,30.9378,2026-01-14T1800,56,102,0.9,26,11,99,97,77,细颗粒物(PM2.5)
孝感市,天仙南路1号,113.946,30.8999,2026-01-14T1800,61,98,0.7,45,8,75,79,83,细颗粒物(PM2.5)
忻州市,开发区,112.7313,38.457,2026-01-14T1800,68,340,0.4,10,7,77,75,195,颗粒物(PM10)
忻州市,会展中心,112.7023,38.4932,2026-01-14T1800,68,345,0.4,17,4,72,70,198,颗粒物(PM10)
忻州市,市政府,112.7279,38.4157,2026-01-14T1800,70,347,0.4,17,4,73,74,199,颗粒物(PM10)
新乡市,环保西院,113.836,35.3104,2026-01-14T1800,,,,62,,17,16,,
