area,positionname,longitude,latitude,timepoint,pm2_5,pm10,co,no2,so2,o3,o3_8h,aqi,primarypollutant
本溪市,威宁,123.829144,41.336777,2026-04-14T1600,94,142,0.8,30,18,160,102,131,细颗粒物(PM2.5)
毕节市,八中,105.287,27.3133,2026-04-14T1600,11,NA,0.5,10,11,57,71,18,
毕节市,师专,105.3079,27.2987,2026-04-14T1600,11,19,0.4,5,9,69,70,22,
毕节市,工业大道,105.3688,27.3598,2026-04-14T1600,11,19,/,4,10,79,78,25,
滨州市,第二水厂,117.9961,37.3604,2026-04-14T1600,39,63,0.6,7,11,164,120,60,颗粒物(PM10)
滨州市,北中新校,117.9789,37.3931,2026-04-14T1600,41,66,0.5,12,20,171,121,64,臭氧1小时(O3_1h)
滨州市,中海酒店,117.9379,37.3959,2026-04-14T1600,40,70,0.5,15,13,179,125,74,臭氧1小时(O3_1h)
滨州市,开发区一中,117.9381509,37.35547456,2026-04-14T1600,50,78,NA,15,11,161,118,NA,NA
滨州市,滨州市西街道办事处,117.9955,37.3752,2026-04-14T1600,36,66,0.4,8,12,170,126,63,臭氧1小时(O3_1h)
亳州市,污水处理厂,115.8071,33.8399,2026-04-14T1600,7,27,0,11,6,127,108,40,
亳州市,三国揽胜宫,115.7789,33.8519,2026-04-14T1600,6,24,0,7,6,117,101,37,
亳州市,亳州学院,115.7631,33.803,2026-04-14T1600,10,29,0.1,6,7,125,108,40,
博尔塔拉蒙古自治州,市党校,82.0482,44.8553,2026-04-14T1600,3,85,0.3,1,2,110,84,75,颗粒物(PM10)
博尔塔拉蒙古自治州,市环保局,82.0805,44.8966,2026-04-14T1600,3,79,0.2,7,3,104,71,71,颗粒物(PM10)
沧州市,沧县城建局,116.8733,38.2922,2026-04-14T1600,53,79,0.6,16,3,155,121,86,细颗粒物(PM2.5)
沧州市,电视转播站,116.8462,38.3189,2026-04-14T1600,59,87,0.4,15,10,168,121,98,细颗粒物(PM2.5)
沧州市,市环保局,116.8588,38.3161,2026-04-14T1600,49,93,0.6,11,7,167,120,81,颗粒物(PM10)
昌吉回族自治州,新区政务中心,87.2722,44.0298,2026-04-14T1600,3,51,0.2,6,5,105,88,51,颗粒物(PM10)
昌吉回族自治州,财政所,87.2057,43.9289,2026-04-14T1600,11,75,0.1,4,7,NA,85,NA,NA
长春市,客车厂,125.2874,43.9024,2026-04-14T1600,16,25,0.3,15,7,101,95,32,
长春市,邮电学院,125.2943,43.8508,2026-04-14T1600,18,36,0.2,9,8,110,102,36,
长春市,劳动公园,125.3648,43.8745,2026-04-14T1600,24,34,0.2,12,7,111,102,35,
长春市,园林处,125.3233,43.8781,2026-04-14T1600,20,30,0.2,12,7,113,103,36,
长春市,净月潭,125.4604,43.7904,2026-04-14T1600,24,40,0.3,10,5,114,104,40,
长春市,经开区环卫处,125.38,43.8422,2026-04-14T1600,22,38,0.3,12,6,110,99,38,
长春市,高新区管委会,125.234,43.7761,2026-04-14T1600,24,36,0.4,13,7,103,72,36,
长春市,岱山公园,125.1695,43.83,2026-04-14T1600,17,32,0.4,18,4,98,93,32,
长春市,北亚泰大街1068号,125.334645,43.916281,2026-04-14T1600,18,34,0.2,11,7,107,98,34,
长沙市,经开区环保局,113.082,28.2421,2026-04-14T1600,8,10,0.4,18,4,51,70,16,
长沙市,高开区环保局,112.8873,28.2202,2026-04-14T1600,7,14,0.4,6,6,72,75,23,
长沙市,马坡岭,113.0785,28.2012,2026-04-14T1600,10,12,0.7,11,5,53,70,17,
长沙市,湖南师范大学,112.9448,28.1894,2026-04-14T1600,8,12,0.6,6,5,70,81,22,
贺州市,西湾,111.4744,24.455,2026-04-14T1600,28,45,0.6,12,8,73,59,45,
鹤壁市,市监测站,114.17,35.9019,2026-04-14T1600,41,57,0.5,10,4,140,110,62,细颗粒物(PM2.5)
鹤壁市,大新区,114.2616,35.6824,2026-04-14T1600,36,62,0.6,16,8,118,103,59,颗粒物(PM10)
鹤壁市,南山宾馆,114.1573,35.9607,2026-04-14T1600,31,64,0.5,11,9,136,110,60,颗粒物(PM10)
鹤岗市,斯达机电,130.2683,47.3087,2026-04-14T1600,13,28,0.3,10,11,85,79,28,
鹤岗市,东山纸板厂,130.3114,47.3388,2026-04-14T1600,19,40,0.4,8,7,94,88,40,
黑河市,交通局,127.4832,50.2524,2026-04-14T1600,11,18,0.3,9,5,85,74,27,
衡水市,电机北厂,115.6839,37.754,2026-04-14T1600,38,76,0.3,16,8,162,118,69,颗粒物(PM10)
衡水市,市监测站,115.6303,37.7318,2026-04-14T1600,38,81,0.3,15,5,162,112,73,颗粒物(PM10)
衡水市,市城管局,115.6684,37.7216,2026-04-14T1600,34,80,0.4,12,4,169,118,72,颗粒物(PM10)
衡水市,地表水厂,115.599,37.5491,2026-04-14T1600,33,86,0.3,9,4,170,114,76,颗粒物(PM10)
衡阳市,衡阳化工总厂,112.6209,26.9268,2026-04-14T1600,10,23,0.6,7,5,61,75,23,
衡阳市,珠晖区环保局,112.621,26.8957,2026-04-14T1600,9,10,0.8,13,6,53,72,17,
衡阳市,市委党校,112.628,26.8654,2026-04-14T1600,10,NA,0.8,5,8,60,79,19,
衡阳市,市监测站,112.6007,26.8977,2026-04-14T1600,13,15,0.7,10,6,55,71,19,
衡阳市,真空机电公司,112.5658,26.9013,2026-04-14T1600,10,16,0.9,9,6,60,72,19,
衡阳市,师范学院,112.6703,26.8817,2026-04-14T1600,9,17,0.7,6,5,65,84,21,
红河哈尼族彝族自治州,州图书馆,103.3757,23.3679,2026-04-14T1600,24,37,0.2,4,5,152,143,48,
红河哈尼族彝族自治州,蒙自市朝阳路,103.401,23.3561,2026-04-14T1600,26,NA,0.3,5,4,148,143,47,
呼和浩特市,呼市一监,111.6506,40.7517,2026-04-14T1600,22,124,0.3,7,8,124,97,102,颗粒物(PM10)
呼和浩特市,如意水处理厂,111.7516,40.8369,2026-04-14T1600,31,113,0.2,5,8,129,103,95,颗粒物(PM10)
呼和浩特市,二十九中,111.727798,40.806187,2026-04-14T1600,37,144,0.2,6,9,120,97,110,颗粒物(PM10)
呼和浩特市,化肥厂生活区,111.717,40.7617,2026-04-14T1600,45,111,0.3,7,8,126,97,94,颗粒物(PM10)
呼和浩特市,海东办,111.6519,40.8389,2026-04-14T1600,22,144,0.2,7,6,120,96,110,颗粒物(PM10)
呼和浩特市,成吉思汗西街8号,111.591512,40.827312,2026-04-14T1600,27,144,0.3,10,6,116,94,110,颗粒物(PM10)
呼和浩特市,公园东路75号,111.6597,40.8077,2026-04-14T1600,22,146,0.3,9,6,112,90,110,颗粒物(PM10)
呼和浩特市,金海路35号,111.5427,40.7846,2026-04-14T1600,22,147,0.2,14,5,121,95,111,颗粒物(PM10)
呼伦贝尔市,国华电力东,119.7511,49.1576,2026-04-14T1600,13,22,0.3,8,5,96,86,30,
湖州市,城西水厂,120.075,30.867,2026-04-14T1600,16,18,1.0,41,5,33,54,23,
湖州市,仁皇山新区,120.083,30.8929,2026-04-14T1600,11,13,1.0,24,5,44,53,16,
南昌市,机电学校,115.9084,28.6062,2026-04-14T1600,22,31,0.7,NA,4,89,90,NA,NA
南昌市,外国语学校,115.9718,28.7032,2026-04-14T1600,28,31,0.8,14,8,81,85,40,
南昌市,工业二路,115.7923,28.6873,2026-04-14T1600,18,30,0.7,14,5,71,80,30,
南昌市,南京东路235号,115.931587,28.686774,2026-04-14T1600,26,NA,0.5,10,5,81,87,38,
南充市,南充市委,106.0791,30.8022,2026-04-14T1600,10,16,0.2,6,7,85,44,27,
南充市,南充炼油厂,106.1038,30.8215,2026-04-14T1600,11,17,0.2,5,6,78,46,25,
南充市,梨树横街98号,106.108336,30.788436,2026-04-14T1600,10,15,0.2,6,6,84,47,27,
南充市,清泉寺北路188号,106.1172,30.843,2026-04-14T1600,14,NA,0.4,5,6,78,48,25,
南京市,迈皋桥,118.8033,32.1085,2026-04-14T1600,20,47,1.2,24,11,128,89,47,
南京市,草场门,118.7487,32.057,2026-04-14T1600,12,41,0.4,18,4,113,78,41,
南京市,瑞金路,118.8059,32.0329,2026-04-14T1600,30,63,1.2,25,10,117,80,60,颗粒物(PM10)
南京市,玄武湖,118.7946,32.0774,2026-04-14T1600,18,39,1.1,13,10,113,79,39,
南京市,浦口,118.6415,32.0964,2026-04-14T1600,3,35,0.6,7,4,113,87,36,
南京市,奥体中心,118.730129,32.000956,2026-04-14T1600,3,24,0.3,13,7,94,59,30,
南京市,江宁彩虹桥,118.8443,31.919,2026-04-14T1600,26,60,1.2,28,3,106,84,58,颗粒物(PM10)
南京市,六合雄州,118.8497,32.3599,2026-04-14T1600,6,16,0.6,20,4,120,92,38,
南京市,新模范马路66号,118.7641,32.0841,2026-04-14T1600,11,51,0.6,19,4,119,85,51,颗粒物(PM10)
南京市,汶溪路181号,118.8707617,31.34017673,2026-04-14T1600,15,30,0.7,12,4,115,79,36,
南京市,中山西路1号,119.019,31.6512,2026-04-14T1600,25,51,0.6,21,4,79,70,51,颗粒物(PM10)
南宁市,二十一中,108.3098,22.788,2026-04-14T1600,40,67,0.9,8,3,104,80,63,颗粒物(PM10)
南宁市,北湖,108.3135,22.8529,2026-04-14T1600,42,58,0.8,8,2,106,87,64,细颗粒物(PM2.5)
南宁市,市监测站,108.3205,22.8222,2026-04-14T1600,39,55,0.5,5,2,111,88,58,细颗粒物(PM2.5)
南宁市,大自然花园,108.3828,22.8038,2026-04-14T1600,39,54,0.7,7,5,108,84,58,细颗粒物(PM2.5)
南宁市,区农职院,108.2397,22.8462,2026-04-14T1600,41,63,0.6,9,5,102,86,62,细颗粒物(PM2.5)
南宁市,红星社区,108.4829,22.762,2026-04-14T1600,34,52,0.8,4,4,112,88,52,颗粒物(PM10)
南宁市,起凤路9号,108.2927,23.1477,2026-04-14T1600,53,68,0.7,6,4,129,99,86,细颗粒物(PM2.5)
南宁市,乐贤路16号,108.2177,22.7774,2026-04-14T1600,40,61,0.5,8,3,100,85,60,细颗粒物(PM2.5)
南平市,南平市监测站,118.1682,26.6371,2026-04-14T1600,24,44,0.4,4,4,117,86,44,
南平市,南平七中,118.1757,26.6276,2026-04-14T1600,22,50,0.5,4,2,114,82,50,
南通市,狼山街道,120.9056,31.9669,2026-04-14T1600,26,32,0.5,16,3,63,80,38,
南通市,城中,120.8635,32.0231,2026-04-14T1600,30,45,0.4,13,4,61,80,45,
南通市,星湖花园,120.9376,31.9301,2026-04-14T1600,24,45,0.8,14,3,61,82,45,
阿坝藏族羌族自治州,马师校,102.2503,31.8896,2026-04-14T1600,6,6,0.3,4,6,95,88,30,
阿坝藏族羌族自治州,马尔康中学西区,102.2174,31.9016,2026-04-14T1600,7,NA,0.3,7,4,88,83,28,
阿克苏地区,艺术中心,80.2592,41.1541,2026-04-14T1600,24,66,0.4,6,4,130,90,62,颗粒物(PM10)
阿拉善盟,蒙二幼,105.699,38.8409,2026-04-14T1600,10,24,0.5,4,9,117,109,37,
阿拉善盟,环保局新楼,105.7198,38.8508,2026-04-14T1600,3,24,0.4,4,8,106,103,34,
阿里地区,阿里监测站,80.1171,32.4999,2026-04-14T1600,11,NA,0.4,1,5,132,117,42,
安康市,汉滨区检察院,109.0088,32.6974,2026-04-14T1600,10,20,0.4,5,5,83,63,26,
安康市,市邮政管理局,109.0324,32.6913,2026-04-14T1600,13,23,0.6,6,4,89,70,28,
安庆市,环科院,117.0806,30.5181,2026-04-14T1600,3,14,0.5,5,5,100,84,32,
安庆市,马山宾馆,117.0331,30.5118,2026-04-14T1600,3,12,0.5,4,4,97,82,31,
安庆市,安庆大学,116.9897,30.6146,2026-04-14T1600,3,23,0.5,8,2,92,82,29,
安庆市,市人大,117.0598,30.5351,2026-04-14T1600,3,14,0.5,5,6,97,82,31,
安顺市,凤凰山,105.9408,26.2431,2026-04-14T1600,38,48,0.6,8,6,109,81,56,细颗粒物(PM2.5)
安顺市,娄家坡,105.8983,26.248,2026-04-14T1600,30,41,0.6,5,7,103,75,43,
安阳市,红庙街,114.3552,36.1017,2026-04-14T1600,29,52,0.1,10,3,137,113,52,颗粒物(PM10)
安阳市,银杏小区,114.361,36.0681,2026-04-14T1600,24,49,0,9,5,136,111,49,
安阳市,信访局,114.3921,36.0879,2026-04-14T1600,29,42,0.3,7,3,142,116,45,
安阳市,左辅环卫站,114.4706,36.0634,2026-04-14T1600,26,57,0.3,8,2,120,98,55,颗粒物(PM10)
鞍山市,深沟寺,123.0441,41.1201,2026-04-14T1600,81,128,0.9,35,16,145,102,120,细颗粒物(PM2.5)
鞍山市,太阳城,123.011,41.0931,2026-04-14T1600,102,135,2.2,38,39,135,81,139,细颗粒物(PM2.5)
鞍山市,太平,123.0483,41.1445,2026-04-14T1600,84,136,1.0,28,13,142,90,122,细颗粒物(PM2.5)
鞍山市,铁西三道街,122.964,41.0968,2026-04-14T1600,96,136,1.4,32,28,142,84,133,细颗粒物(PM2.5)
鞍山市,明达新区,123.0219,41.0822,2026-04-14T1600,99,142,2.2,38,40,131,80,136,细颗粒物(PM2.5)
鞍山市,兴盛南路290号,122.944647,41.082639,2026-04-14T1600,108,138,1.2,NA,37,NA,78,144,细颗粒物(PM2.5)
巴彦淖尔市,市环保大楼,107.37,40.7372,2026-04-14T1600,11,52,0.2,4,6,117,103,52,颗粒物(PM10)
巴音郭楞蒙古自治州,孔雀公园,86.1476,41.7529,2026-04-14T1600,86,223,0.1,2,10,105,72,140,颗粒物(PM10)
巴音郭楞蒙古自治州,棉纺厂,86.1971,41.7166,2026-04-14T1600,51,161,/,2,/,107,82,116,颗粒物(PM10)
巴音郭楞蒙古自治州,经济开发区,86.236,41.7172,2026-04-14T1600,38,173,0.2,5,8,96,76,121,颗粒物(PM10)
巴中市,市五中,106.776805,31.852614,2026-04-14T1600,3,16,0.6,6,9,74,43,24,
巴中市,圣泉水务公司,106.7419,31.8654,2026-04-14T1600,6,15,0.5,5,8,79,50,25,
巴中市,市中心医院,106.7617,31.8343,2026-04-14T1600,6,10,0.5,4,8,83,54,26,
白城市,洮北区环保局,122.7909,45.608,2026-04-14T1600,22,34,0.1,4,11,113,99,36,
白山市,环保局,126.4082,41.9416,2026-04-14T1600,41,57,0.7,12,10,132,111,62,细颗粒物(PM2.5)
白银市,第三小学,104.1727,36.5448,2026-04-14T1600,9,22,0.3,3,6,107,93,34,
白银市,动力公司,104.1467,36.5482,2026-04-14T1600,7,23,0.2,6,7,107,98,34,
百色市,市监测站,106.6102,23.901,2026-04-14T1600,85,124,1.1,12,15,180,129,123,细颗粒物(PM2.5)
百色市,市中心血站,106.6524,23.8842,2026-04-14T1600,161,NA,1.2,10,15,182,130,211,细颗粒物(PM2.5)
百色市,龙景西路,106.6273,23.8798,2026-04-14T1600,88,116,0.8,13,17,186,136,126,细颗粒物(PM2.5)
蚌埠市,工人疗养院,117.396,32.9389,2026-04-14T1600,16,46,0.3,13,5,130,104,46,
蚌埠市,百货大楼,117.3606,32.9428,2026-04-14T1600,16,33,0.3,5,6,132,107,42,
蚌埠市,蚌埠学院,117.4183,32.8909,2026-04-14T1600,14,34,0.4,8,5,131,104,41,
蚌埠市,淮上区政府,117.3534,32.9672,2026-04-14T1600,14,34,0.3,7,5,134,111,42,
蚌埠市,高新区,117.3143,32.8977,2026-04-14T1600,15,44,0.4,11,8,131,101,44,
蚌埠市,蚌埠田家炳中学,117.3091,32.9314,2026-04-14T1600,18,39,0.3,10,6,136,107,43,
包头市,市环境监测站,109.8761,40.6533,2026-04-14T1600,12,71,0.4,9,9,128,108,65,颗粒物(PM10)
包头市,包头八中,109.9992,40.5843,2026-04-14T1600,14,72,0.4,8,10,122,98,66,颗粒物(PM10)
包头市,惠龙物流,109.8641,40.6288,2026-04-14T1600,10,63,0.5,7,8,120,113,60,颗粒物(PM10)
包头市,东河鸿龙湾,110.0376,40.5546,2026-04-14T1600,8,65,0.3,5,10,126,102,61,颗粒物(PM10)
包头市,滨河大厦,109.9154,40.5684,2026-04-14T1600,11,57,0.3,4,9,127,103,55,颗粒物(PM10)
包头市,包头市委党校,109.9449,40.6259,2026-04-14T1600,14,72,0.4,6,10,125,107,66,颗粒物(PM10)
包头市,昆区政府,109.8332,40.6577,2026-04-14T1600,12,57,0.6,13,9,124,107,55,颗粒物(PM10)
宝鸡市,竹园沟,107.0802,34.3129,2026-04-14T1600,17,107,NA,5,8,NA,97,NA,NA
宝鸡市,监测站,107.1429,34.3549,2026-04-14T1600,25,104,0.3,18,6,123,96,89,颗粒物(PM10)
宝鸡市,技工学校,107.1172,34.3759,2026-04-14T1600,16,85,0.4,11,NA,124,100,NA,NA
宝鸡市,文理学院,107.2025,34.3518,2026-04-14T1600,20,71,0.5,10,6,123,95,65,颗粒物(PM10)
宝鸡市,三迪小学,107.2396,34.3626,2026-04-14T1600,25,82,0.5,9,6,126,100,73,颗粒物(PM10)
宝鸡市,滨河北路,107.1721,34.3558,2026-04-14T1600,25,42,0.5,11,8,118,93,42,
宝鸡市,陈仓区北开路21号,107.3898,34.3601,2026-04-14T1600,33,71,0.6,8,9,130,97,65,颗粒物(PM10)
保定市,游泳馆,115.4803,38.8568,2026-04-14T1600,68,102,0.6,20,4,135,112,108,细颗粒物(PM2.5)
保定市,华电二区,115.509,38.8895,2026-04-14T1600,56,109,0.5,19,4,133,109,93,颗粒物(PM10)
保定市,接待中心,115.4588,38.9037,2026-04-14T1600,62,102,0.4,20,3,129,104,102,细颗粒物(PM2.5)
保定市,地表水厂,115.4484,38.8344,2026-04-14T1600,66,111,0.6,NA,8,138,104,106,细颗粒物(PM2.5)
保定市,满城区生态环境分局,115.3136,38.9511,2026-04-14T1600,52,136,0.6,23,5,134,88,107,颗粒物(PM10)
保定市,清苑区第二中学,115.4709,38.7628,2026-04-14T1600,60,131,0.6,19,6,140,104,105,颗粒物(PM10)
保定市,徐水物探局,115.6231,39.0223,2026-04-14T1600,61,128,0.7,20,4,125,97,104,颗粒物(PM10)
保定市,双鹰农机,115.4199,38.8665,2026-04-14T1600,65,125,0.5,22,6,138,115,105,细颗粒物(PM2.5)
保定市,植保所站,115.515,38.8589,2026-04-14T1600,59,103,0.5,18,8,136,105,98,细颗粒物(PM2.5)
保山市,市环境监测站,99.1589,25.1137,2026-04-14T1600,51,88,0.4,8,7,138,117,82,细颗粒物(PM2.5)
保山市,市环保局,99.1616,25.1381,2026-04-14T1600,62,102,0.4,6,8,140,115,102,细颗粒物(PM2.5)
北海市,海滩公园,109.1435,21.4085,2026-04-14T1600,41,54,0.6,7,6,114,80,62,细颗粒物(PM2.5)
北海市,北海工业园,109.1775,21.5232,2026-04-14T1600,40,52,0.8,9,6,107,73,60,细颗粒物(PM2.5)
北海市,龙潭自来水厂,109.1844,21.4396,2026-04-14T1600,34,53,0.7,5,6,110,72,53,颗粒物(PM10)
北京市,万寿西宫,116.3611,39.8786,2026-04-14T1600,42,93,0.7,27,7,91,66,81,颗粒物(PM10)
北京市,东四,116.4174,39.9289,2026-04-14T1600,41,100,0.6,29,7,103,77,86,颗粒物(PM10)
北京市,天坛,116.4073,39.8858,2026-04-14T1600,37,90,0.7,29,8,89,59,79,颗粒物(PM10)
北京市,农展馆,116.4622,39.9364,2026-04-14T1600,38,91,0.7,23,8,101,74,80,颗粒物(PM10)
北京市,海淀万柳,116.2879,39.9613,2026-04-14T1600,48,99,0.7,29,8,80,60,85,颗粒物(PM10)
北京市,顺义新城,116.6635,40.1349,2026-04-14T1600,36,85,0.8,19,9,103,78,75,颗粒物(PM10)
北京市,怀柔镇,116.6275,40.327,2026-04-14T1600,47,100,0.8,17,8,97,72,86,颗粒物(PM10)
北京市,昌平镇,116.2295,40.217,2026-04-14T1600,48,105,0.9,31,6,90,64,90,颗粒物(PM10)
北京市,奥体中心,116.3968,39.982,2026-04-14T1600,34,86,0.7,24,7,103,70,76,颗粒物(PM10)
北京市,密云新城,116.8336,40.4095,2026-04-14T1600,50,108,0.7,15,7,96,69,92,颗粒物(PM10)
北京市,门头沟三家店,116.0879,39.9725,2026-04-14T1600,56,124,0.8,32,7,94,66,102,颗粒物(PM10)
北京市,丰台云岗,116.1507,39.8246,2026-04-14T1600,57,104,0.9,30,7,103,76,94,细颗粒物(PM2.5)
北京市,房山燕山,115.9578,39.7602,2026-04-14T1600,58,125,0.9,37,7,88,60,102,颗粒物(PM10)
北京市,大兴旧宫,116.4669,39.7734,2026-04-14T1600,45,97,1.0,27,10,96,69,84,颗粒物(PM10)
北京市,延庆石河营,115.9859,40.4562,2026-04-14T1600,75,105,0.7,37,2,77,83,114,细颗粒物(PM2.5)
北京市,怀柔新城,116.6151,40.3052,2026-04-14T1600,35,91,0.8,18,7,100,74,80,颗粒物(PM10)
北京市,丰台小屯,116.2542,39.8764,2026-04-14T1600,55,103,0.9,32,8,87,67,90,细颗粒物(PM2.5)
北京市,密云镇,116.8399,40.3843,2026-04-14T1600,48,107,0.7,17,9,97,67,91,颗粒物(PM10)
北京市,延庆百泉,115.9423,40.4431,2026-04-14T1600,63,134,0.7,32,1,71,76,106,颗粒物(PM10)
北京市,通州新华,116.6598,39.9164,2026-04-14T1600,41,97,0.8,28,8,93,71,84,颗粒物(PM10)
北京市,石景山八角,116.1942,39.9158,2026-04-14T1600,51,113,0.7,33,8,92,67,95,颗粒物(PM10)
北京市,平谷新城,117.078628,40.151726,2026-04-14T1600,39,94,0.9,30,8,85,67,82,颗粒物(PM10)
本溪市,大峪,123.8274146,41.31234549,2026-04-14T1600,83,149,1.0,34,18,163,108,121,细颗粒物(PM2.5)
本溪市,彩屯,123.7169,41.3094,2026-04-14T1600,95,147,0.9,31,21,171,118,132,细颗粒物(PM2.5)
本溪市,东明,123.7672166,41.28649327,2026-04-14T1600,106,158,1.1,38,24,159,104,142,细颗粒物(PM2.5)
本溪市,新立屯,123.799345,41.266614,2026-04-14T1600,110,183,2.1,38,24,152,102,146,细颗粒物(PM2.5)
长沙市,雨花区环保局,113.0177,28.1322,2026-04-14T1600,6,8,0.5,8,3,62,76,20,
长沙市,伍家岭,112.9795,28.2593,2026-04-14T1600,9,16,0.3,11,3,65,70,21,
长沙市,火车新站,113.002,28.1944,2026-04-14T1600,9,10,0.4,10,3,62,75,20,
长沙市,天心区环保局,112.9846,28.1177,2026-04-14T1600,9,14,0.5,10,5,63,80,20,
长沙市,湖南中医药大学,112.8906,28.1307,2026-04-14T1600,8,16,0.5,11,5,74,83,24,
长治市,清华站,113.1146,36.1547,2026-04-14T1600,17,26,0.4,10,8,153,129,48,
长治市,长治八中,113.0845,36.1856,2026-04-14T1600,19,34,0.4,10,9,153,126,48,
长治市,向阳小学,113.0603,36.0464,2026-04-14T1600,9,48,0.5,12,7,157,131,50,
长治市,屯留一中,112.8788,36.315,2026-04-14T1600,NA,NA,0.4,18,8,114,100,NA,NA
长治市,学府街1号,113.23666,36.33435,2026-04-14T1600,24,40,0.7,13,7,154,119,49,
常德市,市二中,111.696,28.9725,2026-04-14T1600,10,23,0.7,2,8,91,63,29,
常德市,武陵区永安,111.7152,29.0288,2026-04-14T1600,10,17,0.6,5,5,94,67,30,
常德市,鼎城区玉霞,111.6891,28.9881,2026-04-14T1600,10,11,0.7,4,8,96,65,30,
常德市,武陵区长庚,111.6651,29.0526,2026-04-14T1600,13,NA,0.6,3,8,91,64,29,
常州市,市监测站,119.9524,31.7586,2026-04-14T1600,62,142,1.1,33,9,72,74,109,颗粒物(PM10)
常州市,武进监测站,119.9351,31.703,2026-04-14T1600,53,107,1.0,33,4,78,71,91,颗粒物(PM10)
常州市,行政中心,119.9701,31.813,2026-04-14T1600,62,100,0.9,34,5,70,62,102,细颗粒物(PM2.5)
常州市,经开区,120.0434,31.7726,2026-04-14T1600,67,138,1.1,NA,NA,69,68,107,"颗粒物(PM10),细颗粒物(PM2.5)"
常州市,钟楼,119.8919,31.7892,2026-04-14T1600,55,72,0.7,30,6,84,66,90,细颗粒物(PM2.5)
常州市,武进经发区,119.8595,31.706,2026-04-14T1600,40,63,0.9,28,4,83,76,60,"颗粒物(PM10),细颗粒物(PM2.5)"
常州市,金坛城区,119.5812,31.7256,2026-04-14T1600,33,52,0.7,8,7,79,72,52,颗粒物(PM10)
常州市,崇义南街5-H号,119.9551,31.863,2026-04-14T1600,47,86,1.2,32,6,78,66,76,颗粒物(PM10)
朝阳市,西梁,120.4318,41.588,2026-04-14T1600,25,60,0.5,23,9,90,97,58,颗粒物(PM10)
朝阳市,河畔小区,120.452,41.565,2026-04-14T1600,37,53,0.5,20,9,98,99,54,细颗粒物(PM2.5)
朝阳市,八里堡,120.4176,41.5648,2026-04-14T1600,32,62,0.6,27,11,95,97,59,颗粒物(PM10)
潮州市,市政府,116.6179,23.6608,2026-04-14T1600,16,32,0.5,17,4,61,58,32,
潮州市,金山,116.646,23.676,2026-04-14T1600,17,37,0.4,7,3,NA,58,NA,NA
郴州市,市职中,113.0116,25.8228,2026-04-14T1600,23,27,0.7,13,6,39,42,33,
郴州市,市审计局,113.0381,25.8074,2026-04-14T1600,22,26,/,6,2,51,51,32,
郴州市,市环保局,113.0348,25.7757,2026-04-14T1600,23,NA,0.5,15,6,44,43,33,
郴州市,好美居路49号,113.0138,25.8011,2026-04-14T1600,21,22,/,11,8,46,50,30,
成都市,金泉两河,103.9727,30.7242,2026-04-14T1600,16,22,0.3,11,2,134,76,42,
成都市,三瓦窑,104.0594,30.5765,2026-04-14T1600,18,26,0.4,2,2,122,72,39,
成都市,沙河铺,104.1122,30.6306,2026-04-14T1600,15,NA,0.4,12,2,104,60,33,
成都市,大石西路,104.0219,30.6561,2026-04-14T1600,17,22,0.4,10,4,120,72,38,
成都市,龙泉驿区区政府,104.2724,30.559,2026-04-14T1600,11,19,0.3,4,6,113,74,36,
成都市,金博路,104.0028,30.6891,2026-04-14T1600,20,28,0.5,13,6,129,75,41,
成都市,青石路225号,104.387954,30.746684,2026-04-14T1600,15,16,0.4,10,5,109,82,35,
成都市,科学城,104.0788,30.4054,2026-04-14T1600,12,18,0.3,NA,7,116,74,NA,NA
成都市,光华大道三段,103.8505,30.6946,2026-04-14T1600,16,32,0.3,12,3,132,79,42,
成都市,八角井街185号,104.3257,30.6406,2026-04-14T1600,10,15,0.3,7,4,107,78,34,
成都市,鲸龙路1057号,104.2433276,30.53529463,2026-04-14T1600,3,18,0.5,4,5,112,75,35,
承德市,铁路,117.9531,40.908,2026-04-14T1600,37,90,1.0,32,12,64,71,79,颗粒物(PM10)
承德市,中国银行,117.9397,40.9763,2026-04-14T1600,32,77,1.0,NA,NA,80,71,NA,NA
承德市,杏林街1号,117.9462,40.95,2026-04-14T1600,41,85,1.3,19,20,82,76,75,颗粒物(PM10)
池州市,池州学院,117.4698,30.6617,2026-04-14T1600,7,8,0.6,16,3,104,84,33,
池州市,展览馆,117.4918,30.6617,2026-04-14T1600,8,11,0.5,16,2,104,85,33,
池州市,第八中学,117.5626,30.695,2026-04-14T1600,7,9,0.6,18,3,87,74,28,
池州市,第十二中学,117.5037,30.6242,2026-04-14T1600,3,8,0.8,NA,2,96,82,NA,NA
赤峰市,哈达街,118.9588,42.2733,2026-04-14T1600,27,30,0.6,18,10,82,68,39,
赤峰市,天义路,118.8792,42.2551,2026-04-14T1600,16,16,0.3,11,5,80,70,25,
赤峰市,银河街,119.2656,42.0356,2026-04-14T1600,34,42,0.6,22,18,71,68,49,
赤峰市,桥北物流园区,118.9359,42.3146,2026-04-14T1600,34,35,1.3,28,6,68,71,49,
崇左市,市环保局江州分局,107.3473,22.4137,2026-04-14T1600,85,113,1.1,10,2,148,101,123,细颗粒物(PM2.5)
崇左市,石景林东路7号,107.375,22.3736,2026-04-14T1600,81,95,1.2,11,3,158,112,120,细颗粒物(PM2.5)
滁州市,市政府原办公楼,118.31131,32.3033,2026-04-14T1600,23,33,0.4,8,5,116,101,37,
滁州市,黄山路555号,118.3426,32.2979,2026-04-14T1600,20,48,0.5,6,7,124,105,48,
楚雄彝族自治州,市经济开发区,101.5379,25.0492,2026-04-14T1600,27,69,0.4,5,3,140,125,64,颗粒物(PM10)
楚雄彝族自治州,团结路562号,101.5536,25.0343,2026-04-14T1600,37,72,0.3,4,2,146,128,66,颗粒物(PM10)
达州市,市环境监测站,107.5087,31.2186,2026-04-14T1600,7,21,0.2,20,6,59,30,21,
达州市,达县机关宾馆,107.5081,31.1987,2026-04-14T1600,3,14,0.3,19,4,64,34,20,
大理白族自治州,大理市环境监测站,100.2168,25.5818,2026-04-14T1600,42,68,0.3,10,4,121,115,64,细颗粒物(PM2.5)
大理白族自治州,大理古城,100.1542,25.7055,2026-04-14T1600,34,60,0.3,4,3,121,113,58,颗粒物(PM10)
大连市,甘井子,121.6119,38.974,2026-04-14T1600,44,108,0.5,29,12,173,136,92,颗粒物(PM10)
大连市,周水子,121.565,38.9509,2026-04-14T1600,59,108,0.8,38,9,153,122,98,细颗粒物(PM2.5)
大连市,星海三站,121.5637,38.8849,2026-04-14T1600,26,45,0.4,13,4,137,120,45,
大连市,青泥洼桥,121.6301,38.9117,2026-04-14T1600,27,48,0.6,15,5,137,122,48,
大连市,傅家庄,121.6248,38.8643,2026-04-14T1600,23,40,0.4,5,6,147,126,46,
大连市,七贤岭,121.5117,38.8636,2026-04-14T1600,21,34,0.5,17,6,129,120,41,
大连市,金州,121.7507,39.1339,2026-04-14T1600,37,73,0.6,14,5,162,133,67,颗粒物(PM10)
大连市,开发区,121.7811,39.0495,2026-04-14T1600,34,82,0.5,22,12,148,113,73,颗粒物(PM10)
大连市,双D港,121.9762,39.0631,2026-04-14T1600,45,66,0.4,22,9,144,115,70,细颗粒物(PM2.5)
大连市,旅顺,121.2548,38.8188,2026-04-14T1600,38,62,0.5,18,7,137,124,59,颗粒物(PM10)
大庆市,大同区,124.8085,46.0381,2026-04-14T1600,31,41,0.3,9,4,113,106,45,
大庆市,龙凤区,125.1166,46.5255,2026-04-14T1600,15,52,0.2,12,4,111,100,52,颗粒物(PM10)
大庆市,红岗区,124.8894,46.4007,2026-04-14T1600,19,29,0.2,3,12,106,97,34,
大庆市,萨尔图区,125.1391,46.578,2026-04-14T1600,22,32,0.4,9,6,116,103,37,
大庆市,让胡路区,124.9026,46.6217,2026-04-14T1600,22,39,0.4,7,4,105,95,39,
大庆市,萨区政府监测点,125.127,46.6277,2026-04-14T1600,27,45,0.3,8,9,107,98,45,
大同市,云冈宾馆,113.2926,40.0759,2026-04-14T1600,9,63,0.3,8,4,118,93,60,颗粒物(PM10)
大同市,大同大学,113.3437,40.0921,2026-04-14T1600,17,92,0.3,8,1,120,98,80,颗粒物(PM10)
大同市,安家小村,113.2637,40.129,2026-04-14T1600,15,84,0.3,8,10,117,91,75,颗粒物(PM10)
大同市,云冈站,113.1371,40.1122,2026-04-14T1600,30,83,0.4,3,5,121,93,74,颗粒物(PM10)
大同市,图书馆,113.1186,40.2556,2026-04-14T1600,16,91,0.3,7,4,116,92,80,颗粒物(PM10)
大同市,魏都大道141号,113.2798248,40.09972476,2026-04-14T1600,14,86,NA,5,7,120,93,NA,NA
大兴安岭地区,红旗社区,124.117,50.4279,2026-04-14T1600,6,12,0.2,5,12,88,84,28,
丹东市,江湾东路,124.33,40.0625,2026-04-14T1600,24,58,0.3,9,11,147,114,56,颗粒物(PM10)
丹东市,临江后街,124.4242,40.1513,2026-04-14T1600,27,68,0.5,9,12,140,110,63,颗粒物(PM10)
丹东市,元宝山,124.3935,40.1461,2026-04-14T1600,25,64,0.4,10,8,140,103,60,颗粒物(PM10)
丹东市,民主桥,124.3634,40.1093,2026-04-14T1600,25,64,0.2,10,8,143,109,60,颗粒物(PM10)
儋州市,第一中学子站,109.5726195,19.51688767,2026-04-14T1600,39,49,0.5,6,8,132,107,58,细颗粒物(PM2.5)
儋州市,东坡学校子站,109.5567,19.5187,2026-04-14T1600,36,44,0.7,3,8,129,103,52,细颗粒物(PM2.5)
德宏傣族景颇族自治州,芒市人民政府综合楼,98.5887,24.4366,2026-04-14T1600,57,145,0.4,12,11,128,85,110,颗粒物(PM10)
德阳市,西小区,104.3827,31.1318,2026-04-14T1600,17,35,0.5,12,4,126,74,40,
德阳市,耐火材料厂,104.3553,31.1091,2026-04-14T1600,20,36,0.3,14,2,146,89,46,
德阳市,市林业局,104.4144,31.1495,2026-04-14T1600,11,34,0.5,3,5,138,89,44,
德州市,儿童乐园,116.3034,37.4675,2026-04-14T1600,46,92,0.8,9,9,165,117,80,颗粒物(PM10)
德州市,监理站,116.2992,37.4449,2026-04-14T1600,41,83,0.5,13,10,167,120,74,颗粒物(PM10)
德州市,开发区人民医院,116.3693,37.44,2026-04-14T1600,44,92,0.6,10,11,162,110,80,颗粒物(PM10)
德州市,陵城艺术中心,116.5687,37.3331,2026-04-14T1600,66,80,NA,15,5,157,123,106,细颗粒物(PM2.5)
德州市,新河东路,116.352738,37.420875,2026-04-14T1600,41,70,0.7,8,11,152,107,65,颗粒物(PM10)
迪庆藏族自治州,迪庆州站,99.7054,27.8319,2026-04-14T1600,11,26,0.4,11,8,126,NA,40,
迪庆藏族自治州,质量技术监督局,99.7122,27.8129,2026-04-14T1600,18,36,0.5,11,6,133,131,42,
定西市,将台街,104.6092,35.5962,2026-04-14T1600,14,40,0.1,6,6,121,107,40,
定西市,正龙路62号,104.6159,35.5701,2026-04-14T1600,20,40,0.3,6,4,118,107,40,
定州市,交通局,114.9883,38.5232,2026-04-14T1600,61,140,0.7,18,13,143,100,108,颗粒物(PM10)
定州市,第五中学,115.0045,38.5136,2026-04-14T1600,46,130,0.7,16,9,144,98,104,颗粒物(PM10)
东莞市,东城石井,113.7943,23.0132,2026-04-14T1600,10,20,0.4,8,4,59,52,20,
东莞市,南城西平,113.7384,22.9659,2026-04-14T1600,8,17,0.5,NA,5,56,53,NA,NA
东莞市,万江金泰,113.7283,23.041,2026-04-14T1600,11,20,0.6,9,6,53,49,20,
东莞市,裕兴路,113.8666,23.1062,2026-04-14T1600,9,24,0.7,10,5,60,50,24,
东莞市,教育路1号,114.0076,22.9739,2026-04-14T1600,12,32,0.6,11,6,67,52,32,
东莞市,长怡路1号,113.7981,22.8124,2026-04-14T1600,8,21,0.6,9,5,53,48,21,
东营市,开发区管委会,118.6903,37.4337,2026-04-14T1600,22,50,0.6,15,8,172,145,65,臭氧1小时(O3_1h)
东营市,河口城区,118.5063,37.8606,2026-04-14T1600,41,85,0.8,27,13,166,151,75,颗粒物(PM10)
东营市,胜利站,118.4979,37.4623,2026-04-14T1600,46,75,0.7,14,10,185,146,82,臭氧1小时(O3_1h)
东营市,理想之城,118.5753,37.4405,2026-04-14T1600,25,51,0.5,21,9,190,166,88,臭氧1小时(O3_1h)
鄂尔多斯市,综合楼,110.0024,39.8127,2026-04-14T1600,3,41,0.3,7,8,126,115,41,
鄂尔多斯市,康泽苑,109.7734,39.5987,2026-04-14T1600,7,39,0.2,4,8,126,118,40,
鄂州市,市政府,114.894,30.3989,2026-04-14T1600,6,20,0.8,19,10,65,62,21,
鄂州市,赵家坝,114.8986,30.3714,2026-04-14T1600,3,14,0.4,10,8,67,65,21,
鄂州市,精准医疗中心,114.8093,30.4091,2026-04-14T1600,9,22,0.5,14,4,67,66,22,
恩施土家族苗族自治州,湖北民院,109.4978,30.2979,2026-04-14T1600,3,14,0.5,3,7,66,56,21,
恩施土家族苗族自治州,龙凤新区,109.5061,30.3771,2026-04-14T1600,15,NA,0.4,1,6,55,40,22,
防城港市,沙万,108.3411,21.6159,2026-04-14T1600,28,55,0.5,10,7,84,84,54,颗粒物(PM10)
防城港市,防城档案局,108.3515,21.7733,2026-04-14T1600,35,54,0.7,3,7,95,89,53,颗粒物(PM10)
防城港市,大海花园,108.3506,21.6414,2026-04-14T1600,35,54,0.6,4,8,97,96,53,颗粒物(PM10)
佛山市,湾梁,113.1293,23.0065,2026-04-14T1600,15,29,/,9,/,55,46,29,
佛山市,华材职中,113.1082,23.0477,2026-04-14T1600,17,29,0.3,12,4,56,48,29,
佛山市,南海气象局,113.1439,23.045,2026-04-14T1600,18,33,/,14,/,48,42,33,
佛山市,高明孔堂,112.8384,22.8678,2026-04-14T1600,12,18,/,6,/,52,50,18,
佛山市,三水监测站,112.8835,23.1584,2026-04-14T1600,20,34,0.3,18,2,49,39,34,
佛山市,三水云东海,112.8668,23.185,2026-04-14T1600,18,37,/,18,/,49,37,37,
福州市,师大,119.2681,26.0506,2026-04-14T1600,21,55,0.4,16,4,117,73,54,颗粒物(PM10)
福州市,五四北路,119.2983,26.1028,2026-04-14T1600,36,59,0.3,18,5,118,68,57,颗粒物(PM10)
福州市,杨桥西路,119.2648,26.0769,2026-04-14T1600,31,56,/,17,5,120,70,55,颗粒物(PM10)
福州市,九龙,119.5799,26.0937,2026-04-14T1600,20,36,0.4,14,5,95,79,36,
福州市,吴航,119.5188,25.9666,2026-04-14T1600,21,32,0.5,15,6,99,73,32,
福州市,路通桥巷6号,119.3106,26.0648,2026-04-14T1600,29,49,/,17,/,114,64,49,
抚顺市,望花区,123.7974,41.8494,2026-04-14T1600,65,122,0.8,20,12,154,134,105,细颗粒物(PM2.5)
抚顺市,顺城区,123.9161,41.8827,2026-04-14T1600,83,126,0.7,25,13,147,122,121,细颗粒物(PM2.5)
抚顺市,东洲区,124.0437,41.8615,2026-04-14T1600,NA,NA,0.8,30,NA,NA,135,NA,NA
抚顺市,新抚区,123.9246,41.8638,2026-04-14T1600,80,143,0.8,22,11,163,139,119,细颗粒物(PM2.5)
抚顺市,大伙房水库,124.0972,41.8961,2026-04-14T1600,87,117,0.7,21,11,171,143,125,细颗粒物(PM2.5)
抚顺市,沈抚新城,123.708,41.8386,2026-04-14T1600,75,131,0.8,25,12,145,115,114,细颗粒物(PM2.5)
抚州市,市站,116.3544,27.9833,2026-04-14T1600,6,19,1.0,8,1,109,83,35,
抚州市,血防站,116.3562,27.9631,2026-04-14T1600,10,22,0.7,6,7,101,78,32,
抚州市,采茶剧团,116.3561,28.0007,2026-04-14T1600,3,23,0.9,7,8,101,80,32,
抚州市,医学分院,116.3854,27.9648,2026-04-14T1600,3,29,1.4,5,6,98,77,31,
阜新市,工业园区,121.6095,41.9978,2026-04-14T1600,25,55,0.4,15,4,108,91,54,颗粒物(PM10)
阜新市,长青街,121.6567,42.0188,2026-04-14T1600,24,42,0.4,15,7,109,91,42,
阜新市,农业园区,121.6672,42.07,2026-04-14T1600,26,53,0.4,13,5,108,98,53,颗粒物(PM10)
阜新市,玉龙新城,121.6343,42.0455,2026-04-14T1600,24,54,0.4,17,6,109,94,53,颗粒物(PM10)
阜阳市,开发区,115.8551,32.8606,2026-04-14T1600,16,38,0.4,12,5,88,84,38,
阜阳市,阜阳职业技术学院,115.783962,32.889217,2026-04-14T1600,16,31,0.4,8,6,92,88,31,
阜阳市,市规划展馆,115.79,32.8614,2026-04-14T1600,21,76,0.5,12,7,87,90,69,颗粒物(PM10)
阜阳市,枣园社区,115.835101,32.918568,2026-04-14T1600,17,25,0.4,9,6,91,82,29,
甘南藏族自治州,甘肃民族师范学院,102.8915,34.9618,2026-04-14T1600,19,42,0.2,2,1,126,95,42,
甘孜藏族自治州,水桥子,101.96,30.048,2026-04-14T1600,3,7,0.1,5,6,90,79,29,
赣州市,赣县区卫计委,115.0094,25.8614,2026-04-14T1600,21,53,0.8,22,4,54,52,53,颗粒物(PM10)
固原市,监测站,106.2753,36.0057,2026-04-14T1600,13,37,0.3,6,4,112,104,37,
固原市,新区,106.2384,36.0189,2026-04-14T1600,14,40,0.4,4,4,113,104,40,
广安市,市委,106.6307,30.4577,2026-04-14T1600,8,8,0.4,6,6,64,46,20,
广安市,广电花园,106.6386,30.4551,2026-04-14T1600,9,11,0.4,10,5,52,39,17,
广安市,北辰小学,106.6347,30.4868,2026-04-14T1600,8,12,0.4,6,8,71,47,23,
广元市,监测站,105.8629,32.429,2026-04-14T1600,11,34,0.3,10,1,99,79,34,
广元市,经开区,105.8047,32.4167,2026-04-14T1600,11,30,0.4,10,2,99,74,31,
广州市,广雅中学,113.2346,23.1423,2026-04-14T1600,17,34,0.6,18,1,48,41,34,
广州市,市五中,113.2611,23.105,2026-04-14T1600,19,30,/,19,2,57,49,30,
广州市,广东商学院,113.3477,23.0916,2026-04-14T1600,16,28,0.5,24,4,33,35,28,
广州市,市八十六中,113.4332,23.105,2026-04-14T1600,12,19,/,24,6,31,26,19,
广州市,番禺中学,113.3506,22.9488,2026-04-14T1600,17,30,0.5,14,5,57,44,30,
广州市,花都师范,113.2147,23.3918,2026-04-14T1600,22,43,0.8,36,6,30,38,43,
广州市,市监测站,113.2599,23.1329,2026-04-14T1600,16,30,/,11,2,53,44,30,
广州市,九龙镇镇龙,113.5618,23.3119,2026-04-14T1600,21,36,0.4,30,6,29,23,36,
广州市,麓湖,113.2764,23.1544,2026-04-14T1600,16,28,0.5,13,5,57,44,28,
广州市,体育西,113.3209,23.1323,2026-04-14T1600,15,34,0.6,25,5,31,34,34,
广州市,从化街口,113.5718,23.5493,2026-04-14T1600,18,30,0.6,14,7,52,41,30,
广州市,白云竹料,113.3463,23.369,2026-04-14T1600,16,146,0.6,25,4,34,31,110,颗粒物(PM10)
广州市,白云嘉禾,113.2981,23.2365,2026-04-14T1600,18,43,/,32,4,24,33,43,
广州市,黄埔科学城,113.4256,23.1716,2026-04-14T1600,14,28,0.5,25,4,31,26,28,
广州市,番禺大学城,113.3942,23.0485,2026-04-14T1600,11,25,0.5,19,3,45,41,25,
广州市,南沙黄阁,113.4923,22.8169,2026-04-14T1600,13,23,/,9,5,48,41,23,
广州市,南沙街,113.534,22.7893,2026-04-14T1600,NA,NA,0.4,NA,NA,46,40,NA,NA
广州市,花都梯面,113.2905,23.5541,2026-04-14T1600,20,36,/,23,8,33,30,36,
广州市,从化良口,113.786,23.7479,2026-04-14T1600,24,33,/,14,4,63,51,35,
广州市,增城荔城,113.805,23.2614,2026-04-14T1600,15,27,0.4,14,5,49,44,27,
贵港市,新世纪学校,109.5886,23.1172,2026-04-14T1600,43,66,0.7,16,/,79,57,66,细颗粒物(PM2.5)
贵港市,中山路155-3号,109.5933,23.095,2026-04-14T1600,39,62,0.9,12,/,88,64,59,颗粒物(PM10)
贵阳市,马鞍山,106.6863,26.6035,2026-04-14T1600,22,29,/,9,4,80,60,32,
贵阳市,鉴湖路,106.6241,26.6266,2026-04-14T1600,34,66,1.0,12,6,90,62,62,颗粒物(PM10)
贵阳市,燕子冲,106.7468,26.6344,2026-04-14T1600,43,NA,0.6,8,7,78,65,NA,NA
贵阳市,碧云窝,106.6556,26.4362,2026-04-14T1600,29,63,/,10,6,114,78,60,颗粒物(PM10)
贵阳市,花果园大街66号,106.688212,26.56952,2026-04-14T1600,26,27,/,9,2,84,64,38,
桂林市,龙隐路小学,110.3091,25.2705,2026-04-14T1600,13,15,0.6,9,4,59,56,19,
桂林市,八中,110.2849361,25.22909545,2026-04-14T1600,8,16,0.7,13,3,53,48,17,
桂林市,旅游学院,110.296,25.1254,2026-04-14T1600,10,13,0.8,8,6,56,51,18,
桂林市,环湖路276号,110.1835,25.2444,2026-04-14T1600,19,NA,0.6,10,5,56,55,28,
桂林市,信义路13号,110.2803,25.2773,2026-04-14T1600,13,NA,0.8,11,4,60,54,19,
果洛藏族自治州,玛沁县大武镇,100.2262,34.4854,2026-04-14T1600,16,46,0.4,1,NA,113,99,NA,NA
哈尔滨市,松北商大,126.5557,45.8109,2026-04-14T1600,21,36,0.2,4,6,114,101,36,
哈尔滨市,南岗学府路,126.6162,45.719,2026-04-14T1600,10,35,0,10,9,108,99,35,
哈尔滨市,太平宏伟公园,126.6894,45.7733,2026-04-14T1600,20,41,0.3,9,5,100,96,41,
哈尔滨市,道外承德广场,126.6361,45.7672,2026-04-14T1600,14,50,0,17,8,99,93,50,
哈尔滨市,动力和平路,126.644,45.7261,2026-04-14T1600,14,41,0.3,10,3,101,92,41,
哈尔滨市,道里建国路,126.5933,45.7479,2026-04-14T1600,19,54,0.2,15,2,108,97,53,颗粒物(PM10)
哈尔滨市,平房东轻厂,126.6127,45.6119,2026-04-14T1600,25,NA,0.3,NA,7,73,67,NA,NA
哈尔滨市,省农科院,126.6299,45.6799,2026-04-14T1600,27,35,0.4,9,6,102,96,39,
哈尔滨市,解放大街52号,126.9717,45.5356,2026-04-14T1600,15,55,0.6,16,9,100,100,54,颗粒物(PM10)
哈密市,地区监测站,93.5124,42.8176,2026-04-14T1600,7,35,0.1,3,9,115,97,36,
海北藏族自治州,海晏县西海镇,100.9016,36.9464,2026-04-14T1600,26,47,0.3,1,5,121,97,47,
海东市,平安区公安局北苑,102.074,36.5056,2026-04-14T1600,26,46,0.5,5,6,127,106,46,
海东市,滨河路,102.0984,36.5119,2026-04-14T1600,70,NA,0.5,8,4,108,89,110,细颗粒物(PM2.5)
海口市,海南大学,110.3189,20.0596,2026-04-14T1600,23,31,0.4,8,6,128,105,40,
海口市,秀英海南医院,110.2827,20.0051,2026-04-14T1600,23,36,0.4,12,8,122,95,39,
海口市,海南师范大学,110.3391,19.9979,2026-04-14T1600,20,40,0.4,4,7,111,102,40,
海口市,龙华路环保局宿舍,110.3303,20.0359,2026-04-14T1600,22,38,0.6,8,/,120,105,38,
海口市,桂林洋子站,110.5111,19.9737,2026-04-14T1600,17,NA,/,5,/,75,80,25,
海口市,长滨二路9号,110.1952,20.0451,2026-04-14T1600,23,40,/,18,/,116,105,40,
海南藏族自治州,共和县恰卜恰镇,100.6158,36.2985,2026-04-14T1600,19,37,0.4,1,10,131,110,41,
海西蒙古族藏族自治州,德令哈市,97.373,37.376,2026-04-14T1600,29,80,0.3,6,17,151,140,72,颗粒物(PM10)
邯郸市,矿院,114.492,36.5712,2026-04-14T1600,25,43,0.3,3,4,144,116,45,
邯郸市,峰峰矿区临水派出所,114.1998,36.4439,2026-04-14T1600,24,38,0.4,9,8,163,150,54,臭氧1小时(O3_1h)
邯郸市,丛台东路558号,114.5488,36.6177,2026-04-14T1600,20,40,0.4,2,2,144,117,45,
汉中市,市监测站,107.0155,33.0707,2026-04-14T1600,11,30,0.3,2,4,108,82,34,
汉中市,鑫源开发区,107.0083,33.114,2026-04-14T1600,8,29,0.3,5,4,103,83,33,
汉中市,南郑大河坎水厂,107.0072,33.0323,2026-04-14T1600,10,25,0.4,4,4,103,74,33,
杭州市,滨江,120.2073,30.2111,2026-04-14T1600,18,29,1.1,34,7,46,49,29,
杭州市,西溪,120.0625,30.2737,2026-04-14T1600,11,16,1.0,22,4,39,33,16,
杭州市,下沙,120.3417,30.315,2026-04-14T1600,20,50,1.0,22,6,58,44,50,
杭州市,卧龙桥,120.1252,30.2465,2026-04-14T1600,14,19,0.5,28,NA,48,39,NA,NA
杭州市,浙江农大,120.1902,30.2691,2026-04-14T1600,16,19,0.7,36,7,46,37,23,
杭州市,和睦小学,120.1195,30.3121,2026-04-14T1600,16,42,0.8,26,6,47,38,42,
杭州市,临平镇,120.3076,30.4146,2026-04-14T1600,20,28,0.8,21,6,63,52,29,
杭州市,城厢镇,120.2753,30.1839,2026-04-14T1600,18,23,0.7,27,5,61,46,26,
杭州市,云栖,120.0883,30.1808,2026-04-14T1600,13,19,0.8,23,7,51,41,19,
杭州市,镇二中,119.9463,30.0496,2026-04-14T1600,18,26,0.6,33,4,45,43,26,
杭州市,市府大楼,119.7184,30.2367,2026-04-14T1600,9,NA,0.8,17,6,41,42,13,
杭州市,消防大队,120.1554,30.2863,2026-04-14T1600,15,34,1.0,29,4,51,41,34,
合肥市,明珠广场,117.1957,31.7845,2026-04-14T1600,14,31,0.5,17,6,93,85,31,
合肥市,三里街,117.307,31.8765,2026-04-14T1600,19,44,0.5,18,6,80,81,44,
合肥市,琥珀山庄,117.2587,31.8703,2026-04-14T1600,19,39,0.7,16,6,88,85,39,
合肥市,庐阳区,117.2593,31.9376,2026-04-14T1600,18,41,0.6,9,5,92,88,41,
合肥市,瑶海区,117.345251,31.861615,2026-04-14T1600,15,46,0.5,16,6,86,84,46,
合肥市,滨湖新区,117.278,31.7392,2026-04-14T1600,14,46,0.5,16,5,80,77,46,
合肥市,高新区,117.1324,31.8395,2026-04-14T1600,12,31,0.5,6,5,96,87,31,
合肥市,高教基地,117.3802,31.9148,2026-04-14T1600,16,48,0.5,18,8,81,82,48,
和田地区,地区环保局,79.9241,37.0878,2026-04-14T1600,97,388,0.4,1,3,124,98,255,颗粒物(PM10)
河池市,市环保站,108.0496,24.6957,2026-04-14T1600,28,68,0.7,3,5,60,79,63,颗粒物(PM10)
河池市,上任中路54号,108.0901,24.6945,2026-04-14T1600,28,65,0.8,4,7,53,79,61,颗粒物(PM10)
河源市,东埔,114.6962,23.7538,2026-04-14T1600,24,40,0.6,15,6,62,51,40,
河源市,老城,114.6895,23.7232,2026-04-14T1600,28,46,0.5,14,6,60,48,46,
菏泽市,黄河路600号,115.4239,35.2593,2026-04-14T1600,3,28,0.3,7,2,126,113,40,
菏泽市,菏泽市人社局,115.5025,35.2727,2026-04-14T1600,8,29,0.2,7,7,128,120,40,
菏泽市,永昌路1号,115.479691,35.244011,2026-04-14T1600,3,40,0.5,14,2,143,131,45,
贺州市,环保小区,111.5264,24.4178,2026-04-14T1600,28,57,0.4,20,6,62,54,55,颗粒物(PM10)
贺州市,政协大楼,111.561,24.4074,2026-04-14T1600,29,33,0.7,12,9,75,60,42,
湖州市,吴兴区站,120.1846,30.8592,2026-04-14T1600,22,26,0.9,31,5,53,51,32,
湖州市,南浔区站,120.4146,30.8538,2026-04-14T1600,22,27,1.0,13,4,104,72,33,
葫芦岛市,龙港区,120.904878,40.721091,2026-04-14T1600,3,80,0.6,37,18,79,79,72,颗粒物(PM10)
葫芦岛市,新区,120.8339,40.7078,2026-04-14T1600,30,54,0.5,32,16,81,74,53,颗粒物(PM10)
葫芦岛市,东城区,120.8697,40.7679,2026-04-14T1600,37,50,0.6,36,18,74,76,54,细颗粒物(PM2.5)
怀化市,河西地税局,109.9297,27.5383,2026-04-14T1600,10,16,/,9,5,50,62,16,
怀化市,市四医院,109.9783,27.5342,2026-04-14T1600,10,21,0.4,9,2,49,60,21,
淮安市,市监测站,118.9938,33.6083,2026-04-14T1600,18,36,0.4,9,7,128,109,40,
淮安市,楚州区监测站,119.135,33.5038,2026-04-14T1600,21,39,0.2,7,7,112,104,39,
淮安市,新华书店,118.8757,33.2897,2026-04-14T1600,32,64,0.5,11,10,117,97,60,颗粒物(PM10)
淮安市,枚皋中路89号,119.119691,33.550006,2026-04-14T1600,18,24,0.6,6,12,115,106,36,
淮安市,承德北路606号,119.028838,33.631911,2026-04-14T1600,15,41,0.4,9,8,115,99,41,
淮北市,监测站,116.8005,33.9749,2026-04-14T1600,24,43,0.4,14,10,149,127,47,
淮北市,烈山区政府,116.8094,33.9008,2026-04-14T1600,25,48,0.5,13,10,159,130,50,
淮北市,市博物馆,116.7926,33.9534,2026-04-14T1600,27,50,0.5,11,10,163,130,54,臭氧1小时(O3_1h)
淮北市,杜集区第一实验学校,116.8322,33.9884,2026-04-14T1600,20,67,0.3,14,9,143,118,63,颗粒物(PM10)
淮南市,潘集区政府,116.8304,32.7726,2026-04-14T1600,16,24,0.3,16,6,105,81,33,
淮南市,谢家集区政府,116.8569,32.5949,2026-04-14T1600,23,34,0.2,14,8,82,78,34,
淮南市,八公山区政府,116.8279,32.6333,2026-04-14T1600,25,39,0.2,9,7,91,77,39,
淮南市,经济技术开发区消防队,117.0561,32.6536,2026-04-14T1600,20,35,0.3,14,9,108,82,35,
淮南市,山南新区,117.011,32.5891,2026-04-14T1600,22,40,0.4,NA,NA,100,86,NA,NA
淮南市,国庆中路369号,117.003137,32.644456,2026-04-14T1600,15,27,0.2,9,6,98,76,31,
黄冈市,职工中心,114.9021,30.474,2026-04-14T1600,3,21,0.4,12,6,68,59,22,
黄冈市,红卫路,114.8858,30.4519,2026-04-14T1600,10,19,0.1,9,5,70,62,22,
黄山市,延安路89号,118.2905,29.6965,2026-04-14T1600,8,13,0.6,6,4,54,44,17,
黄山市,黄山区政府5号楼,118.1369,30.2755,2026-04-14T1600,3,12,0.7,7,3,62,57,20,
黄石市,沈家营,115.0547,30.2332,2026-04-14T1600,10,19,1.0,9,6,62,64,20,
惠州市,河南岸金山湖子站,114.4181,23.0528,2026-04-14T1600,15,26,0.5,8,6,67,54,26,
惠州市,下埔横江三路子站,114.4055,23.0824,2026-04-14T1600,14,28,0.6,7,5,65,53,28,
惠州市,惠阳区承修路船湖子站,114.4645,22.7832,2026-04-14T1600,11,23,0.4,6,5,54,46,23,
惠州市,大亚湾管委会子站,114.5316,22.7423,2026-04-14T1600,9,17,0.4,1,4,48,38,17,
惠州市,惠阳秋长,114.4334,22.8134,2026-04-14T1600,10,19,/,7,/,58,52,19,
惠州市,大亚湾霞涌,114.6521,22.7755,2026-04-14T1600,10,24,/,NA,/,51,40,NA,NA
惠州市,文华一路1号,114.4089,23.1147,2026-04-14T1600,14,25,/,7,/,70,56,25,
鸡西市,第一中学,130.9294,45.2959,2026-04-14T1600,19,26,0.1,5,4,104,95,33,
鸡西市,欧美日汽修厂,131.0069,45.2988,2026-04-14T1600,20,30,0.4,6,1,104,90,33,
吉安市,红声器材厂,114.9753,27.0803,2026-04-14T1600,12,30,1.4,15,6,48,40,30,
吉安市,市环境监测站,114.9903,27.1313,2026-04-14T1600,13,31,/,16,10,52,40,31,
吉安市,青原区法院,115.009527,27.096792,2026-04-14T1600,11,28,1.0,16,7,52,39,28,
吉林市,哈达湾,126.54,43.8622,2026-04-14T1600,47,57,0.5,16,20,125,110,74,细颗粒物(PM2.5)
吉林市,东局子,126.5843,43.8358,2026-04-14T1600,38,60,1.1,20,12,120,107,58,颗粒物(PM10)
吉林市,电力学院,126.5051,43.8243,2026-04-14T1600,40,60,0.9,21,19,133,125,60,细颗粒物(PM2.5)
吉林市,江北,126.6133,43.8971,2026-04-14T1600,39,61,0.6,15,13,106,90,58,"颗粒物(PM10),细颗粒物(PM2.5)"
吉林市,江南公园,126.5549,43.8304,2026-04-14T1600,40,54,0.7,20,18,124,114,60,细颗粒物(PM2.5)
吉林市,九站,126.4737,43.953,2026-04-14T1600,37,75,0.5,NA,10,46,93,NA,NA
济南市,科干所,116.9866,36.6118,2026-04-14T1600,19,46,0.3,10,7,144,124,46,
济南市,农科所,116.9379,36.6652,2026-04-14T1600,9,37,0.2,9,7,133,112,42,
济南市,开发区,117.1265,36.6736,2026-04-14T1600,20,51,0.4,15,8,157,132,51,颗粒物(PM10)
济南市,机床二厂,116.9495185,36.644937,2026-04-14T1600,13,49,0.4,10,6,141,118,49,
济南市,长清党校,116.7674,36.5458,2026-04-14T1600,10,42,0.5,4,4,132,109,42,
济南市,东山小学,117.5323,36.6865,2026-04-14T1600,22,73,0.3,11,5,167,131,67,颗粒物(PM10)
济南市,泰兴公司,117.7181,36.205,2026-04-14T1600,16,48,0.8,15,13,165,135,57,臭氧1小时(O3_1h)
济南市,莱芜战役纪念馆,117.6861,36.2172,2026-04-14T1600,15,48,1.0,12,10,165,138,57,臭氧1小时(O3_1h)
济南市,济阳区政府,117.1673,36.9782,2026-04-14T1600,30,54,0.6,14,9,142,107,53,颗粒物(PM10)
济南市,锦屏中学,117.1168,36.6299,2026-04-14T1600,18,44,NA,14,1,136,122,NA,NA
济南市,山财大街5号,117.7107,36.2385,2026-04-14T1600,17,58,0.8,13,8,170,140,63,臭氧1小时(O3_1h)
济南市,无影山路12号,116.9744,36.6889,2026-04-14T1600,11,34,0.6,10,5,136,115,43,
济宁市,火炬城,116.6229,35.4288,2026-04-14T1600,11,34,0.5,6,8,134,111,42,
济宁市,北湖一中,116.5808,35.3703,2026-04-14T1600,11,37,0.1,11,7,148,123,47,
济宁市,服务中心,116.8251,35.5592,2026-04-14T1600,13,33,0.5,6,1,138,116,44,
济宁市,市第七中学,116.5907,35.4054,2026-04-14T1600,7,49,0.5,10,4,152,131,49,
济宁市,文体南路1号,116.5648,35.3921,2026-04-14T1600,3,39,0.3,11,7,143,119,45,
济源市,市委党校,112.6071,35.1015,2026-04-14T1600,15,50,0.2,8,6,121,101,50,
济源市,沁园中路1号,112.596,35.0702,2026-04-14T1600,9,33,0.3,4,3,126,99,40,
佳木斯市,环保局,130.3258,46.7975,2026-04-14T1600,3,10,0.3,4,5,95,91,30,
佳木斯市,顺和街,130.363,46.806,2026-04-14T1600,14,NA,0.1,6,2,90,85,29,
佳木斯市,长安路196号,130.3952,46.8268,2026-04-14T1600,6,11,0.3,6,5,94,90,30,
嘉兴市,清河小学,120.7439,30.778,2026-04-14T1600,12,18,0.9,17,6,92,70,29,
嘉兴市,嘉兴学院,120.7261,30.7477,2026-04-14T1600,14,NA,0.9,18,5,97,68,31,
嘉兴市,南湖区残联,120.7845,30.7524,2026-04-14T1600,14,18,1.0,17,4,100,74,32,
嘉兴市,秀洲住建,120.6915,30.7741,2026-04-14T1600,10,15,NA,10,5,103,74,NA,NA
嘉峪关市,酒钢宾馆,98.2672,39.7978,2026-04-14T1600,12,61,0.9,7,21,123,104,58,颗粒物(PM10)
嘉峪关市,雄关区,98.2644,39.7723,2026-04-14T1600,12,34,0.4,6,8,122,99,39,
江门市,北街,113.1063,22.6058,2026-04-14T1600,11,21,/,8,/,47,41,21,
江门市,西区,113.073,22.5835,2026-04-14T1600,11,26,/,8,/,49,45,26,
江门市,圭峰西,113.0218,22.531,2026-04-14T1600,12,20,/,10,/,47,45,20,
江门市,东湖,113.0826,22.5947,2026-04-14T1600,10,26,0.4,7,6,50,45,26,
江门市,新会银湖,113.0496,22.4669,2026-04-14T1600,9,NA,0.5,10,6,46,41,15,
焦作市,马村街道办,113.3137,35.2643,2026-04-14T1600,22,46,0.2,7,8,134,103,46,
焦作市,焦作技师学院,113.2464,35.2374,2026-04-14T1600,27,41,0.7,8,9,133,103,42,
焦作市,新安路1731号,113.234,35.219,2026-04-14T1600,32,46,0.7,15,10,145,110,46,
揭阳市,新兴,116.3701,23.5345,2026-04-14T1600,16,26,0.5,7,6,55,48,26,
揭阳市,西马,116.3261,23.5442,2026-04-14T1600,20,38,0.5,21,4,46,48,38,
揭阳市,东兴,116.361,23.5627,2026-04-14T1600,16,31,/,8,2,61,54,31,
揭阳市,渔湖,116.4151,23.5295,2026-04-14T1600,19,33,/,12,3,66,60,33,
揭阳市,曲溪,116.4028,23.5699,2026-04-14T1600,NA,NA,0.4,11,9,61,55,NA,NA
金昌市,天庆家园,102.1691,38.5166,2026-04-14T1600,15,48,0.6,5,28,138,117,48,
金昌市,金川区人防中心,102.1648,38.5369,2026-04-14T1600,15,41,0.3,6,11,135,114,43,
金昌市,长春路96号,102.193042,38.531887,2026-04-14T1600,16,38,0.4,2,9,131,110,41,
金华市,十五中,119.6478,29.0773,2026-04-14T1600,25,30,0.7,20,3,57,51,36,
金华市,监测站,119.6859,29.1032,2026-04-14T1600,37,52,0.8,43,4,41,45,54,细颗粒物(PM2.5)
金华市,气象局,119.656,29.1132,2026-04-14T1600,50,52,0.8,40,3,40,41,80,细颗粒物(PM2.5)
锦州市,南山,121.1114,41.0879,2026-04-14T1600,35,57,0.6,20,12,106,96,55,颗粒物(PM10)
锦州市,开发区,121.060361,40.842794,2026-04-14T1600,58,87,0.7,54,12,48,82,96,细颗粒物(PM2.5)
锦州市,百股街道,121.1836,41.1118,2026-04-14T1600,36,56,0.8,27,11,97,93,55,颗粒物(PM10)
锦州市,天安街道,121.1176,41.1224,2026-04-14T1600,34,60,0.6,20,11,100,90,58,颗粒物(PM10)
锦州市,北湖公园,121.1303,41.1385,2026-04-14T1600,34,43,0.4,15,11,100,97,49,
晋城市,市环保局,112.8509,35.4886,2026-04-14T1600,32,39,0.4,10,NA,137,111,NA,NA
晋城市,泽州一中,112.8258,35.4804,2026-04-14T1600,17,30,0.7,10,5,142,110,45,
晋城市,前书院路,112.8246,35.5152,2026-04-14T1600,14,36,0.3,7,8,131,104,41,
晋城市,祥云街666号,112.8864,35.4773,2026-04-14T1600,29,49,0.5,9,9,136,106,49,
晋中市,榆次三中,112.7195,37.683,2026-04-14T1600,20,92,0.4,9,7,139,115,80,颗粒物(PM10)
晋中市,广安街188号,112.7375,37.7215,2026-04-14T1600,20,79,0.1,12,6,129,110,71,颗粒物(PM10)
荆门市,竹园小学,112.2012,31.048,2026-04-14T1600,28,53,0.1,17,1,72,68,53,颗粒物(PM10)
荆门市,掇刀,112.1968,30.9892,2026-04-14T1600,32,49,0.5,11,9,89,80,49,
荆门市,西山林语,112.1849,31.0361,2026-04-14T1600,24,51,0.4,13,6,77,73,51,颗粒物(PM10)
荆门市,龙泉中学南校,112.1631,31.0134,2026-04-14T1600,26,46,0.3,12,5,88,84,46,
荆门市,新台西路6号,112.2213,31.0654,2026-04-14T1600,25,42,0.4,14,8,77,70,42,
荆州市,市图书馆,112.2493,30.3198,2026-04-14T1600,16,17,0.4,8,5,87,76,28,
荆州市,市委党校,112.2009,30.3543,2026-04-14T1600,16,21,0.6,9,6,NA,60,NA,NA
荆州市,管委会,112.2749,30.3124,2026-04-14T1600,13,22,0.4,6,5,79,70,25,
荆州市,学苑路85号,112.1722,30.3366,2026-04-14T1600,18,NA,0.4,4,1,98,82,31,
景德镇市,兽医站,117.1893,29.2789,2026-04-14T1600,3,23,0.6,6,3,88,53,28,
景德镇市,陶研所,117.246,29.2958,2026-04-14T1600,12,12,0.7,NA,4,77,53,NA,NA
九江市,十里,115.9873,29.6816,2026-04-14T1600,15,20,0.8,17,7,69,68,22,
九江市,茅山头,115.9583,29.7047,2026-04-14T1600,15,27,0.7,17,4,72,73,27,
九江市,西园,115.9877,29.7295,2026-04-14T1600,15,23,0.7,50,3,51,68,25,
九江市,综合工业园,115.9112,29.6038,2026-04-14T1600,18,NA,0.7,23,7,73,64,26,
九江市,外国语学校,116.0254,29.6995,2026-04-14T1600,17,26,0.9,23,8,61,59,26,
九江市,莲花大道8号,116.010205,29.659402,2026-04-14T1600,18,32,0.8,NA,4,70,60,NA,NA
酒泉市,北大街108号,98.5099,39.7506,2026-04-14T1600,11,39,0.3,4,9,104,88,39,
喀什地区,巡警大队,76.0071,39.466,2026-04-14T1600,70,NA,NA,6,4,126,69,110,细颗粒物(PM2.5)
喀什地区,吾办,75.9756,39.4693,2026-04-14T1600,14,67,0.3,6,4,122,80,63,颗粒物(PM10)
喀什地区,老干局,75.9485,39.4688,2026-04-14T1600,15,58,0.3,5,3,122,76,56,颗粒物(PM10)
开封市,肿瘤医院,114.3389,34.778,2026-04-14T1600,23,31,0.4,8,6,122,117,39,
开封市,世纪星幼儿园,114.2884,34.7966,2026-04-14T1600,25,38,0.3,18,8,128,118,40,
开封市,龙亭公园,114.3434,34.8101,2026-04-14T1600,17,35,0.5,13,8,129,114,41,
开封市,汴京公园,114.3645,34.7955,2026-04-14T1600,19,NA,0.3,12,6,133,122,NA,NA
开封市,技师学院,114.2485,34.8306,2026-04-14T1600,23,27,0.3,13,6,138,117,44,
开封市,祥符区生态环境局,114.4518,34.7503,2026-04-14T1600,23,24,0.4,15,7,122,106,39,
克拉玛依市,长征新村,84.886,45.6029,2026-04-14T1600,7,32,0.3,2,6,101,94,32,
克拉玛依市,独山子区,84.896,44.3328,2026-04-14T1600,3,97,0.3,5,4,98,93,84,颗粒物(PM10)
克拉玛依市,白碱滩区新站,85.1045,45.6895,2026-04-14T1600,6,104,0.1,2,7,112,90,89,颗粒物(PM10)
克孜勒苏柯尔克孜自治州,市人民政府,76.1457,39.7143,2026-04-14T1600,30,NA,0.1,4,5,130,102,43,
昆明市,呈贡新区,102.8203,24.889,2026-04-14T1600,25,52,0.3,7,5,145,148,52,颗粒物(PM10)
昆明市,龙泉镇,102.7253,25.0904,2026-04-14T1600,25,56,0.5,5,4,128,124,55,颗粒物(PM10)
昆明市,东风东路,102.7267,25.0378,2026-04-14T1600,23,44,0.4,9,2,135,134,44,
昆明市,碧鸡广场,102.6643,25.0401,2026-04-14T1600,27,36,0.4,8,5,128,125,40,
昆明市,青年创业园,102.8016,24.8336,2026-04-14T1600,25,38,0.4,4,5,144,142,45,
昆明市,昆明学院,102.8,24.9787,2026-04-14T1600,23,45,0.5,7,5,137,137,45,
昆明市,晋宁区生态环境分局,102.5969,24.6738,2026-04-14T1600,29,31,0.5,3,4,140,140,44,
昆明市,云天化总部,102.6673,24.9861,2026-04-14T1600,22,44,0.5,8,5,139,141,44,
拉萨市,区监测站,91.0874,29.6476,2026-04-14T1600,18,NA,0.2,9,5,129,118,41,
来宾市,来宾技工学校,109.2203,23.7252,2026-04-14T1600,45,67,0.7,3,5,109,80,70,细颗粒物(PM2.5)
来宾市,兴宾区政府,109.1781,23.7293,2026-04-14T1600,40,58,0.7,5,7,117,85,60,细颗粒物(PM2.5)
来宾市,中南小学,109.2312,23.7428,2026-04-14T1600,40,66,0.6,9,5,113,84,62,颗粒物(PM10)
兰州市,铁路设计院,103.8309,36.0467,2026-04-14T1600,16,39,0.4,11,3,125,100,40,
兰州市,和平,103.9613,35.9985,2026-04-14T1600,18,24,0.4,6,8,138,113,44,
兰州市,北滨河东路1号,103.846982,36.067567,2026-04-14T1600,16,25,0.4,12,7,130,104,41,
廊坊市,药材公司,116.6712,39.5109,2026-04-14T1600,58,116,1.0,30,8,108,78,98,颗粒物(PM10)
廊坊市,北华航天学院,116.7246,39.5273,2026-04-14T1600,52,97,0.8,28,9,105,79,84,"颗粒物(PM10),细颗粒物(PM2.5)"
廊坊市,河北工业大学,116.7022,39.5454,2026-04-14T1600,54,97,0.8,27,8,108,79,88,细颗粒物(PM2.5)
乐山市,牛耳桥,103.7629,29.5844,2026-04-14T1600,8,18,0.4,13,7,122,75,39,
乐山市,市第三水厂,103.7501,29.6002,2026-04-14T1600,8,22,0.4,11,6,122,88,39,
乐山市,市监测站,103.7571,29.5664,2026-04-14T1600,3,20,0.4,12,4,123,76,39,
乐山市,理工大学,103.7313,29.563,2026-04-14T1600,6,24,0.4,9,5,131,81,41,
丽水市,监测站大楼,119.9141,28.4513,2026-04-14T1600,36,72,0.8,13,4,102,88,66,颗粒物(PM10)
丽水市,莲都小学,119.93,28.4589,2026-04-14T1600,35,52,/,13,/,NA,97,NA,NA
丽水市,余庄前,119.8794,28.4232,2026-04-14T1600,32,48,0.8,13,4,95,80,48,
连云港市,市环境监测站,119.1759,34.5885,2026-04-14T1600,19,39,0.5,15,10,133,114,42,
连云港市,德源药业,119.3577,34.6971,2026-04-14T1600,12,31,0.2,26,6,142,123,45,
连云港市,新城一中,119.178,34.8442,2026-04-14T1600,15,35,0.4,24,5,121,123,38,
连云港市,胡沟管理处,119.3607,34.7519,2026-04-14T1600,17,19,0.4,24,15,133,121,42,
连云港市,工贸学校,119.2414,34.6539,2026-04-14T1600,14,36,0.3,18,10,134,113,42,
连云港市,连云街道,119.4171,34.734,2026-04-14T1600,15,45,NA,15,1,139,130,NA,NA
凉山彝族自治州,西昌市政府,102.2629,27.8981,2026-04-14T1600,24,35,0.4,4,6,138,116,44,
凉山彝族自治州,凉山州政府,102.2686,27.885,2026-04-14T1600,22,42,0.4,5,5,123,101,42,
凉山彝族自治州,凯乐南路30号,102.2342,27.8859,2026-04-14T1600,16,39,0.5,7,4,129,110,41,
辽阳市,宏伟区,123.1978,41.2036,2026-04-14T1600,89,116,0.8,17,9,171,117,127,细颗粒物(PM2.5)
辽阳市,新华园,123.1684,41.2497,2026-04-14T1600,102,126,0.6,20,11,173,118,139,细颗粒物(PM2.5)
辽阳市,滨河路,123.2355,41.2663,2026-04-14T1600,93,97,0.7,21,10,158,102,130,细颗粒物(PM2.5)
辽阳市,铁西路150号,123.153,41.2874,2026-04-14T1600,101,146,0.6,24,10,147,105,138,细颗粒物(PM2.5)
辽源市,环保局,125.1359,42.8845,2026-04-14T1600,40,42,0.5,12,8,134,114,60,细颗粒物(PM2.5)
辽源市,安宁大街333号,125.0998,42.9134,2026-04-14T1600,38,63,0.4,9,6,135,113,60,颗粒物(PM10)
聊城市,区政府,115.9789,36.4372,2026-04-14T1600,10,41,0.6,7,7,141,113,45,
聊城市,监控中心,115.9772,36.4986,2026-04-14T1600,10,51,0.3,11,8,147,118,51,颗粒物(PM10)
聊城市,九州社区,116.0443,36.436,2026-04-14T1600,10,50,0.3,8,6,147,125,50,
聊城市,星美广场,116.0564,36.4609,2026-04-14T1600,18,50,0.5,7,7,133,117,50,
聊城市,利民路,116.0091,36.4495,2026-04-14T1600,15,42,0.3,8,8,148,124,47,
林芝市,林芝监测站,94.3683,29.6373,2026-04-14T1600,3,6,0.5,5,4,125,94,40,
临沧市,市气象局,100.0894,23.882,2026-04-14T1600,90,142,0.5,5,9,159,125,128,细颗粒物(PM2.5)
临汾市,临钢医院,111.5552,36.0791,2026-04-14T1600,28,47,1.1,11,10,145,109,47,
临汾市,市委,111.5017,36.0857,2026-04-14T1600,25,53,0.8,10,11,140,106,53,颗粒物(PM10)
临汾市,启星学校,111.4879,36.053,2026-04-14T1600,24,56,0.8,11,9,123,96,55,颗粒物(PM10)
临夏回族自治州,滨河东路1号,103.2464,35.6123,2026-04-14T1600,15,33,NA,10,10,101,93,NA,NA
临夏回族自治州,新华街21号,103.207136,35.599807,2026-04-14T1600,18,25,0.2,4,7,96,82,30,
临沂市,沂河小区,118.3429,35.0532,2026-04-14T1600,28,63,0.7,18,17,152,117,60,颗粒物(PM10)
临沂市,鲁南制药厂,118.2962,35.0568,2026-04-14T1600,30,53,0.3,14,17,163,126,54,臭氧1小时(O3_1h)
临沂市,新光毛纺厂,118.2793,34.9976,2026-04-14T1600,28,51,0.5,13,15,148,123,51,颗粒物(PM10)
临沂市,河东保险公司,118.3955,35.0889,2026-04-14T1600,25,53,0.7,23,18,159,125,53,颗粒物(PM10)
临沂市,十里堡居委,118.3563,35.0215,2026-04-14T1600,28,44,0.8,19,17,157,124,50,
临沂市,皇山花园小区,118.3915,35.0297,2026-04-14T1600,25,51,0.8,22,17,158,126,51,颗粒物(PM10)
柳州市,柳东小学,109.4854,24.3898,2026-04-14T1600,40,48,0.9,7,4,117,76,60,细颗粒物(PM2.5)
柳州市,环保监测站,109.4109,24.3304,2026-04-14T1600,39,54,0.8,14,5,114,68,58,细颗粒物(PM2.5)
柳州市,河西水厂,109.3886,24.3408,2026-04-14T1600,48,56,0.9,11,8,121,70,76,细颗粒物(PM2.5)
柳州市,市四中,109.4263,24.2951,2026-04-14T1600,45,62,0.8,10,7,109,70,70,细颗粒物(PM2.5)
柳州市,市九中,109.396,24.3658,2026-04-14T1600,40,70,0.7,8,5,119,69,65,颗粒物(PM10)
柳州市,古亭山,109.4912,24.3164,2026-04-14T1600,39,62,0.7,8,4,116,78,59,颗粒物(PM10)
柳州市,市二中,109.5422,24.3994,2026-04-14T1600,43,58,0.7,8,8,115,79,66,细颗粒物(PM2.5)
六安市,监测大楼,116.5078,31.7369,2026-04-14T1600,3,11,0.3,6,3,99,79,31,
六安市,皖西学院,116.4738,31.7642,2026-04-14T1600,3,6,0.3,4,4,100,82,32,
六安市,朝阳厂,116.4997,31.7904,2026-04-14T1600,3,NA,0.2,8,5,95,76,30,
六安市,开发区,116.5566,31.7885,2026-04-14T1600,3,6,0.4,NA,5,100,89,NA,NA
六盘水市,黄土坡,104.8293,26.592,2026-04-14T1600,35,61,1.0,15,15,121,98,58,颗粒物(PM10)
六盘水市,民中,104.8481,26.5898,2026-04-14T1600,35,66,1.4,19,16,108,86,62,颗粒物(PM10)
六盘水市,双水,104.9541,26.5506,2026-04-14T1600,35,53,0.4,11,14,124,102,53,颗粒物(PM10)
六盘水市,钟山大道中段564号,104.8899,26.5685,2026-04-14T1600,31,63,0.7,8,6,116,96,60,颗粒物(PM10)
龙岩市,龙岩市监测站,117.022,25.1031,2026-04-14T1600,25,NA,0.4,6,4,80,73,36,
龙岩市,闽西职业技术学院,117.0257,25.0662,2026-04-14T1600,23,NA,0.6,3,5,73,70,33,
龙岩市,龙岩学院,117.0195,25.0306,2026-04-14T1600,21,24,/,7,3,73,72,30,
陇南市,滨江中学,104.9344,33.3827,2026-04-14T1600,30,84,0.6,5,7,104,67,75,颗粒物(PM10)
陇南市,市总工会,104.9551,33.3709,2026-04-14T1600,22,65,0.4,5,8,109,68,61,颗粒物(PM10)
娄底市,市监测站,111.9984,27.7346,2026-04-14T1600,3,8,0.3,NA,3,56,66,NA,NA
娄底市,市政府,111.9888,27.7035,2026-04-14T1600,7,9,0.4,8,2,66,79,21,
娄底市,涟钢职大,111.9812,27.7591,2026-04-14T1600,6,8,0.5,8,2,70,71,22,
娄底市,娄底体校,112.0303,27.7457,2026-04-14T1600,3,17,0.3,3,3,53,61,17,
泸州市,兰田宪桥,105.4241,28.8573,2026-04-14T1600,10,18,1.0,8,4,90,64,29,
泸州市,市环监站,105.4378,28.8833,2026-04-14T1600,12,22,0.7,17,7,86,67,27,
泸州市,纳溪中医医院,105.3689,28.7783,2026-04-14T1600,9,22,0.6,8,8,95,77,30,
吕梁市,环保局,111.1447,37.5212,2026-04-14T1600,9,53,0.2,6,4,119,100,53,颗粒物(PM10)
吕梁市,马茂庄小学,111.1225,37.5093,2026-04-14T1600,2,NA,0.9,4,6,115,43,NA,NA
洛阳市,河南林校,112.494,34.6883,2026-04-14T1600,19,48,0.5,13,12,147,120,48,
洛阳市,开发区管委会,112.3843,34.623,2026-04-14T1600,20,35,0.6,10,12,136,114,43,
洛阳市,伊滨,112.6005,34.6323,2026-04-14T1600,13,46,0.5,7,10,134,106,46,
洛阳市,吉利监测站,112.5736,34.8993,2026-04-14T1600,28,46,0.3,14,11,154,112,49,
洛阳市,河科大西苑校区,112.3678,34.6623,2026-04-14T1600,14,28,0.4,8,10,139,119,44,
洛阳市,春都路1号院,112.460027,34.694929,2026-04-14T1600,21,53,0.6,12,10,157,126,53,颗粒物(PM10)
漯河市,漯河大学,114.0055,33.5698,2026-04-14T1600,28,NA,0.3,13,5,98,98,40,
漯河市,市水利局,114.0134,33.5826,2026-04-14T1600,15,19,0.4,11,4,98,98,31,
漯河市,市广电局,114.0261,33.5697,2026-04-14T1600,19,NA,0.4,9,4,102,103,32,
漯河市,市图书馆,113.9691,33.568,2026-04-14T1600,17,31,0.3,12,6,96,99,31,
漯河市,韶山路11号,114.089259,33.588274,2026-04-14T1600,24,28,0.5,12,5,96,93,35,
马鞍山市,湖东路四小,118.5084,31.6838,2026-04-14T1600,26,51,0.7,NA,7,76,42,NA,NA
马鞍山市,开发区,118.5019,31.6449,2026-04-14T1600,17,31,0.6,17,6,89,71,31,
马鞍山市,雨山,118.4914,31.681,2026-04-14T1600,19,26,1.4,20,12,80,63,28,
马鞍山市,慈湖高新区,118.527362,31.722269,2026-04-14T1600,30,40,0.4,23,10,78,72,43,
茂名市,电白南海,111.0285,21.469,2026-04-14T1600,13,22,0.7,5,4,51,49,22,
茂名市,茂石化七小,110.9294,21.6533,2026-04-14T1600,11,36,0.5,7,6,50,49,36,
茂名市,电白水东,111.0101,21.5165,2026-04-14T1600,10,14,/,6,NA,48,49,NA,NA
眉山市,气象局,103.8414,30.0871,2026-04-14T1600,10,41,0.6,8,10,129,83,41,
眉山市,眉职院,103.8836,30.0695,2026-04-14T1600,9,28,0.6,7,10,122,78,39,
梅州市,梅江月梅,116.1248,24.3307,2026-04-14T1600,22,31,/,10,/,56,52,32,
梅州市,梅县新城,116.0798,24.2719,2026-04-14T1600,16,25,0.4,8,8,58,54,25,
梅州市,梅龙,116.1234,24.2994,2026-04-14T1600,17,31,0.5,7,6,NA,46,NA,NA
绵阳市,富乐山,104.7775,31.4741,2026-04-14T1600,8,20,0.5,9,7,109,83,35,
绵阳市,西科大附属小学,104.6899,31.5324,2026-04-14T1600,14,27,0.5,4,6,123,87,39,
绵阳市,安州区旅游局,104.5647,31.5343,2026-04-14T1600,11,23,0.4,4,8,128,93,40,
绵阳市,科技城新区公安局,104.7092,31.4972,2026-04-14T1600,10,22,0.5,8,7,109,83,35,
绵阳市,绵阳市气象局,104.765114,31.453094,2026-04-14T1600,9,17,0.4,7,7,97,77,31,
牡丹江市,环保大楼,129.61,44.561,2026-04-14T1600,17,23,0.3,9,2,105,100,33,
牡丹江市,机车工厂,129.6364,44.6075,2026-04-14T1600,14,32,0.4,7,5,100,90,32,
牡丹江市,第一中学,129.6386,44.5462,2026-04-14T1600,14,23,0.3,6,4,107,98,34,
牡丹江市,东晓云街98号,129.5992,44.5964,2026-04-14T1600,10,28,0.5,5,2,108,97,34,
内江市,市监测站,105.0703,29.61,2026-04-14T1600,11,29,0.4,8,8,112,85,35,
内江市,内江二中,105.0657,29.5807,2026-04-14T1600,10,105,0.2,7,7,112,88,90,颗粒物(PM10)
内江市,内江日报社,105.0407,29.5828,2026-04-14T1600,11,24,0.3,11,6,116,92,37,
内江市,玉峰路西段888号,105.0433,29.6105,2026-04-14T1600,12,23,0.4,10,5,115,90,36,
那曲市,那曲监测站,92.0653,31.4846,2026-04-14T1600,15,27,0.5,6,8,130,116,41,
南昌市,林科所,115.813,28.7443,2026-04-14T1600,18,NA,1.1,10,7,69,87,26,
南昌市,建工学校,115.8518,28.687,2026-04-14T1600,21,24,1.0,14,9,74,82,30,
南昌市,象湖,115.8926,28.6425,2026-04-14T1600,NA,20,1.0,9,8,83,87,NA,NA
南通市,紫琅学院,120.8053,32.046,2026-04-14T1600,23,32,0.7,16,4,68,88,33,
南通市,洪江路,120.8692,31.9885,2026-04-14T1600,29,34,0.8,15,4,62,80,42,
南阳市,瓦房庄,112.5338,33.0086,2026-04-14T1600,31,51,0.5,15,5,115,83,51,颗粒物(PM10)
南阳市,汉画馆,112.5002,32.9734,2026-04-14T1600,28,57,0.6,12,6,112,82,55,颗粒物(PM10)
南阳市,气象站,112.5778,33.0144,2026-04-14T1600,29,53,0.4,14,6,119,86,53,颗粒物(PM10)
南阳市,理工学院,112.548,32.9687,2026-04-14T1600,32,59,0.5,12,6,112,82,57,颗粒物(PM10)
南阳市,卧龙区政府,112.5233,32.9921,2026-04-14T1600,30,57,0.5,14,7,114,87,55,颗粒物(PM10)
宁波市,区环保大楼,121.8352,29.9111,2026-04-14T1600,21,35,0.7,36,NA,90,69,NA,NA
宁波市,万里学院,121.5595,29.8208,2026-04-14T1600,15,21,0.7,17,7,84,67,27,
宁波市,龙赛医院,121.713,29.9564,2026-04-14T1600,30,43,0.6,44,6,62,61,43,
宁波市,太古小学,121.5855,29.8635,2026-04-14T1600,16,27,0.6,26,3,73,62,27,
宁波市,市环境监测中心,121.5239,29.8673,2026-04-14T1600,19,NA,0.5,20,9,76,62,28,
宁波市,万里国际学校,121.6156,29.9015,2026-04-14T1600,27,30,0.6,34,4,81,60,39,
宁波市,白沙活动中心,121.5593,29.8976,2026-04-14T1600,12,19,0.5,26,4,75,64,24,
宁波市,中科路88号,121.8962,29.7529,2026-04-14T1600,31,37,0.5,20,7,100,59,45,
宁德市,宁德市监测站,119.5387,26.6611,2026-04-14T1600,21,46,0.8,18,8,109,63,46,
宁德市,宁德一中,119.5231,26.6562,2026-04-14T1600,20,33,0.5,13,5,111,63,35,
怒江傈僳族自治州,州监测站,98.859,25.8541,2026-04-14T1600,32,56,0.3,16,9,102,90,55,颗粒物(PM10)
攀枝花市,弄弄坪,101.6891,26.571,2026-04-14T1600,20,40,1.9,17,25,124,120,40,
攀枝花市,河门口,101.577,26.5914,2026-04-14T1600,25,32,0.5,7,6,128,110,40,
攀枝花市,仁和,101.7365,26.4986,2026-04-14T1600,19,27,0.5,5,5,135,120,43,
攀枝花市,四十中小,101.7222,26.567,2026-04-14T1600,20,49,0.8,10,8,127,117,49,
盘锦市,新生街道,121.8297,41.1026,2026-04-14T1600,36,68,0.6,24,6,98,90,63,颗粒物(PM10)
平顶山市,新华旅馆,113.3257,33.7423,2026-04-14T1600,33,70,0.5,19,8,103,91,65,颗粒物(PM10)
平顶山市,规划设计院,113.2917,33.737,2026-04-14T1600,29,67,0.5,NA,9,112,94,NA,NA
平顶山市,平顶山工学院,113.182,33.7738,2026-04-14T1600,46,58,0.3,11,10,122,104,72,细颗粒物(PM2.5)
平凉市,聚贤嘉苑,106.6633,35.5338,2026-04-14T1600,10,41,0.3,6,6,119,108,41,
平凉市,博物馆,106.7021,35.5307,2026-04-14T1600,12,47,0.4,6,8,121,107,47,
萍乡市,中医院,113.8384,27.6436,2026-04-14T1600,17,NA,0.8,15,4,35,47,25,
萍乡市,市环保局,113.8677,27.6438,2026-04-14T1600,14,17,0.8,19,2,35,52,20,
萍乡市,安源区政府,113.8663,27.6202,2026-04-14T1600,15,20,0.6,10,4,31,48,22,
萍乡市,联洪村委会,113.8686,27.6668,2026-04-14T1600,9,16,0.4,12,2,30,39,16,
莆田市,荔城区仓后路,119.0142,25.4324,2026-04-14T1600,17,38,/,12,/,88,71,38,
莆田市,莆田市监测站,119.0016,25.4553,2026-04-14T1600,17,41,0.3,11,3,103,77,41,
莆田市,涵江区六中,119.112,25.4561,2026-04-14T1600,10,39,0.6,12,/,92,74,39,
莆田市,秀屿区政府,119.1014,25.3215,2026-04-14T1600,11,24,0.3,11,8,65,70,24,
濮阳市,环保局,115.0312,35.7636,2026-04-14T1600,NA,NA,0.4,6,3,114,100,NA,NA
濮阳市,濮水河管理处,115,35.7667,2026-04-14T1600,10,26,0.2,1,3,113,108,36,
濮阳市,中原东路68号,115.0552,35.7816,2026-04-14T1600,9,33,0.3,6,3,117,112,37,
濮阳市,任丘路479号,115.0923632,35.76857718,2026-04-14T1600,3,33,0.4,6,2,122,116,39,
普洱市,市环保局,100.9801,22.7634,2026-04-14T1600,42,117,0.6,7,6,167,146,98,颗粒物(PM10)
七台河市,人民广场,131.0136,45.7688,2026-04-14T1600,8,23,0.4,7,9,103,95,33,
七台河市,新建矿广场,130.8639,45.8144,2026-04-14T1600,10,31,0.1,7,10,93,82,31,
齐齐哈尔市,中心广场,123.9497,47.3389,2026-04-14T1600,19,52,0.4,6,4,106,98,52,颗粒物(PM10)
齐齐哈尔市,农牧车辆厂,123.9483,47.3229,2026-04-14T1600,22,53,0.2,9,7,112,105,53,颗粒物(PM10)
黔东南苗族侗族自治州,市环境监测站,107.9765,26.5724,2026-04-14T1600,9,13,NA,NA,2,59,66,NA,NA
黔南布依族苗族自治州,沙坝,107.5175,26.2977,2026-04-14T1600,20,29,0.7,10,3,43,46,29,
黔西南布依族苗族自治州,场坝街,104.9022,25.0943,2026-04-14T1600,22,34,0.4,8,5,159,132,50,
黔西南布依族苗族自治州,坪东大道,104.8812,25.0994,2026-04-14T1600,29,NA,0.5,6,4,157,130,50,
钦州市,市环保站,108.6238,21.9667,2026-04-14T1600,31,61,1.0,8,6,124,82,58,颗粒物(PM10)
钦州市,沙埠小学,108.655,21.9481,2026-04-14T1600,44,73,0.8,15,9,103,67,68,细颗粒物(PM2.5)
钦州市,港区一小,108.5989,21.7435,2026-04-14T1600,45,80,0.6,10,3,92,62,72,颗粒物(PM10)
钦州市,北职校,108.5959,21.9634,2026-04-14T1600,38,62,0.8,8,6,118,81,59,颗粒物(PM10)
秦皇岛市,文明里,119.5979,39.938,2026-04-14T1600,28,68,0.4,22,12,113,79,63,颗粒物(PM10)
秦皇岛市,南园路157号,119.7458,39.9952,2026-04-14T1600,27,65,0.4,23,10,107,85,61,颗粒物(PM10)
秦皇岛市,翠岛大街1号,119.5131,39.8858,2026-04-14T1600,32,40,0.4,17,10,110,80,46,
秦皇岛市,北戴河轮滑馆,119.509013,39.825305,2026-04-14T1600,32,52,0.4,19,12,113,86,52,颗粒物(PM10)
青岛市,四方区子站,120.362344,36.10282,2026-04-14T1600,15,34,0.7,23,7,126,112,40,
青岛市,崂山区子站,120.4581,36.0858,2026-04-14T1600,15,44,0.5,46,11,96,100,44,
青岛市,城阳区子站,120.3945,36.3083,2026-04-14T1600,13,51,0.6,27,6,138,143,51,颗粒物(PM10)
青岛市,市北区南部,120.3454,36.0735,2026-04-14T1600,14,31,0.4,13,5,145,125,46,
青岛市,盟旺路653号,120.5222,36.4089,2026-04-14T1600,3,13,0.4,10,3,140,142,44,
青岛市,珠江路669号,120.196923,35.954556,2026-04-14T1600,14,31,0.5,19,5,131,122,41,
青岛市,黄岛区人民政府广场,120.0424,35.8656,2026-04-14T1600,12,39,0.5,33,9,103,117,39,
清远市,凤城街办,113.0218,23.7086,2026-04-14T1600,20,39,/,23,/,56,38,39,
清远市,技师学院,113.0479,23.6343,2026-04-14T1600,22,42,0.3,24,4,55,44,42,
清远市,清新太和,112.9898,23.7403,2026-04-14T1600,23,40,0.5,22,8,48,39,40,
清远市,清城东城,113.076,23.72,2026-04-14T1600,19,41,/,22,/,56,42,41,
庆阳市,庆阳五中,107.6325,35.7357,2026-04-14T1600,36,139,0.3,8,5,120,96,108,颗粒物(PM10)
庆阳市,市环保局,107.6361,35.7067,2026-04-14T1600,33,136,0.4,12,6,122,101,107,颗粒物(PM10)
曲靖市,环境监测站,103.7897,25.5036,2026-04-14T1600,22,52,0.6,6,6,162,148,53,臭氧1小时(O3_1h)
曲靖市,烟厂办公区,103.8013,25.5357,2026-04-14T1600,23,46,0.4,5,6,149,133,47,
曲靖市,南苑二区,103.7926,25.4651,2026-04-14T1600,24,43,0.4,7,4,156,139,49,
衢州市,环保大楼,118.8694,28.94,2026-04-14T1600,40,60,/,34,/,43,34,60,细颗粒物(PM2.5)
衢州市,衢州学院,118.8622,28.9809,2026-04-14T1600,34,43,0.6,34,5,46,35,49,
衢州市,衢州三中,118.9646,28.9832,2026-04-14T1600,36,50,0.7,24,7,57,37,52,细颗粒物(PM2.5)
泉州市,涂山街,118.5818,24.9116,2026-04-14T1600,14,39,0.6,12,3,74,57,39,
泉州市,津头埔,118.597,24.8976,2026-04-14T1600,13,25,0.4,12,4,78,58,25,
泉州市,万安,118.6669,24.9422,2026-04-14T1600,17,39,0.4,10,4,70,56,39,
泉州市,霞新路6号,118.6355,24.9148,2026-04-14T1600,16,25,0.4,10,/,69,56,25,
日喀则市,日喀则监测站,88.8873,29.2723,2026-04-14T1600,11,59,0.3,3,NA,132,112,NA,NA
日喀则市,林业技术推广中心,88.8775,29.2425,2026-04-14T1600,6,86,0.3,3,4,133,109,76,颗粒物(PM10)
日照市,监测站,119.4711,35.421,2026-04-14T1600,7,34,0.6,21,8,126,118,40,
日照市,港务局,119.5511,35.4113,2026-04-14T1600,8,31,0.5,39,8,108,118,34,
日照市,职业技术学院,119.5326,35.4627,2026-04-14T1600,7,24,0.4,16,7,143,128,45,
日照市,岚山环保分局,119.3267,35.1043,2026-04-14T1600,11,58,0.6,37,10,114,120,56,颗粒物(PM10)
三门峡市,市政府,111.1922,34.7752,2026-04-14T1600,22,35,0.4,8,9,117,104,37,
三门峡市,开发区,111.1588,34.794,2026-04-14T1600,21,38,0.4,8,11,118,104,38,
三门峡市,三门峡市第一小学,111.1911,34.7829,2026-04-14T1600,18,53,0.4,9,13,122,107,53,颗粒物(PM10)
三明市,三钢,117.621,26.2626,2026-04-14T1600,30,47,1.1,5,9,102,84,47,
三明市,三明二中,117.6352,26.2714,2026-04-14T1600,32,45,0.6,7,2,97,80,46,
三明市,三元区政府,117.6028,26.2377,2026-04-14T1600,34,44,0.6,7,8,98,81,49,
三亚市,河西子站,109.4962,18.2682,2026-04-14T1600,11,27,0.4,3,4,60,78,27,
三亚市,君悦子站,109.7348,18.3443,2026-04-14T1600,12,25,0.2,4,3,61,74,25,
