area,positionname,longitude,latitude,timepoint,pm2_5,pm10,co,no2,so2,o3,o3_8h,aqi,primarypollutant
阿坝藏族羌族自治州,马师校,102.2503,31.8896,2026-02-04T0000,9,23,0.4,11,4,36,66,23,
阿坝藏族羌族自治州,马尔康中学西区,102.2174,31.9016,2026-02-04T0000,8,35,0.5,10,7,40,66,35,
阿克苏地区,电视台,80.2899,41.1684,2026-02-04T0000,79,243,1.5,45,12,42,78,147,颗粒物(PM10)
阿克苏地区,艺术中心,80.2592,41.1541,2026-02-04T0000,103,280,1.5,108,8,5,79,165,颗粒物(PM10)
阿拉善盟,蒙二幼,105.699,38.8409,2026-02-04T0000,8,47,0.5,10,10,78,92,47,
阿拉善盟,环保局新楼,105.7198,38.8508,2026-02-04T0000,11,52,0.5,6,9,82,84,51,颗粒物(PM10)
阿勒泰地区,市站,88.1266,47.8515,2026-02-04T0000,3,16,0.4,14,3,71,80,23,
阿勒泰地区,阿勒泰路33号,88.1198,47.7931,2026-02-04T0000,3,16,0.4,8,7,81,74,26,
阿里地区,阿里监测站,80.1171,32.4999,2026-02-04T0000,3,6,0.3,3,9,78,85,25,
阿里地区,阿里藏医院,80.0906,32.5029,2026-02-04T0000,3,6,0.2,1,8,87,90,28,
安康市,汉滨区检察院,109.0088,32.6974,2026-02-04T0000,47,85,0.6,37,7,23,87,68,颗粒物(PM10)
安康市,市邮政管理局,109.0324,32.6913,2026-02-04T0000,57,105,0.9,55,6,10,82,78,"颗粒物(PM10),细颗粒物(PM2.5)"
安庆市,环科院,117.0806,30.5181,2026-02-04T0000,55,85,0.7,66,6,4,56,75,细颗粒物(PM2.5)
安庆市,马山宾馆,117.0331,30.5118,2026-02-04T0000,66,90,0.9,71,6,2,59,89,细颗粒物(PM2.5)
安庆市,安庆大学,116.9897,30.6146,2026-02-04T0000,58,97,0.7,77,5,2,60,79,细颗粒物(PM2.5)
安庆市,市人大,117.0598,30.5351,2026-02-04T0000,52,91,0.6,72,7,1,62,72,细颗粒物(PM2.5)
安顺市,凤凰山,105.9408,26.2431,2026-02-04T0000,8,17,0.9,21,17,18,50,17,
安顺市,金钟山,105.9443,26.2567,2026-02-04T0000,14,,0.9,15,16,28,50,20,
安顺市,娄家坡,105.8983,26.248,2026-02-04T0000,8,11,0.7,8,9,49,46,16,
安阳市,红庙街,114.3552,36.1017,2026-02-04T0000,111,128,0.7,38,10,50,93,145,细颗粒物(PM2.5)
安阳市,银杏小区,114.361,36.0681,2026-02-04T0000,84,116,0.8,34,6,52,93,112,细颗粒物(PM2.5)
安阳市,信访局,114.3921,36.0879,2026-02-04T0000,116,137,0.8,25,6,57,98,152,细颗粒物(PM2.5)
安阳市,左辅环卫站,114.4706,36.0634,2026-02-04T0000,98,138,0.6,34,5,44,84,129,细颗粒物(PM2.5)
安阳市,钢三路198号,114.2918,36.0769,2026-02-04T0000,109,162,0.8,22,4,61,81,143,细颗粒物(PM2.5)
鞍山市,深沟寺,123.0441,41.1201,2026-02-04T0000,82,122,0.9,17,11,114,106,109,细颗粒物(PM2.5)
鞍山市,太阳城,123.011,41.0931,2026-02-04T0000,85,118,0.9,16,15,106,98,113,细颗粒物(PM2.5)
鞍山市,太平,123.0483,41.1445,2026-02-04T0000,82,131,0.7,16,14,108,93,109,细颗粒物(PM2.5)
鞍山市,铁西三道街,122.964,41.0968,2026-02-04T0000,82,127,0.7,27,18,103,97,109,细颗粒物(PM2.5)
鞍山市,明达新区,123.0219,41.0822,2026-02-04T0000,84,124,1.0,17,13,109,102,112,细颗粒物(PM2.5)
鞍山市,兴盛南路290号,122.944647,41.082639,2026-02-04T0000,90,141,1.0,30,22,92,94,119,细颗粒物(PM2.5)
巴彦淖尔市,附二中,107.4206,40.7609,2026-02-04T0000,24,77,0.4,18,8,53,67,64,颗粒物(PM10)
巴彦淖尔市,市环保大楼,107.37,40.7372,2026-02-04T0000,32,83,0.4,16,5,50,66,67,颗粒物(PM10)
巴音郭楞蒙古自治州,孔雀公园,86.1476,41.7529,2026-02-04T0000,64,203,1.6,90,10,0,75,127,颗粒物(PM10)
巴音郭楞蒙古自治州,棉纺厂,86.1971,41.7166,2026-02-04T0000,72,308,/,62,/,4,76,179,颗粒物(PM10)
巴音郭楞蒙古自治州,经济开发区,86.236,41.7172,2026-02-04T0000,24,192,0.5,28,5,26,66,121,颗粒物(PM10)
巴中市,市五中,106.776805,31.852614,2026-02-04T0000,68,93,1.1,35,5,3,28,92,细颗粒物(PM2.5)
巴中市,圣泉水务公司,106.7419,31.8654,2026-02-04T0000,55,75,1.3,44,6,3,32,75,细颗粒物(PM2.5)
巴中市,市中心医院,106.7617,31.8343,2026-02-04T0000,80,110,1.4,36,5,1,25,107,细颗粒物(PM2.5)
白城市,洮北区环保局,122.7909,45.608,2026-02-04T0000,29,55,0.4,16,4,48,80,53,颗粒物(PM10)
白城市,市环保局,122.8741,45.5725,2026-02-04T0000,30,63,0.4,19,6,51,72,57,颗粒物(PM10)
白山市,喜丰,126.4219,41.9172,2026-02-04T0000,38,50,1.4,63,18,29,82,54,细颗粒物(PM2.5)
白山市,环保局,126.4082,41.9416,2026-02-04T0000,43,52,1.1,23,16,53,82,60,细颗粒物(PM2.5)
白银市,第三小学,104.1727,36.5448,2026-02-04T0000,28,77,0.8,23,8,57,88,64,颗粒物(PM10)
白银市,动力公司,104.1467,36.5482,2026-02-04T0000,32,62,0.5,22,4,45,88,56,颗粒物(PM10)
百色市,市监测站,106.6102,23.901,2026-02-04T0000,68,80,1.1,41,23,31,60,92,细颗粒物(PM2.5)
百色市,市中心血站,106.6524,23.8842,2026-02-04T0000,84,97,1.1,48,22,29,66,112,细颗粒物(PM2.5)
百色市,龙景西路,106.6273,23.8798,2026-02-04T0000,86,99,0.8,39,30,31,57,114,细颗粒物(PM2.5)
蚌埠市,工人疗养院,117.396,32.9389,2026-02-04T0000,70,98,0.7,30,5,72,108,94,细颗粒物(PM2.5)
蚌埠市,百货大楼,117.3606,32.9428,2026-02-04T0000,69,107,0.7,34,6,71,103,93,细颗粒物(PM2.5)
蚌埠市,蚌埠学院,117.4183,32.8909,2026-02-04T0000,71,100,0.7,42,5,54,108,95,细颗粒物(PM2.5)
蚌埠市,淮上区政府,117.3534,32.9672,2026-02-04T0000,77,97,0.7,48,6,58,110,103,细颗粒物(PM2.5)
蚌埠市,高新区,117.3143,32.8977,2026-02-04T0000,80,102,0.8,32,8,58,104,107,细颗粒物(PM2.5)
蚌埠市,蚌埠田家炳中学,117.3091,32.9314,2026-02-04T0000,79,104,0.9,41,7,58,106,105,细颗粒物(PM2.5)
包头市,市环境监测站,109.8761,40.6533,2026-02-04T0000,61,131,1.8,78,11,0,24,91,颗粒物(PM10)
包头市,包头八中,109.9992,40.5843,2026-02-04T0000,63,124,2.3,77,13,4,34,87,颗粒物(PM10)
包头市,惠龙物流,109.8641,40.6288,2026-02-04T0000,85,174,3.0,90,20,1,32,113,细颗粒物(PM2.5)
包头市,东河鸿龙湾,110.0376,40.5546,2026-02-04T0000,79,135,3.4,110,18,11,43,105,细颗粒物(PM2.5)
包头市,滨河大厦,109.9154,40.5684,2026-02-04T0000,73,129,2.7,95,18,2,39,98,细颗粒物(PM2.5)
包头市,包头市委党校,109.9449,40.6259,2026-02-04T0000,43,95,1.6,82,13,2,30,73,颗粒物(PM10)
包头市,昆区政府,109.8332,40.6577,2026-02-04T0000,47,73,1.1,70,11,10,27,65,细颗粒物(PM2.5)
宝鸡市,竹园沟,107.0802,34.3129,2026-02-04T0000,67,103,0.7,27,6,22,79,90,细颗粒物(PM2.5)
宝鸡市,监测站,107.1429,34.3549,2026-02-04T0000,94,132,0.7,35,5,35,76,124,细颗粒物(PM2.5)
宝鸡市,技工学校,107.1172,34.3759,2026-02-04T0000,96,136,0.8,26,4,41,79,127,细颗粒物(PM2.5)
宝鸡市,文理学院,107.2025,34.3518,2026-02-04T0000,100,129,1.0,44,7,31,83,132,细颗粒物(PM2.5)
宝鸡市,三迪小学,107.2396,34.3626,2026-02-04T0000,102,177,1.0,53,6,26,86,134,细颗粒物(PM2.5)
宝鸡市,滨河北路,107.1721,34.3558,2026-02-04T0000,94,145,1.0,32,9,34,78,124,细颗粒物(PM2.5)
宝鸡市,陈仓区北开路21号,107.3898,34.3601,2026-02-04T0000,112,177,1.0,52,9,25,102,147,细颗粒物(PM2.5)
保定市,游泳馆,115.4803,38.8568,2026-02-04T0000,134,139,1.4,92,12,11,75,178,细颗粒物(PM2.5)
保定市,华电二区,115.509,38.8895,2026-02-04T0000,128,145,1.2,76,6,13,69,169,细颗粒物(PM2.5)
保定市,接待中心,115.4588,38.9037,2026-02-04T0000,122,150,0.9,60,5,23,65,160,细颗粒物(PM2.5)
保定市,地表水厂,115.4484,38.8344,2026-02-04T0000,130,187,1.6,127,10,4,68,172,细颗粒物(PM2.5)
保定市,满城区生态环境分局,115.3136,38.9511,2026-02-04T0000,109,168,1.8,77,9,3,67,143,细颗粒物(PM2.5)
保定市,清苑区第二中学,115.4709,38.7628,2026-02-04T0000,185,265,1.6,102,18,9,84,235,细颗粒物(PM2.5)
保定市,徐水物探局,115.6231,39.0223,2026-02-04T0000,141,190,1.5,88,12,2,68,188,细颗粒物(PM2.5)
保定市,双鹰农机,115.4199,38.8665,2026-02-04T0000,127,172,1.3,67,10,26,80,168,细颗粒物(PM2.5)
保定市,植保所站,115.515,38.8589,2026-02-04T0000,120,140,1.5,96,7,4,70,158,细颗粒物(PM2.5)
保山市,市环境监测站,99.1589,25.1137,2026-02-04T0000,22,30,0.3,10,3,71,90,32,
保山市,市环保局,99.1616,25.1381,2026-02-04T0000,18,34,0.4,5,3,87,89,34,
北海市,海滩公园,109.1435,21.4085,2026-02-04T0000,10,35,0.8,8,6,103,159,35,
北海市,新市环保局,109.0983,21.466,2026-02-04T0000,21,41,0.6,14,6,106,146,41,
北海市,北海工业园,109.1775,21.5232,2026-02-04T0000,53,55,1.0,18,7,88,140,73,细颗粒物(PM2.5)
北海市,龙潭自来水厂,109.1844,21.4396,2026-02-04T0000,26,43,0.6,8,3,97,149,43,
北京市,万寿西宫,116.3611,39.8786,2026-02-04T0000,110,151,1.2,91,5,17,58,144,细颗粒物(PM2.5)
北京市,东四,116.4174,39.9289,2026-02-04T0000,102,142,1.2,90,7,7,54,134,细颗粒物(PM2.5)
北京市,天坛,116.4073,39.8858,2026-02-04T0000,104,135,1.0,53,2,17,52,137,细颗粒物(PM2.5)
北京市,农展馆,116.4622,39.9364,2026-02-04T0000,146,160,1.2,100,7,3,59,195,细颗粒物(PM2.5)
北京市,官园,116.3399,39.9293,2026-02-04T0000,54,82,0.9,86,5,0,50,74,细颗粒物(PM2.5)
北京市,海淀万柳,116.2879,39.9613,2026-02-04T0000,39,63,0.8,86,4,1,41,57,颗粒物(PM10)
北京市,顺义新城,116.6635,40.1349,2026-02-04T0000,59,96,0.7,71,6,4,48,80,细颗粒物(PM2.5)
北京市,怀柔镇,116.6275,40.327,2026-02-04T0000,37,55,0.6,32,4,25,46,53,"颗粒物(PM10),细颗粒物(PM2.5)"
北京市,昌平镇,116.2295,40.217,2026-02-04T0000,34,58,0.6,41,3,23,41,54,颗粒物(PM10)
北京市,奥体中心,116.3968,39.982,2026-02-04T0000,70,103,1.1,117,7,2,51,94,细颗粒物(PM2.5)
北京市,密云新城,116.8336,40.4095,2026-02-04T0000,72,116,0.7,63,4,8,55,97,细颗粒物(PM2.5)
北京市,门头沟三家店,116.0879,39.9725,2026-02-04T0000,45,80,0.8,57,3,2,37,65,颗粒物(PM10)
北京市,丰台云岗,116.1507,39.8246,2026-02-04T0000,41,87,0.8,80,3,3,48,69,颗粒物(PM10)
北京市,房山燕山,115.9578,39.7602,2026-02-04T0000,47,72,0.8,35,5,23,46,65,细颗粒物(PM2.5)
北京市,大兴旧宫,116.4669,39.7734,2026-02-04T0000,99,156,1.1,72,4,17,62,130,细颗粒物(PM2.5)
北京市,延庆石河营,115.9859,40.4562,2026-02-04T0000,41,64,1.0,52,4,3,50,58,细颗粒物(PM2.5)
北京市,怀柔新城,116.6151,40.3052,2026-02-04T0000,40,57,0.6,33,5,25,46,57,细颗粒物(PM2.5)
北京市,丰台小屯,116.2542,39.8764,2026-02-04T0000,85,143,1.2,93,4,2,42,113,细颗粒物(PM2.5)
北京市,密云镇,116.8399,40.3843,2026-02-04T0000,79,115,1.0,75,3,2,48,105,细颗粒物(PM2.5)
北京市,延庆百泉,115.9423,40.4431,2026-02-04T0000,43,62,0.8,48,2,6,53,60,细颗粒物(PM2.5)
北京市,通州新华,116.6598,39.9164,2026-02-04T0000,124,165,1.5,115,6,0,39,163,细颗粒物(PM2.5)
北京市,石景山八角,116.1942,39.9158,2026-02-04T0000,57,105,0.8,83,3,6,39,78,"颗粒物(PM10),细颗粒物(PM2.5)"
北京市,平谷新城,117.078628,40.151726,2026-02-04T0000,121,164,1.2,43,4,25,50,159,细颗粒物(PM2.5)
本溪市,大峪,123.8274146,41.31234549,2026-02-04T0000,73,114,0.8,23,11,83,82,98,细颗粒物(PM2.5)
本溪市,彩屯,123.7169,41.3094,2026-02-04T0000,74,106,3.3,49,21,47,57,99,细颗粒物(PM2.5)
本溪市,东明,123.7672166,41.28649327,2026-02-04T0000,,62,0.9,22,12,76,77,,
本溪市,新立屯,123.799345,41.266614,2026-02-04T0000,64,72,0.9,26,13,80,81,87,细颗粒物(PM2.5)
本溪市,威宁,123.829144,41.336777,2026-02-04T0000,62,99,0.9,24,9,72,67,84,细颗粒物(PM2.5)
毕节市,八中,105.287,27.3133,2026-02-04T0000,22,,0.9,11,8,24,32,32,
毕节市,师专,105.3079,27.2987,2026-02-04T0000,15,18,0.8,11,7,29,45,22,
毕节市,工业大道,105.3688,27.3598,2026-02-04T0000,19,22,/,13,9,26,38,28,
滨州市,第二水厂,117.9961,37.3604,2026-02-04T0000,111,144,0.8,55,14,33,88,145,细颗粒物(PM2.5)
滨州市,北中新校,117.9789,37.3931,2026-02-04T0000,113,151,0.9,44,10,43,93,148,细颗粒物(PM2.5)
滨州市,中海酒店,117.9379,37.3959,2026-02-04T0000,119,151,1.0,53,18,,62,156,细颗粒物(PM2.5)
滨州市,开发区一中,117.9381509,37.35547456,2026-02-04T0000,119,166,1.1,75,18,17,81,156,细颗粒物(PM2.5)
滨州市,金海六路,118.0914,37.6938,2026-02-04T0000,117,146,1.0,82,10,17,93,153,细颗粒物(PM2.5)
滨州市,滨州市西街道办事处,117.9955,37.3752,2026-02-04T0000,110,144,0.8,39,13,47,94,144,细颗粒物(PM2.5)
亳州市,污水处理厂,115.8071,33.8399,2026-02-04T0000,63,92,0.4,24,5,67,102,85,细颗粒物(PM2.5)
亳州市,三国揽胜宫,115.7789,33.8519,2026-02-04T0000,64,101,0.5,33,5,63,95,87,细颗粒物(PM2.5)
亳州市,亳州学院,115.7631,33.803,2026-02-04T0000,66,100,0.7,25,4,60,100,89,细颗粒物(PM2.5)
博尔塔拉蒙古自治州,市党校,82.0482,44.8553,2026-02-04T0000,77,132,0.6,31,3,52,59,103,细颗粒物(PM2.5)
博尔塔拉蒙古自治州,市环保局,82.0805,44.8966,2026-02-04T0000,106,171,1.5,59,6,30,68,139,细颗粒物(PM2.5)
沧州市,沧县城建局,116.8733,38.2922,2026-02-04T0000,140,162,0.8,33,7,58,98,186,细颗粒物(PM2.5)
沧州市,电视转播站,116.8462,38.3189,2026-02-04T0000,146,158,1.0,41,6,47,105,195,细颗粒物(PM2.5)
沧州市,市环保局,116.8588,38.3161,2026-02-04T0000,122,157,1.0,35,9,47,89,160,细颗粒物(PM2.5)
沧州市,河北水利电力学院,116.8011,38.294,2026-02-04T0000,129,171,0.9,30,8,50,87,170,细颗粒物(PM2.5)
昌都市,昌都监测站,97.1813,31.1289,2026-02-04T0000,9,20,0.5,18,3,50,88,20,
昌都市,昌都会议中心,97.1707,31.1428,2026-02-04T0000,13,16,0.3,9,5,46,75,19,
昌吉回族自治州,新区政务中心,87.2722,44.0298,2026-02-04T0000,103,145,1.6,86,8,16,91,135,细颗粒物(PM2.5)
昌吉回族自治州,亚心广场,87.3069,44.0093,2026-02-04T0000,125,158,1.4,35,7,55,92,165,细颗粒物(PM2.5)
昌吉回族自治州,财政所,87.2057,43.9289,2026-02-04T0000,102,118,1.1,12,4,86,76,134,细颗粒物(PM2.5)
长春市,客车厂,125.2874,43.9024,2026-02-04T0000,145,175,2.3,94,12,17,62,193,细颗粒物(PM2.5)
长春市,邮电学院,125.2943,43.8508,2026-02-04T0000,80,108,1.4,64,11,21,63,107,细颗粒物(PM2.5)
长春市,劳动公园,125.3648,43.8745,2026-02-04T0000,200,315,3.5,86,7,29,67,250,细颗粒物(PM2.5)
长春市,园林处,125.3233,43.8781,2026-02-04T0000,110,133,1.8,76,17,15,65,144,细颗粒物(PM2.5)
长春市,净月潭,125.4604,43.7904,2026-02-04T0000,56,71,0.9,19,10,66,72,77,细颗粒物(PM2.5)
长春市,经开区环卫处,125.38,43.8422,2026-02-04T0000,83,110,1.5,87,7,3,64,110,细颗粒物(PM2.5)
长春市,高新区管委会,125.234,43.7761,2026-02-04T0000,92,123,1.5,74,8,7,70,122,细颗粒物(PM2.5)
长春市,岱山公园,125.1695,43.83,2026-02-04T0000,91,112,1.1,82,12,15,67,120,细颗粒物(PM2.5)
长春市,北亚泰大街1068号,125.334645,43.916281,2026-02-04T0000,232,265,3.0,94,14,8,60,282,细颗粒物(PM2.5)
长沙市,经开区环保局,113.082,28.2421,2026-02-04T0000,43,79,0.6,27,3,36,85,65,颗粒物(PM10)
长沙市,高开区环保局,112.8873,28.2202,2026-02-04T0000,56,108,1.1,75,5,5,81,79,颗粒物(PM10)
长沙市,马坡岭,113.0785,28.2012,2026-02-04T0000,49,85,0.8,32,10,37,95,68,"颗粒物(PM10),细颗粒物(PM2.5)"
长沙市,湖南师范大学,112.9448,28.1894,2026-02-04T0000,46,98,1.0,60,5,15,93,74,颗粒物(PM10)
长沙市,雨花区环保局,113.0177,28.1322,2026-02-04T0000,48,93,0.8,74,9,6,79,72,颗粒物(PM10)
长沙市,伍家岭,112.9795,28.2593,2026-02-04T0000,52,108,0.9,65,5,1,81,79,颗粒物(PM10)
长沙市,火车新站,113.002,28.1944,2026-02-04T0000,55,97,1.1,71,2,14,88,75,细颗粒物(PM2.5)
长沙市,天心区环保局,112.9846,28.1177,2026-02-04T0000,49,87,0.8,61,7,25,89,69,颗粒物(PM10)
长沙市,湖南中医药大学,112.8906,28.1307,2026-02-04T0000,56,101,1.1,80,6,5,92,77,细颗粒物(PM2.5)
长治市,清华站,113.1146,36.1547,2026-02-04T0000,62,76,0.9,18,14,82,90,84,细颗粒物(PM2.5)
长治市,审计局,113.0887,36.2126,2026-02-04T0000,66,67,0.9,26,13,70,83,89,细颗粒物(PM2.5)
长治市,长治八中,113.0845,36.1856,2026-02-04T0000,75,95,1.0,19,16,74,82,100,细颗粒物(PM2.5)
长治市,德盛苑,113.1561,36.1912,2026-02-04T0000,68,74,0.9,15,22,89,92,92,细颗粒物(PM2.5)
长治市,向阳小学,113.0603,36.0464,2026-02-04T0000,85,121,1.0,32,18,84,96,113,细颗粒物(PM2.5)
长治市,屯留一中,112.8788,36.315,2026-02-04T0000,56,67,0.4,33,29,47,81,77,细颗粒物(PM2.5)
长治市,英华南巷50号,113.113092,36.199482,2026-02-04T0000,62,78,0.8,19,19,75,86,84,细颗粒物(PM2.5)
长治市,学府街1号,113.23666,36.33435,2026-02-04T0000,54,65,0.7,19,10,79,87,74,细颗粒物(PM2.5)
常德市,市二中,111.696,28.9725,2026-02-04T0000,91,136,1.1,36,6,41,83,120,细颗粒物(PM2.5)
常德市,武陵区永安,111.7152,29.0288,2026-02-04T0000,111,164,1.4,53,6,15,76,145,细颗粒物(PM2.5)
常德市,鼎城区玉霞,111.6891,28.9881,2026-02-04T0000,103,161,1.3,42,9,30,73,135,细颗粒物(PM2.5)
常德市,武陵区长庚,111.6651,29.0526,2026-02-04T0000,102,148,1.1,43,5,25,75,134,细颗粒物(PM2.5)
常州市,市监测站,119.9524,31.7586,2026-02-04T0000,35,52,0.4,32,7,67,109,51,颗粒物(PM10)
常州市,武进监测站,119.9351,31.703,2026-02-04T0000,37,53,0.3,27,9,68,106,53,细颗粒物(PM2.5)
常州市,行政中心,119.9701,31.813,2026-02-04T0000,36,64,0.9,32,13,68,104,57,颗粒物(PM10)
常州市,经开区,120.0434,31.7726,2026-02-04T0000,36,67,0.6,27,7,68,104,59,颗粒物(PM10)
常州市,钟楼,119.8919,31.7892,2026-02-04T0000,40,62,0.6,27,8,74,109,57,细颗粒物(PM2.5)
常州市,武进经发区,119.8595,31.706,2026-02-04T0000,60,75,0.8,29,7,73,109,82,细颗粒物(PM2.5)
常州市,金坛城区,119.5812,31.7256,2026-02-04T0000,52,71,0.6,25,7,70,115,72,细颗粒物(PM2.5)
常州市,崇义南街5-H号,119.9551,31.863,2026-02-04T0000,38,60,0.9,68,8,31,100,55,颗粒物(PM10)
朝阳市,西梁,120.4318,41.588,2026-02-04T0000,72,85,1.0,26,12,75,74,97,细颗粒物(PM2.5)
朝阳市,河畔小区,120.452,41.565,2026-02-04T0000,71,,1.3,28,13,67,75,95,细颗粒物(PM2.5)
朝阳市,八里堡,120.4176,41.5648,2026-02-04T0000,70,76,1.1,37,11,56,69,94,细颗粒物(PM2.5)
潮州市,市政府,116.6179,23.6608,2026-02-04T0000,44,66,0.5,15,7,88,120,62,细颗粒物(PM2.5)
潮州市,金山,116.646,23.676,2026-02-04T0000,38,55,0.6,16,4,102,127,54,细颗粒物(PM2.5)
郴州市,市职中,113.0116,25.8228,2026-02-04T0000,44,65,0.9,25,7,29,96,62,细颗粒物(PM2.5)
郴州市,市审计局,113.0381,25.8074,2026-02-04T0000,43,65,/,54,4,6,80,60,细颗粒物(PM2.5)
郴州市,市环保局,113.0348,25.7757,2026-02-04T0000,51,128,1.3,46,8,,84,,
郴州市,好美居路49号,113.0138,25.8011,2026-02-04T0000,,,,,,,,,
成都市,金泉两河,103.9727,30.7242,2026-02-04T0000,86,119,1.1,36,3,32,52,114,细颗粒物(PM2.5)
成都市,十里店,104.1423,30.6765,2026-02-04T0000,72,119,0.8,40,5,36,75,97,细颗粒物(PM2.5)
成都市,三瓦窑,104.0594,30.5765,2026-02-04T0000,71,102,1.1,34,5,43,72,95,细颗粒物(PM2.5)
成都市,沙河铺,104.1122,30.6306,2026-02-04T0000,71,113,0.9,40,3,37,66,95,细颗粒物(PM2.5)
成都市,大石西路,104.0219,30.6561,2026-02-04T0000,86,119,1.0,39,5,30,59,114,细颗粒物(PM2.5)
成都市,龙泉驿区区政府,104.2724,30.559,2026-02-04T0000,70,100,0.9,34,6,27,79,94,细颗粒物(PM2.5)
成都市,金博路,104.0028,30.6891,2026-02-04T0000,78,109,1.0,33,5,34,50,104,细颗粒物(PM2.5)
成都市,华阳,104.056,30.5228,2026-02-04T0000,65,97,1.1,36,4,41,74,88,细颗粒物(PM2.5)
成都市,青石路225号,104.387954,30.746684,2026-02-04T0000,78,121,1.1,56,3,2,77,104,细颗粒物(PM2.5)
成都市,科学城,104.0788,30.4054,2026-02-04T0000,62,104,1.1,26,7,29,58,84,细颗粒物(PM2.5)
成都市,光华大道三段,103.8505,30.6946,2026-02-04T0000,92,144,1.0,32,2,37,54,122,细颗粒物(PM2.5)
成都市,八角井街185号,104.3257,30.6406,2026-02-04T0000,74,112,0.8,42,4,14,69,99,细颗粒物(PM2.5)
成都市,鲸龙路1057号,104.2433276,30.53529463,2026-02-04T0000,66,102,0.9,33,6,30,80,89,细颗粒物(PM2.5)
承德市,铁路,117.9531,40.908,2026-02-04T0000,63,92,1.4,51,9,5,40,85,细颗粒物(PM2.5)
承德市,中国银行,117.9397,40.9763,2026-02-04T0000,48,86,1.2,52,6,5,52,68,颗粒物(PM10)
承德市,杏林街1号,117.9462,40.95,2026-02-04T0000,56,82,1.4,53,7,6,54,77,细颗粒物(PM2.5)
承德市,滨河大街98号,117.7994,40.9605,2026-02-04T0000,36,55,0.9,50,7,6,41,53,颗粒物(PM10)
池州市,池州学院,117.4698,30.6617,2026-02-04T0000,55,79,1.4,45,7,21,68,75,细颗粒物(PM2.5)
池州市,展览馆,117.4918,30.6617,2026-02-04T0000,50,86,1.0,50,2,4,69,69,细颗粒物(PM2.5)
池州市,第八中学,117.5626,30.695,2026-02-04T0000,45,95,0.8,55,2,2,68,73,颗粒物(PM10)
池州市,第十二中学,117.5037,30.6242,2026-02-04T0000,44,76,1.4,47,2,10,63,63,颗粒物(PM10)
赤峰市,松山一中,118.9229,42.2816,2026-02-04T0000,47,59,1.7,62,10,2,71,65,细颗粒物(PM2.5)
赤峰市,哈达街,118.9588,42.2733,2026-02-04T0000,43,65,1.4,49,18,10,73,60,细颗粒物(PM2.5)
赤峰市,天义路,118.8792,42.2551,2026-02-04T0000,27,38,0.8,44,5,21,72,39,
赤峰市,银河街,119.2656,42.0356,2026-02-04T0000,51,70,1.4,29,18,32,83,70,细颗粒物(PM2.5)
赤峰市,桥北物流园区,118.9359,42.3146,2026-02-04T0000,42,58,1.2,48,9,21,77,59,细颗粒物(PM2.5)
崇左市,市环保局江州分局,107.3473,22.4137,2026-02-04T0000,86,106,1.2,32,4,23,84,114,细颗粒物(PM2.5)
崇左市,石景林东路7号,107.375,22.3736,2026-02-04T0000,76,88,0.9,41,6,11,60,102,细颗粒物(PM2.5)
滁州市,市政府原办公楼,118.31131,32.3033,2026-02-04T0000,83,91,0.5,38,5,62,102,110,细颗粒物(PM2.5)
滁州市,图书馆,118.3268,32.2633,2026-02-04T0000,59,,0.6,35,7,67,98,80,细颗粒物(PM2.5)
滁州市,银山路666号,118.3196,32.3335,2026-02-04T0000,82,85,0.9,39,11,54,106,109,细颗粒物(PM2.5)
滁州市,黄山路555号,118.3426,32.2979,2026-02-04T0000,76,108,0.6,41,6,69,115,102,细颗粒物(PM2.5)
楚雄彝族自治州,市经济开发区,101.5379,25.0492,2026-02-04T0000,35,44,0.8,78,5,18,75,50,
楚雄彝族自治州,团结路562号,101.5536,25.0343,2026-02-04T0000,28,29,0.6,23,4,44,84,40,
达州市,市环境监测站,107.5087,31.2186,2026-02-04T0000,59,102,1.0,49,7,3,24,80,细颗粒物(PM2.5)
达州市,凤凰小区,107.4988,31.2132,2026-02-04T0000,61,100,0.8,52,6,4,24,83,细颗粒物(PM2.5)
达州市,达县机关宾馆,107.5081,31.1987,2026-02-04T0000,73,127,1.0,55,7,3,23,98,细颗粒物(PM2.5)
达州市,市政中心,107.4644,31.2124,2026-02-04T0000,60,112,1.1,61,7,2,23,82,细颗粒物(PM2.5)
大理白族自治州,大理市环境监测站,100.2168,25.5818,2026-02-04T0000,14,21,0.4,10,7,75,85,24,
大理白族自治州,大理古城,100.1542,25.7055,2026-02-04T0000,21,31,0.6,26,8,48,81,31,
大连市,甘井子,121.6119,38.974,2026-02-04T0000,72,91,0.5,40,11,62,91,97,细颗粒物(PM2.5)
大连市,周水子,121.565,38.9509,2026-02-04T0000,70,85,1.0,31,13,63,86,94,细颗粒物(PM2.5)
大连市,星海三站,121.5637,38.8849,2026-02-04T0000,72,81,0.7,25,6,62,87,97,细颗粒物(PM2.5)
大连市,青泥洼桥,121.6301,38.9117,2026-02-04T0000,70,86,1.0,30,12,69,91,94,细颗粒物(PM2.5)
大连市,傅家庄,121.6248,38.8643,2026-02-04T0000,72,105,0.9,28,9,64,81,97,细颗粒物(PM2.5)
大连市,七贤岭,121.5117,38.8636,2026-02-04T0000,71,86,0.7,32,12,67,89,95,细颗粒物(PM2.5)
大连市,金州,121.7507,39.1339,2026-02-04T0000,63,80,0.5,32,13,65,84,85,细颗粒物(PM2.5)
大连市,开发区,121.7811,39.0495,2026-02-04T0000,62,81,0.6,31,7,61,84,84,细颗粒物(PM2.5)
大连市,双D港,121.9762,39.0631,2026-02-04T0000,61,80,0.8,41,11,60,93,83,细颗粒物(PM2.5)
大连市,旅顺,121.2548,38.8188,2026-02-04T0000,83,96,0.8,21,12,71,83,110,细颗粒物(PM2.5)
大庆市,大同区,124.8085,46.0381,2026-02-04T0000,39,51,0.6,18,9,61,65,55,细颗粒物(PM2.5)
大庆市,龙凤区,125.1166,46.5255,2026-02-04T0000,47,57,0.8,31,10,51,68,65,细颗粒物(PM2.5)
大庆市,红岗区,124.8894,46.4007,2026-02-04T0000,46,52,0.8,33,8,43,65,64,细颗粒物(PM2.5)
大庆市,萨尔图区,125.1391,46.578,2026-02-04T0000,45,56,0.6,33,10,45,70,63,细颗粒物(PM2.5)
大庆市,让胡路区,124.9026,46.6217,2026-02-04T0000,30,44,0.8,50,10,30,71,44,
大庆市,萨区政府监测点,125.127,46.6277,2026-02-04T0000,41,64,0.8,24,8,53,76,58,细颗粒物(PM2.5)
大同市,云冈宾馆,113.2926,40.0759,2026-02-04T0000,35,72,0.9,65,12,13,37,61,颗粒物(PM10)
大同市,大同大学,113.3437,40.0921,2026-02-04T0000,29,87,0.8,63,11,15,42,69,颗粒物(PM10)
大同市,安家小村,113.2637,40.129,2026-02-04T0000,38,93,0.9,61,14,14,44,72,颗粒物(PM10)
大同市,大同市卫生学校,113.3399,40.0586,2026-02-04T0000,28,73,0.7,67,9,14,39,62,颗粒物(PM10)
大同市,云冈站,113.1371,40.1122,2026-02-04T0000,20,63,0.7,61,17,2,36,57,颗粒物(PM10)
大同市,图书馆,113.1186,40.2556,2026-02-04T0000,35,69,0.8,28,6,38,42,60,颗粒物(PM10)
大同市,区一中,113.5931,40.0459,2026-02-04T0000,140,,1.4,71,35,10,54,,
大同市,魏都大道141号,113.2798248,40.09972476,2026-02-04T0000,30,74,0.8,72,12,12,46,62,颗粒物(PM10)
大兴安岭地区,科技局,124.1068,50.4091,2026-02-04T0000,16,23,0.2,3,5,60,73,23,
大兴安岭地区,红旗社区,124.117,50.4279,2026-02-04T0000,30,,0.3,20,6,45,84,43,
丹东市,江湾东路,124.33,40.0625,2026-02-04T0000,45,69,1.2,29,6,47,76,63,细颗粒物(PM2.5)
丹东市,临江后街,124.4242,40.1513,2026-02-04T0000,63,94,1.1,33,7,37,78,85,细颗粒物(PM2.5)
丹东市,元宝山,124.3935,40.1461,2026-02-04T0000,38,64,0.7,17,10,68,77,57,颗粒物(PM10)
丹东市,民主桥,124.3634,40.1093,2026-02-04T0000,58,91,1.3,70,7,3,72,79,细颗粒物(PM2.5)
儋州市,第一中学子站,109.5726195,19.51688767,2026-02-04T0000,11,28,0.6,4,4,66,78,28,
儋州市,东坡学校子站,109.5567,19.5187,2026-02-04T0000,10,29,0.6,5,2,80,95,29,
德宏傣族景颇族自治州,德宏州监测站,98.5611,24.4273,2026-02-04T0000,58,98,1.0,28,6,43,94,79,细颗粒物(PM2.5)
德宏傣族景颇族自治州,芒市人民政府综合楼,98.5887,24.4366,2026-02-04T0000,25,51,0.8,11,4,50,90,51,颗粒物(PM10)
德阳市,东山公园,104.424,31.1209,2026-02-04T0000,73,85,0.9,20,1,47,57,98,细颗粒物(PM2.5)
德阳市,西小区,104.3827,31.1318,2026-02-04T0000,82,112,1.2,32,4,28,53,109,细颗粒物(PM2.5)
德阳市,耐火材料厂,104.3553,31.1091,2026-02-04T0000,84,99,1.0,32,5,24,43,112,细颗粒物(PM2.5)
德阳市,市林业局,104.4144,31.1495,2026-02-04T0000,75,105,0.9,67,4,2,53,100,细颗粒物(PM2.5)
德州市,儿童乐园,116.3034,37.4675,2026-02-04T0000,109,171,1.3,37,15,65,102,143,细颗粒物(PM2.5)
德州市,监理站,116.2992,37.4449,2026-02-04T0000,107,161,1.0,44,14,67,107,140,细颗粒物(PM2.5)
德州市,九衢泉纯净水厂,116.2722,37.438,2026-02-04T0000,116,149,1.0,45,9,54,97,152,细颗粒物(PM2.5)
德州市,开发区人民医院,116.3693,37.44,2026-02-04T0000,117,166,0.9,25,14,66,104,153,细颗粒物(PM2.5)
德州市,陵城艺术中心,116.5687,37.3331,2026-02-04T0000,116,149,1.4,41,13,52,87,152,细颗粒物(PM2.5)
德州市,新河东路,116.352738,37.420875,2026-02-04T0000,98,149,1.1,34,13,56,99,129,细颗粒物(PM2.5)
迪庆藏族自治州,迪庆州站,99.7054,27.8319,2026-02-04T0000,20,24,0.8,13,6,60,80,29,
迪庆藏族自治州,质量技术监督局,99.7122,27.8129,2026-02-04T0000,11,,0.3,4,4,78,84,25,
定西市,将台街,104.6092,35.5962,2026-02-04T0000,58,94,1.0,26,14,41,84,79,细颗粒物(PM2.5)
定西市,正龙路62号,104.6159,35.5701,2026-02-04T0000,57,91,0.8,15,7,46,78,78,细颗粒物(PM2.5)
东莞市,东城石井,113.7943,23.0132,2026-02-04T0000,54,88,0.8,71,6,34,152,74,细颗粒物(PM2.5)
东莞市,南城西平,113.7384,22.9659,2026-02-04T0000,56,66,0.7,45,6,47,153,77,细颗粒物(PM2.5)
东莞市,万江金泰,113.7283,23.041,2026-02-04T0000,60,99,0.9,51,6,49,142,82,细颗粒物(PM2.5)
东莞市,裕兴路,113.8666,23.1062,2026-02-04T0000,52,102,1.0,57,6,52,118,76,颗粒物(PM10)
东莞市,教育路1号,114.0076,22.9739,2026-02-04T0000,36,77,0.7,23,5,105,142,64,颗粒物(PM10)
东莞市,长怡路1号,113.7981,22.8124,2026-02-04T0000,32,62,0.9,47,6,57,131,56,颗粒物(PM10)
东营市,市环保局,118.6612,37.4313,2026-02-04T0000,89,124,1.1,77,23,11,99,118,细颗粒物(PM2.5)
东营市,开发区管委会,118.6903,37.4337,2026-02-04T0000,95,115,0.7,87,16,14,98,125,细颗粒物(PM2.5)
东营市,垦利区民丰路,118.5721,37.5654,2026-02-04T0000,103,127,0.9,41,14,66,103,135,细颗粒物(PM2.5)
东营市,河口城区,118.5063,37.8606,2026-02-04T0000,120,163,1.3,54,10,40,102,158,细颗粒物(PM2.5)
东营市,胜利站,118.4979,37.4623,2026-02-04T0000,98,134,1.3,55,19,43,86,129,细颗粒物(PM2.5)
东营市,理想之城,118.5753,37.4405,2026-02-04T0000,90,141,1.1,89,22,8,94,119,细颗粒物(PM2.5)
鄂尔多斯市,综合楼,110.0024,39.8127,2026-02-04T0000,14,61,0.4,12,7,78,68,56,颗粒物(PM10)
鄂尔多斯市,巴音孟克林场办事处,109.9485,39.8259,2026-02-04T0000,14,51,0.3,11,7,78,74,51,颗粒物(PM10)
鄂尔多斯市,康泽苑,109.7734,39.5987,2026-02-04T0000,24,53,0.4,18,4,59,87,52,颗粒物(PM10)
鄂尔多斯市,华泰汽车城,109.8121,39.5987,2026-02-04T0000,19,48,0.5,23,7,56,91,48,
鄂尔多斯市,奥林花园,109.9734,39.7884,2026-02-04T0000,14,63,0.3,19,2,67,66,57,颗粒物(PM10)
鄂州市,市政府,114.894,30.3989,2026-02-04T0000,64,89,1.0,62,6,6,68,87,细颗粒物(PM2.5)
鄂州市,赵家坝,114.8986,30.3714,2026-02-04T0000,60,90,1.1,43,10,16,68,82,细颗粒物(PM2.5)
鄂州市,精准医疗中心,114.8093,30.4091,2026-02-04T0000,70,117,0.7,64,10,12,68,94,细颗粒物(PM2.5)
恩施土家族苗族自治州,湖北民院,109.4978,30.2979,2026-02-04T0000,79,100,1.1,28,6,16,74,105,细颗粒物(PM2.5)
恩施土家族苗族自治州,龙凤新区,109.5061,30.3771,2026-02-04T0000,59,85,0.7,19,7,11,62,80,细颗粒物(PM2.5)
防城港市,沙万,108.3411,21.6159,2026-02-04T0000,34,61,1.2,55,7,43,116,56,颗粒物(PM10)
防城港市,防城档案局,108.3515,21.7733,2026-02-04T0000,53,76,1.2,28,5,21,130,73,细颗粒物(PM2.5)
防城港市,大海花园,108.3506,21.6414,2026-02-04T0000,44,,1.0,34,14,64,133,62,细颗粒物(PM2.5)
佛山市,湾梁,113.1293,23.0065,2026-02-04T0000,60,105,/,106,/,26,122,82,细颗粒物(PM2.5)
佛山市,华材职中,113.1082,23.0477,2026-02-04T0000,58,88,0.9,60,6,68,121,79,细颗粒物(PM2.5)
佛山市,南海气象局,113.1439,23.045,2026-02-04T0000,67,93,/,85,/,48,114,90,细颗粒物(PM2.5)
佛山市,顺德苏岗,113.2879,22.8094,2026-02-04T0000,36,63,0.6,49,/,48,147,57,颗粒物(PM10)
佛山市,高明孔堂,112.8384,22.8678,2026-02-04T0000,43,54,/,26,/,91,131,60,细颗粒物(PM2.5)
佛山市,三水监测站,112.8835,23.1584,2026-02-04T0000,61,110,0.8,127,7,2,100,83,细颗粒物(PM2.5)
佛山市,三水云东海,112.8668,23.185,2026-02-04T0000,48,80,/,96,/,12,114,67,细颗粒物(PM2.5)
佛山市,容桂街道办,113.2568,22.7629,2026-02-04T0000,44,73,/,48,/,49,138,62,"颗粒物(PM10),细颗粒物(PM2.5)"
福州市,师大,119.2681,26.0506,2026-02-04T0000,14,35,0.3,15,3,90,101,35,
福州市,五四北路,119.2983,26.1028,2026-02-04T0000,14,29,0.4,16,5,84,100,29,
福州市,杨桥西路,119.2648,26.0769,2026-02-04T0000,11,30,/,14,4,89,100,30,
福州市,九龙,119.5799,26.0937,2026-02-04T0000,14,27,0.5,16,4,80,107,27,
福州市,吴航,119.5188,25.9666,2026-02-04T0000,13,28,0.5,19,6,83,105,28,
福州市,路通桥巷6号,119.3106,26.0648,2026-02-04T0000,18,32,/,16,/,78,96,32,
抚顺市,望花区,123.7974,41.8494,2026-02-04T0000,82,104,1.1,24,26,72,71,109,细颗粒物(PM2.5)
抚顺市,顺城区,123.9161,41.8827,2026-02-04T0000,79,91,1.3,74,17,21,77,105,细颗粒物(PM2.5)
抚顺市,东洲区,124.0437,41.8615,2026-02-04T0000,74,100,0.8,16,25,80,78,99,细颗粒物(PM2.5)
抚顺市,新抚区,123.9246,41.8638,2026-02-04T0000,79,89,1.2,34,12,58,81,105,细颗粒物(PM2.5)
抚顺市,大伙房水库,124.0972,41.8961,2026-02-04T0000,63,80,0.8,17,13,82,85,85,细颗粒物(PM2.5)
抚顺市,沈抚新城,123.708,41.8386,2026-02-04T0000,80,103,1.2,34,17,74,76,107,细颗粒物(PM2.5)
抚州市,市站,116.3544,27.9833,2026-02-04T0000,50,67,1.1,23,7,54,84,69,细颗粒物(PM2.5)
抚州市,血防站,116.3562,27.9631,2026-02-04T0000,47,70,1.6,28,6,51,79,65,细颗粒物(PM2.5)
抚州市,采茶剧团,116.3561,28.0007,2026-02-04T0000,50,64,1.0,18,5,51,78,69,细颗粒物(PM2.5)
抚州市,医学分院,116.3854,27.9648,2026-02-04T0000,39,79,1.0,21,5,48,78,65,颗粒物(PM10)
阜新市,工业园区,121.6095,41.9978,2026-02-04T0000,144,216,1.9,76,24,2,64,192,细颗粒物(PM2.5)
阜新市,长青街,121.6567,42.0188,2026-02-04T0000,133,152,1.6,75,18,4,64,176,细颗粒物(PM2.5)
阜新市,农业园区,121.6672,42.07,2026-02-04T0000,110,174,1.2,63,26,22,66,144,细颗粒物(PM2.5)
阜新市,玉龙新城,121.6343,42.0455,2026-02-04T0000,127,199,2.0,76,20,6,65,168,细颗粒物(PM2.5)
阜阳市,市监测站,115.8276,32.8929,2026-02-04T0000,60,96,0.6,25,5,63,92,82,细颗粒物(PM2.5)
阜阳市,开发区,115.8551,32.8606,2026-02-04T0000,51,75,0.5,31,6,69,90,70,细颗粒物(PM2.5)
阜阳市,阜阳职业技术学院,115.783962,32.889217,2026-02-04T0000,46,87,0.6,22,8,77,101,69,颗粒物(PM10)
阜阳市,市规划展馆,115.79,32.8614,2026-02-04T0000,56,86,0.7,24,6,69,97,77,细颗粒物(PM2.5)
阜阳市,枣园社区,115.835101,32.918568,2026-02-04T0000,58,93,0.7,33,7,58,92,79,细颗粒物(PM2.5)
甘南藏族自治州,州政府,102.9097,34.9841,2026-02-04T0000,68,109,0.9,26,8,60,85,92,细颗粒物(PM2.5)
甘南藏族自治州,甘肃民族师范学院,102.8915,34.9618,2026-02-04T0000,44,105,0.8,53,10,15,86,78,颗粒物(PM10)
甘孜藏族自治州,水桥子,101.96,30.048,2026-02-04T0000,13,18,0.9,27,6,33,70,19,
甘孜藏族自治州,州环保局,101.9534,29.9976,2026-02-04T0000,9,16,0.5,18,6,51,73,16,
赣州市,地委,114.9368,25.8663,2026-02-04T0000,26,,1.2,41,7,37,120,,
赣州市,气象台,114.946,25.8483,2026-02-04T0000,35,68,0.7,43,6,46,120,59,颗粒物(PM10)
赣州市,市图书馆,114.932,25.8332,2026-02-04T0000,24,50,1.0,41,3,51,97,50,
赣州市,华坚鞋城,114.8905,25.8472,2026-02-04T0000,46,77,0.8,68,6,24,104,64,"颗粒物(PM10),细颗粒物(PM2.5)"
赣州市,赣县区卫计委,115.0094,25.8614,2026-02-04T0000,28,68,1.0,58,7,15,95,59,颗粒物(PM10)
固原市,监测站,106.2753,36.0057,2026-02-04T0000,65,140,1.4,65,10,7,75,95,颗粒物(PM10)
固原市,新区,106.2384,36.0189,2026-02-04T0000,44,94,0.7,20,7,64,74,72,颗粒物(PM10)
广安市,市委,106.6307,30.4577,2026-02-04T0000,67,94,1.0,20,6,44,55,90,细颗粒物(PM2.5)
广安市,友谊中学,106.6266,30.4662,2026-02-04T0000,56,90,1.0,20,6,49,56,77,细颗粒物(PM2.5)
广安市,广电花园,106.6386,30.4551,2026-02-04T0000,67,82,0.8,16,6,46,51,90,细颗粒物(PM2.5)
广安市,北辰小学,106.6347,30.4868,2026-02-04T0000,63,80,0.9,12,6,52,59,85,细颗粒物(PM2.5)
广元市,老城,105.8211,32.4444,2026-02-04T0000,48,76,1.2,57,7,6,58,67,细颗粒物(PM2.5)
广元市,监测站,105.8629,32.429,2026-02-04T0000,45,76,1.1,38,6,14,49,63,"颗粒物(PM10),细颗粒物(PM2.5)"
广元市,经开区,105.8047,32.4167,2026-02-04T0000,48,79,1.3,53,3,1,44,67,细颗粒物(PM2.5)
广州市,广雅中学,113.2346,23.1423,2026-02-04T0000,63,116,1.3,102,3,36,112,85,细颗粒物(PM2.5)
广州市,市五中,113.2611,23.105,2026-02-04T0000,63,109,/,115,8,23,133,85,细颗粒物(PM2.5)
广州市,广东商学院,113.3477,23.0916,2026-02-04T0000,68,100,0.8,131,6,10,128,92,细颗粒物(PM2.5)
广州市,市八十六中,113.4332,23.105,2026-02-04T0000,30,48,/,64,8,47,133,48,
广州市,番禺中学,113.3506,22.9488,2026-02-04T0000,32,80,0.8,49,3,49,151,65,颗粒物(PM10)
广州市,花都师范,113.2147,23.3918,2026-02-04T0000,61,123,1.3,133,6,2,107,87,颗粒物(PM10)
广州市,市监测站,113.2599,23.1329,2026-02-04T0000,64,117,/,82,3,55,124,87,细颗粒物(PM2.5)
广州市,九龙镇镇龙,113.5618,23.3119,2026-02-04T0000,52,112,0.9,85,5,1,109,81,颗粒物(PM10)
广州市,麓湖,113.2764,23.1544,2026-02-04T0000,52,91,1.1,134,5,2,111,72,细颗粒物(PM2.5)
广州市,体育西,113.3209,23.1323,2026-02-04T0000,66,110,1.1,104,8,36,119,89,细颗粒物(PM2.5)
广州市,从化街口,113.5718,23.5493,2026-02-04T0000,41,70,0.8,68,6,14,108,60,颗粒物(PM10)
广州市,白云竹料,113.3463,23.369,2026-02-04T0000,48,99,0.8,102,4,6,104,75,颗粒物(PM10)
广州市,白云嘉禾,113.2981,23.2365,2026-02-04T0000,69,121,/,125,6,8,99,93,细颗粒物(PM2.5)
广州市,黄埔科学城,113.4256,23.1716,2026-02-04T0000,49,84,0.9,105,3,7,118,68,细颗粒物(PM2.5)
广州市,番禺大学城,113.3942,23.0485,2026-02-04T0000,50,99,0.7,56,8,63,151,75,颗粒物(PM10)
广州市,南沙黄阁,113.4923,22.8169,2026-02-04T0000,32,38,/,31,4,59,143,46,
广州市,南沙街,113.534,22.7893,2026-02-04T0000,29,38,0.7,42,4,51,160,42,
广州市,花都梯面,113.2905,23.5541,2026-02-04T0000,30,53,/,57,4,1,93,52,颗粒物(PM10)
广州市,从化良口,113.786,23.7479,2026-02-04T0000,22,32,/,18,7,48,95,32,
广州市,增城荔城,113.805,23.2614,2026-02-04T0000,47,77,0.7,44,6,38,117,65,细颗粒物(PM2.5)
贵港市,江南子站,109.604387,23.066791,2026-02-04T0000,102,197,1.7,92,8,5,135,134,细颗粒物(PM2.5)
贵港市,荷城子站,109.5669,23.1065,2026-02-04T0000,66,107,1.6,83,6,11,108,89,细颗粒物(PM2.5)
贵港市,新世纪学校,109.5886,23.1172,2026-02-04T0000,74,112,1.2,79,/,12,123,99,细颗粒物(PM2.5)
贵港市,中山路155-3号,109.5933,23.095,2026-02-04T0000,88,117,2.0,83,/,7,128,117,细颗粒物(PM2.5)
贵阳市,马鞍山,106.6863,26.6035,2026-02-04T0000,,,,,,,43,,
贵阳市,鉴湖路,106.6241,26.6266,2026-02-04T0000,3,14,0.5,14,3,52,54,17,
贵阳市,燕子冲,106.7468,26.6344,2026-02-04T0000,25,36,0.8,22,12,13,55,36,
贵阳市,碧云窝,106.6556,26.4362,2026-02-04T0000,9,19,/,15,13,44,56,19,
贵阳市,红边门,106.6963,26.6063,2026-02-04T0000,28,41,/,38,16,2,48,41,
贵阳市,新华路,106.7162383,26.56964667,2026-02-04T0000,28,44,0.9,47,6,4,46,44,
贵阳市,太慈桥,106.6742,26.542,2026-02-04T0000,14,14,/,16,4,38,51,20,
贵阳市,花果园大街66号,106.688212,26.56952,2026-02-04T0000,33,44,/,42,3,3,37,48,
贵阳市,漓江路57号,106.687268,26.516892,2026-02-04T0000,17,31,0.8,23,15,20,44,31,
桂林市,龙隐路小学,110.3091,25.2705,2026-02-04T0000,81,94,1.0,51,9,9,72,108,细颗粒物(PM2.5)
桂林市,八中,110.2849361,25.22909545,2026-02-04T0000,65,106,1.4,54,8,7,67,88,细颗粒物(PM2.5)
桂林市,旅游学院,110.296,25.1254,2026-02-04T0000,84,109,0.7,49,15,18,83,112,细颗粒物(PM2.5)
桂林市,环湖路276号,110.1835,25.2444,2026-02-04T0000,61,97,1.4,64,19,4,63,83,细颗粒物(PM2.5)
桂林市,信义路13号,110.2803,25.2773,2026-02-04T0000,53,88,1.5,60,13,6,77,73,细颗粒物(PM2.5)
果洛藏族自治州,玛沁县大武镇,100.2262,34.4854,2026-02-04T0000,18,38,0.3,6,14,53,94,38,
哈尔滨市,松北商大,126.5557,45.8109,2026-02-04T0000,107,,1.4,70,8,12,66,140,细颗粒物(PM2.5)
哈尔滨市,南岗学府路,126.6162,45.719,2026-02-04T0000,72,104,1.1,60,12,23,66,97,细颗粒物(PM2.5)
哈尔滨市,太平宏伟公园,126.6894,45.7733,2026-02-04T0000,89,95,1.1,71,13,19,73,118,细颗粒物(PM2.5)
哈尔滨市,道外承德广场,126.6361,45.7672,2026-02-04T0000,87,144,0.7,64,15,18,67,115,细颗粒物(PM2.5)
哈尔滨市,动力和平路,126.644,45.7261,2026-02-04T0000,75,88,1.1,48,14,36,64,100,细颗粒物(PM2.5)
哈尔滨市,道里建国路,126.5933,45.7479,2026-02-04T0000,98,114,0.8,70,34,10,62,129,细颗粒物(PM2.5)
哈尔滨市,平房东轻厂,126.6127,45.6119,2026-02-04T0000,,,,,,,70,,
哈尔滨市,呼兰师专,126.5875,45.9827,2026-02-04T0000,83,89,1.3,56,14,25,66,110,细颗粒物(PM2.5)
哈尔滨市,省农科院,126.6299,45.6799,2026-02-04T0000,115,158,1.6,79,21,6,62,150,细颗粒物(PM2.5)
哈尔滨市,华山路1号,126.6769,45.7379,2026-02-04T0000,78,102,1.2,57,20,28,58,104,细颗粒物(PM2.5)
哈尔滨市,解放大街52号,126.9717,45.5356,2026-02-04T0000,74,103,1.5,54,23,7,62,99,细颗粒物(PM2.5)
哈密市,地区监测站,93.5124,42.8176,2026-02-04T0000,37,74,0.5,46,9,21,73,62,颗粒物(PM10)
哈密市,哈密师范学校,93.5014,42.8312,2026-02-04T0000,29,89,0.9,61,7,11,68,70,颗粒物(PM10)
海北藏族自治州,海晏县西海镇,100.9016,36.9464,2026-02-04T0000,10,29,0.4,9,10,58,86,29,
海东市,平安区公安局北苑,102.074,36.5056,2026-02-04T0000,58,113,0.9,15,31,75,87,82,颗粒物(PM10)
海东市,滨河路,102.0984,36.5119,2026-02-04T0000,52,106,0.9,34,49,73,87,78,颗粒物(PM10)
海口市,海南大学,110.3189,20.0596,2026-02-04T0000,20,37,0.5,9,5,89,126,37,
海口市,秀英海南医院,110.2827,20.0051,2026-02-04T0000,18,40,0.4,10,8,84,116,40,
海口市,海南师范大学,110.3391,19.9979,2026-02-04T0000,17,38,0.6,9,6,86,123,38,
海口市,龙华路环保局宿舍,110.3303,20.0359,2026-02-04T0000,18,40,0.7,6,/,95,132,40,
海口市,桂林洋子站,110.5111,19.9737,2026-02-04T0000,19,40,/,7,/,81,118,40,
海口市,长滨二路9号,110.1952,20.0451,2026-02-04T0000,19,38,/,8,/,87,123,38,
海南藏族自治州,共和县恰卜恰镇,100.6158,36.2985,2026-02-04T0000,26,39,0.7,41,13,25,91,39,
海西蒙古族藏族自治州,德令哈市,97.373,37.376,2026-02-04T0000,8,24,0.4,7,14,95,102,30,
邯郸市,矿院,114.492,36.5712,2026-02-04T0000,92,107,0.7,24,3,50,88,122,细颗粒物(PM2.5)
邯郸市,丛台公园,114.4839,36.6136,2026-02-04T0000,92,132,0.7,33,7,57,89,122,细颗粒物(PM2.5)
邯郸市,香泉濮院小区,114.7893,36.5592,2026-02-04T0000,79,112,0.7,18,4,66,92,105,细颗粒物(PM2.5)
邯郸市,峰峰矿区临水派出所,114.1998,36.4439,2026-02-04T0000,85,99,0.7,14,12,74,99,113,细颗粒物(PM2.5)
邯郸市,建安街268号,114.5209,36.7697,2026-02-04T0000,94,106,0.6,35,6,55,86,124,细颗粒物(PM2.5)
邯郸市,丛台东路558号,114.5488,36.6177,2026-02-04T0000,100,111,0.8,49,2,26,86,132,细颗粒物(PM2.5)
汉中市,市监测站,107.0155,33.0707,2026-02-04T0000,102,126,1.6,48,6,15,65,134,细颗粒物(PM2.5)
汉中市,鑫源开发区,107.0083,33.114,2026-02-04T0000,85,117,1.3,59,6,9,72,113,细颗粒物(PM2.5)
汉中市,南郑大河坎水厂,107.0072,33.0323,2026-02-04T0000,102,156,1.5,51,7,8,59,134,细颗粒物(PM2.5)
杭州市,滨江,120.2073,30.2111,2026-02-04T0000,68,95,0.8,46,8,48,100,92,细颗粒物(PM2.5)
杭州市,西溪,120.0625,30.2737,2026-02-04T0000,68,87,0.7,32,8,44,102,92,细颗粒物(PM2.5)
杭州市,下沙,120.3417,30.315,2026-02-04T0000,47,68,0.2,59,10,37,99,65,细颗粒物(PM2.5)
杭州市,卧龙桥,120.1252,30.2465,2026-02-04T0000,64,85,0.4,33,9,29,98,87,细颗粒物(PM2.5)
杭州市,浙江农大,120.1902,30.2691,2026-02-04T0000,53,82,0.6,52,7,51,109,73,细颗粒物(PM2.5)
杭州市,和睦小学,120.1195,30.3121,2026-02-04T0000,64,96,0.7,37,6,54,102,87,细颗粒物(PM2.5)
杭州市,临平镇,120.3076,30.4146,2026-02-04T0000,46,61,0.6,32,7,56,100,64,细颗粒物(PM2.5)
杭州市,城厢镇,120.2753,30.1839,2026-02-04T0000,58,93,0.6,56,10,39,106,79,细颗粒物(PM2.5)
杭州市,云栖,120.0883,30.1808,2026-02-04T0000,53,84,0.8,38,4,21,96,73,细颗粒物(PM2.5)
杭州市,镇二中,119.9463,30.0496,2026-02-04T0000,82,89,0.8,63,6,33,96,109,细颗粒物(PM2.5)
杭州市,市府大楼,119.7184,30.2367,2026-02-04T0000,81,100,1.0,54,10,15,94,108,细颗粒物(PM2.5)
杭州市,消防大队,120.1554,30.2863,2026-02-04T0000,65,89,0.6,42,7,46,97,88,细颗粒物(PM2.5)
合肥市,明珠广场,117.1957,31.7845,2026-02-04T0000,85,122,0.7,38,6,58,90,113,细颗粒物(PM2.5)
合肥市,三里街,117.307,31.8765,2026-02-04T0000,77,112,0.8,70,6,36,84,103,细颗粒物(PM2.5)
合肥市,琥珀山庄,117.2587,31.8703,2026-02-04T0000,78,105,0.8,38,8,69,96,104,细颗粒物(PM2.5)
合肥市,庐阳区,117.2593,31.9376,2026-02-04T0000,73,110,0.9,43,4,68,93,98,细颗粒物(PM2.5)
合肥市,瑶海区,117.345251,31.861615,2026-02-04T0000,68,107,0.6,62,5,50,92,92,细颗粒物(PM2.5)
合肥市,包河区,117.3033,31.7967,2026-02-04T0000,69,107,0.9,35,7,73,92,93,细颗粒物(PM2.5)
合肥市,滨湖新区,117.278,31.7392,2026-02-04T0000,70,107,0.8,27,3,71,98,94,细颗粒物(PM2.5)
合肥市,高新区,117.1324,31.8395,2026-02-04T0000,78,110,0.9,32,5,73,94,104,细颗粒物(PM2.5)
合肥市,高教基地,117.3802,31.9148,2026-02-04T0000,71,112,0.8,54,7,36,94,95,细颗粒物(PM2.5)
合肥市,中国科学技术大学,117.2518,31.8404,2026-02-04T0000,70,105,0.9,50,9,56,99,94,细颗粒物(PM2.5)
和田地区,地区环保局,79.9241,37.0878,2026-02-04T0000,103,390,1.1,30,6,40,60,258,颗粒物(PM10)
和田地区,市环保局,79.9132,37.1137,2026-02-04T0000,81,425,0.5,37,6,40,82,307,颗粒物(PM10)
河池市,市环保站,108.0496,24.6957,2026-02-04T0000,50,71,1.0,31,6,69,60,69,细颗粒物(PM2.5)
河池市,上任中路54号,108.0901,24.6945,2026-02-04T0000,56,75,1.2,33,7,24,58,77,细颗粒物(PM2.5)
河源市,东埔,114.6962,23.7538,2026-02-04T0000,41,65,0.9,49,6,21,97,58,"颗粒物(PM10),细颗粒物(PM2.5)"
河源市,老城,114.6895,23.7232,2026-02-04T0000,37,47,0.8,43,6,27,99,53,细颗粒物(PM2.5)
菏泽市,定陶老年大学,115.5562,35.089,2026-02-04T0000,75,107,0.5,22,6,63,101,100,细颗粒物(PM2.5)
菏泽市,黄河路600号,115.4239,35.2593,2026-02-04T0000,75,127,0.6,32,6,66,111,100,细颗粒物(PM2.5)
菏泽市,菏泽市人社局,115.5025,35.2727,2026-02-04T0000,74,117,0.7,25,8,73,103,99,细颗粒物(PM2.5)
菏泽市,永昌路1号,115.479691,35.244011,2026-02-04T0000,68,122,0.8,32,4,72,111,92,细颗粒物(PM2.5)
菏泽市,长城路999号,115.471542,35.280012,2026-02-04T0000,72,111,0.8,28,8,70,107,97,细颗粒物(PM2.5)
贺州市,环保小区,111.5264,24.4178,2026-02-04T0000,48,72,0.8,31,3,37,82,67,细颗粒物(PM2.5)
贺州市,政协大楼,111.561,24.4074,2026-02-04T0000,53,99,1.1,61,11,4,90,75,颗粒物(PM10)
贺州市,西湾,111.4744,24.455,2026-02-04T0000,47,95,1.1,51,10,21,90,73,颗粒物(PM10)
鹤壁市,市监测站,114.17,35.9019,2026-02-04T0000,66,102,0.8,24,9,92,91,89,细颗粒物(PM2.5)
鹤壁市,市交警支队,114.2953,35.7512,2026-02-04T0000,115,154,0.9,43,7,47,78,150,细颗粒物(PM2.5)
鹤壁市,迎宾馆,114.2877,35.7302,2026-02-04T0000,117,154,1.0,41,9,48,85,153,细颗粒物(PM2.5)
鹤壁市,大新区,114.2616,35.6824,2026-02-04T0000,125,173,1.1,56,9,33,80,165,细颗粒物(PM2.5)
鹤壁市,南山宾馆,114.1573,35.9607,2026-02-04T0000,80,112,0.8,24,8,66,92,107,细颗粒物(PM2.5)
鹤岗市,哈啤分公司,130.2537,47.3416,2026-02-04T0000,27,35,0.5,7,7,89,89,39,
鹤岗市,斯达机电,130.2683,47.3087,2026-02-04T0000,26,38,0.5,7,5,84,80,38,
鹤岗市,东山纸板厂,130.3114,47.3388,2026-02-04T0000,30,,1.0,8,9,82,85,43,
黑河市,交通局,127.4832,50.2524,2026-02-04T0000,18,,0.4,11,5,60,70,26,
黑河市,环保局,127.5146,50.2339,2026-02-04T0000,23,25,0.6,16,6,60,62,33,
衡水市,电机北厂,115.6839,37.754,2026-02-04T0000,112,176,0.6,38,10,55,103,147,细颗粒物(PM2.5)
衡水市,市监测站,115.6303,37.7318,2026-02-04T0000,114,153,0.9,44,8,42,97,149,细颗粒物(PM2.5)
衡水市,市城管局,115.6684,37.7216,2026-02-04T0000,109,164,0.9,51,10,37,100,143,细颗粒物(PM2.5)
衡水市,地表水厂,115.599,37.5491,2026-02-04T0000,128,151,0.8,47,8,29,98,169,细颗粒物(PM2.5)
衡阳市,衡阳化工总厂,112.6209,26.9268,2026-02-04T0000,52,100,0.9,47,14,25,96,75,颗粒物(PM10)
衡阳市,珠晖区环保局,112.621,26.8957,2026-02-04T0000,64,108,1.5,76,10,3,90,87,细颗粒物(PM2.5)
衡阳市,市委党校,112.628,26.8654,2026-02-04T0000,66,100,1.5,64,17,18,93,89,细颗粒物(PM2.5)
衡阳市,市监测站,112.6007,26.8977,2026-02-04T0000,80,159,1.6,68,10,7,88,107,细颗粒物(PM2.5)
衡阳市,真空机电公司,112.5658,26.9013,2026-02-04T0000,77,118,1.8,78,9,5,87,103,细颗粒物(PM2.5)
衡阳市,师范学院,112.6703,26.8817,2026-02-04T0000,57,89,0.2,35,5,52,81,78,细颗粒物(PM2.5)
红河哈尼族彝族自治州,州图书馆,103.3757,23.3679,2026-02-04T0000,23,41,0.8,12,15,47,70,41,
红河哈尼族彝族自治州,蒙自市朝阳路,103.401,23.3561,2026-02-04T0000,24,37,0.6,12,15,40,74,37,
呼和浩特市,呼市一监,111.6506,40.7517,2026-02-04T0000,59,88,1.0,63,11,0,43,80,细颗粒物(PM2.5)
呼和浩特市,如意水处理厂,111.7516,40.8369,2026-02-04T0000,33,64,0.7,65,14,2,47,57,颗粒物(PM10)
呼和浩特市,二十九中,111.727798,40.806187,2026-02-04T0000,38,76,1.0,67,16,3,45,63,颗粒物(PM10)
呼和浩特市,化肥厂生活区,111.717,40.7617,2026-02-04T0000,62,117,1.1,66,9,4,48,84,"颗粒物(PM10),细颗粒物(PM2.5)"
呼和浩特市,海东办,111.6519,40.8389,2026-02-04T0000,44,88,1.1,63,9,4,42,69,颗粒物(PM10)
呼和浩特市,成吉思汗西街8号,111.591512,40.827312,2026-02-04T0000,30,58,0.6,58,9,5,39,54,颗粒物(PM10)
呼和浩特市,公园东路75号,111.6597,40.8077,2026-02-04T0000,38,78,1.0,68,12,8,44,64,颗粒物(PM10)
呼和浩特市,金海路35号,111.5427,40.7846,2026-02-04T0000,32,72,0.9,66,9,0,39,61,颗粒物(PM10)
呼伦贝尔市,国华电力东,119.7511,49.1576,2026-02-04T0000,11,30,0.3,13,6,75,80,30,
呼伦贝尔市,伊敏大街东7号,119.7569,49.2222,2026-02-04T0000,13,26,0.5,5,6,73,79,26,
湖州市,城西水厂,120.075,30.867,2026-02-04T0000,53,71,0.4,32,6,76,109,73,细颗粒物(PM2.5)
湖州市,仁皇山新区,120.083,30.8929,2026-02-04T0000,48,66,0.6,36,6,74,109,67,细颗粒物(PM2.5)
湖州市,吴兴区站,120.1846,30.8592,2026-02-04T0000,46,63,0.4,31,5,64,105,64,细颗粒物(PM2.5)
湖州市,南浔区站,120.4146,30.8538,2026-02-04T0000,24,36,0.5,29,7,60,109,36,
葫芦岛市,龙港区,120.904878,40.721091,2026-02-04T0000,121,150,1.4,60,26,30,60,159,细颗粒物(PM2.5)
葫芦岛市,化工街,120.8382,40.7521,2026-02-04T0000,130,183,1.4,108,25,5,51,172,细颗粒物(PM2.5)
葫芦岛市,新区,120.8339,40.7078,2026-02-04T0000,143,,1.4,73,15,19,56,190,细颗粒物(PM2.5)
葫芦岛市,东城区,120.8697,40.7679,2026-02-04T0000,144,149,1.8,104,23,5,53,192,细颗粒物(PM2.5)
怀化市,河西地税局,109.9297,27.5383,2026-02-04T0000,52,93,/,16,2,70,74,72,"颗粒物(PM10),细颗粒物(PM2.5)"
怀化市,市四医院,109.9783,27.5342,2026-02-04T0000,50,112,0.6,20,7,53,78,81,颗粒物(PM10)
怀化市,监测楼,109.9971,27.5579,2026-02-04T0000,65,98,0.4,26,4,45,73,88,细颗粒物(PM2.5)
淮安市,钵池山,119.0566,33.5991,2026-02-04T0000,89,112,0.6,54,10,37,95,118,细颗粒物(PM2.5)
淮安市,北京南路,119.0083,33.578,2026-02-04T0000,93,117,0.7,58,8,35,96,123,细颗粒物(PM2.5)
淮安市,市监测站,118.9938,33.6083,2026-02-04T0000,98,114,0.8,48,11,44,95,129,细颗粒物(PM2.5)
淮安市,楚州区监测站,119.135,33.5038,2026-02-04T0000,89,110,0.8,66,7,19,91,118,细颗粒物(PM2.5)
淮安市,新华书店,118.8757,33.2897,2026-02-04T0000,96,124,0.8,44,9,41,82,127,细颗粒物(PM2.5)
淮安市,枚皋中路89号,119.119691,33.550006,2026-02-04T0000,105,122,0.7,51,12,34,103,138,细颗粒物(PM2.5)
淮安市,承德北路606号,119.028838,33.631911,2026-02-04T0000,92,129,0.8,43,9,53,103,122,细颗粒物(PM2.5)
淮北市,监测站,116.8005,33.9749,2026-02-04T0000,77,122,0.7,20,6,81,104,103,细颗粒物(PM2.5)
淮北市,烈山区政府,116.8094,33.9008,2026-02-04T0000,79,125,0.6,38,5,61,106,105,细颗粒物(PM2.5)
淮北市,市博物馆,116.7926,33.9534,2026-02-04T0000,78,121,0.8,19,6,77,102,104,细颗粒物(PM2.5)
淮北市,杜集区第一实验学校,116.8322,33.9884,2026-02-04T0000,81,113,0.6,22,5,70,97,108,细颗粒物(PM2.5)
淮南市,潘集区政府,116.8304,32.7726,2026-02-04T0000,68,113,0.6,30,6,61,90,92,细颗粒物(PM2.5)
淮南市,谢家集区政府,116.8569,32.5949,2026-02-04T0000,58,120,0.7,28,9,67,89,85,颗粒物(PM10)
淮南市,八公山区政府,116.8279,32.6333,2026-02-04T0000,65,95,0.7,28,4,66,94,88,细颗粒物(PM2.5)
淮南市,经济技术开发区消防队,117.0561,32.6536,2026-02-04T0000,62,88,0.5,41,5,59,93,84,细颗粒物(PM2.5)
淮南市,山南新区,117.011,32.5891,2026-02-04T0000,63,97,0.5,32,9,78,101,85,细颗粒物(PM2.5)
淮南市,国庆中路369号,117.003137,32.644456,2026-02-04T0000,64,93,0.6,30,,64,88,,
黄冈市,职工中心,114.9021,30.474,2026-02-04T0000,67,86,0.8,46,8,16,70,90,细颗粒物(PM2.5)
黄冈市,红卫路,114.8858,30.4519,2026-02-04T0000,57,79,0.9,44,8,28,75,78,细颗粒物(PM2.5)
黄冈市,市林业局,114.9134,30.4446,2026-02-04T0000,71,100,1.0,46,3,22,60,95,细颗粒物(PM2.5)
黄南藏族自治州,同仁县隆务镇,102.02,35.5101,2026-02-04T0000,53,81,0.9,13,10,63,79,73,细颗粒物(PM2.5)
黄山市,延安路89号,118.2905,29.6965,2026-02-04T0000,40,50,0.8,26,4,15,86,57,细颗粒物(PM2.5)
黄山市,黄山区政府5号楼,118.1369,30.2755,2026-02-04T0000,22,41,0.5,16,2,15,75,41,
黄山市,滨江东路7-2号,118.335445,29.720283,2026-02-04T0000,49,81,/,28,/,18,92,68,细颗粒物(PM2.5)
黄石市,沈家营,115.0547,30.2332,2026-02-04T0000,62,95,1.2,57,9,12,61,84,细颗粒物(PM2.5)
黄石市,铁山,114.899,30.211,2026-02-04T0000,73,73,1.5,39,7,22,75,98,细颗粒物(PM2.5)
黄石市,团城山,115.0259,30.2108,2026-02-04T0000,68,92,1.1,24,7,24,52,92,细颗粒物(PM2.5)
黄石市,笔架山北路,115.0174,30.1591,2026-02-04T0000,67,130,1.2,30,9,28,70,90,"颗粒物(PM10),细颗粒物(PM2.5)"
黄石市,磁湖东路29号,115.078022,30.21118,2026-02-04T0000,71,87,1.4,49,7,3,69,95,细颗粒物(PM2.5)
惠州市,河南岸金山湖子站,114.4181,23.0528,2026-02-04T0000,35,60,0.7,16,4,87,103,55,颗粒物(PM10)
惠州市,下埔横江三路子站,114.4055,23.0824,2026-02-04T0000,34,66,0.4,20,7,97,112,58,颗粒物(PM10)
惠州市,惠阳区承修路船湖子站,114.4645,22.7832,2026-02-04T0000,34,65,0.6,13,6,117,127,58,颗粒物(PM10)
惠州市,大亚湾管委会子站,114.5316,22.7423,2026-02-04T0000,33,64,0.6,15,5,111,126,57,颗粒物(PM10)
惠州市,惠阳秋长,114.4334,22.8134,2026-02-04T0000,28,61,/,14,/,131,142,56,颗粒物(PM10)
惠州市,大亚湾霞涌,114.6521,22.7755,2026-02-04T0000,27,42,/,12,/,124,132,42,
惠州市,文华一路1号,114.4089,23.1147,2026-02-04T0000,33,61,/,20,/,99,118,56,颗粒物(PM10)
鸡西市,环保局,130.9618,45.2926,2026-02-04T0000,55,,1.0,64,14,4,81,75,细颗粒物(PM2.5)
鸡西市,第一中学,130.9294,45.2959,2026-02-04T0000,26,36,0.5,30,6,54,84,38,
鸡西市,欧美日汽修厂,131.0069,45.2988,2026-02-04T0000,67,118,1.4,58,20,8,78,90,细颗粒物(PM2.5)
吉安市,红声器材厂,114.9753,27.0803,2026-02-04T0000,47,61,0.7,20,9,59,99,65,细颗粒物(PM2.5)
吉安市,市环境监测站,114.9903,27.1313,2026-02-04T0000,43,63,/,22,6,60,94,60,细颗粒物(PM2.5)
吉安市,青原区法院,115.009527,27.096792,2026-02-04T0000,50,67,0.7,20,10,60,96,69,细颗粒物(PM2.5)
吉林市,哈达湾,126.54,43.8622,2026-02-04T0000,44,60,1.2,24,12,79,104,62,细颗粒物(PM2.5)
吉林市,东局子,126.5843,43.8358,2026-02-04T0000,46,68,1.4,33,10,47,81,64,细颗粒物(PM2.5)
吉林市,电力学院,126.5051,43.8243,2026-02-04T0000,129,167,2.8,72,12,20,95,170,细颗粒物(PM2.5)
吉林市,江北,126.6133,43.8971,2026-02-04T0000,44,60,1.1,30,10,48,79,62,细颗粒物(PM2.5)
吉林市,江南公园,126.5549,43.8304,2026-02-04T0000,40,52,0.7,19,10,68,90,57,细颗粒物(PM2.5)
吉林市,九站,126.4737,43.953,2026-02-04T0000,54,70,1.0,60,13,30,86,74,细颗粒物(PM2.5)
济南市,科干所,116.9866,36.6118,2026-02-04T0000,73,117,0.6,10,8,106,107,98,细颗粒物(PM2.5)
济南市,农科所,116.9379,36.6652,2026-02-04T0000,95,137,0.8,20,9,95,99,125,细颗粒物(PM2.5)
济南市,开发区,117.1265,36.6736,2026-02-04T0000,80,105,0.7,20,5,119,114,107,细颗粒物(PM2.5)
济南市,省种子仓库,117.0616,36.6865,2026-02-04T0000,78,119,0.6,16,6,110,112,104,细颗粒物(PM2.5)
济南市,机床二厂,116.9495185,36.644937,2026-02-04T0000,87,129,0.4,18,10,96,101,115,细颗粒物(PM2.5)
济南市,市监测站,117.0496,36.6629,2026-02-04T0000,79,112,0.7,14,6,110,112,105,细颗粒物(PM2.5)
济南市,长清党校,116.7674,36.5458,2026-02-04T0000,96,137,0.9,34,6,84,100,127,细颗粒物(PM2.5)
济南市,东山小学,117.5323,36.6865,2026-02-04T0000,94,149,0.8,30,,91,110,124,细颗粒物(PM2.5)
济南市,泰兴公司,117.7181,36.205,2026-02-04T0000,132,193,1.6,87,10,9,88,175,细颗粒物(PM2.5)
济南市,莱芜战役纪念馆,117.6861,36.2172,2026-02-04T0000,124,175,1.3,77,13,22,94,163,细颗粒物(PM2.5)
济南市,济阳区政府,117.1673,36.9782,2026-02-04T0000,105,147,0.9,63,11,40,91,138,细颗粒物(PM2.5)
济南市,锦屏中学,117.1168,36.6299,2026-02-04T0000,77,98,0.5,17,5,108,112,103,细颗粒物(PM2.5)
济南市,山财大街5号,117.7107,36.2385,2026-02-04T0000,119,161,1.5,56,16,44,96,156,细颗粒物(PM2.5)
济南市,无影山路12号,116.9744,36.6889,2026-02-04T0000,90,122,0.9,13,9,93,97,119,细颗粒物(PM2.5)
济宁市,火炬城,116.6229,35.4288,2026-02-04T0000,88,108,0.7,21,4,67,88,117,细颗粒物(PM2.5)
济宁市,北湖一中,116.5808,35.3703,2026-02-04T0000,83,94,0.7,20,6,73,98,110,细颗粒物(PM2.5)
济宁市,服务中心,116.8251,35.5592,2026-02-04T0000,93,148,0.9,23,4,62,90,123,细颗粒物(PM2.5)
济宁市,市第七中学,116.5907,35.4054,2026-02-04T0000,80,92,0.6,23,10,77,99,107,细颗粒物(PM2.5)
济宁市,任和路,116.6075,35.4566,2026-02-04T0000,77,134,0.7,21,6,80,96,103,细颗粒物(PM2.5)
济宁市,文体南路1号,116.5648,35.3921,2026-02-04T0000,74,126,0.6,19,5,82,100,99,细颗粒物(PM2.5)
佳木斯市,佳纺,130.2749,46.8028,2026-02-04T0000,37,48,0.5,15,8,64,79,53,细颗粒物(PM2.5)
佳木斯市,环保局,130.3258,46.7975,2026-02-04T0000,26,49,0.4,15,8,70,81,49,
佳木斯市,顺和街,130.363,46.806,2026-02-04T0000,34,46,0.6,21,12,62,74,49,
佳木斯市,长安路196号,130.3952,46.8268,2026-02-04T0000,32,40,0.6,16,7,71,82,46,
嘉兴市,清河小学,120.7439,30.778,2026-02-04T0000,27,46,0.1,26,6,72,104,46,
嘉兴市,嘉兴学院,120.7261,30.7477,2026-02-04T0000,26,45,0.5,23,6,71,109,45,
嘉兴市,南湖区残联,120.7845,30.7524,2026-02-04T0000,29,42,0.3,22,6,79,114,42,
嘉兴市,秀洲住建,120.6915,30.7741,2026-02-04T0000,24,45,0.4,26,7,73,114,45,
嘉峪关市,气象局,98.291,39.7705,2026-02-04T0000,39,124,0.3,18,12,55,82,87,颗粒物(PM10)
嘉峪关市,酒钢宾馆,98.2672,39.7978,2026-02-04T0000,40,132,0.5,14,13,55,72,91,颗粒物(PM10)
嘉峪关市,雄关区,98.2644,39.7723,2026-02-04T0000,39,103,0.5,32,16,54,82,77,颗粒物(PM10)
江门市,北街,113.1063,22.6058,2026-02-04T0000,34,42,/,25,/,66,148,49,
江门市,西区,113.073,22.5835,2026-02-04T0000,36,51,/,28,/,70,150,52,细颗粒物(PM2.5)
江门市,圭峰西,113.0218,22.531,2026-02-04T0000,32,53,/,28,/,66,154,52,颗粒物(PM10)
江门市,东湖,113.0826,22.5947,2026-02-04T0000,39,57,0.6,27,7,63,146,55,细颗粒物(PM2.5)
江门市,江海富民,113.1077,22.5647,2026-02-04T0000,31,62,0.6,28,/,75,147,56,颗粒物(PM10)
江门市,新会银湖,113.0496,22.4669,2026-02-04T0000,30,31,0.5,32,7,60,158,43,
焦作市,马村街道办,113.3137,35.2643,2026-02-04T0000,140,182,1.2,48,12,39,98,186,细颗粒物(PM2.5)
焦作市,焦作技师学院,113.2464,35.2374,2026-02-04T0000,166,233,1.3,58,14,28,103,216,细颗粒物(PM2.5)
焦作市,中站许衡医院,113.1656,35.2536,2026-02-04T0000,63,90,0.8,24,7,74,98,85,细颗粒物(PM2.5)
焦作市,原李万街道办,113.2456,35.18,2026-02-04T0000,107,133,1.2,71,30,21,103,140,细颗粒物(PM2.5)
焦作市,新安路1731号,113.234,35.219,2026-02-04T0000,106,176,0.9,57,13,38,105,139,细颗粒物(PM2.5)
焦作市,人民路3066号,113.2722,35.2121,2026-02-04T0000,110,140,1.0,54,13,42,97,144,细颗粒物(PM2.5)
揭阳市,新兴,116.3701,23.5345,2026-02-04T0000,37,60,0.7,24,9,86,117,55,颗粒物(PM10)
揭阳市,西马,116.3261,23.5442,2026-02-04T0000,40,64,0.7,16,6,90,124,57,"颗粒物(PM10),细颗粒物(PM2.5)"
揭阳市,东兴,116.361,23.5627,2026-02-04T0000,39,67,/,18,10,91,125,59,颗粒物(PM10)
揭阳市,渔湖,116.4151,23.5295,2026-02-04T0000,37,60,/,18,6,98,136,55,颗粒物(PM10)
揭阳市,曲溪,116.4028,23.5699,2026-02-04T0000,36,60,0.6,14,3,98,133,55,颗粒物(PM10)
金昌市,天庆家园,102.1691,38.5166,2026-02-04T0000,49,136,0.9,33,11,29,90,93,颗粒物(PM10)
金昌市,金川区人防中心,102.1648,38.5369,2026-02-04T0000,45,157,0.9,15,24,53,91,104,颗粒物(PM10)
金昌市,长春路96号,102.193042,38.531887,2026-02-04T0000,56,184,1.3,40,17,27,84,117,颗粒物(PM10)
金华市,十五中,119.6478,29.0773,2026-02-04T0000,65,106,0.6,71,3,33,119,88,细颗粒物(PM2.5)
金华市,监测站,119.6859,29.1032,2026-02-04T0000,69,112,0.6,78,3,24,86,93,细颗粒物(PM2.5)
金华市,气象局,119.656,29.1132,2026-02-04T0000,64,96,0.8,61,4,42,85,87,细颗粒物(PM2.5)
锦州市,南山,121.1114,41.0879,2026-02-04T0000,115,,1.4,100,19,5,50,150,细颗粒物(PM2.5)
锦州市,开发区,121.060361,40.842794,2026-02-04T0000,129,156,1.4,82,27,,44,170,细颗粒物(PM2.5)
锦州市,百股街道,121.1836,41.1118,2026-02-04T0000,129,142,1.7,100,14,3,43,170,细颗粒物(PM2.5)
锦州市,天安街道,121.1176,41.1224,2026-02-04T0000,140,160,2.0,91,12,3,54,186,细颗粒物(PM2.5)
锦州市,北湖公园,121.1303,41.1385,2026-02-04T0000,132,135,1.5,93,16,4,53,175,细颗粒物(PM2.5)
晋城市,自来水公司,112.8496,35.5051,2026-02-04T0000,92,141,1.3,65,8,39,97,122,细颗粒物(PM2.5)
晋城市,市环保局,112.8509,35.4886,2026-02-04T0000,90,142,1.0,62,5,21,97,119,细颗粒物(PM2.5)
晋城市,泽州一中,112.8258,35.4804,2026-02-04T0000,84,151,1.1,27,4,60,101,112,细颗粒物(PM2.5)
晋城市,前书院路,112.8246,35.5152,2026-02-04T0000,67,160,0.8,33,6,46,90,105,颗粒物(PM10)
晋城市,祥云街666号,112.8864,35.4773,2026-02-04T0000,80,112,0.7,39,9,65,105,107,细颗粒物(PM2.5)
晋中市,榆次区政府,112.6992,37.6984,2026-02-04T0000,80,144,1.3,73,30,12,73,107,细颗粒物(PM2.5)
晋中市,榆次三中,112.7195,37.683,2026-02-04T0000,80,127,0.9,79,24,2,75,107,细颗粒物(PM2.5)
晋中市,广安街188号,112.7375,37.7215,2026-02-04T0000,64,124,1.0,78,19,1,74,87,"颗粒物(PM10),细颗粒物(PM2.5)"
晋中市,迎宾街26号,112.7478,37.6954,2026-02-04T0000,76,129,1.1,77,24,5,78,102,细颗粒物(PM2.5)
荆门市,竹园小学,112.2012,31.048,2026-02-04T0000,114,174,1.1,61,1,17,74,149,细颗粒物(PM2.5)
荆门市,掇刀,112.1968,30.9892,2026-02-04T0000,128,169,1.1,62,7,4,78,169,细颗粒物(PM2.5)
荆门市,西山林语,112.1849,31.0361,2026-02-04T0000,86,141,1.1,40,2,21,77,114,细颗粒物(PM2.5)
荆门市,龙泉中学南校,112.1631,31.0134,2026-02-04T0000,112,171,0.3,37,6,33,80,147,细颗粒物(PM2.5)
荆门市,新台西路6号,112.2213,31.0654,2026-02-04T0000,133,163,1.0,66,10,10,78,176,细颗粒物(PM2.5)
荆州市,市图书馆,112.2493,30.3198,2026-02-04T0000,91,114,1.3,62,8,15,71,120,细颗粒物(PM2.5)
荆州市,市委党校,112.2009,30.3543,2026-02-04T0000,104,138,1.4,64,11,0,50,137,细颗粒物(PM2.5)
荆州市,管委会,112.2749,30.3124,2026-02-04T0000,98,132,1.1,64,8,2,74,129,细颗粒物(PM2.5)
荆州市,学苑路85号,112.1722,30.3366,2026-02-04T0000,97,130,1.1,47,12,10,78,128,细颗粒物(PM2.5)
景德镇市,老干部活动中心,117.2114,29.2931,2026-02-04T0000,38,70,0.9,35,4,4,52,60,颗粒物(PM10)
景德镇市,兽医站,117.1893,29.2789,2026-02-04T0000,32,69,0.9,45,5,5,62,60,颗粒物(PM10)
景德镇市,陶研所,117.246,29.2958,2026-02-04T0000,21,40,0.7,30,3,0,61,40,
景德镇市,青少年活动中心,117.154766,29.256967,2026-02-04T0000,38,84,/,45,4,5,61,67,颗粒物(PM10)
九江市,十里,115.9873,29.6816,2026-02-04T0000,55,93,1.2,68,8,7,35,75,细颗粒物(PM2.5)
九江市,茅山头,115.9583,29.7047,2026-02-04T0000,46,89,1.0,66,5,13,48,70,颗粒物(PM10)
九江市,西园,115.9877,29.7295,2026-02-04T0000,50,90,1.1,77,7,20,49,70,颗粒物(PM10)
九江市,综合工业园,115.9112,29.6038,2026-02-04T0000,42,65,0.4,51,2,9,36,59,细颗粒物(PM2.5)
九江市,外国语学校,116.0254,29.6995,2026-02-04T0000,60,72,1.1,59,8,17,38,82,细颗粒物(PM2.5)
九江市,莲花大道8号,116.010205,29.659402,2026-02-04T0000,50,81,0.6,29,3,16,37,69,细颗粒物(PM2.5)
酒泉市,玉门东路5号,98.495752,39.733935,2026-02-04T0000,51,124,0.3,12,12,50,80,87,颗粒物(PM10)
酒泉市,北大街108号,98.5099,39.7506,2026-02-04T0000,48,132,0.5,17,13,41,78,91,颗粒物(PM10)
喀什地区,巡警大队,76.0071,39.466,2026-02-04T0000,167,256,3.2,90,12,4,74,217,细颗粒物(PM2.5)
喀什地区,吾办,75.9756,39.4693,2026-02-04T0000,150,235,2.5,98,17,5,81,200,细颗粒物(PM2.5)
喀什地区,老干局,75.9485,39.4688,2026-02-04T0000,186,338,4.3,99,14,5,82,236,细颗粒物(PM2.5)
开封市,肿瘤医院,114.3389,34.778,2026-02-04T0000,118,,0.8,32,7,54,100,155,细颗粒物(PM2.5)
开封市,世纪星幼儿园,114.2884,34.7966,2026-02-04T0000,84,96,0.8,35,5,54,95,112,细颗粒物(PM2.5)
开封市,龙亭公园,114.3434,34.8101,2026-02-04T0000,80,107,0.6,33,8,60,99,107,细颗粒物(PM2.5)
开封市,汴京公园,114.3645,34.7955,2026-02-04T0000,80,108,0.6,28,4,57,99,107,细颗粒物(PM2.5)
开封市,技师学院,114.2485,34.8306,2026-02-04T0000,79,98,0.9,27,8,65,101,105,细颗粒物(PM2.5)
开封市,祥符区生态环境局,114.4518,34.7503,2026-02-04T0000,102,140,0.9,40,4,44,101,134,细颗粒物(PM2.5)
克拉玛依市,长征新村,84.886,45.6029,2026-02-04T0000,107,151,1.4,32,6,72,64,140,细颗粒物(PM2.5)
克拉玛依市,南林小区,84.8894,45.5827,2026-02-04T0000,122,154,1.4,15,1,68,63,160,细颗粒物(PM2.5)
克拉玛依市,独山子区,84.896,44.3328,2026-02-04T0000,191,227,1.1,26,3,82,71,241,细颗粒物(PM2.5)
克拉玛依市,乌尔禾区商贸楼,85.6888,46.0909,2026-02-04T0000,122,139,1.8,49,9,38,66,160,细颗粒物(PM2.5)
克拉玛依市,白碱滩区新站,85.1045,45.6895,2026-02-04T0000,134,146,1.4,37,9,50,59,178,细颗粒物(PM2.5)
克孜勒苏柯尔克孜自治州,市人民政府,76.1457,39.7143,2026-02-04T0000,67,217,0.6,23,4,56,93,134,颗粒物(PM10)
克孜勒苏柯尔克孜自治州,克州文化中心,76.1654,39.7157,2026-02-04T0000,63,173,0.6,23,4,54,87,112,颗粒物(PM10)
昆明市,呈贡新区,102.8203,24.889,2026-02-04T0000,32,44,0.5,41,4,42,87,46,
昆明市,龙泉镇,102.7253,25.0904,2026-02-04T0000,30,44,0.5,23,4,61,86,44,
昆明市,东风东路,102.7267,25.0378,2026-02-04T0000,32,46,0.4,21,6,68,86,46,
昆明市,金鼎山,102.6744,25.0671,2026-02-04T0000,,,,,,,31,,
昆明市,碧鸡广场,102.6643,25.0401,2026-02-04T0000,33,57,0.5,32,5,55,87,54,颗粒物(PM10)
昆明市,官渡区博物馆,102.7491,25.012,2026-02-04T0000,26,43,0.6,19,5,71,92,43,
昆明市,青年创业园,102.8016,24.8336,2026-02-04T0000,27,45,0.6,28,5,52,95,45,
昆明市,昆明学院,102.8,24.9787,2026-02-04T0000,29,57,0.7,19,4,71,97,54,颗粒物(PM10)
昆明市,晋宁区生态环境分局,102.5969,24.6738,2026-02-04T0000,34,55,0.5,12,2,72,94,53,颗粒物(PM10)
昆明市,云天化总部,102.6673,24.9861,2026-02-04T0000,30,57,0.5,20,7,64,91,54,颗粒物(PM10)
拉萨市,八廓街,91.132,29.6515,2026-02-04T0000,8,19,0.3,4,7,92,93,29,
拉萨市,市环保局,91.1221,29.6748,2026-02-04T0000,14,18,0.4,5,7,87,86,28,
拉萨市,区监测站,91.0874,29.6476,2026-02-04T0000,9,14,0.7,3,4,89,87,28,
拉萨市,西藏大学,91.1774,29.6541,2026-02-04T0000,10,19,0.5,5,5,86,84,27,
拉萨市,区辐射站,90.9798,29.6586,2026-02-04T0000,12,38,0.3,4,3,85,82,38,
拉萨市,拉萨火车站,91.0831,29.6292,2026-02-04T0000,7,23,0.3,2,4,85,84,27,
来宾市,来宾技工学校,109.2203,23.7252,2026-02-04T0000,104,154,1.4,42,22,33,106,137,细颗粒物(PM2.5)
来宾市,兴宾区政府,109.1781,23.7293,2026-02-04T0000,99,142,1.3,47,12,34,113,130,细颗粒物(PM2.5)
来宾市,中南小学,109.2312,23.7428,2026-02-04T0000,107,163,1.5,46,16,28,109,140,细颗粒物(PM2.5)
兰州市,铁路设计院,103.8309,36.0467,2026-02-04T0000,,,,,,,,,
兰州市,百合公园,103.7439,36.0841,2026-02-04T0000,61,122,1.3,79,6,5,80,86,颗粒物(PM10)
兰州市,和平,103.9613,35.9985,2026-02-04T0000,59,109,1.1,45,10,36,94,80,"颗粒物(PM10),细颗粒物(PM2.5)"
兰州市,庄浪东路808号,103.629272,36.093822,2026-02-04T0000,52,93,0.8,47,11,47,82,72,"颗粒物(PM10),细颗粒物(PM2.5)"
兰州市,安宁西路88号,103.7251,36.104344,2026-02-04T0000,57,113,0.9,45,12,38,93,82,颗粒物(PM10)
兰州市,北滨河东路1号,103.846982,36.067567,2026-02-04T0000,54,119,1.2,86,12,1,96,85,颗粒物(PM10)
廊坊市,药材公司,116.6712,39.5109,2026-02-04T0000,160,194,1.4,98,8,8,82,210,细颗粒物(PM2.5)
廊坊市,开发区,116.7215,39.5592,2026-02-04T0000,150,184,1.4,99,9,10,79,200,细颗粒物(PM2.5)
廊坊市,北华航天学院,116.7246,39.5273,2026-02-04T0000,152,187,1.4,102,12,7,82,202,细颗粒物(PM2.5)
廊坊市,河北工业大学,116.7022,39.5454,2026-02-04T0000,142,178,1.4,84,9,20,84,189,细颗粒物(PM2.5)
乐山市,牛耳桥,103.7629,29.5844,2026-02-04T0000,78,111,1.2,54,6,9,83,104,细颗粒物(PM2.5)
乐山市,市第三水厂,103.7501,29.6002,2026-02-04T0000,96,120,1.0,51,5,29,84,127,细颗粒物(PM2.5)
乐山市,市监测站,103.7571,29.5664,2026-02-04T0000,90,126,1.0,38,7,30,80,119,细颗粒物(PM2.5)
乐山市,理工大学,103.7313,29.563,2026-02-04T0000,87,124,1.0,35,3,27,86,115,细颗粒物(PM2.5)
丽江市,丽江古城,100.2497,26.8802,2026-02-04T0000,3,18,0.5,9,10,74,83,24,
丽江市,市中心,100.2203,26.8906,2026-02-04T0000,6,8,0.3,10,5,74,85,24,
丽水市,监测站大楼,119.9141,28.4513,2026-02-04T0000,27,43,0.3,12,4,91,98,43,
丽水市,莲都小学,119.93,28.4589,2026-02-04T0000,25,42,/,12,/,92,104,42,
丽水市,余庄前,119.8794,28.4232,2026-02-04T0000,22,43,0.3,11,4,91,100,43,
连云港市,市环境监测站,119.1759,34.5885,2026-02-04T0000,92,112,0.7,23,12,70,91,122,细颗粒物(PM2.5)
连云港市,德源药业,119.3577,34.6971,2026-02-04T0000,85,114,1.2,26,7,73,86,113,细颗粒物(PM2.5)
连云港市,新城一中,119.178,34.8442,2026-02-04T0000,92,115,1.0,38,11,73,97,122,细颗粒物(PM2.5)
连云港市,胡沟管理处,119.3607,34.7519,2026-02-04T0000,75,102,0.8,16,10,95,94,100,细颗粒物(PM2.5)
连云港市,矿山设计院,119.1478,34.5913,2026-02-04T0000,90,117,1.0,33,8,65,96,119,细颗粒物(PM2.5)
连云港市,工贸学校,119.2414,34.6539,2026-02-04T0000,87,111,0.7,20,13,94,100,115,细颗粒物(PM2.5)
连云港市,连云街道,119.4171,34.734,2026-02-04T0000,85,123,0.9,21,8,97,99,113,细颗粒物(PM2.5)
凉山彝族自治州,西昌市政府,102.2629,27.8981,2026-02-04T0000,11,26,0.7,10,11,70,87,26,
凉山彝族自治州,凉山州政府,102.2686,27.885,2026-02-04T0000,8,26,0.8,10,16,71,82,26,
凉山彝族自治州,凯乐南路30号,102.2342,27.8859,2026-02-04T0000,7,31,0.4,6,10,78,84,31,
辽阳市,宏伟区,123.1978,41.2036,2026-02-04T0000,85,91,0.9,13,12,94,84,113,细颗粒物(PM2.5)
辽阳市,新华园,123.1684,41.2497,2026-02-04T0000,87,94,0.6,20,13,95,88,115,细颗粒物(PM2.5)
辽阳市,滨河路,123.2355,41.2663,2026-02-04T0000,73,84,1.0,21,8,70,81,98,细颗粒物(PM2.5)
辽阳市,铁西路150号,123.153,41.2874,2026-02-04T0000,86,94,0.8,23,17,85,83,114,细颗粒物(PM2.5)
辽源市,环保局,125.1359,42.8845,2026-02-04T0000,81,84,1.3,46,9,41,81,108,细颗粒物(PM2.5)
辽源市,安宁大街333号,125.0998,42.9134,2026-02-04T0000,71,89,0.7,16,12,90,80,95,细颗粒物(PM2.5)
聊城市,区政府,115.9789,36.4372,2026-02-04T0000,94,135,1.0,29,14,66,72,124,细颗粒物(PM2.5)
聊城市,监控中心,115.9772,36.4986,2026-02-04T0000,97,128,1.0,26,9,76,80,128,细颗粒物(PM2.5)
聊城市,九州社区,116.0443,36.436,2026-02-04T0000,100,134,0.7,18,4,70,91,132,细颗粒物(PM2.5)
聊城市,星美广场,116.0564,36.4609,2026-02-04T0000,100,140,0.9,22,5,68,83,132,细颗粒物(PM2.5)
聊城市,利民路,116.0091,36.4495,2026-02-04T0000,92,131,1.0,29,11,67,76,122,细颗粒物(PM2.5)
林芝市,林芝监测站,94.3683,29.6373,2026-02-04T0000,16,16,0.4,1,5,87,91,28,
林芝市,林芝人民医院,94.3616,29.6634,2026-02-04T0000,14,16,0.3,1,6,84,88,27,
临沧市,市环保局,100.0779,23.8981,2026-02-04T0000,38,43,0.7,18,8,,98,,
临沧市,市气象局,100.0894,23.882,2026-02-04T0000,49,70,0.8,15,10,43,89,68,细颗粒物(PM2.5)
临汾市,临钢医院,111.5552,36.0791,2026-02-04T0000,81,152,1.6,66,12,6,54,108,细颗粒物(PM2.5)
临汾市,技工学校,111.4984,36.0734,2026-02-04T0000,102,142,2.0,55,21,21,59,134,细颗粒物(PM2.5)
临汾市,市委,111.5017,36.0857,2026-02-04T0000,94,149,1.4,66,20,17,59,124,细颗粒物(PM2.5)
临汾市,唐尧大酒店,111.5048,36.1015,2026-02-04T0000,79,139,1.8,72,12,12,64,105,细颗粒物(PM2.5)
临汾市,启星学校,111.4879,36.053,2026-02-04T0000,109,150,1.5,80,18,10,57,143,细颗粒物(PM2.5)
临夏回族自治州,滨河东路1号,103.2464,35.6123,2026-02-04T0000,129,225,1.9,55,8,12,93,170,细颗粒物(PM2.5)
临夏回族自治州,新华街21号,103.207136,35.599807,2026-02-04T0000,134,207,1.9,42,12,33,94,178,细颗粒物(PM2.5)
临沂市,沂河小区,118.3429,35.0532,2026-02-04T0000,83,122,0.6,28,16,71,89,110,细颗粒物(PM2.5)
临沂市,鲁南制药厂,118.2962,35.0568,2026-02-04T0000,91,129,0.6,34,19,70,86,120,细颗粒物(PM2.5)
临沂市,新光毛纺厂,118.2793,34.9976,2026-02-04T0000,97,122,0.8,37,25,58,91,128,细颗粒物(PM2.5)
临沂市,河东保险公司,118.3955,35.0889,2026-02-04T0000,85,112,0.7,30,12,81,98,113,细颗粒物(PM2.5)
临沂市,十里堡居委,118.3563,35.0215,2026-02-04T0000,88,122,0.8,37,19,68,92,117,细颗粒物(PM2.5)
临沂市,南坊新区,118.359,35.1067,2026-02-04T0000,78,107,0.8,30,14,84,95,104,细颗粒物(PM2.5)
临沂市,皇山花园小区,118.3915,35.0297,2026-02-04T0000,95,129,0.9,39,19,66,94,125,细颗粒物(PM2.5)
柳州市,柳东小学,109.4854,24.3898,2026-02-04T0000,83,102,1.1,16,9,,68,110,细颗粒物(PM2.5)
柳州市,环保监测站,109.4109,24.3304,2026-02-04T0000,97,141,1.6,72,8,2,63,128,细颗粒物(PM2.5)
柳州市,河西水厂,109.3886,24.3408,2026-02-04T0000,,,,,,,47,,
柳州市,市四中,109.4263,24.2951,2026-02-04T0000,114,128,2.1,67,9,1,62,149,细颗粒物(PM2.5)
柳州市,市九中,109.396,24.3658,2026-02-04T0000,104,139,1.3,51,14,12,53,137,细颗粒物(PM2.5)
柳州市,古亭山,109.4912,24.3164,2026-02-04T0000,53,64,0.7,57,7,0,70,73,细颗粒物(PM2.5)
柳州市,市二中,109.5422,24.3994,2026-02-04T0000,84,88,1.0,38,9,14,72,112,细颗粒物(PM2.5)
六安市,监测大楼,116.5078,31.7369,2026-02-04T0000,57,94,0.6,32,3,45,87,78,细颗粒物(PM2.5)
六安市,皖西学院,116.4738,31.7642,2026-02-04T0000,73,99,0.7,36,4,41,92,98,细颗粒物(PM2.5)
六安市,朝阳厂,116.4997,31.7904,2026-02-04T0000,66,89,0.7,43,4,41,91,89,细颗粒物(PM2.5)
六安市,开发区,116.5566,31.7885,2026-02-04T0000,72,100,0.6,32,6,51,97,97,细颗粒物(PM2.5)
六盘水市,黄土坡,104.8293,26.592,2026-02-04T0000,24,36,1.3,20,10,31,43,36,
六盘水市,民中,104.8481,26.5898,2026-02-04T0000,22,28,0.9,11,4,37,43,32,
六盘水市,双水,104.9541,26.5506,2026-02-04T0000,7,14,0.7,8,3,38,48,14,
六盘水市,钟山大道中段564号,104.8899,26.5685,2026-02-04T0000,18,25,1.3,10,10,32,41,26,
龙岩市,龙岩市监测站,117.022,25.1031,2026-02-04T0000,33,42,0.8,52,8,23,92,48,
龙岩市,闽西职业技术学院,117.0257,25.0662,2026-02-04T0000,36,,0.7,29,6,74,95,52,细颗粒物(PM2.5)
龙岩市,龙岩学院,117.0195,25.0306,2026-02-04T0000,18,24,/,12,3,53,92,26,
陇南市,滨江中学,104.9344,33.3827,2026-02-04T0000,38,73,1.3,15,6,50,69,62,颗粒物(PM10)
陇南市,市总工会,104.9551,33.3709,2026-02-04T0000,34,54,1.0,13,2,52,66,52,颗粒物(PM10)
娄底市,市监测站,111.9984,27.7346,2026-02-04T0000,65,96,1.0,28,8,56,92,88,细颗粒物(PM2.5)
娄底市,市政府,111.9888,27.7035,2026-02-04T0000,64,95,0.5,40,5,25,74,87,细颗粒物(PM2.5)
娄底市,涟钢职大,111.9812,27.7591,2026-02-04T0000,58,110,1.1,39,5,35,92,80,颗粒物(PM10)
娄底市,娄底体校,112.0303,27.7457,2026-02-04T0000,65,101,0.6,30,2,21,82,88,细颗粒物(PM2.5)
泸州市,小市上码头,105.4427,28.9063,2026-02-04T0000,101,120,1.4,48,6,9,58,133,细颗粒物(PM2.5)
泸州市,兰田宪桥,105.4241,28.8573,2026-02-04T0000,62,94,1.0,37,8,15,50,84,细颗粒物(PM2.5)
泸州市,市环监站,105.4378,28.8833,2026-02-04T0000,90,130,1.0,46,10,17,50,119,细颗粒物(PM2.5)
泸州市,纳溪中医医院,105.3689,28.7783,2026-02-04T0000,60,,1.2,36,8,13,48,82,细颗粒物(PM2.5)
吕梁市,环保局,111.1447,37.5212,2026-02-04T0000,41,102,0.6,65,4,5,62,76,颗粒物(PM10)
吕梁市,自来水公司,111.1285,37.5338,2026-02-04T0000,43,108,0.5,56,8,8,74,79,颗粒物(PM10)
吕梁市,马茂庄小学,111.1225,37.5093,2026-02-04T0000,38,101,0.6,70,5,3,60,76,颗粒物(PM10)
洛阳市,市委党校,112.3934,34.6517,2026-02-04T0000,89,127,1.2,52,7,28,87,118,细颗粒物(PM2.5)
洛阳市,河南林校,112.494,34.6883,2026-02-04T0000,104,153,1.1,82,10,5,89,137,细颗粒物(PM2.5)
洛阳市,开发区管委会,112.3843,34.623,2026-02-04T0000,103,163,1.0,48,10,25,88,135,细颗粒物(PM2.5)
洛阳市,市委新办公区,112.4263,34.6249,2026-02-04T0000,111,174,1.1,58,8,16,58,145,细颗粒物(PM2.5)
洛阳市,伊滨,112.6005,34.6323,2026-02-04T0000,106,225,1.1,68,7,17,87,139,细颗粒物(PM2.5)
洛阳市,中移产业园,112.495,34.6338,2026-02-04T0000,100,131,1.1,41,11,42,86,132,细颗粒物(PM2.5)
洛阳市,吉利监测站,112.5736,34.8993,2026-02-04T0000,86,94,0.8,36,7,53,97,114,细颗粒物(PM2.5)
洛阳市,河科大西苑校区,112.3678,34.6623,2026-02-04T0000,102,128,1.1,41,9,33,96,134,细颗粒物(PM2.5)
洛阳市,英才小学,112.4387,34.678,2026-02-04T0000,130,207,1.3,91,10,4,94,172,细颗粒物(PM2.5)
洛阳市,春都路1号院,112.460027,34.694929,2026-02-04T0000,102,172,1.1,75,9,8,84,134,细颗粒物(PM2.5)
漯河市,三五一五工厂,114.051,33.5721,2026-02-04T0000,97,148,1.0,47,5,15,90,128,细颗粒物(PM2.5)
漯河市,漯河大学,114.0055,33.5698,2026-02-04T0000,101,131,0.9,55,8,8,92,133,细颗粒物(PM2.5)
漯河市,市水利局,114.0134,33.5826,2026-02-04T0000,87,136,0.7,46,9,19,78,115,细颗粒物(PM2.5)
漯河市,市广电局,114.0261,33.5697,2026-02-04T0000,134,,0.7,40,6,18,84,178,细颗粒物(PM2.5)
漯河市,市图书馆,113.9691,33.568,2026-02-04T0000,93,141,1.0,40,17,26,82,123,细颗粒物(PM2.5)
漯河市,韶山路11号,114.089259,33.588274,2026-02-04T0000,89,146,0.8,41,6,22,89,118,细颗粒物(PM2.5)
马鞍山市,湖东路四小,118.5084,31.6838,2026-02-04T0000,85,115,0.6,38,14,61,109,113,细颗粒物(PM2.5)
马鞍山市,开发区,118.5019,31.6449,2026-02-04T0000,90,125,0.7,50,17,47,109,119,细颗粒物(PM2.5)
马鞍山市,雨山,118.4914,31.681,2026-02-04T0000,83,123,0.7,37,18,66,109,110,细颗粒物(PM2.5)
马鞍山市,慈湖高新区,118.527362,31.722269,2026-02-04T0000,85,120,0.8,50,9,53,103,113,细颗粒物(PM2.5)
茂名市,电白南海,111.0285,21.469,2026-02-04T0000,15,46,1.0,10,8,98,116,46,
茂名市,茂石化七小,110.9294,21.6533,2026-02-04T0000,18,44,0.5,12,6,88,112,44,
茂名市,健康路,110.9108,21.6688,2026-02-04T0000,16,36,0.6,13,4,102,132,36,
茂名市,高岭,110.8592,21.6826,2026-02-04T0000,19,51,/,14,6,94,120,51,颗粒物(PM10)
茂名市,电白水东,111.0101,21.5165,2026-02-04T0000,16,31,/,17,8,99,115,31,
眉山市,气象局,103.8414,30.0871,2026-02-04T0000,102,157,1.2,38,19,24,90,134,细颗粒物(PM2.5)
眉山市,区人社局,103.829,30.0563,2026-02-04T0000,118,126,0.9,34,16,23,80,155,细颗粒物(PM2.5)
眉山市,眉职院,103.8836,30.0695,2026-02-04T0000,128,182,1.2,42,5,16,82,169,细颗粒物(PM2.5)
梅州市,梅江月梅,116.1248,24.3307,2026-02-04T0000,42,52,/,35,/,77,98,59,细颗粒物(PM2.5)
梅州市,梅县新城,116.0798,24.2719,2026-02-04T0000,33,55,0.7,40,7,32,89,53,颗粒物(PM10)
梅州市,梅龙,116.1234,24.2994,2026-02-04T0000,45,70,0.8,27,14,81,89,63,细颗粒物(PM2.5)
绵阳市,富乐山,104.7775,31.4741,2026-02-04T0000,59,83,0.9,45,8,18,54,80,细颗粒物(PM2.5)
绵阳市,高新区自来水公司,104.6698,31.4668,2026-02-04T0000,79,120,1.1,61,9,0,50,105,细颗粒物(PM2.5)
绵阳市,西科大附属小学,104.6899,31.5324,2026-02-04T0000,75,116,0.9,58,9,1,52,100,细颗粒物(PM2.5)
绵阳市,安州区旅游局,104.5647,31.5343,2026-02-04T0000,70,119,1.4,48,10,4,44,94,细颗粒物(PM2.5)
绵阳市,科技城新区公安局,104.7092,31.4972,2026-02-04T0000,70,122,1.1,63,5,9,58,94,细颗粒物(PM2.5)
绵阳市,绵阳市气象局,104.765114,31.453094,2026-02-04T0000,70,107,1.0,51,8,12,53,94,细颗粒物(PM2.5)
牡丹江市,环保大楼,129.61,44.561,2026-02-04T0000,56,93,1.0,52,6,21,83,77,细颗粒物(PM2.5)
牡丹江市,机车工厂,129.6364,44.6075,2026-02-04T0000,69,105,1.1,61,11,3,72,93,细颗粒物(PM2.5)
牡丹江市,第一中学,129.6386,44.5462,2026-02-04T0000,37,53,0.7,47,6,23,81,53,细颗粒物(PM2.5)
牡丹江市,东晓云街98号,129.5992,44.5964,2026-02-04T0000,62,81,0.9,41,9,25,68,84,细颗粒物(PM2.5)
内江市,市监测站,105.0703,29.61,2026-02-04T0000,66,76,1.1,16,6,63,95,89,细颗粒物(PM2.5)
内江市,内江二中,105.0657,29.5807,2026-02-04T0000,69,133,0.8,18,6,,81,,
内江市,内江日报社,105.0407,29.5828,2026-02-04T0000,67,78,1.0,22,7,57,88,90,细颗粒物(PM2.5)
内江市,玉峰路西段888号,105.0433,29.6105,2026-02-04T0000,67,74,0.7,21,4,53,86,90,细颗粒物(PM2.5)
那曲市,那曲监测站,92.0653,31.4846,2026-02-04T0000,28,45,1.1,27,12,40,70,45,
那曲市,那曲市委宣传部,92.0515,31.4787,2026-02-04T0000,27,,1.3,29,11,34,78,39,
南昌市,省林业公司,115.8887,28.7006,2026-02-04T0000,29,48,0.4,51,3,22,53,48,
南昌市,林科所,115.813,28.7443,2026-02-04T0000,39,75,,63,8,0,58,,
南昌市,建工学校,115.8518,28.687,2026-02-04T0000,32,60,0.6,56,8,13,63,55,颗粒物(PM10)
南昌市,象湖,115.8926,28.6425,2026-02-04T0000,34,59,0.8,43,7,21,55,55,颗粒物(PM10)
南昌市,机电学校,115.9084,28.6062,2026-02-04T0000,35,63,0.5,37,4,35,59,57,颗粒物(PM10)
南昌市,外国语学校,115.9718,28.7032,2026-02-04T0000,34,62,0.6,43,13,27,62,56,颗粒物(PM10)
南昌市,工业二路,115.7923,28.6873,2026-02-04T0000,38,73,0.7,56,4,18,66,62,颗粒物(PM10)
南昌市,南京东路235号,115.931587,28.686774,2026-02-04T0000,34,68,0.5,37,8,27,63,59,颗粒物(PM10)
南充市,南充市委,106.0791,30.8022,2026-02-04T0000,59,86,0.8,44,4,11,43,80,细颗粒物(PM2.5)
南充市,南充炼油厂,106.1038,30.8215,2026-02-04T0000,53,90,0.8,31,6,27,53,73,细颗粒物(PM2.5)
南充市,梨树横街98号,106.108336,30.788436,2026-02-04T0000,63,98,0.8,48,7,22,56,85,细颗粒物(PM2.5)
南充市,清泉寺北路188号,106.1172,30.843,2026-02-04T0000,55,77,0.6,24,3,34,68,75,细颗粒物(PM2.5)
南充市,同庆路1号,106.067,30.7616,2026-02-04T0000,56,79,1.0,67,6,7,52,77,细颗粒物(PM2.5)
南京市,迈皋桥,118.8033,32.1085,2026-02-04T0000,58,83,0.5,32,7,73,103,79,细颗粒物(PM2.5)
南京市,草场门,118.7487,32.057,2026-02-04T0000,61,83,0.7,36,4,59,78,83,细颗粒物(PM2.5)
南京市,中华门,118.770105,32.004342,2026-02-04T0000,68,92,0.5,17,4,84,113,92,细颗粒物(PM2.5)
南京市,瑞金路,118.8059,32.0329,2026-02-04T0000,64,88,0.9,15,4,108,154,87,细颗粒物(PM2.5)
南京市,玄武湖,118.7946,32.0774,2026-02-04T0000,65,78,0.6,20,7,92,106,88,细颗粒物(PM2.5)
南京市,浦口,118.6415,32.0964,2026-02-04T0000,75,100,0.4,34,5,77,99,100,细颗粒物(PM2.5)
南京市,奥体中心,118.730129,32.000956,2026-02-04T0000,67,96,0.5,27,5,87,122,90,细颗粒物(PM2.5)
南京市,仙林大学城,118.9072,32.1047,2026-02-04T0000,69,90,0.6,26,6,83,112,93,细颗粒物(PM2.5)
南京市,江宁彩虹桥,118.8443,31.919,2026-02-04T0000,68,99,0.8,35,3,79,113,92,细颗粒物(PM2.5)
南京市,六合雄州,118.8497,32.3599,2026-02-04T0000,65,93,0.7,39,12,74,101,88,细颗粒物(PM2.5)
南京市,新模范马路66号,118.7641,32.0841,2026-02-04T0000,68,92,0.8,16,5,112,138,92,细颗粒物(PM2.5)
南京市,汶溪路181号,118.8707617,31.34017673,2026-02-04T0000,71,124,0.8,34,8,58,111,95,细颗粒物(PM2.5)
南京市,中山西路1号,119.019,31.6512,2026-02-04T0000,50,66,0.7,29,4,63,96,69,细颗粒物(PM2.5)
南宁市,二十一中,108.3098,22.788,2026-02-04T0000,98,128,1.1,87,4,0,94,129,细颗粒物(PM2.5)
南宁市,北湖,108.3135,22.8529,2026-02-04T0000,94,138,1.2,96,10,0,103,124,细颗粒物(PM2.5)
南宁市,市监测站,108.3205,22.8222,2026-02-04T0000,94,135,1.9,104,8,0,97,124,细颗粒物(PM2.5)
南宁市,大自然花园,108.3828,22.8038,2026-02-04T0000,63,77,1.1,37,6,51,115,85,细颗粒物(PM2.5)
南宁市,区农职院,108.2397,22.8462,2026-02-04T0000,43,60,1.3,55,3,11,94,60,细颗粒物(PM2.5)
南宁市,英华嘉园,108.3285,22.7356,2026-02-04T0000,65,98,0.8,76,4,10,101,88,细颗粒物(PM2.5)
南宁市,红星社区,108.4829,22.762,2026-02-04T0000,91,106,1.4,66,5,13,126,120,细颗粒物(PM2.5)
南宁市,起凤路9号,108.2927,23.1477,2026-02-04T0000,81,116,0.8,58,2,9,109,108,细颗粒物(PM2.5)
南宁市,乐贤路16号,108.2177,22.7774,2026-02-04T0000,60,100,1.1,68,3,0,93,82,细颗粒物(PM2.5)
南平市,南平市监测站,118.1682,26.6371,2026-02-04T0000,28,40,0.6,16,4,59,92,40,
南平市,南平七中,118.1757,26.6276,2026-02-04T0000,30,38,0.7,25,5,51,92,43,
南通市,狼山街道,120.9056,31.9669,2026-02-04T0000,21,38,0.4,48,4,40,89,38,
南通市,城中,120.8635,32.0231,2026-02-04T0000,21,51,0.6,46,5,40,91,51,颗粒物(PM10)
南通市,星湖花园,120.9376,31.9301,2026-02-04T0000,20,37,0.4,53,5,44,94,37,
南通市,紫琅学院,120.8053,32.046,2026-02-04T0000,31,50,0.7,63,8,28,82,50,
南通市,通州监测站,121.0631,32.0644,2026-02-04T0000,21,34,0.4,30,3,62,106,34,
南通市,环境教育馆,120.9348,31.9874,2026-02-04T0000,24,48,0.6,68,4,21,94,48,
南通市,洪江路,120.8692,31.9885,2026-02-04T0000,21,41,0.4,66,5,24,82,41,
南阳市,瓦房庄,112.5338,33.0086,2026-02-04T0000,68,100,1.0,20,4,59,88,92,细颗粒物(PM2.5)
南阳市,汉画馆,112.5002,32.9734,2026-02-04T0000,97,118,1.0,32,7,50,85,128,细颗粒物(PM2.5)
南阳市,气象站,112.5778,33.0144,2026-02-04T0000,56,125,1.0,24,6,,86,,
南阳市,理工学院,112.548,32.9687,2026-02-04T0000,66,114,0.9,28,6,56,83,89,细颗粒物(PM2.5)
南阳市,卧龙区政府,112.5233,32.9921,2026-02-04T0000,63,132,0.9,23,6,52,84,91,颗粒物(PM10)
宁波市,区环保大楼,121.8352,29.9111,2026-02-04T0000,3,17,0.3,23,5,80,89,25,
宁波市,万里学院,121.5595,29.8208,2026-02-04T0000,13,30,0.6,57,2,42,106,30,
宁波市,龙赛医院,121.713,29.9564,2026-02-04T0000,7,18,0.4,22,2,76,86,24,
宁波市,太古小学,121.5855,29.8635,2026-02-04T0000,10,22,0.4,18,2,76,107,24,
宁波市,市环境监测中心,121.5239,29.8673,2026-02-04T0000,11,37,0.4,24,7,65,97,37,
宁波市,万里国际学校,121.6156,29.9015,2026-02-04T0000,8,30,0.2,17,3,84,102,30,
宁波市,白沙活动中心,121.5593,29.8976,2026-02-04T0000,12,36,0.3,24,3,72,106,36,
宁波市,中科路88号,121.8962,29.7529,2026-02-04T0000,20,35,0.3,22,6,76,108,35,
宁德市,宁德市监测站,119.5387,26.6611,2026-02-04T0000,14,31,0.5,15,4,65,102,31,
宁德市,宁德一中,119.5231,26.6562,2026-02-04T0000,16,27,0.4,10,2,67,103,27,
怒江傈僳族自治州,州监测站,98.859,25.8541,2026-02-04T0000,28,50,0.6,23,3,32,81,50,
怒江傈僳族自治州,泸水一中,98.8607,25.8168,2026-02-04T0000,28,28,0.8,29,4,21,70,40,
攀枝花市,弄弄坪,101.6891,26.571,2026-02-04T0000,18,58,1.6,59,40,10,82,54,颗粒物(PM10)
攀枝花市,河门口,101.577,26.5914,2026-02-04T0000,20,47,0.8,25,31,28,83,47,
攀枝花市,仁和,101.7365,26.4986,2026-02-04T0000,12,23,0.6,22,8,30,80,23,
攀枝花市,四十中小,101.7222,26.567,2026-02-04T0000,34,59,1.1,61,13,18,72,55,颗粒物(PM10)
盘锦市,开发区,122.0303,41.1489,2026-02-04T0000,89,,,19,8,77,71,118,细颗粒物(PM2.5)
盘锦市,兴隆台,122.0486,41.0883,2026-02-04T0000,66,,0.7,24,6,74,70,89,细颗粒物(PM2.5)
盘锦市,新生街道,121.8297,41.1026,2026-02-04T0000,70,,0.5,24,6,62,62,94,细颗粒物(PM2.5)
平顶山市,新华旅馆,113.3257,33.7423,2026-02-04T0000,75,112,0.6,24,6,77,92,100,细颗粒物(PM2.5)
平顶山市,规划设计院,113.2917,33.737,2026-02-04T0000,74,130,0.6,16,6,76,88,99,细颗粒物(PM2.5)
平顶山市,平顶山工学院,113.182,33.7738,2026-02-04T0000,83,114,0.7,19,8,73,94,110,细颗粒物(PM2.5)
平顶山市,石龙区,112.8736,33.9068,2026-02-04T0000,80,148,0.9,80,6,8,96,107,细颗粒物(PM2.5)
平顶山市,姚电大道23号,113.284,33.7139,2026-02-04T0000,87,129,0.7,27,8,66,86,115,细颗粒物(PM2.5)
平凉市,聚贤嘉苑,106.6633,35.5338,2026-02-04T0000,50,101,1.1,23,11,18,73,76,颗粒物(PM10)
平凉市,博物馆,106.7021,35.5307,2026-02-04T0000,61,115,1.0,38,11,27,81,83,"颗粒物(PM10),细颗粒物(PM2.5)"
萍乡市,中医院,113.8384,27.6436,2026-02-04T0000,44,77,0.7,19,22,74,110,64,颗粒物(PM10)
萍乡市,市环保局,113.8677,27.6438,2026-02-04T0000,51,76,0.5,18,28,72,118,70,细颗粒物(PM2.5)
萍乡市,安源区政府,113.8663,27.6202,2026-02-04T0000,47,87,0.6,30,8,49,88,69,颗粒物(PM10)
萍乡市,联洪村委会,113.8686,27.6668,2026-02-04T0000,46,87,0.4,18,16,60,90,69,颗粒物(PM10)
莆田市,荔城区仓后路,119.0142,25.4324,2026-02-04T0000,14,36,/,10,/,83,104,36,
莆田市,莆田市监测站,119.0016,25.4553,2026-02-04T0000,14,27,0.4,6,3,91,109,29,
莆田市,涵江区六中,119.112,25.4561,2026-02-04T0000,15,35,0.5,13,/,80,107,35,
莆田市,秀屿区政府,119.1014,25.3215,2026-02-04T0000,17,32,0.5,14,3,81,110,32,
濮阳市,环保局,115.0312,35.7636,2026-02-04T0000,56,75,0.7,14,6,80,97,77,细颗粒物(PM2.5)
濮阳市,濮水河管理处,115,35.7667,2026-02-04T0000,62,106,0.6,16,6,69,96,84,细颗粒物(PM2.5)
濮阳市,中原东路68号,115.0552,35.7816,2026-02-04T0000,65,109,0.9,22,6,80,98,88,细颗粒物(PM2.5)
濮阳市,任丘路479号,115.0923632,35.76857718,2026-02-04T0000,69,108,0.7,28,7,69,91,93,细颗粒物(PM2.5)
普洱市,市环保局,100.9801,22.7634,2026-02-04T0000,33,60,0.6,11,4,42,84,55,颗粒物(PM10)
普洱市,普洱第二中学,100.9763,22.8237,2026-02-04T0000,30,55,0.6,12,5,42,85,53,颗粒物(PM10)
七台河市,中波台,131.0413,45.7795,2026-02-04T0000,53,64,0.8,19,11,61,84,73,细颗粒物(PM2.5)
七台河市,人民广场,131.0136,45.7688,2026-02-04T0000,54,69,0.8,26,9,64,81,74,细颗粒物(PM2.5)
七台河市,新建矿广场,130.8639,45.8144,2026-02-04T0000,56,70,0.7,22,7,55,79,77,细颗粒物(PM2.5)
齐齐哈尔市,安居小区,123.9307,47.3641,2026-02-04T0000,6,23,0.4,8,10,72,72,23,
齐齐哈尔市,中心广场,123.9497,47.3389,2026-02-04T0000,7,17,0.4,6,6,77,68,25,
齐齐哈尔市,农牧车辆厂,123.9483,47.3229,2026-02-04T0000,8,14,0.2,4,5,76,71,24,
齐齐哈尔市,市环境监测站,123.9442,47.2994,2026-02-04T0000,3,33,0.3,6,4,80,74,33,
齐齐哈尔市,富区青少年活动中心,123.6341,47.2079,2026-02-04T0000,16,22,0.4,6,6,69,77,23,
黔东南苗族侗族自治州,市环境监测站,107.9765,26.5724,2026-02-04T0000,55,89,0.8,17,7,43,64,75,细颗粒物(PM2.5)
黔东南苗族侗族自治州,凯里学院,107.8909,26.531,2026-02-04T0000,43,85,0.8,14,4,51,63,68,颗粒物(PM10)
黔南布依族苗族自治州,小围寨,107.5223,26.2371,2026-02-04T0000,39,53,1.0,19,4,9,48,55,细颗粒物(PM2.5)
黔南布依族苗族自治州,沙坝,107.5175,26.2977,2026-02-04T0000,48,61,1.0,25,4,6,55,67,细颗粒物(PM2.5)
黔西南布依族苗族自治州,场坝街,104.9022,25.0943,2026-02-04T0000,28,31,0.8,8,2,35,35,40,
黔西南布依族苗族自治州,坪东大道,104.8812,25.0994,2026-02-04T0000,26,39,0.9,7,4,35,34,39,
钦州市,市环保站,108.6238,21.9667,2026-02-04T0000,38,66,1.0,30,5,67,136,58,颗粒物(PM10)
钦州市,沙埠小学,108.655,21.9481,2026-02-04T0000,42,63,0.6,46,7,55,142,59,细颗粒物(PM2.5)
钦州市,港区一小,108.5989,21.7435,2026-02-04T0000,27,88,1.5,31,5,102,122,69,颗粒物(PM10)
钦州市,北职校,108.5959,21.9634,2026-02-04T0000,33,49,0.7,34,5,52,138,49,
秦皇岛市,建设大厦,119.5247,39.9346,2026-02-04T0000,152,192,1.7,60,18,38,81,202,细颗粒物(PM2.5)
秦皇岛市,文明里,119.5979,39.938,2026-02-04T0000,128,205,1.4,59,19,44,74,169,细颗粒物(PM2.5)
秦皇岛市,南园路157号,119.7458,39.9952,2026-02-04T0000,134,192,1.5,90,18,25,67,178,细颗粒物(PM2.5)
秦皇岛市,翠岛大街1号,119.5131,39.8858,2026-02-04T0000,154,177,1.7,94,16,2,72,204,细颗粒物(PM2.5)
秦皇岛市,北戴河轮滑馆,119.509013,39.825305,2026-02-04T0000,130,195,1.5,62,12,45,64,172,细颗粒物(PM2.5)
青岛市,市南区东部子站,120.404,36.0625,2026-02-04T0000,66,92,0.6,18,9,86,75,89,细颗粒物(PM2.5)
青岛市,四方区子站,120.362344,36.10282,2026-02-04T0000,74,75,0.9,19,4,93,78,99,细颗粒物(PM2.5)
青岛市,市南区西部子站,120.294373,36.054183,2026-02-04T0000,72,83,0.7,25,4,88,76,97,细颗粒物(PM2.5)
青岛市,崂山区子站,120.4581,36.0858,2026-02-04T0000,63,88,0.6,35,10,64,75,85,细颗粒物(PM2.5)
青岛市,城阳区子站,120.3945,36.3083,2026-02-04T0000,83,95,0.8,26,7,88,70,110,细颗粒物(PM2.5)
青岛市,市北区南部,120.3454,36.0735,2026-02-04T0000,66,94,0.7,16,1,88,77,89,细颗粒物(PM2.5)
青岛市,李沧区北部,120.3897,36.18,2026-02-04T0000,80,105,0.8,38,8,72,66,107,细颗粒物(PM2.5)
青岛市,盟旺路653号,120.5222,36.4089,2026-02-04T0000,82,120,0.9,18,4,95,82,109,细颗粒物(PM2.5)
青岛市,珠江路669号,120.196923,35.954556,2026-02-04T0000,71,80,0.6,15,4,94,83,95,细颗粒物(PM2.5)
青岛市,黄岛区人民政府广场,120.0424,35.8656,2026-02-04T0000,102,146,1.5,72,8,18,74,134,细颗粒物(PM2.5)
清远市,凤城街办,113.0218,23.7086,2026-02-04T0000,28,54,/,39,/,66,115,52,颗粒物(PM10)
清远市,技师学院,113.0479,23.6343,2026-02-04T0000,55,111,0.9,93,6,5,119,81,颗粒物(PM10)
清远市,清新太和,112.9898,23.7403,2026-02-04T0000,30,57,0.6,24,9,118,129,54,颗粒物(PM10)
清远市,清城东城,113.076,23.72,2026-02-04T0000,26,63,/,25,/,57,113,57,颗粒物(PM10)
庆阳市,庆阳五中,107.6325,35.7357,2026-02-04T0000,44,97,0.7,16,6,77,96,74,颗粒物(PM10)
庆阳市,市环保局,107.6361,35.7067,2026-02-04T0000,48,95,0.8,12,5,85,94,73,颗粒物(PM10)
曲靖市,环境监测站,103.7897,25.5036,2026-02-04T0000,20,35,0.6,11,5,76,96,35,
曲靖市,烟厂办公区,103.8013,25.5357,2026-02-04T0000,20,35,0.4,9,4,77,91,35,
曲靖市,南苑二区,103.7926,25.4651,2026-02-04T0000,16,32,0.2,6,4,87,125,32,
曲靖市,曲靖师范学院,103.7442,25.5259,2026-02-04T0000,,,0.4,14,7,,90,,
衢州市,环保大楼,118.8694,28.94,2026-02-04T0000,68,86,/,60,/,22,94,92,细颗粒物(PM2.5)
衢州市,衢州学院,118.8622,28.9809,2026-02-04T0000,46,64,0.7,41,5,35,97,64,细颗粒物(PM2.5)
衢州市,衢州三中,118.9646,28.9832,2026-02-04T0000,46,73,0.4,52,5,32,87,64,细颗粒物(PM2.5)
泉州市,涂山街,118.5818,24.9116,2026-02-04T0000,18,36,0.5,11,2,81,108,36,
泉州市,津头埔,118.597,24.8976,2026-02-04T0000,17,36,0.4,13,2,80,108,36,
泉州市,万安,118.6669,24.9422,2026-02-04T0000,16,40,0.4,16,3,,102,,
泉州市,霞新路6号,118.6355,24.9148,2026-02-04T0000,17,32,0.5,23,/,68,104,32,
日喀则市,日喀则监测站,88.8873,29.2723,2026-02-04T0000,6,18,0.3,2,6,80,90,25,
日喀则市,林业技术推广中心,88.8775,29.2425,2026-02-04T0000,3,19,0.5,3,5,82,84,26,
日照市,监测站,119.4711,35.421,2026-02-04T0000,103,134,1.5,81,13,1,63,135,细颗粒物(PM2.5)
日照市,市政府广场,119.523,35.4216,2026-02-04T0000,98,141,1.6,69,19,34,56,129,细颗粒物(PM2.5)
日照市,港务局,119.5511,35.4113,2026-02-04T0000,99,146,1.5,90,14,18,51,130,细颗粒物(PM2.5)
日照市,职业技术学院,119.5326,35.4627,2026-02-04T0000,99,134,1.6,57,14,40,66,130,细颗粒物(PM2.5)
日照市,岚山环保分局,119.3267,35.1043,2026-02-04T0000,81,127,1.0,82,12,29,72,108,细颗粒物(PM2.5)
三门峡市,市政府,111.1922,34.7752,2026-02-04T0000,66,85,0.8,68,11,0,96,89,细颗粒物(PM2.5)
三门峡市,开发区,111.1588,34.794,2026-02-04T0000,64,104,0.7,51,8,20,88,87,细颗粒物(PM2.5)
三门峡市,三门峡市第一小学,111.1911,34.7829,2026-02-04T0000,74,96,0.9,75,11,0,88,99,细颗粒物(PM2.5)
三门峡市,富达温泉假日酒店,111.1031,34.719,2026-02-04T0000,76,80,0.9,48,11,24,81,102,细颗粒物(PM2.5)
三明市,三钢,117.621,26.2626,2026-02-04T0000,30,36,1.1,33,5,32,95,43,
三明市,三明二中,117.6352,26.2714,2026-02-04T0000,27,30,0.7,33,1,30,93,39,
三明市,三元区政府,117.6028,26.2377,2026-02-04T0000,27,41,0.8,31,3,24,95,41,
三亚市,河西子站,109.4962,18.2682,2026-02-04T0000,14,30,0.4,6,1,88,95,30,
三亚市,君悦子站,109.7348,18.3443,2026-02-04T0000,15,31,0.3,8,6,80,96,31,
三亚市,城东小学站,109.1714,18.3739,2026-02-04T0000,24,29,/,9,/,105,112,35,
山南市,山南监测站,91.7592,29.234,2026-02-04T0000,6,12,0.3,2,4,78,81,25,
山南市,山南人民医院,91.7701,29.2436,2026-02-04T0000,11,18,0.4,1,7,77,80,25,
汕头市,金平子站,116.6795,23.3666,2026-02-04T0000,30,51,0.7,15,4,98,131,51,颗粒物(PM10)
汕头市,龙湖子站,116.7248,23.3632,2026-02-04T0000,31,56,/,10,9,97,123,53,颗粒物(PM10)
汕头市,濠江子站,116.7257,23.2774,2026-02-04T0000,28,42,/,14,7,92,125,42,
汕头市,澄海子站,116.7518,23.4712,2026-02-04T0000,24,49,0.8,9,6,94,121,49,
汕头市,潮阳子站,116.6088,23.2539,2026-02-04T0000,26,46,0.6,9,6,98,129,46,
汕头市,潮南峡山,116.4539,23.2684,2026-02-04T0000,33,53,0.7,12,6,100,133,52,颗粒物(PM10)
汕头市,潮南子站,116.4069,23.2533,2026-02-04T0000,33,66,/,16,6,86,119,58,颗粒物(PM10)
汕尾市,市环保局,115.3653,22.7751,2026-02-04T0000,35,61,0.8,11,8,112,128,56,颗粒物(PM10)
汕尾市,新城中学,115.362,22.7926,2026-02-04T0000,38,63,0.7,13,6,102,130,57,颗粒物(PM10)
商洛市,监测站,109.9155,33.8714,2026-02-04T0000,52,79,0.9,25,6,50,105,72,细颗粒物(PM2.5)
商洛市,商州区中学,109.9647,33.8486,2026-02-04T0000,49,73,0.9,57,6,10,94,68,细颗粒物(PM2.5)
商丘市,环境监测站,115.6701,34.4283,2026-02-04T0000,65,83,0.4,17,3,74,109,88,细颗粒物(PM2.5)
商丘市,粮食局,115.6458,34.4047,2026-02-04T0000,69,81,0.3,21,1,70,101,93,细颗粒物(PM2.5)
商丘市,梁园区档案局,115.6069,34.4465,2026-02-04T0000,83,,0.5,17,1,65,106,110,细颗粒物(PM2.5)
商丘市,北海东路185号,115.6701,34.3767,2026-02-04T0000,69,112,0.6,46,2,36,103,93,细颗粒物(PM2.5)
商丘市,中山大街3号,115.6172,34.3704,2026-02-04T0000,65,115,0.5,28,3,53,105,88,细颗粒物(PM2.5)
上海市,普陀,121.401,31.2382,2026-02-04T0000,24,32,0.4,26,6,76,81,35,
上海市,十五厂,121.4774,31.2043,2026-02-04T0000,22,39,0.6,29,6,71,83,39,
上海市,虹口,121.4673,31.3011,2026-02-04T0000,23,33,0.3,25,7,72,76,33,
上海市,静安监测站,121.4253,31.226,2026-02-04T0000,21,32,0.5,28,7,78,86,32,
上海市,浦东川沙,121.7029,31.1905,2026-02-04T0000,22,33,0.4,23,7,73,82,33,
上海市,浦东新区监测站,121.5339,31.229,2026-02-04T0000,26,32,0.6,33,5,66,84,38,
上海市,浦东张江,121.5776,31.2038,2026-02-04T0000,22,35,0.2,36,6,63,83,35,
上海市,宝山庙行,121.4242,31.3303,2026-02-04T0000,29,36,0.4,24,8,75,76,42,
上海市,崇明上实东滩,121.8789,31.4662,2026-02-04T0000,10,13,0.6,18,4,78,102,25,
上海市,嘉定南翔,121.316,31.2839,2026-02-04T0000,21,30,0.1,34,4,67,77,30,
上海市,金山新城,121.3357,30.7455,2026-02-04T0000,16,19,0.8,22,9,76,93,24,
上海市,闵行浦江,121.4996,31.0741,2026-02-04T0000,20,28,0.4,17,6,79,84,29,
上海市,青浦徐泾,121.2886,31.1663,2026-02-04T0000,25,40,0.4,25,5,76,84,40,
上海市,松江图书馆,121.2193,31.0382,2026-02-04T0000,20,33,0.5,30,6,69,84,33,
上海市,长宁仙霞,121.3904,31.206,2026-02-04T0000,17,31,0.5,23,7,78,80,31,
上海市,浦东惠南,121.7964,31.0507,2026-02-04T0000,17,26,0.5,24,4,75,87,26,
上海市,奉贤南桥新城,121.4891,30.925,2026-02-04T0000,17,27,0.3,21,3,78,88,27,
上海市,冠生园路458号,121.417401,31.16637,2026-02-04T0000,21,30,0.3,26,4,76,76,30,
上海市,宁武路151号,121.541914,31.268301,2026-02-04T0000,26,44,0.5,39,5,58,74,44,
上饶市,市监测站,117.9758,28.4439,2026-02-04T0000,40,75,/,26,7,69,97,63,颗粒物(PM10)
上饶市,凤凰光学,117.9521,28.4637,2026-02-04T0000,44,77,0.9,31,15,63,90,64,颗粒物(PM10)
上饶市,双创科技城,117.897,28.4316,2026-02-04T0000,44,77,0.9,37,12,68,101,64,颗粒物(PM10)
上饶市,裕丰大道,118.190438,28.444845,2026-02-04T0000,47,87,0.9,28,14,77,96,69,颗粒物(PM10)
韶关市,市八中,113.5821,24.7733,2026-02-04T0000,39,85,1.0,72,10,7,101,68,颗粒物(PM10)
韶关市,园林处,113.5916,24.7973,2026-02-04T0000,46,69,/,64,7,12,106,64,细颗粒物(PM2.5)
韶关市,曲江监测站,113.5971,24.6864,2026-02-04T0000,36,64,0.8,44,8,26,97,57,颗粒物(PM10)
韶关市,大学路288号,113.6668,24.7756,2026-02-04T0000,34,66,/,18,4,47,94,58,颗粒物(PM10)
韶关市,碧湖山庄,113.5556,24.8082,2026-02-04T0000,35,67,0.7,25,8,61,107,59,颗粒物(PM10)
邵阳市,市化工厂,111.5277,27.2442,2026-02-04T0000,31,123,1.2,45,16,31,103,87,颗粒物(PM10)
邵阳市,市环保局,111.4327,27.2276,2026-02-04T0000,68,77,1.6,32,12,61,100,92,细颗粒物(PM2.5)
邵阳市,北塔二期4-26地块,111.446,27.2472,2026-02-04T0000,66,87,1.4,32,12,54,95,89,细颗粒物(PM2.5)
邵阳市,邵水西路287号,111.4739,27.2282,2026-02-04T0000,75,96,1.4,32,13,47,106,100,细颗粒物(PM2.5)
绍兴市,城东开发委,120.6053,29.9927,2026-02-04T0000,67,98,0.6,57,7,17,105,90,细颗粒物(PM2.5)
绍兴市,树下王站,120.5482,30.0003,2026-02-04T0000,62,92,0.5,55,6,17,103,84,细颗粒物(PM2.5)
绍兴市,绍兴中专,120.5685,29.936,2026-02-04T0000,58,82,0.4,65,6,4,99,79,细颗粒物(PM2.5)
绍兴市,柯桥区政府,120.4905,30.086,2026-02-04T0000,65,92,0.8,49,6,44,107,88,细颗粒物(PM2.5)
绍兴市,重华小学,120.8751,30.0249,2026-02-04T0000,52,70,0.5,30,7,57,92,72,细颗粒物(PM2.5)
绍兴市,上虞中学,120.837,30.0137,2026-02-04T0000,50,69,0.7,42,8,56,98,69,细颗粒物(PM2.5)
绍兴市,柯桥妇保,120.4715,30.0414,2026-02-04T0000,65,83,0.5,27,6,41,103,88,细颗粒物(PM2.5)
绍兴市,袍江中学,120.6156,30.0762,2026-02-04T0000,53,72,0.5,54,7,33,100,73,细颗粒物(PM2.5)
深圳市,通心岭子站,114.0948,22.5506,2026-02-04T0000,34,55,0.4,6,4,120,121,53,颗粒物(PM10)
深圳市,洪湖,114.1153,22.5713,2026-02-04T0000,30,55,0.5,10,4,120,112,53,颗粒物(PM10)
深圳市,华侨城,113.9823,22.5398,2026-02-04T0000,26,47,/,14,/,111,92,47,
深圳市,南海子站,113.9181,22.517,2026-02-04T0000,30,55,0.8,12,6,108,81,53,颗粒物(PM10)
深圳市,盐田,114.2345,22.565,2026-02-04T0000,27,57,0.7,24,8,104,106,54,颗粒物(PM10)
深圳市,南澳,114.4911,22.5381,2026-02-04T0000,31,52,/,7,/,90,123,51,颗粒物(PM10)
深圳市,葵涌,114.41,22.6346,2026-02-04T0000,40,58,0.6,12,8,113,111,57,细颗粒物(PM2.5)
深圳市,梅沙,114.2967,22.5978,2026-02-04T0000,29,57,/,10,/,121,122,54,颗粒物(PM10)
深圳市,观澜,114.0563,22.7353,2026-02-04T0000,34,69,0.8,31,8,95,146,60,颗粒物(PM10)
深圳市,莲花,114.0614,22.556,2026-02-04T0000,30,52,/,14,/,115,112,51,颗粒物(PM10)
深圳市,民治,114.0144,22.6163,2026-02-04T0000,32,57,/,17,/,100,95,54,颗粒物(PM10)
深圳市,横岗,114.1756,22.6421,2026-02-04T0000,39,66,/,25,/,102,117,58,颗粒物(PM10)
深圳市,坪山,114.344,22.7115,2026-02-04T0000,33,56,0.6,11,8,116,125,53,颗粒物(PM10)
深圳市,西乡,113.8952,22.586,2026-02-04T0000,28,51,0.7,20,5,103,87,51,颗粒物(PM10)
深圳市,黄阁路,114.214113,22.713717,2026-02-04T0000,32,60,0.9,15,6,109,135,55,颗粒物(PM10)
沈阳市,浑南东路,123.5058,41.7084,2026-02-04T0000,81,114,0.9,31,14,77,76,108,细颗粒物(PM2.5)
沈阳市,新秀街,123.4238,41.6992,2026-02-04T0000,82,100,1.1,29,13,76,80,109,细颗粒物(PM2.5)
沈阳市,东陵路,123.5903,41.8412,2026-02-04T0000,81,93,1.1,37,15,58,74,108,细颗粒物(PM2.5)
沈阳市,陵东街,123.4267,41.8466,2026-02-04T0000,112,120,1.1,20,21,88,82,147,细颗粒物(PM2.5)
沈阳市,文化路,123.4116,41.7654,2026-02-04T0000,79,139,1.0,22,14,84,81,105,细颗粒物(PM2.5)
沈阳市,小河沿,123.4673,41.787,2026-02-04T0000,86,116,1.0,33,16,84,80,114,细颗粒物(PM2.5)
沈阳市,太原街,123.4019,41.7978,2026-02-04T0000,84,134,1.0,18,14,88,80,112,细颗粒物(PM2.5)
沈阳市,京沈街,123.3778,41.9233,2026-02-04T0000,90,93,1.1,28,21,86,82,119,细颗粒物(PM2.5)
沈阳市,沈辽西路,123.2429,41.7341,2026-02-04T0000,82,128,0.9,27,17,58,72,109,细颗粒物(PM2.5)
沈阳市,裕农路,123.5951,41.9085,2026-02-04T0000,80,107,1.2,29,11,73,84,107,细颗粒物(PM2.5)
十堰市,滨河新村,110.78,32.6494,2026-02-04T0000,79,104,1.2,66,/,13,89,105,细颗粒物(PM2.5)
十堰市,刘家沟,110.7305,32.6408,2026-02-04T0000,67,112,/,16,/,51,85,90,细颗粒物(PM2.5)
十堰市,铁二处,110.8843,32.5712,2026-02-04T0000,70,80,1.0,20,7,39,80,94,细颗粒物(PM2.5)
十堰市,郧阳区金沙路,110.8053,32.8401,2026-02-04T0000,46,75,1.0,15,6,51,90,64,细颗粒物(PM2.5)
石河子市,艾青诗歌馆,86.0391,44.298,2026-02-04T0000,267,391,2.2,40,8,54,43,317,细颗粒物(PM2.5)
石河子市,南区管委会,86.047,44.2331,2026-02-04T0000,279,380,2.5,62,9,30,63,329,细颗粒物(PM2.5)
石河子市,世纪广场,86.0791,44.3018,2026-02-04T0000,246,413,2.2,46,8,56,46,296,细颗粒物(PM2.5)
石河子市,城南景苑小区,86.0126,44.2349,2026-02-04T0000,233,335,1.8,48,4,32,70,283,细颗粒物(PM2.5)
石家庄市,高新区,114.5919,38.0328,2026-02-04T0000,127,189,1.4,78,7,18,78,168,细颗粒物(PM2.5)
石家庄市,西南高教,114.4556,38.0136,2026-02-04T0000,120,147,1.2,65,8,34,73,158,细颗粒物(PM2.5)
石家庄市,世纪公园,114.533,38.0177,2026-02-04T0000,133,156,1.4,68,7,24,72,176,细颗粒物(PM2.5)
石家庄市,人民会堂,114.5105,38.0489,2026-02-04T0000,144,181,1.3,59,4,30,72,192,细颗粒物(PM2.5)
石家庄市,鹿泉一中,114.2887,38.0905,2026-02-04T0000,112,152,1.3,40,4,36,78,147,细颗粒物(PM2.5)
石家庄市,栾城区星河路,114.6491,37.9014,2026-02-04T0000,132,190,0.8,56,6,29,81,175,细颗粒物(PM2.5)
石家庄市,裕华西路63号,114.4563,38.0365,2026-02-04T0000,144,145,1.5,83,6,13,70,192,细颗粒物(PM2.5)
石家庄市,和平路363号,114.5586,38.0581,2026-02-04T0000,140,172,1.5,79,5,17,75,186,细颗粒物(PM2.5)
石家庄市,廉州西路160号,114.8347,38.0213,2026-02-04T0000,129,165,1.2,53,2,15,85,170,细颗粒物(PM2.5)
石家庄市,北城路41号,114.4498,38.0729,2026-02-04T0000,108,180,1.2,63,6,27,83,142,细颗粒物(PM2.5)
石家庄市,矿区区委大楼,114.0494,38.059,2026-02-04T0000,99,158,1.1,57,20,15,72,130,细颗粒物(PM2.5)
石嘴山市,大武口朝阳西街,106.3668,39.0145,2026-02-04T0000,45,98,0.8,38,12,42,67,74,颗粒物(PM10)
石嘴山市,惠农南大街,106.7713,39.2278,2026-02-04T0000,82,179,1.3,81,19,6,73,115,颗粒物(PM10)
石嘴山市,红果子镇惠新街,106.7074,39.1332,2026-02-04T0000,106,189,1.2,63,20,14,71,139,细颗粒物(PM2.5)
石嘴山市,妇女儿童医院,106.3495,38.9837,2026-02-04T0000,48,127,1.0,36,13,56,78,89,颗粒物(PM10)
石嘴山市,石大公路,106.7495,39.2068,2026-02-04T0000,106,229,2.0,84,20,7,65,140,颗粒物(PM10)
双鸭山市,双合村,131.1509,46.6936,2026-02-04T0000,29,37,0.6,17,17,66,84,42,
双鸭山市,南小市,131.1651,46.6191,2026-02-04T0000,27,,0,9,4,76,81,39,
双鸭山市,环保局,131.1526,46.6554,2026-02-04T0000,26,49,0.2,11,7,77,79,49,
朔州市,平朔,112.4399,39.3521,2026-02-04T0000,44,118,0.6,44,16,14,71,84,颗粒物(PM10)
朔州市,朔唯,112.4574,39.362,2026-02-04T0000,39,112,/,43,12,22,78,81,颗粒物(PM10)
朔州市,区政府,112.426,39.3199,2026-02-04T0000,52,106,0.7,47,18,23,74,78,颗粒物(PM10)
朔州市,市环保局,112.4075,39.3277,2026-02-04T0000,57,96,/,51,13,24,77,78,细颗粒物(PM2.5)
朔州市,市二中,112.4273,39.3682,2026-02-04T0000,36,121,/,44,12,16,84,86,颗粒物(PM10)
朔州市,一水厂,112.2938,39.5296,2026-02-04T0000,30,69,0.8,71,9,6,73,60,颗粒物(PM10)
四平市,境园,124.3744,43.1842,2026-02-04T0000,73,94,0.6,27,11,58,54,98,细颗粒物(PM2.5)
四平市,植物园,124.4029,43.1411,2026-02-04T0000,72,107,0.9,65,30,45,54,97,细颗粒物(PM2.5)
四平市,世纪城,124.3286,43.1726,2026-02-04T0000,64,96,0.9,30,14,55,56,87,细颗粒物(PM2.5)
松原市,江南,124.8007,45.1213,2026-02-04T0000,89,113,1.4,63,15,4,56,118,细颗粒物(PM2.5)
松原市,江北,124.7967,45.1721,2026-02-04T0000,62,98,0.9,68,8,3,59,84,细颗粒物(PM2.5)
苏州市,轧钢厂,120.5974,31.3247,2026-02-04T0000,27,45,0.6,30,6,58,80,45,
苏州市,吴中区,120.6329,31.2741,2026-02-04T0000,27,43,0.5,39,6,44,75,43,
苏州市,苏州新区,120.5566,31.3049,2026-02-04T0000,25,39,0.5,36,8,53,81,39,
苏州市,苏州工业园区,120.668709,31.312523,2026-02-04T0000,23,38,0.6,30,7,66,85,38,
苏州市,相城区,120.6408,31.3707,2026-02-04T0000,19,39,0.4,34,5,59,78,39,
苏州市,方洲路,120.7431,31.3188,2026-02-04T0000,24,38,0.7,30,8,61,78,38,
苏州市,木渎中学,120.4979,31.2777,2026-02-04T0000,25,36,0.5,35,7,58,104,36,
苏州市,越秀幼儿园,120.642,31.1733,2026-02-04T0000,24,43,0.5,33,6,59,100,43,
苏州市,高铁新城,120.6502,31.4117,2026-02-04T0000,27,41,0.5,49,5,41,71,41,
苏州市,学森路9号,120.4282,31.3228,2026-02-04T0000,22,42,0.4,36,8,55,104,42,
宿迁市,宿迁学院,118.2924,33.933,2026-02-04T0000,74,111,0.6,21,4,78,98,99,细颗粒物(PM2.5)
宿迁市,宿迁中学,118.2321,33.9572,2026-02-04T0000,78,102,0.7,20,6,78,102,104,细颗粒物(PM2.5)
宿迁市,市供电局,118.2781,33.9658,2026-02-04T0000,80,107,1.4,23,4,80,105,107,细颗粒物(PM2.5)
宿迁市,宿豫区政府,118.3243,33.95,2026-02-04T0000,90,116,0.8,36,7,59,96,119,细颗粒物(PM2.5)
宿迁市,春华路,118.352,33.7886,2026-02-04T0000,83,112,0.6,31,4,63,88,110,细颗粒物(PM2.5)
宿州市,远航博物馆,116.9508,33.666,2026-02-04T0000,74,98,0.7,28,6,88,108,99,细颗粒物(PM2.5)
宿州市,社会福利中心,116.9708,33.5911,2026-02-04T0000,92,114,0.7,49,6,52,102,122,细颗粒物(PM2.5)
宿州市,皖北煤电集团,116.9647,33.6252,2026-02-04T0000,73,101,0.8,29,6,86,107,98,细颗粒物(PM2.5)
宿州市,中兴路,116.9929,33.6412,2026-02-04T0000,73,116,0.7,22,8,84,101,98,细颗粒物(PM2.5)
绥化市,人和东街,126.9783,46.6365,2026-02-04T0000,42,62,0.7,25,4,64,76,59,细颗粒物(PM2.5)
绥化市,党政办公中心,126.964,46.6527,2026-02-04T0000,40,58,0.7,26,4,60,71,57,细颗粒物(PM2.5)
随州市,市委党校,113.3587,31.7275,2026-02-04T0000,75,126,1.3,48,4,4,75,100,细颗粒物(PM2.5)
随州市,市林业局,113.3745,31.6926,2026-02-04T0000,76,112,1.0,70,4,18,79,102,细颗粒物(PM2.5)
随州市,市立交桥水厂,113.3984,31.7309,2026-02-04T0000,88,129,0.7,52,7,1,62,117,细颗粒物(PM2.5)
遂宁市,市监测站,105.5581,30.5231,2026-02-04T0000,62,94,1.0,50,9,9,63,84,细颗粒物(PM2.5)
遂宁市,美宁食品公司,105.5917,30.4727,2026-02-04T0000,69,110,0.8,49,7,4,61,93,细颗粒物(PM2.5)
遂宁市,环岛商务中心9号楼,105.5911,30.5368,2026-02-04T0000,62,70,0.8,32,9,23,68,84,细颗粒物(PM2.5)
塔城地区,东门外小游园,82.9993,46.7432,2026-02-04T0000,36,64,0.7,15,6,65,76,57,颗粒物(PM10)
塔城地区,文化广场,82.9716,46.7464,2026-02-04T0000,32,51,0.8,11,7,67,80,51,颗粒物(PM10)
台州市,黄岩环保大楼,121.2727,28.6461,2026-02-04T0000,21,41,/,28,/,44,104,41,
台州市,台州环保大楼,121.4188,28.6545,2026-02-04T0000,35,62,0.5,32,/,51,101,56,颗粒物(PM10)
台州市,路桥田洋王,121.3768,28.5772,2026-02-04T0000,30,53,0.5,52,4,27,105,52,颗粒物(PM10)
台州市,台州科技职业学院,121.25678,28.66823971,2026-02-04T0000,37,70,0.4,39,5,38,86,60,颗粒物(PM10)
太原市,尖草坪,112.5138,37.8916,2026-02-04T0000,66,128,1.1,76,12,7,65,89,"颗粒物(PM10),细颗粒物(PM2.5)"
太原市,晋源,112.4691,37.7125,2026-02-04T0000,70,127,1.2,70,12,2,60,94,细颗粒物(PM2.5)
太原市,小店,112.5595,37.7391,2026-02-04T0000,77,145,1.6,98,18,1,68,103,细颗粒物(PM2.5)
太原市,坞城,112.5705,37.8199,2026-02-04T0000,73,133,1.3,89,18,2,68,98,细颗粒物(PM2.5)
太原市,南寨,112.5495,37.9853,2026-02-04T0000,69,119,1.0,67,7,2,61,93,细颗粒物(PM2.5)
太原市,金胜,112.4702,37.7821,2026-02-04T0000,73,132,1.2,53,14,27,63,98,细颗粒物(PM2.5)
太原市,育英中学,112.5608,37.8807,2026-02-04T0000,58,127,1.5,75,15,7,66,89,颗粒物(PM10)
太原市,西矿街336号,112.449,37.8509,2026-02-04T0000,53,100,0.9,42,12,37,58,75,颗粒物(PM10)
太原市,迎宾北路9号,112.4792,37.9393,2026-02-04T0000,69,123,1.4,76,13,4,55,93,细颗粒物(PM2.5)
太原市,迎泽大街248号,112.551,37.8575,2026-02-04T0000,63,111,1.3,80,15,7,66,85,细颗粒物(PM2.5)
泰安市,监测站,117.1436,36.1938,2026-02-04T0000,104,149,1.0,26,5,86,88,137,细颗粒物(PM2.5)
泰安市,人口学校,117.0905,36.2002,2026-02-04T0000,98,139,0.8,22,8,94,101,129,细颗粒物(PM2.5)
泰安市,电力学校,117.0992,36.1757,2026-02-04T0000,109,129,0.9,39,7,78,83,143,细颗粒物(PM2.5)
泰安市,国网新校,117.1812,36.2273,2026-02-04T0000,102,132,1.1,23,6,85,90,134,细颗粒物(PM2.5)
泰安市,交通技校,117.0315,36.2017,2026-02-04T0000,104,137,0.9,19,5,88,95,137,细颗粒物(PM2.5)
泰安市,山东第一医科大学,117.083,36.13,2026-02-04T0000,105,136,0.5,20,5,80,90,138,细颗粒物(PM2.5)
泰州市,公园路,119.9042,32.488,2026-02-04T0000,53,90,0.9,64,11,18,92,73,细颗粒物(PM2.5)
泰州市,莲花,119.9189,32.4626,2026-02-04T0000,49,83,1.0,59,14,18,62,68,细颗粒物(PM2.5)
泰州市,留学生创业园,119.8877,32.4636,2026-02-04T0000,47,69,0.8,65,17,18,93,65,细颗粒物(PM2.5)
泰州市,王营,119.8767,32.3291,2026-02-04T0000,39,70,0.8,70,12,15,90,60,颗粒物(PM10)
泰州市,姜堰区政府广场,120.1226,32.515,2026-02-04T0000,68,86,0.7,28,7,49,93,92,细颗粒物(PM2.5)
泰州市,周山河街区,119.9186,32.4322,2026-02-04T0000,57,88,1.0,65,14,12,91,78,细颗粒物(PM2.5)
唐山市,十二中,118.1707,39.6505,2026-02-04T0000,122,203,1.4,76,7,2,74,160,细颗粒物(PM2.5)
唐山市,小山,118.1868,39.6219,2026-02-04T0000,126,176,1.1,72,10,6,64,166,细颗粒物(PM2.5)
唐山市,冀东油田职工医院,118.4357,39.277,2026-02-04T0000,101,144,0.7,27,9,64,63,133,细颗粒物(PM2.5)
唐山市,正泰大街热力站,118.0927,39.5807,2026-02-04T0000,112,187,1.4,87,5,3,70,147,细颗粒物(PM2.5)
唐山市,丰润区政府,118.1561,39.8322,2026-02-04T0000,168,244,2.1,84,16,17,69,218,细颗粒物(PM2.5)
唐山市,金山小学,118.436906,39.73802,2026-02-04T0000,132,206,1.3,44,4,4,64,175,细颗粒物(PM2.5)
唐山市,政府服务中心,118.2449,39.6693,2026-02-04T0000,124,175,1.4,80,15,0,63,163,细颗粒物(PM2.5)
唐山市,消防缸窑路中队,118.2043,39.6703,2026-02-04T0000,113,214,1.3,79,14,4,87,148,细颗粒物(PM2.5)
唐山市,路南电大,118.1432,39.6203,2026-02-04T0000,112,157,1.0,53,4,0,59,147,细颗粒物(PM2.5)
唐山市,光明北路515号,118.1267,39.6579,2026-02-04T0000,122,190,1.8,86,5,4,64,160,细颗粒物(PM2.5)
唐山市,友谊北路34号,118.130859,39.636026,2026-02-04T0000,117,175,1.2,58,3,10,76,153,细颗粒物(PM2.5)
天津市,勤俭道,117.1446,39.1659,2026-02-04T0000,121,176,0.9,45,7,40,95,159,细颗粒物(PM2.5)
天津市,前进道,117.2016,39.0928,2026-02-04T0000,123,176,1.0,36,8,47,92,162,细颗粒物(PM2.5)
天津市,淮河道,117.1837,39.2134,2026-02-04T0000,116,188,0.9,39,8,46,90,152,细颗粒物(PM2.5)
天津市,跃进路,117.308261,39.088386,2026-02-04T0000,,,,,,,99,,
天津市,第四大街,117.707,39.0344,2026-02-04T0000,129,214,1.0,31,6,53,35,170,细颗粒物(PM2.5)
天津市,永明路,117.4573,38.8395,2026-02-04T0000,123,167,0.9,73,8,12,93,162,细颗粒物(PM2.5)
天津市,汉北路,117.7641,39.1588,2026-02-04T0000,126,182,0.9,46,8,43,48,166,细颗粒物(PM2.5)
天津市,河西一经路,117.7917,39.2473,2026-02-04T0000,113,186,1.8,55,12,35,57,148,细颗粒物(PM2.5)
天津市,津沽路,117.3747,38.9845,2026-02-04T0000,129,190,1.0,47,8,38,91,170,细颗粒物(PM2.5)
天津市,宾水西道,117.159,39.0844,2026-02-04T0000,121,155,0.9,44,9,40,95,159,细颗粒物(PM2.5)
天津市,大理道,117.194,39.1069,2026-02-04T0000,114,167,0.7,49,9,40,88,149,细颗粒物(PM2.5)
天津市,中山北路,117.2096,39.1698,2026-02-04T0000,116,170,0.7,39,7,49,96,152,细颗粒物(PM2.5)
天津市,西四道,117.385,39.1483,2026-02-04T0000,119,190,0.9,50,10,36,78,156,细颗粒物(PM2.5)
天津市,雍阳西道,117.0362,39.3827,2026-02-04T0000,135,223,1.1,74,10,24,86,179,细颗粒物(PM2.5)
天津市,辛老路,117.0291,39.0612,2026-02-04T0000,110,192,1.0,52,6,28,89,144,细颗粒物(PM2.5)
天津市,地纬路,116.9638,38.9374,2026-02-04T0000,105,170,0.8,49,9,31,88,138,细颗粒物(PM2.5)
天津市,北环路,117.4065,40.0583,2026-02-04T0000,112,156,1.1,37,6,52,73,147,细颗粒物(PM2.5)
天津市,建设路,117.3041,39.7167,2026-02-04T0000,197,264,1.9,122,17,1,71,247,细颗粒物(PM2.5)
天津市,滨水东路,117.8201,39.3519,2026-02-04T0000,107,184,1.6,73,14,23,57,140,细颗粒物(PM2.5)
天津市,光华路,117.24369,39.102911,2026-02-04T0000,116,181,0.9,38,10,51,87,152,细颗粒物(PM2.5)
天水市,公园小学,105.72058,34.57859,2026-02-04T0000,54,78,1.4,41,12,22,73,74,细颗粒物(PM2.5)
天水市,麦积国土局,105.89428,34.55353,2026-02-04T0000,78,113,1.8,51,10,7,78,104,细颗粒物(PM2.5)
铁岭市,水上乐园,123.865,42.292,2026-02-04T0000,76,90,1.0,33,19,74,70,102,细颗粒物(PM2.5)
铁岭市,金沙江路北,123.7158,42.2218,2026-02-04T0000,80,83,0.9,28,13,68,66,107,细颗粒物(PM2.5)
铁岭市,新华街20号,123.835,42.2853,2026-02-04T0000,84,123,0.9,24,18,84,77,112,细颗粒物(PM2.5)
通化市,光明,125.9359,41.7174,2026-02-04T0000,48,,0.6,11,14,83,83,67,细颗粒物(PM2.5)
通化市,铁路,125.9446,41.7323,2026-02-04T0000,50,,0.5,14,12,71,69,69,细颗粒物(PM2.5)
通辽市,艺术职业学校,122.253,43.6801,2026-02-04T0000,15,47,0.4,10,8,68,82,47,
通辽市,老干部活动中心,122.2584,43.6333,2026-02-04T0000,12,49,0.6,14,5,61,70,49,
通辽市,东方明珠社区,122.2923,43.6189,2026-02-04T0000,12,52,0.5,13,12,61,66,51,颗粒物(PM10)
铜川市,王益区政府,109.0696,35.0699,2026-02-04T0000,78,104,1.1,64,4,11,80,104,细颗粒物(PM2.5)
铜川市,新区管委会,108.9345,34.9059,2026-02-04T0000,60,103,0.9,29,5,48,96,82,细颗粒物(PM2.5)
铜川市,大唐三路,108.949652,34.870529,2026-02-04T0000,92,149,1.1,46,28,38,98,122,细颗粒物(PM2.5)
铜陵市,市第四中学,117.8176,30.9412,2026-02-04T0000,70,127,0.9,86,10,2,77,94,细颗粒物(PM2.5)
铜陵市,市新民污水厂,117.7806,30.9413,2026-02-04T0000,70,103,0.7,83,10,0,68,94,细颗粒物(PM2.5)
铜陵市,车站新区,117.846,30.9414,2026-02-04T0000,71,117,1.0,77,9,0,77,95,细颗粒物(PM2.5)
铜陵市,市职教基地,117.8472,30.9699,2026-02-04T0000,66,102,0.9,85,12,0,86,89,细颗粒物(PM2.5)
铜仁市,铜仁卫校,109.1839,27.7344,2026-02-04T0000,54,91,0.8,21,2,63,75,74,细颗粒物(PM2.5)
铜仁市,铜仁七中,109.1752,27.6945,2026-02-04T0000,60,86,0.9,32,3,18,62,82,细颗粒物(PM2.5)
吐鲁番市,市环保局,89.1905,42.9419,2026-02-04T0000,110,276,2.4,73,5,31,88,163,颗粒物(PM10)
吐鲁番市,地区环保局,89.1674,42.9558,2026-02-04T0000,126,282,1.9,55,5,34,84,166,"颗粒物(PM10),细颗粒物(PM2.5)"
威海市,华夏技校,122.121,37.4231,2026-02-04T0000,82,83,0.7,25,/,84,88,109,细颗粒物(PM2.5)
威海市,山大分校,122.0508,37.5236,2026-02-04T0000,79,,/,22,/,87,89,105,细颗粒物(PM2.5)
威海市,市监测站,122.1067,37.5067,2026-02-04T0000,73,83,0.6,28,5,94,82,98,细颗粒物(PM2.5)
威海市,文登开发区,122.0693,37.2175,2026-02-04T0000,92,100,/,20,/,76,95,122,细颗粒物(PM2.5)
威海市,临港区管委会,122.1379,37.3414,2026-02-04T0000,81,100,0.6,18,2,89,98,108,细颗粒物(PM2.5)
潍坊市,环保局,119.1436,36.7022,2026-02-04T0000,127,180,1.0,49,8,45,92,168,细颗粒物(PM2.5)
潍坊市,坊子邮政,119.1638,36.6524,2026-02-04T0000,134,180,1.1,45,12,44,90,178,细颗粒物(PM2.5)
潍坊市,潍坊七中,119.0587,36.7209,2026-02-04T0000,142,188,1.1,45,6,38,92,189,细颗粒物(PM2.5)
潍坊市,高新实验学校,119.1978,36.6871,2026-02-04T0000,128,185,0.9,43,4,45,95,169,细颗粒物(PM2.5)
潍坊市,潍坊学院,119.1758,36.7139,2026-02-04T0000,128,185,1.1,43,9,53,93,169,细颗粒物(PM2.5)
潍坊市,寒亭区实验一小,119.2046,36.7696,2026-02-04T0000,130,175,1.0,48,9,47,91,172,细颗粒物(PM2.5)
渭南市,体育馆,109.4605,34.4927,2026-02-04T0000,101,144,0.9,47,6,48,72,133,细颗粒物(PM2.5)
渭南市,高新一小,109.4257,34.5067,2026-02-04T0000,104,132,1.2,85,8,28,73,137,细颗粒物(PM2.5)
渭南市,渭花路4号,109.505065,34.492137,2026-02-04T0000,91,136,0.9,67,7,19,80,120,细颗粒物(PM2.5)
温州市,瓯海,120.6342,28.0088,2026-02-04T0000,20,36,0.4,54,6,26,96,36,
温州市,南浦,120.6747,27.9881,2026-02-04T0000,21,47,0.4,32,6,66,104,47,
温州市,龙湾,120.76,27.9745,2026-02-04T0000,20,45,0.4,70,6,10,99,45,
温州市,茶山,120.6985,27.9252,2026-02-04T0000,11,29,/,15,/,62,109,29,
温州市,鹿城惠民路,120.6935,28.0114,2026-02-04T0000,17,41,0.3,36,/,53,102,41,
文山壮族苗族自治州,州水务局,104.2533,23.3595,2026-02-04T0000,19,26,0.4,3,6,44,65,28,
文山壮族苗族自治州,市便民服务中心,104.2319,23.3892,2026-02-04T0000,14,29,0.6,4,4,46,62,29,
乌海市,市林业局,106.8172,39.6972,2026-02-04T0000,28,79,0.6,11,11,84,98,65,颗粒物(PM10)
乌海市,中海勃湾学校,106.7907,39.6666,2026-02-04T0000,27,61,0.3,8,8,92,100,56,颗粒物(PM10)
乌海市,海北新区,106.8129,39.7274,2026-02-04T0000,15,82,0.5,81,20,4,82,66,颗粒物(PM10)
乌海市,海拉北路,106.8212,39.6741,2026-02-04T0000,36,96,0.8,47,14,27,82,73,颗粒物(PM10)
乌兰察布市,集宁新区,113.1306,40.9924,2026-02-04T0000,31,48,0.4,25,9,53,64,48,
乌兰察布市,光明街小学,113.1076,41.0385,2026-02-04T0000,21,49,0.7,28,9,48,71,49,
乌兰察布市,北京八中,113.1383,40.9513,2026-02-04T0000,30,45,0.7,30,8,41,60,45,
乌兰察布市,市委党校,113.1776,40.9779,2026-02-04T0000,28,46,0.6,34,9,45,66,46,
乌鲁木齐市,监测站,87.5796,43.8299,2026-02-04T0000,156,223,1.8,81,2,29,48,206,细颗粒物(PM2.5)
乌鲁木齐市,收费所,87.6044,43.7679,2026-02-04T0000,168,208,2.0,98,5,4,43,218,细颗粒物(PM2.5)
乌鲁木齐市,铁路局,87.5529,43.8704,2026-02-04T0000,176,217,1.5,73,1,42,72,226,细颗粒物(PM2.5)
乌鲁木齐市,三十一中学,87.6408,43.8258,2026-02-04T0000,152,203,1.7,76,1,18,63,202,细颗粒物(PM2.5)
乌鲁木齐市,米东区环保局,87.7218,44.1747,2026-02-04T0000,139,173,1.5,93,7,45,49,185,细颗粒物(PM2.5)
乌鲁木齐市,培训基地,87.4652,43.4569,2026-02-04T0000,10,,0.3,8,5,96,97,30,
乌鲁木齐市,达坂城区环保局,88.3088,43.3637,2026-02-04T0000,29,87,0.5,14,11,80,85,69,颗粒物(PM10)
乌鲁木齐市,红光山片区,87.6132,43.8791,2026-02-04T0000,163,,1.8,75,6,38,62,213,细颗粒物(PM2.5)
乌鲁木齐市,新师大温泉校区,87.7008,43.8003,2026-02-04T0000,151,200,1.4,56,5,48,78,201,细颗粒物(PM2.5)
乌鲁木齐市,大绿谷,87.4892,43.84,2026-02-04T0000,186,204,2.0,98,2,10,48,236,细颗粒物(PM2.5)
无锡市,雪浪,120.2693,31.4864,2026-02-04T0000,27,48,0.6,29,10,69,106,48,
无锡市,黄巷,120.2761,31.621,2026-02-04T0000,35,50,0.6,45,8,55,78,50,
无锡市,漆塘,120.2422,31.5037,2026-02-04T0000,29,67,0.6,27,13,72,104,59,颗粒物(PM10)
无锡市,东亭,120.3489,31.5865,2026-02-04T0000,25,44,0.3,58,11,42,78,44,
无锡市,旺庄,120.3538,31.5474,2026-02-04T0000,19,44,0.6,55,7,50,83,44,
无锡市,荣巷,120.2447,31.5633,2026-02-04T0000,30,53,0.6,35,10,66,100,52,颗粒物(PM10)
无锡市,堰桥,120.2986,31.6816,2026-02-04T0000,26,41,0.8,45,8,58,69,41,
无锡市,清舒道1号,120.3138,31.4927,2026-02-04T0000,23,43,0.5,35,9,64,96,43,
无锡市,健康路105号,120.2925,31.5685,2026-02-04T0000,20,54,0.7,50,7,48,84,52,颗粒物(PM10)
吴忠市,教育园区,106.1535,37.9648,2026-02-04T0000,36,106,0.5,12,9,75,86,78,颗粒物(PM10)
吴忠市,新区二泵站,106.1851,37.9957,2026-02-04T0000,34,113,0.6,22,19,67,79,82,颗粒物(PM10)
吴忠市,文卫南街,106.2176,37.9832,2026-02-04T0000,33,112,0.6,16,13,77,86,81,颗粒物(PM10)
芜湖市,监测站,118.3603,31.3515,2026-02-04T0000,82,117,0.9,40,5,50,102,109,细颗粒物(PM2.5)
芜湖市,科创中心,118.3716,31.4135,2026-02-04T0000,98,126,0.7,66,7,29,101,129,细颗粒物(PM2.5)
芜湖市,四水厂,118.3671,31.3132,2026-02-04T0000,92,122,0.7,54,3,47,105,122,细颗粒物(PM2.5)
芜湖市,市气象局,118.4209,31.3704,2026-02-04T0000,86,113,0.7,44,7,47,106,114,细颗粒物(PM2.5)
芜湖市,清苑社区,118.4783,31.3226,2026-02-04T0000,93,119,0.8,81,8,12,102,123,细颗粒物(PM2.5)
芜湖市,扬子职业技术学院,118.2746,31.2326,2026-02-04T0000,84,115,0.6,29,8,71,102,112,细颗粒物(PM2.5)
芜湖市,湾沚区人民法院,118.5726,31.1371,2026-02-04T0000,71,80,0.8,42,8,53,99,95,细颗粒物(PM2.5)
梧州市,市十一中,111.3126,23.4772,2026-02-04T0000,40,112,0.4,91,9,2,117,81,颗粒物(PM10)
梧州市,龙新,111.26,23.4794,2026-02-04T0000,44,155,0.7,94,7,10,118,103,颗粒物(PM10)
梧州市,政贤路18号,111.2416,23.4155,2026-02-04T0000,50,114,0.7,93,7,0,98,82,颗粒物(PM10)
五家渠市,农水大厦,87.5352,44.1606,2026-02-04T0000,151,175,1.4,11,6,61,54,201,细颗粒物(PM2.5)
五家渠市,经开区管委会,87.5461,44.1909,2026-02-04T0000,160,176,1.9,35,8,72,70,210,细颗粒物(PM2.5)
五家渠市,建设西街760号,87.055284,43.999117,2026-02-04T0000,83,97,1.5,15,5,88,95,110,细颗粒物(PM2.5)
武汉市,东湖梨园,114.3676,30.5584,2026-02-04T0000,56,80,0.6,24,5,31,71,77,细颗粒物(PM2.5)
武汉市,汉阳月湖,114.2527,30.5578,2026-02-04T0000,72,95,1.2,48,4,8,62,97,细颗粒物(PM2.5)
武汉市,汉口花桥,114.2819,30.6189,2026-02-04T0000,61,91,1.0,70,10,16,66,83,细颗粒物(PM2.5)
武汉市,武昌紫阳,114.3024,30.5332,2026-02-04T0000,72,107,0.8,62,9,11,65,97,细颗粒物(PM2.5)
武汉市,青山钢花,114.3646,30.6217,2026-02-04T0000,70,100,1.2,75,5,8,67,94,细颗粒物(PM2.5)
武汉市,沌口新区,114.156697,30.482592,2026-02-04T0000,46,76,0.7,86,9,0,65,64,细颗粒物(PM2.5)
武汉市,汉口江滩,114.3013,30.5944,2026-02-04T0000,68,91,1.2,60,7,14,60,92,细颗粒物(PM2.5)
武汉市,吴家山,114.1285,30.6339,2026-02-04T0000,67,80,0.9,81,5,3,58,90,细颗粒物(PM2.5)
武汉市,民族大道182号,114.3876,30.4908,2026-02-04T0000,67,103,0.7,69,6,4,68,90,细颗粒物(PM2.5)
武威市,监测站,102.6203,37.925,2026-02-04T0000,55,90,0.9,36,12,24,81,75,细颗粒物(PM2.5)
武威市,钟楼街149号,102.6447,37.9293,2026-02-04T0000,68,104,1.0,43,12,22,83,92,细颗粒物(PM2.5)
西安市,兴庆小区,108.9931,34.2629,2026-02-04T0000,115,144,0.9,55,5,29,53,150,细颗粒物(PM2.5)
西安市,纺织城,109.0595,34.2569,2026-02-04T0000,95,175,1.2,77,4,0,56,125,细颗粒物(PM2.5)
西安市,小寨,108.9377,34.2178,2026-02-04T0000,89,145,1.1,68,10,33,87,118,细颗粒物(PM2.5)
西安市,市人民体育场,108.9522,34.2739,2026-02-04T0000,101,170,1.2,74,6,24,52,133,细颗粒物(PM2.5)
西安市,高新西区,108.8923,34.2322,2026-02-04T0000,81,128,0.9,60,6,46,87,108,细颗粒物(PM2.5)
西安市,经开区,108.9386,34.3446,2026-02-04T0000,95,167,1.6,82,4,2,46,125,细颗粒物(PM2.5)
西安市,长安区,108.894,34.1557,2026-02-04T0000,107,164,1.3,74,8,4,88,140,细颗粒物(PM2.5)
西安市,临潼区,109.213,34.3748,2026-02-04T0000,97,123,1.1,59,6,25,70,128,细颗粒物(PM2.5)
西安市,广运潭,109.0508,34.321,2026-02-04T0000,103,134,1.0,50,4,26,56,135,细颗粒物(PM2.5)
西安市,无线电监控中心,109.1019,34.5302,2026-02-04T0000,90,97,0.7,55,8,40,72,119,细颗粒物(PM2.5)
西安市,行知小学,108.8869,34.2662,2026-02-04T0000,88,153,1.9,102,5,2,60,117,细颗粒物(PM2.5)
西安市,西苑北路977号,108.596239,34.118792,2026-02-04T0000,117,142,1.1,64,7,2,95,153,细颗粒物(PM2.5)
西安市,曲江池东路988号,108.9817,34.2035,2026-02-04T0000,117,162,0.8,41,3,43,88,153,细颗粒物(PM2.5)
西宁市,城北区政府,101.7775,36.643,2026-02-04T0000,57,111,1.1,26,22,87,96,81,颗粒物(PM10)
西宁市,世纪职校,101.8304,36.5785,2026-02-04T0000,58,84,0.9,22,22,84,90,79,细颗粒物(PM2.5)
西宁市,海晏路105号,101.6769,36.6535,2026-02-04T0000,53,95,0.6,15,8,90,82,73,"颗粒物(PM10),细颗粒物(PM2.5)"
西双版纳傣族自治州,景洪市江南,100.8018,21.9995,2026-02-04T0000,42,63,0.9,,4,32,71,,
西双版纳傣族自治州,景洪市江北,100.7995,22.0238,2026-02-04T0000,17,47,0.7,7,5,42,82,47,
锡林郭勒盟,市环保监测站,116.1048,43.9318,2026-02-04T0000,14,43,0.5,43,19,24,73,43,
锡林郭勒盟,市政府,116.0778,43.9312,2026-02-04T0000,18,27,0.4,40,7,32,83,27,
厦门市,洪文,118.1519,24.4768,2026-02-04T0000,17,44,0.4,18,3,74,116,44,
厦门市,鼓浪屿,118.0671,24.4447,2026-02-04T0000,19,37,/,14,2,80,122,37,
厦门市,湖里中学,118.0937,24.5054,2026-02-04T0000,18,36,0.5,16,2,76,113,36,
厦门市,集美中学,118.0961,24.5689,2026-02-04T0000,24,43,0.4,17,2,77,120,43,
厦门市,同安二实小,118.1502,24.7246,2026-02-04T0000,32,49,0.6,16,2,75,113,49,
咸宁市,长江产业园,114.3379,29.8683,2026-02-04T0000,59,82,0.5,37,5,29,66,80,细颗粒物(PM2.5)
咸宁市,双鹤路18号,114.3182,29.8447,2026-02-04T0000,57,83,1.0,29,3,37,76,78,细颗粒物(PM2.5)
