area,positionname,longitude,latitude,timepoint,pm2_5,pm10,co,no2,so2,o3,o3_8h,aqi,primarypollutant
阿坝藏族羌族自治州,马师校,102.2503,31.8896,2026-01-14T1700,12,50,,,4,72,58,,
阿坝藏族羌族自治州,马尔康中学西区,102.2174,31.9016,2026-01-14T1700,8,41,0.4,3,5,74,59,41,
阿克苏地区,电视台,80.2899,41.1684,2026-01-14T1700,43,124,0.8,26,7,81,49,87,颗粒物(PM10)
阿克苏地区,艺术中心,80.2592,41.1541,2026-01-14T1700,52,114,0.6,27,9,83,52,82,颗粒物(PM10)
阿拉善盟,蒙二幼,105.699,38.8409,2026-01-14T1700,80,248,0.6,6,9,82,82,149,颗粒物(PM10)
阿拉善盟,环保局新楼,105.7198,38.8508,2026-01-14T1700,65,247,0.4,5,8,76,76,149,颗粒物(PM10)
阿勒泰地区,市站,88.1266,47.8515,2026-01-14T1700,,,,,5,57,38,,
阿勒泰地区,阿勒泰路33号,88.1198,47.7931,2026-01-14T1700,64,68,0.9,19,4,72,50,87,细颗粒物(PM2.5)
阿里地区,阿里监测站,80.1171,32.4999,2026-01-14T1700,3,,0.4,1,4,75,62,24,
阿里地区,阿里藏医院,80.0906,32.5029,2026-01-14T1700,3,6,0.5,1,10,92,70,29,
安康市,汉滨区检察院,109.0088,32.6974,2026-01-14T1700,56,79,0.8,20,6,65,41,77,细颗粒物(PM2.5)
安康市,市邮政管理局,109.0324,32.6913,2026-01-14T1700,59,86,0.8,25,6,52,33,80,细颗粒物(PM2.5)
安庆市,环科院,117.0806,30.5181,2026-01-14T1700,39,44,0.4,,8,102,84,,
安庆市,马山宾馆,117.0331,30.5118,2026-01-14T1700,39,50,0.5,56,7,78,83,55,细颗粒物(PM2.5)
安庆市,安庆大学,116.9897,30.6146,2026-01-14T1700,34,43,0.4,19,8,115,88,49,
安庆市,市人大,117.0598,30.5351,2026-01-14T1700,37,58,0.4,22,12,113,88,54,颗粒物(PM10)
安顺市,凤凰山,105.9408,26.2431,2026-01-14T1700,53,64,0.7,16,18,85,92,73,细颗粒物(PM2.5)
安顺市,金钟山,105.9443,26.2567,2026-01-14T1700,54,59,0.6,12,15,85,90,74,细颗粒物(PM2.5)
安顺市,娄家坡,105.8983,26.248,2026-01-14T1700,57,61,0.9,16,12,85,92,78,细颗粒物(PM2.5)
安阳市,红庙街,114.3552,36.1017,2026-01-14T1700,110,170,1.5,67,15,19,30,144,细颗粒物(PM2.5)
安阳市,银杏小区,114.361,36.0681,2026-01-14T1700,121,164,1.5,66,14,16,26,159,细颗粒物(PM2.5)
安阳市,信访局,114.3921,36.0879,2026-01-14T1700,118,178,1.5,67,15,18,29,155,细颗粒物(PM2.5)
安阳市,左辅环卫站,114.4706,36.0634,2026-01-14T1700,160,191,1.4,59,18,30,29,210,细颗粒物(PM2.5)
安阳市,钢三路198号,114.2918,36.0769,2026-01-14T1700,116,209,1.5,66,14,17,26,152,细颗粒物(PM2.5)
鞍山市,深沟寺,123.0441,41.1201,2026-01-14T1700,22,37,0.9,12,6,58,61,37,
鞍山市,太阳城,123.011,41.0931,2026-01-14T1700,19,94,0.8,12,9,64,69,72,颗粒物(PM10)
鞍山市,太平,123.0483,41.1445,2026-01-14T1700,19,41,0.7,16,8,54,55,41,
鞍山市,铁西三道街,122.964,41.0968,2026-01-14T1700,30,54,0.8,,,53,52,,
鞍山市,明达新区,123.0219,41.0822,2026-01-14T1700,24,34,0.5,14,10,58,65,35,
鞍山市,兴盛南路290号,122.944647,41.082639,2026-01-14T1700,31,63,0.5,20,11,58,58,57,颗粒物(PM10)
巴彦淖尔市,附二中,107.4206,40.7609,2026-01-14T1700,37,133,0.4,6,3,73,70,92,颗粒物(PM10)
巴彦淖尔市,市环保大楼,107.37,40.7372,2026-01-14T1700,25,135,0.3,5,4,83,81,93,颗粒物(PM10)
巴音郭楞蒙古自治州,孔雀公园,86.1476,41.7529,2026-01-14T1700,30,81,0.5,13,10,84,41,66,颗粒物(PM10)
巴音郭楞蒙古自治州,棉纺厂,86.1971,41.7166,2026-01-14T1700,16,113,/,13,/,87,48,82,颗粒物(PM10)
巴音郭楞蒙古自治州,经济开发区,86.236,41.7172,2026-01-14T1700,29,72,0.4,12,7,77,40,61,颗粒物(PM10)
巴中市,市五中,106.776805,31.852614,2026-01-14T1700,45,60,0.7,22,5,69,35,63,细颗粒物(PM2.5)
巴中市,圣泉水务公司,106.7419,31.8654,2026-01-14T1700,41,50,0.6,17,6,77,46,58,细颗粒物(PM2.5)
巴中市,市中心医院,106.7617,31.8343,2026-01-14T1700,39,48,0.5,15,7,79,41,55,细颗粒物(PM2.5)
白城市,洮北区环保局,122.7909,45.608,2026-01-14T1700,18,30,0.3,18,6,46,53,30,
白城市,市环保局,122.8741,45.5725,2026-01-14T1700,22,46,0.4,43,8,23,47,46,
白山市,喜丰,126.4219,41.9172,2026-01-14T1700,12,38,1.0,56,74,17,29,38,
白山市,环保局,126.4082,41.9416,2026-01-14T1700,34,43,1.4,54,15,8,32,49,
白银市,第三小学,104.1727,36.5448,2026-01-14T1700,50,220,0.4,22,8,74,75,135,颗粒物(PM10)
白银市,动力公司,104.1467,36.5482,2026-01-14T1700,51,227,0.5,14,8,78,76,139,颗粒物(PM10)
百色市,市监测站,106.6102,23.901,2026-01-14T1700,82,122,0.8,,20,120,76,109,细颗粒物(PM2.5)
百色市,市中心血站,106.6524,23.8842,2026-01-14T1700,66,86,1.0,19,13,141,80,89,细颗粒物(PM2.5)
百色市,龙景西路,106.6273,23.8798,2026-01-14T1700,66,156,0.8,19,15,151,80,103,颗粒物(PM10)
蚌埠市,工人疗养院,117.396,32.9389,2026-01-14T1700,52,101,0.7,32,7,103,92,76,颗粒物(PM10)
蚌埠市,百货大楼,117.3606,32.9428,2026-01-14T1700,55,83,0.6,34,8,94,94,75,细颗粒物(PM2.5)
蚌埠市,蚌埠学院,117.4183,32.8909,2026-01-14T1700,65,85,0.6,29,9,111,98,88,细颗粒物(PM2.5)
蚌埠市,淮上区政府,117.3534,32.9672,2026-01-14T1700,58,92,0.8,34,5,103,100,79,细颗粒物(PM2.5)
蚌埠市,高新区,117.3143,32.8977,2026-01-14T1700,74,97,0.5,40,10,86,88,99,细颗粒物(PM2.5)
蚌埠市,蚌埠田家炳中学,117.3091,32.9314,2026-01-14T1700,60,94,0.6,54,7,77,86,82,细颗粒物(PM2.5)
包头市,市环境监测站,109.8761,40.6533,2026-01-14T1700,35,285,0.4,14,5,80,71,168,颗粒物(PM10)
包头市,包头八中,109.9992,40.5843,2026-01-14T1700,34,217,0.5,18,4,73,72,134,颗粒物(PM10)
包头市,惠龙物流,109.8641,40.6288,2026-01-14T1700,17,240,1.1,16,12,75,76,145,颗粒物(PM10)
包头市,东河鸿龙湾,110.0376,40.5546,2026-01-14T1700,15,210,0.7,8,8,80,76,130,颗粒物(PM10)
包头市,滨河大厦,109.9154,40.5684,2026-01-14T1700,42,221,0.5,7,8,78,75,136,颗粒物(PM10)
包头市,包头市委党校,109.9449,40.6259,2026-01-14T1700,18,197,0.9,12,8,75,75,124,颗粒物(PM10)
包头市,昆区政府,109.8332,40.6577,2026-01-14T1700,28,224,0.7,21,8,68,66,137,颗粒物(PM10)
宝鸡市,竹园沟,107.0802,34.3129,2026-01-14T1700,24,93,0.2,24,,74,59,,
宝鸡市,监测站,107.1429,34.3549,2026-01-14T1700,18,109,0.5,20,4,77,56,80,颗粒物(PM10)
宝鸡市,技工学校,107.1172,34.3759,2026-01-14T1700,26,105,0.5,20,4,82,64,78,颗粒物(PM10)
宝鸡市,文理学院,107.2025,34.3518,2026-01-14T1700,19,86,0.2,20,4,79,56,68,颗粒物(PM10)
宝鸡市,三迪小学,107.2396,34.3626,2026-01-14T1700,23,123,0.3,23,4,86,61,87,颗粒物(PM10)
宝鸡市,滨河北路,107.1721,34.3558,2026-01-14T1700,11,50,0.3,19,4,80,55,50,
宝鸡市,陈仓区北开路21号,107.3898,34.3601,2026-01-14T1700,25,138,0,45,7,84,54,94,颗粒物(PM10)
保定市,游泳馆,115.4803,38.8568,2026-01-14T1700,72,109,,58,7,18,26,,
保定市,华电二区,115.509,38.8895,2026-01-14T1700,77,87,0.5,49,6,15,24,103,细颗粒物(PM2.5)
保定市,接待中心,115.4588,38.9037,2026-01-14T1700,73,118,0.7,62,3,10,25,98,细颗粒物(PM2.5)
保定市,地表水厂,115.4484,38.8344,2026-01-14T1700,76,127,0.5,57,5,16,16,102,细颗粒物(PM2.5)
保定市,满城区生态环境分局,115.3136,38.9511,2026-01-14T1700,75,114,0.7,50,5,32,26,100,细颗粒物(PM2.5)
保定市,清苑区第二中学,115.4709,38.7628,2026-01-14T1700,87,154,0.7,48,4,26,18,115,细颗粒物(PM2.5)
保定市,徐水物探局,115.6231,39.0223,2026-01-14T1700,73,118,0.6,40,6,24,22,98,细颗粒物(PM2.5)
保定市,双鹰农机,115.4199,38.8665,2026-01-14T1700,,138,0.6,53,,20,27,,
保定市,植保所站,115.515,38.8589,2026-01-14T1700,61,111,0.7,58,3,12,21,83,细颗粒物(PM2.5)
保山市,市环境监测站,99.1589,25.1137,2026-01-14T1700,13,24,0.1,6,2,91,72,29,
保山市,市环保局,99.1616,25.1381,2026-01-14T1700,13,36,0.4,3,4,92,78,36,
北海市,海滩公园,109.1435,21.4085,2026-01-14T1700,42,50,0.9,10,11,180,144,75,臭氧1小时(O3_1h)
北海市,新市环保局,109.0983,21.466,2026-01-14T1700,41,54,0.6,37,6,147,140,58,细颗粒物(PM2.5)
北海市,北海工业园,109.1775,21.5232,2026-01-14T1700,34,51,0.8,27,9,160,152,51,颗粒物(PM10)
北海市,龙潭自来水厂,109.1844,21.4396,2026-01-14T1700,41,55,0.5,38,11,150,139,58,细颗粒物(PM2.5)
北京市,万寿西宫,116.3611,39.8786,2026-01-14T1700,54,83,0.6,57,3,18,13,74,细颗粒物(PM2.5)
北京市,东四,116.4174,39.9289,2026-01-14T1700,44,82,0.9,57,6,15,13,66,颗粒物(PM10)
北京市,天坛,116.4073,39.8858,2026-01-14T1700,47,82,0.7,54,3,20,14,66,颗粒物(PM10)
北京市,农展馆,116.4622,39.9364,2026-01-14T1700,46,81,1.0,46,5,18,15,66,颗粒物(PM10)
北京市,官园,116.3399,39.9293,2026-01-14T1700,53,90,0.9,62,6,9,13,73,细颗粒物(PM2.5)
北京市,海淀万柳,116.2879,39.9613,2026-01-14T1700,51,84,1.0,74,5,5,15,70,细颗粒物(PM2.5)
北京市,顺义新城,116.6635,40.1349,2026-01-14T1700,47,74,0.5,27,5,43,33,65,细颗粒物(PM2.5)
北京市,怀柔镇,116.6275,40.327,2026-01-14T1700,42,63,0.6,31,5,47,34,59,细颗粒物(PM2.5)
北京市,昌平镇,116.2295,40.217,2026-01-14T1700,47,83,0.8,50,6,20,26,67,颗粒物(PM10)
北京市,奥体中心,116.3968,39.982,2026-01-14T1700,48,87,1.0,84,5,8,13,69,颗粒物(PM10)
北京市,密云新城,116.8336,40.4095,2026-01-14T1700,48,81,0.6,35,4,38,36,67,细颗粒物(PM2.5)
北京市,门头沟三家店,116.0879,39.9725,2026-01-14T1700,46,87,0.7,54,4,14,23,69,颗粒物(PM10)
北京市,丰台云岗,116.1507,39.8246,2026-01-14T1700,52,87,0.8,59,3,13,18,72,细颗粒物(PM2.5)
北京市,房山燕山,115.9578,39.7602,2026-01-14T1700,53,95,0.6,53,4,20,20,73,"颗粒物(PM10),细颗粒物(PM2.5)"
北京市,大兴旧宫,116.4669,39.7734,2026-01-14T1700,35,68,0.7,43,4,24,19,59,颗粒物(PM10)
北京市,延庆石河营,115.9859,40.4562,2026-01-14T1700,41,72,0.6,43,5,26,28,61,颗粒物(PM10)
北京市,怀柔新城,116.6151,40.3052,2026-01-14T1700,42,162,0.6,28,5,43,40,106,颗粒物(PM10)
北京市,丰台小屯,116.2542,39.8764,2026-01-14T1700,50,85,0.7,55,4,16,14,69,细颗粒物(PM2.5)
北京市,密云镇,116.8399,40.3843,2026-01-14T1700,44,79,0.6,32,2,36,33,65,颗粒物(PM10)
北京市,延庆百泉,115.9423,40.4431,2026-01-14T1700,41,77,0.7,46,4,21,21,64,颗粒物(PM10)
北京市,通州新华,116.6598,39.9164,2026-01-14T1700,35,75,0.6,50,5,21,17,63,颗粒物(PM10)
北京市,石景山八角,116.1942,39.9158,2026-01-14T1700,,,,,,,48,,
北京市,平谷新城,117.078628,40.151726,2026-01-14T1700,36,64,0.6,25,2,45,41,57,颗粒物(PM10)
本溪市,大峪,123.8274146,41.31234549,2026-01-14T1700,20,47,0.6,26,10,46,42,47,
本溪市,彩屯,123.7169,41.3094,2026-01-14T1700,18,40,2.0,29,13,46,40,40,
本溪市,东明,123.7672166,41.28649327,2026-01-14T1700,12,28,0.6,12,8,59,54,28,
本溪市,新立屯,123.799345,41.266614,2026-01-14T1700,12,24,0.5,8,10,63,58,24,
本溪市,威宁,123.829144,41.336777,2026-01-14T1700,25,29,0.6,22,10,44,39,36,
毕节市,八中,105.287,27.3133,2026-01-14T1700,65,68,0.7,11,10,85,80,88,细颗粒物(PM2.5)
毕节市,师专,105.3079,27.2987,2026-01-14T1700,61,71,0.7,13,8,90,88,83,细颗粒物(PM2.5)
毕节市,工业大道,105.3688,27.3598,2026-01-14T1700,59,76,/,21,10,86,,80,细颗粒物(PM2.5)
滨州市,第二水厂,117.9961,37.3604,2026-01-14T1700,116,185,1.4,75,22,14,16,152,细颗粒物(PM2.5)
滨州市,北中新校,117.9789,37.3931,2026-01-14T1700,122,185,1.3,80,22,15,18,160,细颗粒物(PM2.5)
滨州市,中海酒店,117.9379,37.3959,2026-01-14T1700,136,215,1.4,77,28,20,21,180,细颗粒物(PM2.5)
滨州市,开发区一中,117.9381509,37.35547456,2026-01-14T1700,127,193,1.1,69,28,14,17,168,细颗粒物(PM2.5)
滨州市,金海六路,118.0914,37.6938,2026-01-14T1700,100,168,1.2,66,15,32,32,132,细颗粒物(PM2.5)
滨州市,滨州市西街道办事处,117.9955,37.3752,2026-01-14T1700,127,188,1.2,66,22,16,20,168,细颗粒物(PM2.5)
亳州市,污水处理厂,115.8071,33.8399,2026-01-14T1700,93,,,31,5,86,65,123,细颗粒物(PM2.5)
亳州市,三国揽胜宫,115.7789,33.8519,2026-01-14T1700,98,140,0.7,32,5,88,78,129,细颗粒物(PM2.5)
亳州市,亳州学院,115.7631,33.803,2026-01-14T1700,96,133,0.7,29,4,90,70,127,细颗粒物(PM2.5)
博尔塔拉蒙古自治州,市党校,82.0482,44.8553,2026-01-14T1700,65,102,0.7,25,3,50,60,88,细颗粒物(PM2.5)
博尔塔拉蒙古自治州,市环保局,82.0805,44.8966,2026-01-14T1700,66,132,1.2,26,8,55,62,91,颗粒物(PM10)
沧州市,沧县城建局,116.8733,38.2922,2026-01-14T1700,58,94,0.6,59,9,21,25,79,细颗粒物(PM2.5)
沧州市,电视转播站,116.8462,38.3189,2026-01-14T1700,73,101,0.6,50,6,29,22,98,细颗粒物(PM2.5)
沧州市,市环保局,116.8588,38.3161,2026-01-14T1700,59,89,0.6,45,9,25,22,80,细颗粒物(PM2.5)
沧州市,河北水利电力学院,116.8011,38.294,2026-01-14T1700,56,114,0.6,54,8,26,22,82,颗粒物(PM10)
昌都市,昌都监测站,97.1813,31.1289,2026-01-14T1700,14,44,0.3,2,3,87,62,44,
昌都市,昌都会议中心,97.1707,31.1428,2026-01-14T1700,19,62,0.2,1,3,81,62,56,颗粒物(PM10)
昌吉回族自治州,新区政务中心,87.2722,44.0298,2026-01-14T1700,101,132,1.3,25,8,73,53,133,细颗粒物(PM2.5)
昌吉回族自治州,亚心广场,87.3069,44.0093,2026-01-14T1700,136,,,,9,54,50,180,细颗粒物(PM2.5)
昌吉回族自治州,财政所,87.2057,43.9289,2026-01-14T1700,124,,1.0,25,6,53,54,163,细颗粒物(PM2.5)
长春市,客车厂,125.2874,43.9024,2026-01-14T1700,44,46,0.6,26,11,50,46,62,细颗粒物(PM2.5)
长春市,邮电学院,125.2943,43.8508,2026-01-14T1700,,,,,,,49,,
长春市,劳动公园,125.3648,43.8745,2026-01-14T1700,33,44,0.6,26,12,49,50,48,
长春市,园林处,125.3233,43.8781,2026-01-14T1700,43,46,0.6,27,13,44,47,60,细颗粒物(PM2.5)
长春市,净月潭,125.4604,43.7904,2026-01-14T1700,28,41,0.6,14,10,56,58,41,
长春市,经开区环卫处,125.38,43.8422,2026-01-14T1700,34,37,0.6,26,9,51,52,49,
长春市,高新区管委会,125.234,43.7761,2026-01-14T1700,32,42,0.4,20,8,55,56,46,
长春市,岱山公园,125.1695,43.83,2026-01-14T1700,33,42,0.6,32,8,44,43,48,
长春市,北亚泰大街1068号,125.334645,43.916281,2026-01-14T1700,35,41,0.9,36,11,43,43,50,
长沙市,经开区环保局,113.082,28.2421,2026-01-14T1700,35,59,0.7,23,7,124,103,55,颗粒物(PM10)
长沙市,高开区环保局,112.8873,28.2202,2026-01-14T1700,40,59,0.7,12,10,128,104,57,细颗粒物(PM2.5)
长沙市,马坡岭,113.0785,28.2012,2026-01-14T1700,34,50,0.6,12,,128,103,,
长沙市,湖南师范大学,112.9448,28.1894,2026-01-14T1700,35,53,0.8,17,10,135,103,52,颗粒物(PM10)
长沙市,雨花区环保局,113.0177,28.1322,2026-01-14T1700,28,51,0.7,17,12,132,102,51,颗粒物(PM10)
长沙市,伍家岭,112.9795,28.2593,2026-01-14T1700,40,61,0.7,25,9,123,81,57,细颗粒物(PM2.5)
长沙市,火车新站,113.002,28.1944,2026-01-14T1700,34,59,0.7,19,13,127,100,55,颗粒物(PM10)
长沙市,天心区环保局,112.9846,28.1177,2026-01-14T1700,,,0.7,17,10,136,114,,
长沙市,湖南中医药大学,112.8906,28.1307,2026-01-14T1700,40,65,0.8,23,10,128,95,58,颗粒物(PM10)
长治市,清华站,113.1146,36.1547,2026-01-14T1700,17,34,0.4,9,10,85,74,34,
长治市,审计局,113.0887,36.2126,2026-01-14T1700,12,49,0.5,11,8,80,51,49,
长治市,长治八中,113.0845,36.1856,2026-01-14T1700,20,77,0.5,6,9,84,58,64,颗粒物(PM10)
长治市,德盛苑,113.1561,36.1912,2026-01-14T1700,14,45,0.4,10,9,85,70,45,
长治市,向阳小学,113.0603,36.0464,2026-01-14T1700,8,75,0.3,12,8,89,71,63,颗粒物(PM10)
长治市,屯留一中,112.8788,36.315,2026-01-14T1700,20,51,0.5,9,8,83,62,51,颗粒物(PM10)
长治市,英华南巷50号,113.113092,36.199482,2026-01-14T1700,17,57,0.6,10,7,85,56,54,颗粒物(PM10)
长治市,学府街1号,113.23666,36.33435,2026-01-14T1700,27,57,0.7,16,12,78,56,54,颗粒物(PM10)
常德市,市二中,111.696,28.9725,2026-01-14T1700,41,52,0.8,16,6,110,81,58,细颗粒物(PM2.5)
常德市,武陵区永安,111.7152,29.0288,2026-01-14T1700,43,61,0.7,15,5,110,86,60,细颗粒物(PM2.5)
常德市,鼎城区玉霞,111.6891,28.9881,2026-01-14T1700,42,,0.5,18,8,104,80,59,细颗粒物(PM2.5)
常德市,武陵区长庚,111.6651,29.0526,2026-01-14T1700,,,0.7,17,6,108,85,,
常州市,市监测站,119.9524,31.7586,2026-01-14T1700,30,49,0.6,38,6,88,78,49,
常州市,武进监测站,119.9351,31.703,2026-01-14T1700,37,50,0.3,37,10,91,76,53,细颗粒物(PM2.5)
常州市,行政中心,119.9701,31.813,2026-01-14T1700,24,45,0.4,31,6,90,77,45,
常州市,经开区,120.0434,31.7726,2026-01-14T1700,40,62,0.9,42,10,86,82,57,细颗粒物(PM2.5)
常州市,钟楼,119.8919,31.7892,2026-01-14T1700,43,69,0.4,43,9,85,75,60,"颗粒物(PM10),细颗粒物(PM2.5)"
常州市,武进经发区,119.8595,31.706,2026-01-14T1700,40,61,0.6,35,5,108,79,57,细颗粒物(PM2.5)
常州市,金坛城区,119.5812,31.7256,2026-01-14T1700,40,,0.6,32,11,94,72,57,细颗粒物(PM2.5)
常州市,崇义南街5-H号,119.9551,31.863,2026-01-14T1700,22,46,0.6,43,6,84,81,46,
朝阳市,西梁,120.4318,41.588,2026-01-14T1700,82,129,1.5,53,14,12,28,109,细颗粒物(PM2.5)
朝阳市,河畔小区,120.452,41.565,2026-01-14T1700,50,61,1.2,36,12,36,32,69,细颗粒物(PM2.5)
朝阳市,八里堡,120.4176,41.5648,2026-01-14T1700,66,97,1.8,72,13,9,28,89,细颗粒物(PM2.5)
潮州市,市政府,116.6179,23.6608,2026-01-14T1700,29,69,,17,4,131,107,,
潮州市,金山,116.646,23.676,2026-01-14T1700,36,,0.4,13,6,147,113,52,细颗粒物(PM2.5)
郴州市,市职中,113.0116,25.8228,2026-01-14T1700,25,34,0.5,9,7,115,89,36,
郴州市,市审计局,113.0381,25.8074,2026-01-14T1700,28,37,/,9,3,122,96,40,
郴州市,市环保局,113.0348,25.7757,2026-01-14T1700,28,44,0.3,10,5,117,100,44,
郴州市,好美居路49号,113.0138,25.8011,2026-01-14T1700,30,34,/,8,5,123,99,43,
成都市,金泉两河,103.9727,30.7242,2026-01-14T1700,32,59,0.6,19,3,100,74,55,颗粒物(PM10)
成都市,十里店,104.1423,30.6765,2026-01-14T1700,38,61,0.5,17,4,103,82,56,颗粒物(PM10)
成都市,三瓦窑,104.0594,30.5765,2026-01-14T1700,33,48,0.5,20,4,111,76,48,
成都市,沙河铺,104.1122,30.6306,2026-01-14T1700,,,,16,4,94,69,,
成都市,大石西路,104.0219,30.6561,2026-01-14T1700,40,57,0.8,23,5,98,68,57,细颗粒物(PM2.5)
成都市,龙泉驿区区政府,104.2724,30.559,2026-01-14T1700,29,51,0.4,15,7,112,101,51,颗粒物(PM10)
成都市,金博路,104.0028,30.6891,2026-01-14T1700,22,40,0.6,18,5,101,73,40,
成都市,华阳,104.056,30.5228,2026-01-14T1700,41,58,0.5,18,3,106,85,58,细颗粒物(PM2.5)
成都市,青石路225号,104.387954,30.746684,2026-01-14T1700,44,73,0.5,16,3,118,84,62,"颗粒物(PM10),细颗粒物(PM2.5)"
成都市,科学城,104.0788,30.4054,2026-01-14T1700,58,68,0.1,19,6,112,84,79,细颗粒物(PM2.5)
成都市,光华大道三段,103.8505,30.6946,2026-01-14T1700,46,71,0.2,19,4,115,81,64,细颗粒物(PM2.5)
成都市,八角井街185号,104.3257,30.6406,2026-01-14T1700,43,70,0.4,18,4,109,90,60,"颗粒物(PM10),细颗粒物(PM2.5)"
成都市,鲸龙路1057号,104.2433276,30.53529463,2026-01-14T1700,39,47,0.4,14,5,112,91,55,细颗粒物(PM2.5)
承德市,铁路,117.9531,40.908,2026-01-14T1700,37,65,0.7,43,9,15,24,58,颗粒物(PM10)
承德市,中国银行,117.9397,40.9763,2026-01-14T1700,35,65,0.8,29,8,33,38,58,颗粒物(PM10)
承德市,杏林街1号,117.9462,40.95,2026-01-14T1700,32,57,0.7,22,9,43,32,54,颗粒物(PM10)
承德市,滨河大街98号,117.7994,40.9605,2026-01-14T1700,55,56,0.7,28,9,30,29,75,细颗粒物(PM2.5)
池州市,池州学院,117.4698,30.6617,2026-01-14T1700,,,,,,,79,,
池州市,展览馆,117.4918,30.6617,2026-01-14T1700,32,80,1.0,,12,96,86,,
池州市,第八中学,117.5626,30.695,2026-01-14T1700,34,54,0.8,26,11,106,96,52,颗粒物(PM10)
池州市,第十二中学,117.5037,30.6242,2026-01-14T1700,46,66,0.7,31,15,102,92,64,细颗粒物(PM2.5)
赤峰市,松山一中,118.9229,42.2816,2026-01-14T1700,27,65,1.1,44,13,31,27,58,颗粒物(PM10)
赤峰市,哈达街,118.9588,42.2733,2026-01-14T1700,19,72,1.1,45,21,31,30,61,颗粒物(PM10)
赤峰市,天义路,118.8792,42.2551,2026-01-14T1700,18,36,0.5,30,5,49,38,36,
赤峰市,银河街,119.2656,42.0356,2026-01-14T1700,33,90,1.4,29,24,39,46,70,颗粒物(PM10)
赤峰市,桥北物流园区,118.9359,42.3146,2026-01-14T1700,55,95,1.2,47,26,24,31,75,细颗粒物(PM2.5)
崇左市,市环保局江州分局,107.3473,22.4137,2026-01-14T1700,49,75,0.8,13,11,143,103,68,细颗粒物(PM2.5)
崇左市,石景林东路7号,107.375,22.3736,2026-01-14T1700,58,70,0.6,13,11,144,106,79,细颗粒物(PM2.5)
滁州市,市政府原办公楼,118.31131,32.3033,2026-01-14T1700,31,48,0.3,24,8,102,79,48,
滁州市,图书馆,118.3268,32.2633,2026-01-14T1700,22,42,0.5,24,12,98,90,42,
滁州市,银山路666号,118.3196,32.3335,2026-01-14T1700,42,63,0.4,26,5,88,74,59,细颗粒物(PM2.5)
滁州市,黄山路555号,118.3426,32.2979,2026-01-14T1700,38,57,0.8,42,13,106,97,54,"颗粒物(PM10),细颗粒物(PM2.5)"
楚雄彝族自治州,市经济开发区,101.5379,25.0492,2026-01-14T1700,8,10,0.4,3,2,75,53,24,
楚雄彝族自治州,团结路562号,101.5536,25.0343,2026-01-14T1700,3,19,,,4,72,10,,
达州市,市环境监测站,107.5087,31.2186,2026-01-14T1700,139,161,0.9,50,9,53,24,185,细颗粒物(PM2.5)
达州市,凤凰小区,107.4988,31.2132,2026-01-14T1700,136,183,1.0,50,7,44,22,180,细颗粒物(PM2.5)
达州市,达县机关宾馆,107.5081,31.1987,2026-01-14T1700,103,166,1.2,73,5,32,21,135,细颗粒物(PM2.5)
达州市,市政中心,107.4644,31.2124,2026-01-14T1700,122,165,0.7,30,8,67,31,160,细颗粒物(PM2.5)
大理白族自治州,大理市环境监测站,100.2168,25.5818,2026-01-14T1700,14,24,0.6,7,7,82,74,26,
大理白族自治州,大理古城,100.1542,25.7055,2026-01-14T1700,15,26,0.5,6,8,100,86,32,
大连市,甘井子,121.6119,38.974,2026-01-14T1700,30,51,0.3,48,7,22,71,51,颗粒物(PM10)
大连市,周水子,121.565,38.9509,2026-01-14T1700,29,46,0.4,40,7,26,67,46,
大连市,星海三站,121.5637,38.8849,2026-01-14T1700,23,36,0.4,24,5,55,70,36,
大连市,青泥洼桥,121.6301,38.9117,2026-01-14T1700,28,52,0.7,36,8,38,68,51,颗粒物(PM10)
大连市,傅家庄,121.6248,38.8643,2026-01-14T1700,20,60,0.2,23,8,53,64,55,颗粒物(PM10)
大连市,七贤岭,121.5117,38.8636,2026-01-14T1700,25,47,0.5,35,10,44,65,47,
大连市,金州,121.7507,39.1339,2026-01-14T1700,46,74,0.6,24,7,37,71,64,细颗粒物(PM2.5)
大连市,开发区,121.7811,39.0495,2026-01-14T1700,36,52,0.8,32,6,26,60,52,细颗粒物(PM2.5)
大连市,双D港,121.9762,39.0631,2026-01-14T1700,29,43,0.5,17,6,53,78,43,
大连市,旅顺,121.2548,38.8188,2026-01-14T1700,,,,,,,68,,
大庆市,大同区,124.8085,46.0381,2026-01-14T1700,18,44,0.7,32,10,38,51,44,
大庆市,龙凤区,125.1166,46.5255,2026-01-14T1700,18,32,0.8,42,10,29,42,32,
大庆市,红岗区,124.8894,46.4007,2026-01-14T1700,32,34,0.6,35,6,24,39,46,
大庆市,萨尔图区,125.1391,46.578,2026-01-14T1700,18,39,0.5,32,9,27,41,39,
大庆市,让胡路区,124.9026,46.6217,2026-01-14T1700,21,25,0.6,28,9,47,63,30,
大庆市,萨区政府监测点,125.127,46.6277,2026-01-14T1700,19,36,0.6,32,10,34,52,36,
大同市,云冈宾馆,113.2926,40.0759,2026-01-14T1700,49,388,0.5,10,4,68,63,255,颗粒物(PM10)
大同市,大同大学,113.3437,40.0921,2026-01-14T1700,116,393,0.4,8,2,77,69,262,颗粒物(PM10)
大同市,安家小村,113.2637,40.129,2026-01-14T1700,69,507,0.3,10,4,55,61,407,颗粒物(PM10)
大同市,大同市卫生学校,113.3399,40.0586,2026-01-14T1700,84,392,0.3,16,3,68,63,260,颗粒物(PM10)
大同市,云冈站,113.1371,40.1122,2026-01-14T1700,80,444,0.5,8,3,71,66,330,颗粒物(PM10)
大同市,图书馆,113.1186,40.2556,2026-01-14T1700,74,347,0.3,8,2,76,72,199,颗粒物(PM10)
大同市,区一中,113.5931,40.0459,2026-01-14T1700,,,,,,,69,,
大同市,魏都大道141号,113.2798248,40.09972476,2026-01-14T1700,50,441,0.5,,3,69,64,327,颗粒物(PM10)
大兴安岭地区,科技局,124.1068,50.4091,2026-01-14T1700,13,20,0.3,4,5,52,54,20,
大兴安岭地区,红旗社区,124.117,50.4279,2026-01-14T1700,6,9,0.2,3,5,52,59,17,
丹东市,江湾东路,124.33,40.0625,2026-01-14T1700,24,38,0.6,14,8,51,39,38,
丹东市,临江后街,124.4242,40.1513,2026-01-14T1700,25,36,0.6,16,7,48,42,36,
丹东市,元宝山,124.3935,40.1461,2026-01-14T1700,25,39,0.6,24,12,37,32,39,
丹东市,民主桥,124.3634,40.1093,2026-01-14T1700,30,55,0.9,39,14,23,30,53,颗粒物(PM10)
儋州市,第一中学子站,109.5726195,19.51688767,2026-01-14T1700,17,32,0.5,2,3,90,85,32,
儋州市,东坡学校子站,109.5567,19.5187,2026-01-14T1700,19,25,0.4,3,6,98,94,31,
德宏傣族景颇族自治州,德宏州监测站,98.5611,24.4273,2026-01-14T1700,21,35,0.5,10,6,82,58,35,
德宏傣族景颇族自治州,芒市人民政府综合楼,98.5887,24.4366,2026-01-14T1700,26,48,0.5,8,4,78,54,48,
德阳市,东山公园,104.424,31.1209,2026-01-14T1700,30,51,0.4,10,5,106,82,51,颗粒物(PM10)
德阳市,西小区,104.3827,31.1318,2026-01-14T1700,30,63,0.6,13,4,98,64,57,颗粒物(PM10)
德阳市,耐火材料厂,104.3553,31.1091,2026-01-14T1700,40,62,0.6,20,2,101,66,57,细颗粒物(PM2.5)
德阳市,市林业局,104.4144,31.1495,2026-01-14T1700,32,63,0,17,3,97,55,57,颗粒物(PM10)
德州市,儿童乐园,116.3034,37.4675,2026-01-14T1700,146,241,1.5,72,21,23,23,195,细颗粒物(PM2.5)
德州市,监理站,116.2992,37.4449,2026-01-14T1700,,,1.5,,31,31,31,,
德州市,九衢泉纯净水厂,116.2722,37.438,2026-01-14T1700,156,234,1.4,80,15,19,21,206,细颗粒物(PM2.5)
德州市,开发区人民医院,116.3693,37.44,2026-01-14T1700,144,234,1.3,79,23,32,29,192,细颗粒物(PM2.5)
德州市,陵城艺术中心,116.5687,37.3331,2026-01-14T1700,136,217,1.4,72,22,20,20,180,细颗粒物(PM2.5)
德州市,新河东路,116.352738,37.420875,2026-01-14T1700,149,227,1.6,90,24,24,23,199,细颗粒物(PM2.5)
迪庆藏族自治州,迪庆州站,99.7054,27.8319,2026-01-14T1700,9,25,0.3,5,4,79,78,25,
迪庆藏族自治州,质量技术监督局,99.7122,27.8129,2026-01-14T1700,6,26,0.2,7,4,82,78,26,
定西市,将台街,104.6092,35.5962,2026-01-14T1700,26,143,0.2,5,9,96,74,97,颗粒物(PM10)
定西市,正龙路62号,104.6159,35.5701,2026-01-14T1700,29,162,0.4,2,6,97,74,106,颗粒物(PM10)
东莞市,东城石井,113.7943,23.0132,2026-01-14T1700,18,34,0.4,18,6,146,146,46,
东莞市,南城西平,113.7384,22.9659,2026-01-14T1700,38,52,0.6,43,7,134,126,54,细颗粒物(PM2.5)
东莞市,万江金泰,113.7283,23.041,2026-01-14T1700,60,102,1.0,51,6,176,150,82,细颗粒物(PM2.5)
东莞市,裕兴路,113.8666,23.1062,2026-01-14T1700,27,71,0.8,33,6,215,164,108,臭氧1小时(O3_1h)
东莞市,教育路1号,114.0076,22.9739,2026-01-14T1700,20,41,0.6,30,4,154,136,49,
东莞市,长怡路1号,113.7981,22.8124,2026-01-14T1700,27,58,0.7,49,8,97,95,54,颗粒物(PM10)
东营市,市环保局,118.6612,37.4313,2026-01-14T1700,114,180,1.4,87,31,18,26,149,细颗粒物(PM2.5)
东营市,开发区管委会,118.6903,37.4337,2026-01-14T1700,117,183,1.1,82,8,25,30,153,细颗粒物(PM2.5)
东营市,垦利区民丰路,118.5721,37.5654,2026-01-14T1700,,,1.4,92,14,10,25,,
东营市,河口城区,118.5063,37.8606,2026-01-14T1700,95,168,1.3,61,15,44,34,125,细颗粒物(PM2.5)
东营市,胜利站,118.4979,37.4623,2026-01-14T1700,129,175,1.6,93,28,12,21,170,细颗粒物(PM2.5)
东营市,理想之城,118.5753,37.4405,2026-01-14T1700,112,183,1.6,89,26,12,21,147,细颗粒物(PM2.5)
鄂尔多斯市,综合楼,110.0024,39.8127,2026-01-14T1700,48,469,0.3,6,4,79,77,362,颗粒物(PM10)
鄂尔多斯市,巴音孟克林场办事处,109.9485,39.8259,2026-01-14T1700,58,398,0.1,5,4,85,82,269,颗粒物(PM10)
鄂尔多斯市,康泽苑,109.7734,39.5987,2026-01-14T1700,46,364,0.3,5,5,89,86,220,颗粒物(PM10)
鄂尔多斯市,华泰汽车城,109.8121,39.5987,2026-01-14T1700,44,349,0.3,5,4,88,86,200,颗粒物(PM10)
鄂尔多斯市,奥林花园,109.9734,39.7884,2026-01-14T1700,56,420,0.3,23,19,67,69,300,颗粒物(PM10)
鄂州市,市政府,114.894,30.3989,2026-01-14T1700,38,59,0.8,42,9,85,92,55,颗粒物(PM10)
鄂州市,赵家坝,114.8986,30.3714,2026-01-14T1700,,,1.0,,11,102,100,,
鄂州市,精准医疗中心,114.8093,30.4091,2026-01-14T1700,31,45,0.6,17,6,115,99,45,
恩施土家族苗族自治州,湖北民院,109.4978,30.2979,2026-01-14T1700,112,,1.5,42,7,9,10,147,细颗粒物(PM2.5)
恩施土家族苗族自治州,龙凤新区,109.5061,30.3771,2026-01-14T1700,102,120,0.8,40,7,13,12,134,细颗粒物(PM2.5)
防城港市,沙万,108.3411,21.6159,2026-01-14T1700,24,47,1.2,26,15,135,126,47,
防城港市,防城档案局,108.3515,21.7733,2026-01-14T1700,24,46,0.4,12,7,142,123,46,
防城港市,大海花园,108.3506,21.6414,2026-01-14T1700,39,63,0.7,16,13,145,143,57,颗粒物(PM10)
佛山市,湾梁,113.1293,23.0065,2026-01-14T1700,22,51,/,28,/,129,114,51,颗粒物(PM10)
佛山市,华材职中,113.1082,23.0477,2026-01-14T1700,33,53,0.5,24,6,132,108,52,颗粒物(PM10)
佛山市,南海气象局,113.1439,23.045,2026-01-14T1700,,,/,,/,128,102,,
佛山市,顺德苏岗,113.2879,22.8094,2026-01-14T1700,24,41,0.6,29,/,115,95,41,
佛山市,高明孔堂,112.8384,22.8678,2026-01-14T1700,31,40,/,11,/,,115,,
佛山市,三水监测站,112.8835,23.1584,2026-01-14T1700,35,61,0.7,42,2,158,104,56,颗粒物(PM10)
佛山市,三水云东海,112.8668,23.185,2026-01-14T1700,32,71,/,35,/,176,117,70,臭氧1小时(O3_1h)
佛山市,容桂街道办,113.2568,22.7629,2026-01-14T1700,24,39,/,25,/,116,100,39,
福州市,师大,119.2681,26.0506,2026-01-14T1700,17,60,0.4,24,4,122,110,55,颗粒物(PM10)
福州市,五四北路,119.2983,26.1028,2026-01-14T1700,21,46,0.6,24,5,120,106,46,
福州市,杨桥西路,119.2648,26.0769,2026-01-14T1700,20,56,/,17,5,123,114,53,颗粒物(PM10)
福州市,九龙,119.5799,26.0937,2026-01-14T1700,14,35,0.5,12,4,124,119,39,
福州市,吴航,119.5188,25.9666,2026-01-14T1700,12,30,0.6,12,5,125,104,40,
福州市,路通桥巷6号,119.3106,26.0648,2026-01-14T1700,18,44,/,16,/,115,102,44,
抚顺市,望花区,123.7974,41.8494,2026-01-14T1700,28,48,0.8,46,8,25,37,48,
抚顺市,顺城区,123.9161,41.8827,2026-01-14T1700,27,36,0.7,38,8,36,44,39,
抚顺市,东洲区,124.0437,41.8615,2026-01-14T1700,16,27,0.6,10,7,53,49,27,
抚顺市,新抚区,123.9246,41.8638,2026-01-14T1700,24,29,0.7,23,8,54,51,35,
抚顺市,大伙房水库,124.0972,41.8961,2026-01-14T1700,20,28,0.7,10,11,58,56,29,
抚顺市,沈抚新城,123.708,41.8386,2026-01-14T1700,61,93,3.1,64,25,13,25,83,细颗粒物(PM2.5)
抚州市,市站,116.3544,27.9833,2026-01-14T1700,20,39,0.5,13,8,110,84,39,
抚州市,血防站,116.3562,27.9631,2026-01-14T1700,20,37,0.6,13,6,113,84,37,
抚州市,采茶剧团,116.3561,28.0007,2026-01-14T1700,18,31,0.9,6,6,126,92,40,
抚州市,医学分院,116.3854,27.9648,2026-01-14T1700,17,32,0.5,5,7,118,87,37,
阜新市,工业园区,121.6095,41.9978,2026-01-14T1700,38,64,0.6,29,14,38,37,57,颗粒物(PM10)
阜新市,长青街,121.6567,42.0188,2026-01-14T1700,46,98,0.9,43,15,27,33,74,颗粒物(PM10)
阜新市,农业园区,121.6672,42.07,2026-01-14T1700,66,131,0.9,42,19,27,41,91,颗粒物(PM10)
阜新市,玉龙新城,121.6343,42.0455,2026-01-14T1700,67,133,1.1,60,24,16,34,92,颗粒物(PM10)
阜阳市,市监测站,115.8276,32.8929,2026-01-14T1700,46,78,0.6,25,6,101,89,64,"颗粒物(PM10),细颗粒物(PM2.5)"
阜阳市,开发区,115.8551,32.8606,2026-01-14T1700,38,61,0.5,25,6,103,90,56,颗粒物(PM10)
阜阳市,阜阳职业技术学院,115.783962,32.889217,2026-01-14T1700,44,67,0.6,20,7,100,97,62,细颗粒物(PM2.5)
阜阳市,市规划展馆,115.79,32.8614,2026-01-14T1700,49,74,0.7,23,7,111,101,68,细颗粒物(PM2.5)
阜阳市,枣园社区,115.835101,32.918568,2026-01-14T1700,54,66,0.6,31,7,96,89,74,细颗粒物(PM2.5)
甘南藏族自治州,州政府,102.9097,34.9841,2026-01-14T1700,10,35,0.2,1,,102,78,,
甘南藏族自治州,甘肃民族师范学院,102.8915,34.9618,2026-01-14T1700,6,50,0.4,2,6,95,78,50,
甘孜藏族自治州,水桥子,101.96,30.048,2026-01-14T1700,13,36,0.7,6,7,96,76,36,
甘孜藏族自治州,州环保局,101.9534,29.9976,2026-01-14T1700,17,35,0.6,9,6,97,80,35,
赣州市,地委,114.9368,25.8663,2026-01-14T1700,33,43,0.8,16,10,158,104,50,
赣州市,气象台,114.946,25.8483,2026-01-14T1700,28,49,0.4,40,4,136,106,49,
赣州市,市图书馆,114.932,25.8332,2026-01-14T1700,36,52,0.9,28,5,112,101,52,细颗粒物(PM2.5)
赣州市,华坚鞋城,114.8905,25.8472,2026-01-14T1700,27,50,0.5,33,9,109,89,50,
赣州市,赣县区卫计委,115.0094,25.8614,2026-01-14T1700,38,51,0.7,19,7,123,87,54,细颗粒物(PM2.5)
固原市,监测站,106.2753,36.0057,2026-01-14T1700,19,72,0.5,6,6,85,82,61,颗粒物(PM10)
固原市,新区,106.2384,36.0189,2026-01-14T1700,15,66,0.1,5,4,88,85,58,颗粒物(PM10)
广安市,市委,106.6307,30.4577,2026-01-14T1700,134,,0.9,17,10,90,56,178,细颗粒物(PM2.5)
广安市,友谊中学,106.6266,30.4662,2026-01-14T1700,121,125,1.1,,7,88,54,159,细颗粒物(PM2.5)
广安市,广电花园,106.6386,30.4551,2026-01-14T1700,130,138,0.8,21,9,77,58,172,细颗粒物(PM2.5)
广安市,北辰小学,106.6347,30.4868,2026-01-14T1700,124,129,1.1,18,3,88,51,163,细颗粒物(PM2.5)
广元市,老城,105.8211,32.4444,2026-01-14T1700,15,42,0.4,14,16,87,81,42,
广元市,监测站,105.8629,32.429,2026-01-14T1700,16,61,0.7,15,2,82,80,56,颗粒物(PM10)
广元市,经开区,105.8047,32.4167,2026-01-14T1700,15,44,0.5,8,2,82,75,44,
广州市,广雅中学,113.2346,23.1423,2026-01-14T1700,24,42,1.0,14,3,129,110,42,
广州市,市五中,113.2611,23.105,2026-01-14T1700,22,38,/,24,8,145,137,46,
广州市,广东商学院,113.3477,23.0916,2026-01-14T1700,26,46,0.4,24,6,128,114,46,
广州市,市八十六中,113.4332,23.105,2026-01-14T1700,31,59,/,43,8,176,146,70,臭氧1小时(O3_1h)
广州市,番禺中学,113.3506,22.9488,2026-01-14T1700,26,48,0.6,28,4,135,115,48,
广州市,花都师范,113.2147,23.3918,2026-01-14T1700,46,84,0.5,40,6,199,128,99,臭氧1小时(O3_1h)
广州市,市监测站,113.2599,23.1329,2026-01-14T1700,22,37,/,23,2,130,116,41,
广州市,九龙镇镇龙,113.5618,23.3119,2026-01-14T1700,62,107,0.6,39,8,244,142,122,臭氧1小时(O3_1h)
广州市,麓湖,113.2764,23.1544,2026-01-14T1700,22,38,0.4,20,9,130,123,41,
广州市,体育西,113.3209,23.1323,2026-01-14T1700,22,42,0.5,22,6,127,110,42,
广州市,从化街口,113.5718,23.5493,2026-01-14T1700,43,66,0.6,28,11,199,118,99,臭氧1小时(O3_1h)
广州市,白云竹料,113.3463,23.369,2026-01-14T1700,43,76,0.5,37,4,222,130,111,臭氧1小时(O3_1h)
广州市,白云嘉禾,113.2981,23.2365,2026-01-14T1700,24,45,/,31,6,144,135,45,
广州市,黄埔科学城,113.4256,23.1716,2026-01-14T1700,38,65,0.6,33,9,187,151,84,臭氧1小时(O3_1h)
广州市,番禺大学城,113.3942,23.0485,2026-01-14T1700,26,57,0.4,28,11,147,137,54,颗粒物(PM10)
广州市,南沙黄阁,113.4923,22.8169,2026-01-14T1700,19,45,/,27,5,147,120,46,
广州市,南沙街,113.534,22.7893,2026-01-14T1700,20,58,0.5,25,5,133,114,54,颗粒物(PM10)
广州市,花都梯面,113.2905,23.5541,2026-01-14T1700,46,78,/,38,8,190,121,88,臭氧1小时(O3_1h)
广州市,从化良口,113.786,23.7479,2026-01-14T1700,33,39,/,16,10,123,102,48,
广州市,增城荔城,113.805,23.2614,2026-01-14T1700,48,79,0.5,26,8,236,146,118,臭氧1小时(O3_1h)
贵港市,江南子站,109.604387,23.066791,2026-01-14T1700,36,56,0.6,12,9,171,134,64,臭氧1小时(O3_1h)
贵港市,荷城子站,109.5669,23.1065,2026-01-14T1700,39,56,0.9,15,10,151,119,55,细颗粒物(PM2.5)
贵港市,新世纪学校,109.5886,23.1172,2026-01-14T1700,40,63,0.5,12,/,163,126,57,"颗粒物(PM10),细颗粒物(PM2.5)"
贵港市,中山路155-3号,109.5933,23.095,2026-01-14T1700,35,62,0.5,13,/,173,128,67,臭氧1小时(O3_1h)
贵阳市,马鞍山,106.6863,26.6035,2026-01-14T1700,90,100,/,20,9,65,82,119,细颗粒物(PM2.5)
贵阳市,鉴湖路,106.6241,26.6266,2026-01-14T1700,73,100,1.0,21,6,80,84,98,细颗粒物(PM2.5)
贵阳市,燕子冲,106.7468,26.6344,2026-01-14T1700,102,,0.8,27,9,66,76,134,细颗粒物(PM2.5)
贵阳市,碧云窝,106.6556,26.4362,2026-01-14T1700,95,122,/,31,13,49,102,125,细颗粒物(PM2.5)
贵阳市,红边门,106.6963,26.6063,2026-01-14T1700,95,119,/,38,14,59,72,125,细颗粒物(PM2.5)
贵阳市,新华路,106.7162383,26.56964667,2026-01-14T1700,90,112,0.8,25,10,63,63,119,细颗粒物(PM2.5)
贵阳市,太慈桥,106.6742,26.542,2026-01-14T1700,88,102,/,31,5,60,72,117,细颗粒物(PM2.5)
贵阳市,花果园大街66号,106.688212,26.56952,2026-01-14T1700,113,,/,29,7,58,68,148,细颗粒物(PM2.5)
贵阳市,漓江路57号,106.687268,26.516892,2026-01-14T1700,92,107,1.2,30,14,62,72,122,细颗粒物(PM2.5)
桂林市,龙隐路小学,110.3091,25.2705,2026-01-14T1700,48,61,0.7,15,10,131,96,67,细颗粒物(PM2.5)
桂林市,八中,110.2849361,25.22909545,2026-01-14T1700,53,63,0.5,20,12,106,70,73,细颗粒物(PM2.5)
桂林市,旅游学院,110.296,25.1254,2026-01-14T1700,41,56,0.3,9,10,136,94,58,细颗粒物(PM2.5)
桂林市,环湖路276号,110.1835,25.2444,2026-01-14T1700,53,63,0.4,12,12,129,79,73,细颗粒物(PM2.5)
桂林市,信义路13号,110.2803,25.2773,2026-01-14T1700,41,71,0.8,12,10,142,94,61,颗粒物(PM10)
果洛藏族自治州,玛沁县大武镇,100.2262,34.4854,2026-01-14T1700,11,33,0.3,2,13,110,100,35,
哈尔滨市,松北商大,126.5557,45.8109,2026-01-14T1700,31,46,0.7,46,10,26,50,46,
哈尔滨市,南岗学府路,126.6162,45.719,2026-01-14T1700,57,73,1.0,46,10,25,48,78,细颗粒物(PM2.5)
哈尔滨市,太平宏伟公园,126.6894,45.7733,2026-01-14T1700,62,70,0.9,45,14,33,48,84,细颗粒物(PM2.5)
哈尔滨市,道外承德广场,126.6361,45.7672,2026-01-14T1700,45,83,0.7,53,12,29,44,67,颗粒物(PM10)
哈尔滨市,动力和平路,126.644,45.7261,2026-01-14T1700,65,73,0.9,46,14,31,47,88,细颗粒物(PM2.5)
哈尔滨市,道里建国路,126.5933,45.7479,2026-01-14T1700,53,58,1.2,50,22,28,43,73,细颗粒物(PM2.5)
哈尔滨市,平房东轻厂,126.6127,45.6119,2026-01-14T1700,61,,1.0,39,6,43,48,83,细颗粒物(PM2.5)
哈尔滨市,呼兰师专,126.5875,45.9827,2026-01-14T1700,34,42,0.6,34,12,33,48,49,
哈尔滨市,省农科院,126.6299,45.6799,2026-01-14T1700,75,,0.7,,13,16,48,,
哈尔滨市,华山路1号,126.6769,45.7379,2026-01-14T1700,61,90,0.9,49,20,26,40,83,细颗粒物(PM2.5)
哈尔滨市,解放大街52号,126.9717,45.5356,2026-01-14T1700,51,59,0.9,26,14,51,53,70,细颗粒物(PM2.5)
哈密市,地区监测站,93.5124,42.8176,2026-01-14T1700,170,760,0.7,18,,41,55,500,颗粒物(PM10)
哈密市,哈密师范学校,93.5014,42.8312,2026-01-14T1700,204,733,0.5,20,2,41,47,500,颗粒物(PM10)
海北藏族自治州,海晏县西海镇,100.9016,36.9464,2026-01-14T1700,16,39,0.3,,7,90,83,,
海东市,平安区公安局北苑,102.074,36.5056,2026-01-14T1700,,,0.5,4,7,82,63,,
海东市,滨河路,102.0984,36.5119,2026-01-14T1700,16,50,0.5,10,5,92,70,50,
海口市,海南大学,110.3189,20.0596,2026-01-14T1700,26,40,0.3,13,6,198,203,98,臭氧1小时(O3_1h)
海口市,秀英海南医院,110.2827,20.0051,2026-01-14T1700,20,48,0.4,11,7,159,171,50,
海口市,海南师范大学,110.3391,19.9979,2026-01-14T1700,21,48,0.7,13,6,170,186,63,臭氧1小时(O3_1h)
海口市,龙华路环保局宿舍,110.3303,20.0359,2026-01-14T1700,27,45,0.7,11,/,189,187,87,臭氧1小时(O3_1h)
海口市,桂林洋子站,110.5111,19.9737,2026-01-14T1700,15,24,/,8,/,131,152,41,
海口市,长滨二路9号,110.1952,20.0451,2026-01-14T1700,24,33,/,12,/,183,174,79,臭氧1小时(O3_1h)
海南藏族自治州,共和县恰卜恰镇,100.6158,36.2985,2026-01-14T1700,41,55,0.2,1,10,99,94,58,细颗粒物(PM2.5)
海西蒙古族藏族自治州,德令哈市,97.373,37.376,2026-01-14T1700,15,86,0.5,3,10,92,82,68,颗粒物(PM10)
邯郸市,矿院,114.492,36.5712,2026-01-14T1700,97,129,1.2,57,10,24,22,128,细颗粒物(PM2.5)
邯郸市,丛台公园,114.4839,36.6136,2026-01-14T1700,92,127,1.3,57,10,26,29,122,细颗粒物(PM2.5)
邯郸市,香泉濮院小区,114.7893,36.5592,2026-01-14T1700,84,121,0.9,43,10,36,35,112,细颗粒物(PM2.5)
邯郸市,峰峰矿区临水派出所,114.1998,36.4439,2026-01-14T1700,132,145,2.4,56,30,34,34,175,细颗粒物(PM2.5)
邯郸市,建安街268号,114.5209,36.7697,2026-01-14T1700,89,132,1.7,63,22,21,23,118,细颗粒物(PM2.5)
邯郸市,丛台东路558号,114.5488,36.6177,2026-01-14T1700,94,121,1.4,51,14,26,26,124,细颗粒物(PM2.5)
汉中市,市监测站,107.0155,33.0707,2026-01-14T1700,56,77,0.7,28,6,77,48,77,细颗粒物(PM2.5)
汉中市,鑫源开发区,107.0083,33.114,2026-01-14T1700,71,82,0.6,26,6,83,47,95,细颗粒物(PM2.5)
汉中市,南郑大河坎水厂,107.0072,33.0323,2026-01-14T1700,48,69,0.6,26,5,73,47,67,细颗粒物(PM2.5)
杭州市,滨江,120.2073,30.2111,2026-01-14T1700,41,78,0.5,53,8,58,77,64,颗粒物(PM10)
杭州市,西溪,120.0625,30.2737,2026-01-14T1700,34,118,0.8,30,9,92,70,84,颗粒物(PM10)
杭州市,下沙,120.3417,30.315,2026-01-14T1700,58,89,0.7,75,12,83,85,79,细颗粒物(PM2.5)
杭州市,卧龙桥,120.1252,30.2465,2026-01-14T1700,30,50,0.3,39,10,89,76,50,
杭州市,浙江农大,120.1902,30.2691,2026-01-14T1700,36,61,0.5,56,7,81,79,56,颗粒物(PM10)
杭州市,和睦小学,120.1195,30.3121,2026-01-14T1700,34,50,0.6,32,6,90,75,50,
杭州市,临平镇,120.3076,30.4146,2026-01-14T1700,53,99,0.5,66,10,72,71,75,颗粒物(PM10)
杭州市,城厢镇,120.2753,30.1839,2026-01-14T1700,52,82,0.7,79,9,66,78,72,细颗粒物(PM2.5)
杭州市,云栖,120.0883,30.1808,2026-01-14T1700,38,107,0.5,50,5,86,74,79,颗粒物(PM10)
杭州市,镇二中,119.9463,30.0496,2026-01-14T1700,40,66,0.7,53,6,80,65,58,颗粒物(PM10)
杭州市,市府大楼,119.7184,30.2367,2026-01-14T1700,20,45,0.5,20,12,103,87,45,
杭州市,消防大队,120.1554,30.2863,2026-01-14T1700,33,55,0.4,42,7,80,63,53,颗粒物(PM10)
合肥市,明珠广场,117.1957,31.7845,2026-01-14T1700,29,46,0.4,40,10,88,56,46,
合肥市,三里街,117.307,31.8765,2026-01-14T1700,31,61,0.7,47,8,82,66,56,颗粒物(PM10)
合肥市,琥珀山庄,117.2587,31.8703,2026-01-14T1700,45,68,0.8,41,9,81,73,63,细颗粒物(PM2.5)
合肥市,庐阳区,117.2593,31.9376,2026-01-14T1700,36,61,0.6,50,6,77,69,56,颗粒物(PM10)
合肥市,瑶海区,117.345251,31.861615,2026-01-14T1700,27,51,0.5,31,9,114,86,51,颗粒物(PM10)
合肥市,包河区,117.3033,31.7967,2026-01-14T1700,31,46,0.7,19,12,116,86,46,
合肥市,滨湖新区,117.278,31.7392,2026-01-14T1700,34,44,0.6,23,8,116,92,49,
合肥市,高新区,117.1324,31.8395,2026-01-14T1700,28,51,0.5,42,6,85,58,51,颗粒物(PM10)
合肥市,高教基地,117.3802,31.9148,2026-01-14T1700,32,48,0.5,22,11,113,88,48,
合肥市,中国科学技术大学,117.2518,31.8404,2026-01-14T1700,31,58,0.6,35,11,103,73,54,颗粒物(PM10)
和田地区,地区环保局,79.9241,37.0878,2026-01-14T1700,18,127,0.2,6,2,88,70,89,颗粒物(PM10)
和田地区,市环保局,79.9132,37.1137,2026-01-14T1700,20,91,0.1,10,2,92,68,71,颗粒物(PM10)
河池市,市环保站,108.0496,24.6957,2026-01-14T1700,62,97,0.9,20,10,110,74,84,细颗粒物(PM2.5)
河池市,上任中路54号,108.0901,24.6945,2026-01-14T1700,63,77,0.8,17,11,112,72,85,细颗粒物(PM2.5)
河源市,东埔,114.6962,23.7538,2026-01-14T1700,25,38,0.7,14,7,140,101,44,
河源市,老城,114.6895,23.7232,2026-01-14T1700,29,50,0.5,11,7,139,103,50,
菏泽市,定陶老年大学,115.5562,35.089,2026-01-14T1700,158,249,1.0,51,7,32,29,208,细颗粒物(PM2.5)
菏泽市,黄河路600号,115.4239,35.2593,2026-01-14T1700,167,283,1.1,85,10,26,28,217,细颗粒物(PM2.5)
菏泽市,菏泽市人社局,115.5025,35.2727,2026-01-14T1700,144,252,0.7,59,11,31,21,192,细颗粒物(PM2.5)
菏泽市,永昌路1号,115.479691,35.244011,2026-01-14T1700,162,277,0.9,70,8,29,22,212,细颗粒物(PM2.5)
菏泽市,长城路999号,115.471542,35.280012,2026-01-14T1700,155,252,1.1,78,13,32,29,205,细颗粒物(PM2.5)
贺州市,环保小区,111.5264,24.4178,2026-01-14T1700,52,89,0.4,24,9,152,106,72,细颗粒物(PM2.5)
贺州市,政协大楼,111.561,24.4074,2026-01-14T1700,40,54,0.8,20,14,174,124,68,臭氧1小时(O3_1h)
贺州市,西湾,111.4744,24.455,2026-01-14T1700,41,69,,,10,166,108,,
鹤壁市,市监测站,114.17,35.9019,2026-01-14T1700,129,193,1.6,58,17,17,22,170,细颗粒物(PM2.5)
鹤壁市,市交警支队,114.2953,35.7512,2026-01-14T1700,106,183,1.6,63,20,16,17,139,细颗粒物(PM2.5)
鹤壁市,迎宾馆,114.2877,35.7302,2026-01-14T1700,95,186,1.6,59,20,18,17,125,细颗粒物(PM2.5)
鹤壁市,大新区,114.2616,35.6824,2026-01-14T1700,100,185,1.6,70,16,16,18,132,细颗粒物(PM2.5)
鹤壁市,南山宾馆,114.1573,35.9607,2026-01-14T1700,123,215,1.7,59,20,22,29,162,细颗粒物(PM2.5)
鹤岗市,哈啤分公司,130.2537,47.3416,2026-01-14T1700,17,26,0.5,6,6,65,64,26,
鹤岗市,斯达机电,130.2683,47.3087,2026-01-14T1700,20,28,0.4,10,6,56,56,29,
鹤岗市,东山纸板厂,130.3114,47.3388,2026-01-14T1700,,,0.5,7,8,62,58,,
黑河市,交通局,127.4832,50.2524,2026-01-14T1700,25,,0.5,18,7,40,54,36,
黑河市,环保局,127.5146,50.2339,2026-01-14T1700,19,22,0.3,30,11,31,52,28,
衡水市,电机北厂,115.6839,37.754,2026-01-14T1700,65,108,0.7,41,14,30,20,88,细颗粒物(PM2.5)
衡水市,市监测站,115.6303,37.7318,2026-01-14T1700,,124,,47,12,29,25,,
衡水市,市城管局,115.6684,37.7216,2026-01-14T1700,70,112,0.8,48,13,30,23,94,细颗粒物(PM2.5)
衡水市,地表水厂,115.599,37.5491,2026-01-14T1700,70,98,0.7,44,13,30,27,94,细颗粒物(PM2.5)
衡阳市,衡阳化工总厂,112.6209,26.9268,2026-01-14T1700,49,80,1.0,26,16,115,87,68,细颗粒物(PM2.5)
衡阳市,珠晖区环保局,112.621,26.8957,2026-01-14T1700,52,72,1.0,25,12,112,86,72,细颗粒物(PM2.5)
衡阳市,市委党校,112.628,26.8654,2026-01-14T1700,40,60,0.9,14,17,125,84,57,细颗粒物(PM2.5)
衡阳市,市监测站,112.6007,26.8977,2026-01-14T1700,44,65,0.9,27,15,105,75,62,细颗粒物(PM2.5)
衡阳市,真空机电公司,112.5658,26.9013,2026-01-14T1700,42,86,1.1,30,18,109,71,68,颗粒物(PM10)
衡阳市,师范学院,112.6703,26.8817,2026-01-14T1700,41,51,0.9,18,9,129,92,58,细颗粒物(PM2.5)
红河哈尼族彝族自治州,州图书馆,103.3757,23.3679,2026-01-14T1700,34,46,0.6,8,6,79,82,49,
红河哈尼族彝族自治州,蒙自市朝阳路,103.401,23.3561,2026-01-14T1700,36,,0.6,5,7,80,77,52,细颗粒物(PM2.5)
呼和浩特市,呼市一监,111.6506,40.7517,2026-01-14T1700,24,132,0.3,12,12,71,41,91,颗粒物(PM10)
呼和浩特市,如意水处理厂,111.7516,40.8369,2026-01-14T1700,28,124,0.2,10,9,73,38,87,颗粒物(PM10)
呼和浩特市,二十九中,111.727798,40.806187,2026-01-14T1700,26,232,0.3,7,10,75,40,141,颗粒物(PM10)
呼和浩特市,化肥厂生活区,111.717,40.7617,2026-01-14T1700,31,165,0.3,12,10,70,43,108,颗粒物(PM10)
呼和浩特市,海东办,111.6519,40.8389,2026-01-14T1700,23,144,0.3,10,4,77,34,97,颗粒物(PM10)
呼和浩特市,成吉思汗西街8号,111.591512,40.827312,2026-01-14T1700,25,124,0.4,16,5,64,32,87,颗粒物(PM10)
呼和浩特市,公园东路75号,111.6597,40.8077,2026-01-14T1700,25,139,0.3,16,5,61,35,95,颗粒物(PM10)
呼和浩特市,金海路35号,111.5427,40.7846,2026-01-14T1700,23,181,0.4,15,8,65,38,116,颗粒物(PM10)
呼伦贝尔市,国华电力东,119.7511,49.1576,2026-01-14T1700,21,30,0.4,18,6,51,54,30,
呼伦贝尔市,伊敏大街东7号,119.7569,49.2222,2026-01-14T1700,36,46,1.2,45,7,12,31,52,细颗粒物(PM2.5)
湖州市,城西水厂,120.075,30.867,2026-01-14T1700,,66,0.6,52,10,72,55,,
湖州市,仁皇山新区,120.083,30.8929,2026-01-14T1700,51,71,0.6,66,8,64,52,70,细颗粒物(PM2.5)
湖州市,吴兴区站,120.1846,30.8592,2026-01-14T1700,42,74,0.8,41,8,88,68,62,颗粒物(PM10)
湖州市,南浔区站,120.4146,30.8538,2026-01-14T1700,33,62,0.7,36,8,80,63,56,颗粒物(PM10)
葫芦岛市,龙港区,120.904878,40.721091,2026-01-14T1700,27,49,0.6,18,8,50,53,49,
葫芦岛市,化工街,120.8382,40.7521,2026-01-14T1700,27,56,0.6,24,21,45,41,53,颗粒物(PM10)
葫芦岛市,新区,120.8339,40.7078,2026-01-14T1700,24,42,0.6,22,11,52,44,42,
葫芦岛市,东城区,120.8697,40.7679,2026-01-14T1700,29,31,0.7,29,18,43,40,42,
怀化市,河西地税局,109.9297,27.5383,2026-01-14T1700,53,55,/,23,4,82,64,73,细颗粒物(PM2.5)
怀化市,市四医院,109.9783,27.5342,2026-01-14T1700,59,83,0.6,26,7,70,58,80,细颗粒物(PM2.5)
怀化市,监测楼,109.9971,27.5579,2026-01-14T1700,46,52,0.1,19,6,87,70,64,细颗粒物(PM2.5)
淮安市,钵池山,119.0566,33.5991,2026-01-14T1700,88,100,0.7,27,12,107,66,117,细颗粒物(PM2.5)
淮安市,北京南路,119.0083,33.578,2026-01-14T1700,93,119,1.0,58,19,72,52,123,细颗粒物(PM2.5)
淮安市,市监测站,118.9938,33.6083,2026-01-14T1700,70,95,0.8,34,13,97,64,94,细颗粒物(PM2.5)
淮安市,楚州区监测站,119.135,33.5038,2026-01-14T1700,106,139,0.9,54,15,73,55,139,细颗粒物(PM2.5)
淮安市,新华书店,118.8757,33.2897,2026-01-14T1700,76,106,1.4,44,11,82,63,102,细颗粒物(PM2.5)
淮安市,枚皋中路89号,119.119691,33.550006,2026-01-14T1700,88,111,0.5,35,14,100,62,117,细颗粒物(PM2.5)
淮安市,承德北路606号,119.028838,33.631911,2026-01-14T1700,91,117,1.0,54,12,76,51,120,细颗粒物(PM2.5)
淮北市,监测站,116.8005,33.9749,2026-01-14T1700,156,199,1.0,61,12,58,52,206,细颗粒物(PM2.5)
淮北市,烈山区政府,116.8094,33.9008,2026-01-14T1700,136,176,0.8,55,16,65,53,180,细颗粒物(PM2.5)
淮北市,市博物馆,116.7926,33.9534,2026-01-14T1700,160,204,1.2,60,8,65,58,210,细颗粒物(PM2.5)
淮北市,杜集区第一实验学校,116.8322,33.9884,2026-01-14T1700,151,230,0.9,56,11,58,48,201,细颗粒物(PM2.5)
淮南市,潘集区政府,116.8304,32.7726,2026-01-14T1700,60,85,0.7,28,9,102,86,82,细颗粒物(PM2.5)
淮南市,谢家集区政府,116.8569,32.5949,2026-01-14T1700,51,83,0.7,40,12,92,86,70,细颗粒物(PM2.5)
淮南市,八公山区政府,116.8279,32.6333,2026-01-14T1700,46,58,0.5,18,11,111,97,64,细颗粒物(PM2.5)
淮南市,经济技术开发区消防队,117.0561,32.6536,2026-01-14T1700,69,104,0.8,41,11,97,84,93,细颗粒物(PM2.5)
淮南市,山南新区,117.011,32.5891,2026-01-14T1700,33,76,0.7,28,5,107,88,63,颗粒物(PM10)
淮南市,国庆中路369号,117.003137,32.644456,2026-01-14T1700,52,94,0.8,36,13,84,69,72,"颗粒物(PM10),细颗粒物(PM2.5)"
黄冈市,职工中心,114.9021,30.474,2026-01-14T1700,34,53,0.9,24,13,104,95,52,颗粒物(PM10)
黄冈市,红卫路,114.8858,30.4519,2026-01-14T1700,38,50,0.6,24,14,116,97,54,细颗粒物(PM2.5)
黄冈市,市林业局,114.9134,30.4446,2026-01-14T1700,,,0.7,29,8,108,93,,
黄南藏族自治州,同仁县隆务镇,102.02,35.5101,2026-01-14T1700,16,35,0.2,1,8,87,78,35,
黄山市,延安路89号,118.2905,29.6965,2026-01-14T1700,11,27,0.4,11,4,99,79,31,
黄山市,黄山区政府5号楼,118.1369,30.2755,2026-01-14T1700,16,35,0.5,13,3,85,79,35,
黄山市,滨江东路7-2号,118.335445,29.720283,2026-01-14T1700,37,58,/,27,/,81,69,54,颗粒物(PM10)
黄石市,沈家营,115.0547,30.2332,2026-01-14T1700,35,74,1.3,,,95,89,,
黄石市,铁山,114.899,30.211,2026-01-14T1700,50,62,0.5,27,12,106,100,69,细颗粒物(PM2.5)
黄石市,团城山,115.0259,30.2108,2026-01-14T1700,42,75,0.8,30,7,103,92,63,颗粒物(PM10)
黄石市,笔架山北路,115.0174,30.1591,2026-01-14T1700,43,81,1.2,17,14,100,95,66,颗粒物(PM10)
黄石市,磁湖东路29号,115.078022,30.21118,2026-01-14T1700,44,71,1.1,38,11,95,83,62,细颗粒物(PM2.5)
惠州市,河南岸金山湖子站,114.4181,23.0528,2026-01-14T1700,28,49,0.5,18,5,152,108,49,
惠州市,下埔横江三路子站,114.4055,23.0824,2026-01-14T1700,27,51,0.6,19,7,156,119,51,颗粒物(PM10)
惠州市,惠阳区承修路船湖子站,114.4645,22.7832,2026-01-14T1700,18,33,,14,7,138,118,,
惠州市,大亚湾管委会子站,114.5316,22.7423,2026-01-14T1700,23,47,0.5,11,6,144,118,47,
惠州市,惠阳秋长,114.4334,22.8134,2026-01-14T1700,16,41,/,12,/,156,139,49,
惠州市,大亚湾霞涌,114.6521,22.7755,2026-01-14T1700,22,42,/,15,/,160,140,50,
惠州市,文华一路1号,114.4089,23.1147,2026-01-14T1700,27,48,/,20,/,173,130,67,臭氧1小时(O3_1h)
鸡西市,环保局,130.9618,45.2926,2026-01-14T1700,10,17,0.6,17,6,46,57,17,
鸡西市,第一中学,130.9294,45.2959,2026-01-14T1700,12,13,0.4,11,4,55,57,18,
鸡西市,欧美日汽修厂,131.0069,45.2988,2026-01-14T1700,13,18,0.4,30,11,37,56,19,
吉安市,红声器材厂,114.9753,27.0803,2026-01-14T1700,27,45,0.5,13,10,122,88,45,
吉安市,市环境监测站,114.9903,27.1313,2026-01-14T1700,26,37,/,12,9,120,88,38,
吉安市,青原区法院,115.009527,27.096792,2026-01-14T1700,21,40,0.5,14,11,115,82,40,
吉林市,哈达湾,126.54,43.8622,2026-01-14T1700,22,31,1.0,19,9,60,66,32,
吉林市,东局子,126.5843,43.8358,2026-01-14T1700,,,,,8,58,57,,
吉林市,电力学院,126.5051,43.8243,2026-01-14T1700,,54,0.6,,14,58,61,,
吉林市,江北,126.6133,43.8971,2026-01-14T1700,23,40,1.0,13,8,62,58,40,
吉林市,江南公园,126.5549,43.8304,2026-01-14T1700,28,38,0.6,19,11,56,60,40,
吉林市,九站,126.4737,43.953,2026-01-14T1700,26,49,0.7,25,10,57,54,49,
济南市,科干所,116.9866,36.6118,2026-01-14T1700,76,134,0.7,24,10,98,66,102,细颗粒物(PM2.5)
济南市,农科所,116.9379,36.6652,2026-01-14T1700,85,156,0.9,55,15,60,14,113,细颗粒物(PM2.5)
济南市,开发区,117.1265,36.6736,2026-01-14T1700,125,269,1.6,107,18,2,6,165,细颗粒物(PM2.5)
济南市,省种子仓库,117.0616,36.6865,2026-01-14T1700,119,263,1.5,93,22,6,8,157,颗粒物(PM10)
济南市,机床二厂,116.9495185,36.644937,2026-01-14T1700,112,166,0.6,36,17,83,27,147,细颗粒物(PM2.5)
济南市,市监测站,117.0496,36.6629,2026-01-14T1700,129,242,1.6,91,20,4,7,170,细颗粒物(PM2.5)
济南市,长清党校,116.7674,36.5458,2026-01-14T1700,105,156,,37,14,69,68,138,细颗粒物(PM2.5)
济南市,东山小学,117.5323,36.6865,2026-01-14T1700,78,132,,42,12,80,48,104,细颗粒物(PM2.5)
济南市,泰兴公司,117.7181,36.205,2026-01-14T1700,149,224,1.9,96,17,10,24,199,细颗粒物(PM2.5)
济南市,莱芜战役纪念馆,117.6861,36.2172,2026-01-14T1700,138,212,1.9,96,19,10,23,183,细颗粒物(PM2.5)
济南市,济阳区政府,117.1673,36.9782,2026-01-14T1700,112,208,1.2,83,18,12,16,147,细颗粒物(PM2.5)
济南市,锦屏中学,117.1168,36.6299,2026-01-14T1700,73,151,1.1,59,9,51,30,101,颗粒物(PM10)
济南市,山财大街5号,117.7107,36.2385,2026-01-14T1700,106,180,1.7,90,20,34,33,139,细颗粒物(PM2.5)
济南市,无影山路12号,116.9744,36.6889,2026-01-14T1700,135,193,1.2,83,23,26,12,179,细颗粒物(PM2.5)
济宁市,火炬城,116.6229,35.4288,2026-01-14T1700,134,157,1.0,47,7,47,40,178,细颗粒物(PM2.5)
济宁市,北湖一中,116.5808,35.3703,2026-01-14T1700,135,164,1.0,50,12,45,37,179,细颗粒物(PM2.5)
济宁市,服务中心,116.8251,35.5592,2026-01-14T1700,122,189,1.2,59,16,43,28,160,细颗粒物(PM2.5)
济宁市,市第七中学,116.5907,35.4054,2026-01-14T1700,,157,,,13,46,43,104,颗粒物(PM10)
济宁市,任和路,116.6075,35.4566,2026-01-14T1700,128,181,1.1,51,11,44,27,169,细颗粒物(PM2.5)
济宁市,文体南路1号,116.5648,35.3921,2026-01-14T1700,142,178,1.1,51,10,46,36,189,细颗粒物(PM2.5)
佳木斯市,佳纺,130.2749,46.8028,2026-01-14T1700,22,34,0.5,26,11,37,50,34,
佳木斯市,环保局,130.3258,46.7975,2026-01-14T1700,13,23,0.4,21,10,47,53,23,
佳木斯市,顺和街,130.363,46.806,2026-01-14T1700,21,24,0.4,21,11,40,45,30,
佳木斯市,长安路196号,130.3952,46.8268,2026-01-14T1700,17,19,0.6,30,8,35,52,25,
嘉兴市,清河小学,120.7439,30.778,2026-01-14T1700,46,78,0.1,49,8,94,86,64,"颗粒物(PM10),细颗粒物(PM2.5)"
嘉兴市,嘉兴学院,120.7261,30.7477,2026-01-14T1700,47,82,0.7,48,10,91,85,66,颗粒物(PM10)
嘉兴市,南湖区残联,120.7845,30.7524,2026-01-14T1700,59,89,,43,7,119,100,,
嘉兴市,秀洲住建,120.6915,30.7741,2026-01-14T1700,46,76,0.5,54,8,94,85,64,细颗粒物(PM2.5)
嘉峪关市,气象局,98.291,39.7705,2026-01-14T1700,14,78,0.4,8,12,89,72,64,颗粒物(PM10)
嘉峪关市,酒钢宾馆,98.2672,39.7978,2026-01-14T1700,17,83,0.5,10,23,81,71,67,颗粒物(PM10)
嘉峪关市,雄关区,98.2644,39.7723,2026-01-14T1700,13,52,0.4,9,16,89,69,51,颗粒物(PM10)
江门市,北街,113.1063,22.6058,2026-01-14T1700,15,37,/,13,/,130,118,41,
江门市,西区,113.073,22.5835,2026-01-14T1700,17,29,/,19,/,117,114,37,
江门市,圭峰西,113.0218,22.531,2026-01-14T1700,18,31,/,10,/,133,124,42,
江门市,东湖,113.0826,22.5947,2026-01-14T1700,21,26,0.7,18,8,131,121,41,
江门市,江海富民,113.1077,22.5647,2026-01-14T1700,28,62,0.7,18,/,138,127,56,颗粒物(PM10)
江门市,新会银湖,113.0496,22.4669,2026-01-14T1700,21,39,0.4,12,7,133,116,42,
焦作市,马村街道办,113.3137,35.2643,2026-01-14T1700,86,130,1.0,49,14,33,23,114,细颗粒物(PM2.5)
焦作市,焦作技师学院,113.2464,35.2374,2026-01-14T1700,68,131,1.2,56,17,31,22,92,细颗粒物(PM2.5)
焦作市,中站许衡医院,113.1656,35.2536,2026-01-14T1700,73,178,1.3,64,29,36,29,114,颗粒物(PM10)
焦作市,原李万街道办,113.2456,35.18,2026-01-14T1700,75,163,0.9,46,15,38,24,107,颗粒物(PM10)
焦作市,新安路1731号,113.234,35.219,2026-01-14T1700,79,140,1.0,56,14,28,21,105,细颗粒物(PM2.5)
焦作市,人民路3066号,113.2722,35.2121,2026-01-14T1700,65,158,1.0,58,13,30,23,104,颗粒物(PM10)
揭阳市,新兴,116.3701,23.5345,2026-01-14T1700,20,48,0.6,25,10,,100,,
揭阳市,西马,116.3261,23.5442,2026-01-14T1700,19,61,0.5,15,6,135,105,56,颗粒物(PM10)
揭阳市,东兴,116.361,23.5627,2026-01-14T1700,26,57,/,17,10,126,98,54,颗粒物(PM10)
揭阳市,渔湖,116.4151,23.5295,2026-01-14T1700,17,51,/,20,6,128,112,51,颗粒物(PM10)
揭阳市,曲溪,116.4028,23.5699,2026-01-14T1700,29,57,0.6,20,3,140,114,54,颗粒物(PM10)
金昌市,天庆家园,102.1691,38.5166,2026-01-14T1700,23,88,0.5,8,5,84,77,69,颗粒物(PM10)
金昌市,金川区人防中心,102.1648,38.5369,2026-01-14T1700,26,101,0.5,8,,85,77,,
金昌市,长春路96号,102.193042,38.531887,2026-01-14T1700,21,104,0.6,8,57,84,76,77,颗粒物(PM10)
金华市,十五中,119.6478,29.0773,2026-01-14T1700,52,73,0.6,40,5,127,96,72,细颗粒物(PM2.5)
金华市,监测站,119.6859,29.1032,2026-01-14T1700,44,82,0.4,61,4,73,66,66,颗粒物(PM10)
金华市,气象局,119.656,29.1132,2026-01-14T1700,43,78,0.5,44,4,104,88,64,颗粒物(PM10)
锦州市,南山,121.1114,41.0879,2026-01-14T1700,41,,0.5,28,8,47,48,58,细颗粒物(PM2.5)
锦州市,开发区,121.060361,40.842794,2026-01-14T1700,30,57,0.7,48,10,17,48,54,颗粒物(PM10)
锦州市,百股街道,121.1836,41.1118,2026-01-14T1700,29,45,0.8,27,7,48,54,45,
锦州市,天安街道,121.1176,41.1224,2026-01-14T1700,34,47,0.9,29,9,46,48,49,
锦州市,北湖公园,121.1303,41.1385,2026-01-14T1700,30,36,0.6,30,7,39,41,43,
晋城市,自来水公司,112.8496,35.5051,2026-01-14T1700,24,69,0.9,19,8,74,51,60,颗粒物(PM10)
晋城市,市环保局,112.8509,35.4886,2026-01-14T1700,22,67,0.7,18,7,87,60,59,颗粒物(PM10)
晋城市,泽州一中,112.8258,35.4804,2026-01-14T1700,27,65,0.5,19,7,86,63,58,颗粒物(PM10)
晋城市,前书院路,112.8246,35.5152,2026-01-14T1700,23,85,0.5,18,8,78,60,68,颗粒物(PM10)
晋城市,祥云街666号,112.8864,35.4773,2026-01-14T1700,37,72,0.4,10,5,83,59,61,颗粒物(PM10)
晋中市,榆次区政府,112.6992,37.6984,2026-01-14T1700,37,188,0.3,16,10,79,44,119,颗粒物(PM10)
晋中市,榆次三中,112.7195,37.683,2026-01-14T1700,,,0.4,,12,75,41,,
晋中市,广安街188号,112.7375,37.7215,2026-01-14T1700,36,192,0.1,10,10,88,52,121,颗粒物(PM10)
晋中市,迎宾街26号,112.7478,37.6954,2026-01-14T1700,39,205,0.6,18,14,75,43,128,颗粒物(PM10)
荆门市,竹园小学,112.2012,31.048,2026-01-14T1700,118,148,1.4,29,4,89,78,155,细颗粒物(PM2.5)
荆门市,掇刀,112.1968,30.9892,2026-01-14T1700,106,154,0.5,26,11,103,88,139,细颗粒物(PM2.5)
荆门市,西山林语,112.1849,31.0361,2026-01-14T1700,99,147,0.7,30,12,94,82,130,细颗粒物(PM2.5)
荆门市,龙泉中学南校,112.1631,31.0134,2026-01-14T1700,120,166,1.0,21,11,102,89,158,细颗粒物(PM2.5)
荆门市,新台西路6号,112.2213,31.0654,2026-01-14T1700,127,132,0.8,22,14,97,80,168,细颗粒物(PM2.5)
荆州市,市图书馆,112.2493,30.3198,2026-01-14T1700,65,99,1.0,23,11,129,106,88,细颗粒物(PM2.5)
荆州市,市委党校,112.2009,30.3543,2026-01-14T1700,71,85,0.9,26,7,113,82,95,细颗粒物(PM2.5)
荆州市,管委会,112.2749,30.3124,2026-01-14T1700,66,85,1.0,25,10,116,94,89,细颗粒物(PM2.5)
荆州市,学苑路85号,112.1722,30.3366,2026-01-14T1700,78,79,1.0,41,15,119,98,104,细颗粒物(PM2.5)
景德镇市,老干部活动中心,117.2114,29.2931,2026-01-14T1700,20,36,0.5,9,9,98,68,36,
景德镇市,兽医站,117.1893,29.2789,2026-01-14T1700,22,35,0.5,14,9,109,79,35,
景德镇市,陶研所,117.246,29.2958,2026-01-14T1700,22,31,0.2,3,3,107,70,34,
景德镇市,青少年活动中心,117.154766,29.256967,2026-01-14T1700,23,42,/,15,19,97,65,42,
九江市,十里,115.9873,29.6816,2026-01-14T1700,25,47,0.7,24,8,79,71,47,
九江市,茅山头,115.9583,29.7047,2026-01-14T1700,34,52,1.1,,,76,84,,
九江市,西园,115.9877,29.7295,2026-01-14T1700,22,47,0.7,56,6,88,84,47,
九江市,综合工业园,115.9112,29.6038,2026-01-14T1700,29,,0.6,38,6,108,95,42,
九江市,外国语学校,116.0254,29.6995,2026-01-14T1700,28,45,0.7,30,8,85,77,45,
九江市,莲花大道8号,116.010205,29.659402,2026-01-14T1700,21,41,0.4,11,8,103,88,41,
酒泉市,玉门东路5号,98.495752,39.733935,2026-01-14T1700,,,0.3,,11,80,64,,
酒泉市,北大街108号,98.5099,39.7506,2026-01-14T1700,23,70,0.3,8,11,82,66,60,颗粒物(PM10)
喀什地区,巡警大队,76.0071,39.466,2026-01-14T1700,42,97,0.8,24,6,77,38,74,颗粒物(PM10)
喀什地区,吾办,75.9756,39.4693,2026-01-14T1700,,,,,6,34,18,,
喀什地区,老干局,75.9485,39.4688,2026-01-14T1700,32,108,0.8,18,6,79,33,79,颗粒物(PM10)
开封市,肿瘤医院,114.3389,34.778,2026-01-14T1700,103,182,1.2,73,11,17,28,135,细颗粒物(PM2.5)
开封市,世纪星幼儿园,114.2884,34.7966,2026-01-14T1700,132,193,1.1,75,12,16,27,175,细颗粒物(PM2.5)
开封市,龙亭公园,114.3434,34.8101,2026-01-14T1700,120,182,1.3,72,13,19,26,158,细颗粒物(PM2.5)
开封市,汴京公园,114.3645,34.7955,2026-01-14T1700,119,189,1.2,78,10,17,26,156,细颗粒物(PM2.5)
开封市,技师学院,114.2485,34.8306,2026-01-14T1700,102,171,1.3,77,12,15,24,134,细颗粒物(PM2.5)
开封市,祥符区生态环境局,114.4518,34.7503,2026-01-14T1700,120,225,1.1,72,10,16,27,158,细颗粒物(PM2.5)
克拉玛依市,长征新村,84.886,45.6029,2026-01-14T1700,48,60,0.5,25,6,61,70,67,细颗粒物(PM2.5)
克拉玛依市,南林小区,84.8894,45.5827,2026-01-14T1700,34,53,0.6,21,2,63,72,52,颗粒物(PM10)
克拉玛依市,独山子区,84.896,44.3328,2026-01-14T1700,36,55,0.6,16,6,56,48,53,颗粒物(PM10)
克拉玛依市,乌尔禾区商贸楼,85.6888,46.0909,2026-01-14T1700,21,34,0.5,22,8,72,51,34,
克拉玛依市,白碱滩区新站,85.1045,45.6895,2026-01-14T1700,35,48,0.5,26,12,68,75,50,
克孜勒苏柯尔克孜自治州,市人民政府,76.1457,39.7143,2026-01-14T1700,54,118,0.4,13,5,98,73,84,颗粒物(PM10)
克孜勒苏柯尔克孜自治州,克州文化中心,76.1654,39.7157,2026-01-14T1700,38,82,0.5,10,6,92,62,66,颗粒物(PM10)
昆明市,呈贡新区,102.8203,24.889,2026-01-14T1700,,31,0.5,9,,83,69,,
昆明市,龙泉镇,102.7253,25.0904,2026-01-14T1700,11,30,0.4,,9,89,73,,
昆明市,东风东路,102.7267,25.0378,2026-01-14T1700,15,20,0.3,12,18,95,79,30,
昆明市,金鼎山,102.6744,25.0671,2026-01-14T1700,9,37,0.7,13,8,84,72,37,
昆明市,碧鸡广场,102.6643,25.0401,2026-01-14T1700,15,19,0.4,11,13,89,73,28,
昆明市,官渡区博物馆,102.7491,25.012,2026-01-14T1700,10,29,0.0,10,12,101,83,32,
昆明市,青年创业园,102.8016,24.8336,2026-01-14T1700,11,16,0.4,3,6,91,80,29,
昆明市,昆明学院,102.8,24.9787,2026-01-14T1700,10,18,0.2,10,4,94,80,30,
昆明市,晋宁区生态环境分局,102.5969,24.6738,2026-01-14T1700,9,12,0.4,4,2,77,68,25,
昆明市,云天化总部,102.6673,24.9861,2026-01-14T1700,9,16,0.2,10,13,96,84,30,
拉萨市,八廓街,91.132,29.6515,2026-01-14T1700,9,19,0.1,5,6,100,79,32,
拉萨市,市环保局,91.1221,29.6748,2026-01-14T1700,14,22,0.5,15,7,90,66,29,
拉萨市,区监测站,91.0874,29.6476,2026-01-14T1700,7,21,0.4,,4,,67,,
拉萨市,西藏大学,91.1774,29.6541,2026-01-14T1700,3,24,0.3,10,5,95,72,30,
拉萨市,区辐射站,90.9798,29.6586,2026-01-14T1700,7,25,0.4,16,3,88,59,28,
拉萨市,拉萨火车站,91.0831,29.6292,2026-01-14T1700,12,29,0.5,14,5,84,60,29,
来宾市,来宾技工学校,109.2203,23.7252,2026-01-14T1700,49,80,0.7,9,18,147,101,68,细颗粒物(PM2.5)
来宾市,兴宾区政府,109.1781,23.7293,2026-01-14T1700,96,119,0.7,12,11,163,121,127,细颗粒物(PM2.5)
来宾市,中南小学,109.2312,23.7428,2026-01-14T1700,47,75,0.7,14,9,157,104,65,细颗粒物(PM2.5)
兰州市,铁路设计院,103.8309,36.0467,2026-01-14T1700,,,,,,,,,
兰州市,百合公园,103.7439,36.0841,2026-01-14T1700,41,153,0.5,16,2,76,43,102,颗粒物(PM10)
兰州市,和平,103.9613,35.9985,2026-01-14T1700,26,157,0.3,2,1,89,64,104,颗粒物(PM10)
兰州市,庄浪东路808号,103.629272,36.093822,2026-01-14T1700,53,189,0.5,30,14,77,56,120,颗粒物(PM10)
兰州市,安宁西路88号,103.7251,36.104344,2026-01-14T1700,34,178,0.6,29,10,88,56,114,颗粒物(PM10)
兰州市,北滨河东路1号,103.846982,36.067567,2026-01-14T1700,21,128,0.6,42,6,,41,,
廊坊市,药材公司,116.6712,39.5109,2026-01-14T1700,47,70,1.0,40,5,26,25,65,细颗粒物(PM2.5)
廊坊市,开发区,116.7215,39.5592,2026-01-14T1700,54,102,0.7,42,6,28,20,76,颗粒物(PM10)
廊坊市,北华航天学院,116.7246,39.5273,2026-01-14T1700,48,80,0.8,41,6,26,23,67,细颗粒物(PM2.5)
廊坊市,河北工业大学,116.7022,39.5454,2026-01-14T1700,52,82,0.8,43,7,25,19,72,细颗粒物(PM2.5)
乐山市,牛耳桥,103.7629,29.5844,2026-01-14T1700,37,44,0.5,,,100,59,,
乐山市,市第三水厂,103.7501,29.6002,2026-01-14T1700,36,47,0.4,21,8,105,65,52,细颗粒物(PM2.5)
乐山市,市监测站,103.7571,29.5664,2026-01-14T1700,43,44,0.6,14,8,98,62,60,细颗粒物(PM2.5)
乐山市,理工大学,103.7313,29.563,2026-01-14T1700,34,43,0.2,11,6,107,67,49,
丽江市,丽江古城,100.2497,26.8802,2026-01-14T1700,8,24,0.4,12,11,92,84,29,
丽江市,市中心,100.2203,26.8906,2026-01-14T1700,8,85,0.3,13,7,90,79,68,颗粒物(PM10)
丽水市,监测站大楼,119.9141,28.4513,2026-01-14T1700,36,57,0.6,33,6,92,76,54,颗粒物(PM10)
丽水市,莲都小学,119.93,28.4589,2026-01-14T1700,20,50,/,23,/,110,80,50,
丽水市,余庄前,119.8794,28.4232,2026-01-14T1700,31,61,0.4,57,6,66,78,56,颗粒物(PM10)
连云港市,市环境监测站,119.1759,34.5885,2026-01-14T1700,132,173,0.9,,16,48,66,175,细颗粒物(PM2.5)
连云港市,德源药业,119.3577,34.6971,2026-01-14T1700,127,190,1.1,65,8,46,51,168,细颗粒物(PM2.5)
连云港市,新城一中,119.178,34.8442,2026-01-14T1700,153,177,1.4,79,13,23,35,203,细颗粒物(PM2.5)
连云港市,胡沟管理处,119.3607,34.7519,2026-01-14T1700,90,158,0.9,100,20,9,56,119,细颗粒物(PM2.5)
连云港市,矿山设计院,119.1478,34.5913,2026-01-14T1700,124,185,1.1,61,21,51,65,163,细颗粒物(PM2.5)
连云港市,工贸学校,119.2414,34.6539,2026-01-14T1700,144,188,1.4,61,17,48,61,192,细颗粒物(PM2.5)
连云港市,连云街道,119.4171,34.734,2026-01-14T1700,131,232,1.3,104,14,5,64,173,细颗粒物(PM2.5)
凉山彝族自治州,西昌市政府,102.2629,27.8981,2026-01-14T1700,26,46,0.7,,,101,64,,
凉山彝族自治州,凉山州政府,102.2686,27.885,2026-01-14T1700,31,36,0.4,12,11,96,62,45,
凉山彝族自治州,凯乐南路30号,102.2342,27.8859,2026-01-14T1700,22,43,0.4,15,9,93,59,43,
辽阳市,宏伟区,123.1978,41.2036,2026-01-14T1700,20,42,0.6,7,5,66,68,42,
辽阳市,新华园,123.1684,41.2497,2026-01-14T1700,20,29,0.4,11,7,63,65,29,
辽阳市,滨河路,123.2355,41.2663,2026-01-14T1700,17,33,0.2,11,18,50,54,33,
辽阳市,铁西路150号,123.153,41.2874,2026-01-14T1700,20,28,0.6,12,8,57,59,29,
辽源市,环保局,125.1359,42.8845,2026-01-14T1700,28,42,0.6,40,7,44,44,42,
辽源市,安宁大街333号,125.0998,42.9134,2026-01-14T1700,24,39,0.6,16,7,57,49,39,
聊城市,区政府,115.9789,36.4372,2026-01-14T1700,133,213,1.4,64,18,32,31,176,细颗粒物(PM2.5)
聊城市,监控中心,115.9772,36.4986,2026-01-14T1700,144,215,1.4,64,11,34,32,192,细颗粒物(PM2.5)
聊城市,九州社区,116.0443,36.436,2026-01-14T1700,139,205,1.0,48,8,40,40,185,细颗粒物(PM2.5)
聊城市,星美广场,116.0564,36.4609,2026-01-14T1700,130,213,1.2,46,8,31,33,172,细颗粒物(PM2.5)
聊城市,利民路,116.0091,36.4495,2026-01-14T1700,139,213,1.3,62,15,28,27,185,细颗粒物(PM2.5)
林芝市,林芝监测站,94.3683,29.6373,2026-01-14T1700,3,11,0.3,3,4,88,67,28,
林芝市,林芝人民医院,94.3616,29.6634,2026-01-14T1700,3,20,0.3,5,2,,48,,
临沧市,市环保局,100.0779,23.8981,2026-01-14T1700,27,32,0.3,,8,89,67,,
临沧市,市气象局,100.0894,23.882,2026-01-14T1700,26,39,0.3,5,7,89,66,39,
临汾市,临钢医院,111.5552,36.0791,2026-01-14T1700,86,181,2.3,50,21,52,36,116,颗粒物(PM10)
临汾市,技工学校,111.4984,36.0734,2026-01-14T1700,70,158,1.9,49,24,48,38,104,颗粒物(PM10)
临汾市,市委,111.5017,36.0857,2026-01-14T1700,70,149,2.0,46,27,51,37,100,颗粒物(PM10)
临汾市,唐尧大酒店,111.5048,36.1015,2026-01-14T1700,75,165,2.1,52,23,47,32,108,颗粒物(PM10)
临汾市,启星学校,111.4879,36.053,2026-01-14T1700,86,148,,,25,56,34,114,细颗粒物(PM2.5)
临夏回族自治州,滨河东路1号,103.2464,35.6123,2026-01-14T1700,19,109,0.4,12,6,101,58,80,颗粒物(PM10)
临夏回族自治州,新华街21号,103.207136,35.599807,2026-01-14T1700,20,93,0.4,,8,77,54,,
临沂市,沂河小区,118.3429,35.0532,2026-01-14T1700,191,283,1.4,103,40,28,32,241,细颗粒物(PM2.5)
临沂市,鲁南制药厂,118.2962,35.0568,2026-01-14T1700,200,271,,122,39,15,18,250,细颗粒物(PM2.5)
临沂市,新光毛纺厂,118.2793,34.9976,2026-01-14T1700,186,251,1.4,111,39,25,29,236,细颗粒物(PM2.5)
临沂市,河东保险公司,118.3955,35.0889,2026-01-14T1700,147,229,1.4,87,22,28,30,196,细颗粒物(PM2.5)
临沂市,十里堡居委,118.3563,35.0215,2026-01-14T1700,171,273,1.3,92,45,35,35,221,细颗粒物(PM2.5)
临沂市,南坊新区,118.359,35.1067,2026-01-14T1700,136,200,1.5,91,21,35,34,180,细颗粒物(PM2.5)
临沂市,皇山花园小区,118.3915,35.0297,2026-01-14T1700,162,249,1.6,79,32,44,36,212,细颗粒物(PM2.5)
柳州市,柳东小学,109.4854,24.3898,2026-01-14T1700,65,84,0.7,14,13,177,121,88,细颗粒物(PM2.5)
柳州市,环保监测站,109.4109,24.3304,2026-01-14T1700,58,76,0.8,16,9,159,113,79,细颗粒物(PM2.5)
柳州市,河西水厂,109.3886,24.3408,2026-01-14T1700,56,87,0.7,20,10,170,108,77,细颗粒物(PM2.5)
柳州市,市四中,109.4263,24.2951,2026-01-14T1700,62,89,0.7,,14,158,98,,
柳州市,市九中,109.396,24.3658,2026-01-14T1700,75,88,0.8,21,15,158,107,100,细颗粒物(PM2.5)
柳州市,古亭山,109.4912,24.3164,2026-01-14T1700,55,90,0.7,19,15,162,107,75,细颗粒物(PM2.5)
柳州市,市二中,109.5422,24.3994,2026-01-14T1700,47,73,0.7,16,14,161,109,65,细颗粒物(PM2.5)
六安市,监测大楼,116.5078,31.7369,2026-01-14T1700,30,46,0.3,24,4,93,68,46,
六安市,皖西学院,116.4738,31.7642,2026-01-14T1700,45,59,0.4,22,6,111,76,63,细颗粒物(PM2.5)
六安市,朝阳厂,116.4997,31.7904,2026-01-14T1700,49,57,0.4,28,7,98,65,68,细颗粒物(PM2.5)
六安市,开发区,116.5566,31.7885,2026-01-14T1700,34,80,0.4,42,6,92,91,65,颗粒物(PM10)
六盘水市,黄土坡,104.8293,26.592,2026-01-14T1700,52,,0.8,16,12,88,58,72,细颗粒物(PM2.5)
六盘水市,民中,104.8481,26.5898,2026-01-14T1700,46,57,0.7,20,7,78,56,64,细颗粒物(PM2.5)
六盘水市,双水,104.9541,26.5506,2026-01-14T1700,34,58,0.5,10,4,91,67,54,颗粒物(PM10)
六盘水市,钟山大道中段564号,104.8899,26.5685,2026-01-14T1700,48,71,1.6,19,8,78,50,67,细颗粒物(PM2.5)
龙岩市,龙岩市监测站,117.022,25.1031,2026-01-14T1700,13,30,0.3,14,10,113,97,36,
龙岩市,闽西职业技术学院,117.0257,25.0662,2026-01-14T1700,10,28,0.4,10,8,115,102,36,
龙岩市,龙岩学院,117.0195,25.0306,2026-01-14T1700,10,26,/,10,9,110,104,35,
陇南市,滨江中学,104.9344,33.3827,2026-01-14T1700,25,105,0.9,41,7,54,52,78,颗粒物(PM10)
陇南市,市总工会,104.9551,33.3709,2026-01-14T1700,21,81,0.5,12,8,82,56,66,颗粒物(PM10)
娄底市,市监测站,111.9984,27.7346,2026-01-14T1700,57,78,0.7,17,13,132,93,78,细颗粒物(PM2.5)
娄底市,市政府,111.9888,27.7035,2026-01-14T1700,51,55,0.8,21,12,124,84,70,细颗粒物(PM2.5)
娄底市,涟钢职大,111.9812,27.7591,2026-01-14T1700,56,81,0.6,20,11,126,85,77,细颗粒物(PM2.5)
娄底市,娄底体校,112.0303,27.7457,2026-01-14T1700,44,68,0.5,14,8,121,76,62,细颗粒物(PM2.5)
泸州市,小市上码头,105.4427,28.9063,2026-01-14T1700,113,158,1.3,21,12,96,62,148,细颗粒物(PM2.5)
泸州市,兰田宪桥,105.4241,28.8573,2026-01-14T1700,,156,1.3,,8,111,80,103,颗粒物(PM10)
泸州市,市环监站,105.4378,28.8833,2026-01-14T1700,110,147,1.2,22,10,114,79,144,细颗粒物(PM2.5)
泸州市,纳溪中医医院,105.3689,28.7783,2026-01-14T1700,119,132,1.1,20,9,100,62,156,细颗粒物(PM2.5)
吕梁市,环保局,111.1447,37.5212,2026-01-14T1700,92,474,0.3,20,4,58,36,368,颗粒物(PM10)
吕梁市,自来水公司,111.1285,37.5338,2026-01-14T1700,90,467,0.6,22,3,56,32,359,颗粒物(PM10)
吕梁市,马茂庄小学,111.1225,37.5093,2026-01-14T1700,103,521,0.2,31,4,44,36,421,颗粒物(PM10)
洛阳市,市委党校,112.3934,34.6517,2026-01-14T1700,36,70,0.7,29,11,68,46,60,颗粒物(PM10)
洛阳市,河南林校,112.494,34.6883,2026-01-14T1700,41,93,0.7,32,13,62,35,72,颗粒物(PM10)
洛阳市,开发区管委会,112.3843,34.623,2026-01-14T1700,35,80,0.7,23,12,69,51,65,颗粒物(PM10)
洛阳市,市委新办公区,112.4263,34.6249,2026-01-14T1700,38,81,0.4,30,12,72,54,66,颗粒物(PM10)
洛阳市,伊滨,112.6005,34.6323,2026-01-14T1700,50,86,0.5,22,10,66,41,69,细颗粒物(PM2.5)
洛阳市,中移产业园,112.495,34.6338,2026-01-14T1700,37,74,0.5,23,12,62,42,62,颗粒物(PM10)
洛阳市,吉利监测站,112.5736,34.8993,2026-01-14T1700,30,67,0.6,22,12,78,50,59,颗粒物(PM10)
洛阳市,河科大西苑校区,112.3678,34.6623,2026-01-14T1700,38,82,0.7,30,12,69,49,66,颗粒物(PM10)
洛阳市,英才小学,112.4387,34.678,2026-01-14T1700,47,84,0.6,33,14,65,40,67,颗粒物(PM10)
洛阳市,春都路1号院,112.460027,34.694929,2026-01-14T1700,43,99,0.8,25,11,64,40,75,颗粒物(PM10)
漯河市,三五一五工厂,114.051,33.5721,2026-01-14T1700,135,186,0.9,57,16,39,30,179,细颗粒物(PM2.5)
漯河市,漯河大学,114.0055,33.5698,2026-01-14T1700,119,184,1.1,59,14,34,27,156,细颗粒物(PM2.5)
漯河市,市水利局,114.0134,33.5826,2026-01-14T1700,122,188,1.1,54,14,27,21,160,细颗粒物(PM2.5)
漯河市,市广电局,114.0261,33.5697,2026-01-14T1700,118,195,1.0,58,15,41,32,155,细颗粒物(PM2.5)
漯河市,市图书馆,113.9691,33.568,2026-01-14T1700,133,214,1.0,59,12,27,28,176,细颗粒物(PM2.5)
漯河市,韶山路11号,114.089259,33.588274,2026-01-14T1700,112,202,1.1,52,15,38,28,147,细颗粒物(PM2.5)
马鞍山市,湖东路四小,118.5084,31.6838,2026-01-14T1700,30,56,0.9,47,10,69,63,53,颗粒物(PM10)
马鞍山市,开发区,118.5019,31.6449,2026-01-14T1700,38,65,1.1,48,12,74,58,58,颗粒物(PM10)
马鞍山市,雨山,118.4914,31.681,2026-01-14T1700,38,62,0.9,49,12,73,65,56,颗粒物(PM10)
马鞍山市,慈湖高新区,118.527362,31.722269,2026-01-14T1700,37,70,0.6,58,10,64,63,60,颗粒物(PM10)
茂名市,电白南海,111.0285,21.469,2026-01-14T1700,29,63,1.1,18,9,146,150,57,颗粒物(PM10)
茂名市,茂石化七小,110.9294,21.6533,2026-01-14T1700,24,53,0.5,15,6,133,145,52,颗粒物(PM10)
茂名市,健康路,110.9108,21.6688,2026-01-14T1700,24,39,0.6,14,7,149,160,47,
茂名市,高岭,110.8592,21.6826,2026-01-14T1700,22,61,/,,,144,149,,
茂名市,电白水东,111.0101,21.5165,2026-01-14T1700,27,48,/,14,7,132,144,48,
眉山市,气象局,103.8414,30.0871,2026-01-14T1700,27,48,0.4,14,,110,72,,
眉山市,区人社局,103.829,30.0563,2026-01-14T1700,27,43,0.3,15,9,104,71,43,
眉山市,眉职院,103.8836,30.0695,2026-01-14T1700,23,40,0.4,10,2,110,66,40,
梅州市,梅江月梅,116.1248,24.3307,2026-01-14T1700,31,41,/,16,/,137,100,45,
梅州市,梅县新城,116.0798,24.2719,2026-01-14T1700,25,45,0.6,20,8,133,96,45,
梅州市,梅龙,116.1234,24.2994,2026-01-14T1700,25,36,0.7,12,9,134,94,42,
绵阳市,富乐山,104.7775,31.4741,2026-01-14T1700,13,17,0.4,17,9,83,59,26,
绵阳市,高新区自来水公司,104.6698,31.4668,2026-01-14T1700,34,48,0.6,16,9,79,49,49,
绵阳市,西科大附属小学,104.6899,31.5324,2026-01-14T1700,36,50,0.1,18,9,96,63,52,细颗粒物(PM2.5)
绵阳市,安州区旅游局,104.5647,31.5343,2026-01-14T1700,36,50,0.3,24,10,92,63,52,细颗粒物(PM2.5)
绵阳市,科技城新区公安局,104.7092,31.4972,2026-01-14T1700,26,,0.4,,,99,66,,
绵阳市,绵阳市气象局,104.765114,31.453094,2026-01-14T1700,27,61,0.4,28,8,80,45,56,颗粒物(PM10)
牡丹江市,环保大楼,129.61,44.561,2026-01-14T1700,38,41,0.5,38,8,40,59,54,细颗粒物(PM2.5)
牡丹江市,机车工厂,129.6364,44.6075,2026-01-14T1700,40,47,0.5,56,6,18,52,57,细颗粒物(PM2.5)
牡丹江市,第一中学,129.6386,44.5462,2026-01-14T1700,21,35,0.4,48,8,27,56,35,
牡丹江市,东晓云街98号,129.5992,44.5964,2026-01-14T1700,33,,0.7,41,6,33,56,48,
内江市,市监测站,105.0703,29.61,2026-01-14T1700,56,81,0.7,14,6,124,92,77,细颗粒物(PM2.5)
内江市,内江二中,105.0657,29.5807,2026-01-14T1700,63,81,0.8,23,5,107,76,85,细颗粒物(PM2.5)
内江市,内江日报社,105.0407,29.5828,2026-01-14T1700,56,70,0.5,25,2,112,83,77,细颗粒物(PM2.5)
内江市,玉峰路西段888号,105.0433,29.6105,2026-01-14T1700,52,68,0.7,,1,116,96,,
那曲市,那曲监测站,92.0653,31.4846,2026-01-14T1700,8,30,0.4,,5,,63,,
那曲市,那曲市委宣传部,92.0515,31.4787,2026-01-14T1700,6,28,0.4,3,4,85,63,28,
南昌市,省林业公司,115.8887,28.7006,2026-01-14T1700,39,63,0.8,34,9,95,60,57,颗粒物(PM10)
南昌市,林科所,115.813,28.7443,2026-01-14T1700,41,61,0.4,34,11,106,76,58,细颗粒物(PM2.5)
南昌市,建工学校,115.8518,28.687,2026-01-14T1700,48,76,0.8,43,18,92,61,67,细颗粒物(PM2.5)
南昌市,象湖,115.8926,28.6425,2026-01-14T1700,39,54,0.5,34,15,102,68,55,细颗粒物(PM2.5)
南昌市,机电学校,115.9084,28.6062,2026-01-14T1700,44,64,0.5,20,11,117,84,62,细颗粒物(PM2.5)
南昌市,外国语学校,115.9718,28.7032,2026-01-14T1700,49,57,0.6,35,17,101,78,68,细颗粒物(PM2.5)
南昌市,工业二路,115.7923,28.6873,2026-01-14T1700,46,62,0.7,36,9,91,66,64,细颗粒物(PM2.5)
南昌市,南京东路235号,115.931587,28.686774,2026-01-14T1700,38,61,0.9,40,12,106,79,56,颗粒物(PM10)
南充市,南充市委,106.0791,30.8022,2026-01-14T1700,95,108,0.8,19,5,69,39,125,细颗粒物(PM2.5)
南充市,南充炼油厂,106.1038,30.8215,2026-01-14T1700,85,116,0.9,18,6,78,51,113,细颗粒物(PM2.5)
南充市,梨树横街98号,106.108336,30.788436,2026-01-14T1700,80,106,0.7,27,8,85,47,107,细颗粒物(PM2.5)
南充市,清泉寺北路188号,106.1172,30.843,2026-01-14T1700,85,96,,17,,81,49,113,细颗粒物(PM2.5)
南充市,同庆路1号,106.067,30.7616,2026-01-14T1700,88,,0.8,16,8,82,50,117,细颗粒物(PM2.5)
南京市,迈皋桥,118.8033,32.1085,2026-01-14T1700,17,47,1.0,26,11,82,80,47,
南京市,草场门,118.7487,32.057,2026-01-14T1700,22,51,0.8,34,13,79,20,51,颗粒物(PM10)
南京市,中华门,118.770105,32.004342,2026-01-14T1700,22,48,0.6,33,8,83,67,48,
南京市,瑞金路,118.8059,32.0329,2026-01-14T1700,27,48,1.0,28,4,68,57,48,
南京市,玄武湖,118.7946,32.0774,2026-01-14T1700,19,39,1.0,11,4,82,62,39,
南京市,浦口,118.6415,32.0964,2026-01-14T1700,28,51,0.9,41,17,69,53,51,颗粒物(PM10)
南京市,奥体中心,118.730129,32.000956,2026-01-14T1700,22,51,0.7,32,13,86,63,51,颗粒物(PM10)
南京市,仙林大学城,118.9072,32.1047,2026-01-14T1700,29,70,1.4,45,18,72,65,60,颗粒物(PM10)
南京市,江宁彩虹桥,118.8443,31.919,2026-01-14T1700,17,50,0.5,21,5,89,65,50,
南京市,六合雄州,118.8497,32.3599,2026-01-14T1700,41,72,1.3,65,18,53,66,61,颗粒物(PM10)
南京市,新模范马路66号,118.7641,32.0841,2026-01-14T1700,7,34,0.4,36,4,106,83,34,
南京市,汶溪路181号,118.8707617,31.34017673,2026-01-14T1700,28,35,0.7,27,8,98,85,40,
南京市,中山西路1号,119.019,31.6512,2026-01-14T1700,28,34,0.5,17,3,96,84,40,
南宁市,二十一中,108.3098,22.788,2026-01-14T1700,49,76,0.6,14,6,148,113,68,细颗粒物(PM2.5)
南宁市,北湖,108.3135,22.8529,2026-01-14T1700,50,65,1.0,26,6,144,110,69,细颗粒物(PM2.5)
南宁市,市监测站,108.3205,22.8222,2026-01-14T1700,52,55,0.8,18,9,147,124,72,细颗粒物(PM2.5)
南宁市,大自然花园,108.3828,22.8038,2026-01-14T1700,52,66,0.8,13,8,158,122,72,细颗粒物(PM2.5)
南宁市,区农职院,108.2397,22.8462,2026-01-14T1700,40,65,1.0,19,10,149,107,58,颗粒物(PM10)
南宁市,英华嘉园,108.3285,22.7356,2026-01-14T1700,42,71,0.7,30,7,135,110,61,颗粒物(PM10)
南宁市,红星社区,108.4829,22.762,2026-01-14T1700,38,63,0.9,16,7,157,116,57,颗粒物(PM10)
南宁市,起凤路9号,108.2927,23.1477,2026-01-14T1700,47,66,0.7,15,4,154,116,65,细颗粒物(PM2.5)
南宁市,乐贤路16号,108.2177,22.7774,2026-01-14T1700,43,62,0.7,20,3,146,104,60,细颗粒物(PM2.5)
南平市,南平市监测站,118.1682,26.6371,2026-01-14T1700,16,28,0.3,10,5,101,84,32,
南平市,南平七中,118.1757,26.6276,2026-01-14T1700,20,37,0.7,24,6,84,82,37,
南通市,狼山街道,120.9056,31.9669,2026-01-14T1700,51,71,0.4,47,5,75,77,70,细颗粒物(PM2.5)
南通市,城中,120.8635,32.0231,2026-01-14T1700,54,92,0.8,75,7,64,64,74,细颗粒物(PM2.5)
南通市,星湖花园,120.9376,31.9301,2026-01-14T1700,,,,51,,61,73,,
南通市,紫琅学院,120.8053,32.046,2026-01-14T1700,54,101,1.0,106,12,33,48,76,颗粒物(PM10)
南通市,通州监测站,121.0631,32.0644,2026-01-14T1700,46,68,0.8,58,6,83,76,64,细颗粒物(PM2.5)
南通市,环境教育馆,120.9348,31.9874,2026-01-14T1700,41,63,0.7,53,6,80,73,58,细颗粒物(PM2.5)
南通市,洪江路,120.8692,31.9885,2026-01-14T1700,46,77,0.8,82,6,39,54,64,"颗粒物(PM10),细颗粒物(PM2.5)"
南阳市,瓦房庄,112.5338,33.0086,2026-01-14T1700,75,95,0.8,18,9,86,51,100,细颗粒物(PM2.5)
南阳市,汉画馆,112.5002,32.9734,2026-01-14T1700,76,119,0.8,33,9,72,58,102,细颗粒物(PM2.5)
南阳市,气象站,112.5778,33.0144,2026-01-14T1700,63,100,0.8,22,8,93,54,85,细颗粒物(PM2.5)
南阳市,理工学院,112.548,32.9687,2026-01-14T1700,60,94,0.8,26,8,86,46,82,细颗粒物(PM2.5)
南阳市,卧龙区政府,112.5233,32.9921,2026-01-14T1700,75,119,0.7,26,8,83,48,100,细颗粒物(PM2.5)
宁波市,区环保大楼,121.8352,29.9111,2026-01-14T1700,26,54,0.5,41,6,102,108,52,颗粒物(PM10)
宁波市,万里学院,121.5595,29.8208,2026-01-14T1700,25,62,0.5,40,6,127,116,56,颗粒物(PM10)
宁波市,龙赛医院,121.713,29.9564,2026-01-14T1700,27,56,0.6,31,3,110,107,53,颗粒物(PM10)
宁波市,太古小学,121.5855,29.8635,2026-01-14T1700,32,56,0.6,21,5,135,121,53,颗粒物(PM10)
宁波市,市环境监测中心,121.5239,29.8673,2026-01-14T1700,29,65,0.5,27,8,116,113,58,颗粒物(PM10)
宁波市,万里国际学校,121.6156,29.9015,2026-01-14T1700,26,50,0.4,25,5,143,126,50,
宁波市,白沙活动中心,121.5593,29.8976,2026-01-14T1700,27,57,0.6,27,6,123,112,54,颗粒物(PM10)
宁波市,中科路88号,121.8962,29.7529,2026-01-14T1700,15,38,0.2,14,6,139,124,44,
宁德市,宁德市监测站,119.5387,26.6611,2026-01-14T1700,22,58,0.6,22,8,111,96,54,颗粒物(PM10)
宁德市,宁德一中,119.5231,26.6562,2026-01-14T1700,32,57,0.5,14,7,104,98,54,颗粒物(PM10)
怒江傈僳族自治州,州监测站,98.859,25.8541,2026-01-14T1700,,,0.3,,8,91,64,,
怒江傈僳族自治州,泸水一中,98.8607,25.8168,2026-01-14T1700,26,35,0.6,9,6,79,53,38,
攀枝花市,弄弄坪,101.6891,26.571,2026-01-14T1700,32,62,,,21,112,70,,
攀枝花市,河门口,101.577,26.5914,2026-01-14T1700,35,52,1.6,18,28,110,71,51,颗粒物(PM10)
攀枝花市,仁和,101.7365,26.4986,2026-01-14T1700,18,29,0.6,10,11,95,70,30,
攀枝花市,四十中小,101.7222,26.567,2026-01-14T1700,37,58,0.9,11,19,106,64,54,颗粒物(PM10)
盘锦市,开发区,122.0303,41.1489,2026-01-14T1700,33,39,0.9,23,5,39,51,48,
盘锦市,兴隆台,122.0486,41.0883,2026-01-14T1700,26,28,0.7,39,6,36,44,38,
盘锦市,新生街道,121.8297,41.1026,2026-01-14T1700,20,33,0.5,22,5,56,61,33,
平顶山市,新华旅馆,113.3257,33.7423,2026-01-14T1700,55,126,0.5,37,9,47,32,88,颗粒物(PM10)
平顶山市,规划设计院,113.2917,33.737,2026-01-14T1700,66,117,,,10,41,32,,
平顶山市,平顶山工学院,113.182,33.7738,2026-01-14T1700,63,115,0.5,28,10,61,41,85,细颗粒物(PM2.5)
平顶山市,石龙区,112.8736,33.9068,2026-01-14T1700,58,106,0.6,33,10,50,45,79,细颗粒物(PM2.5)
平顶山市,姚电大道23号,113.284,33.7139,2026-01-14T1700,74,171,0.7,,11,24,30,111,颗粒物(PM10)
平凉市,聚贤嘉苑,106.6633,35.5338,2026-01-14T1700,16,86,0.6,10,14,90,91,68,颗粒物(PM10)
平凉市,博物馆,106.7021,35.5307,2026-01-14T1700,13,78,0.3,8,10,94,90,64,颗粒物(PM10)
萍乡市,中医院,113.8384,27.6436,2026-01-14T1700,18,44,0.9,14,6,132,111,44,
萍乡市,市环保局,113.8677,27.6438,2026-01-14T1700,21,33,0.7,14,16,134,115,42,
萍乡市,安源区政府,113.8663,27.6202,2026-01-14T1700,37,,0.7,13,11,107,82,53,细颗粒物(PM2.5)
萍乡市,联洪村委会,113.8686,27.6668,2026-01-14T1700,26,36,0.6,14,5,121,106,38,
莆田市,荔城区仓后路,119.0142,25.4324,2026-01-14T1700,20,58,/,17,/,118,116,54,颗粒物(PM10)
莆田市,莆田市监测站,119.0016,25.4553,2026-01-14T1700,17,42,0.5,13,3,123,120,42,
莆田市,涵江区六中,119.112,25.4561,2026-01-14T1700,19,45,0.6,12,/,122,121,45,
莆田市,秀屿区政府,119.1014,25.3215,2026-01-14T1700,21,53,0.4,12,4,121,121,52,颗粒物(PM10)
濮阳市,环保局,115.0312,35.7636,2026-01-14T1700,88,144,0.8,55,12,28,20,117,细颗粒物(PM2.5)
濮阳市,濮水河管理处,115,35.7667,2026-01-14T1700,82,172,1.2,55,12,30,22,111,颗粒物(PM10)
濮阳市,中原东路68号,115.0552,35.7816,2026-01-14T1700,91,175,0.8,58,12,29,22,120,细颗粒物(PM2.5)
濮阳市,任丘路479号,115.0923632,35.76857718,2026-01-14T1700,103,181,1.1,61,14,26,17,135,细颗粒物(PM2.5)
普洱市,市环保局,100.9801,22.7634,2026-01-14T1700,7,50,0.3,6,5,72,52,50,
普洱市,普洱第二中学,100.9763,22.8237,2026-01-14T1700,13,46,0.3,6,5,74,46,46,
七台河市,中波台,131.0413,45.7795,2026-01-14T1700,11,17,0.3,16,8,51,56,17,
七台河市,人民广场,131.0136,45.7688,2026-01-14T1700,21,27,0.5,23,11,48,55,30,
七台河市,新建矿广场,130.8639,45.8144,2026-01-14T1700,29,56,0.4,21,9,40,50,53,颗粒物(PM10)
齐齐哈尔市,安居小区,123.9307,47.3641,2026-01-14T1700,3,96,0.6,28,10,47,55,73,颗粒物(PM10)
齐齐哈尔市,中心广场,123.9497,47.3389,2026-01-14T1700,22,,0.8,35,7,32,48,32,
齐齐哈尔市,农牧车辆厂,123.9483,47.3229,2026-01-14T1700,11,36,0.4,14,8,38,51,36,
齐齐哈尔市,市环境监测站,123.9442,47.2994,2026-01-14T1700,13,31,0.8,26,8,43,53,31,
齐齐哈尔市,富区青少年活动中心,123.6341,47.2079,2026-01-14T1700,19,85,0.6,13,7,59,56,68,颗粒物(PM10)
黔东南苗族侗族自治州,市环境监测站,107.9765,26.5724,2026-01-14T1700,92,109,0.9,28,8,37,22,122,细颗粒物(PM2.5)
黔东南苗族侗族自治州,凯里学院,107.8909,26.531,2026-01-14T1700,92,102,0.8,39,4,30,57,122,细颗粒物(PM2.5)
黔南布依族苗族自治州,小围寨,107.5223,26.2371,2026-01-14T1700,63,,0.9,11,7,61,87,85,细颗粒物(PM2.5)
黔南布依族苗族自治州,沙坝,107.5175,26.2977,2026-01-14T1700,66,75,1.1,14,5,61,79,89,细颗粒物(PM2.5)
黔西南布依族苗族自治州,场坝街,104.9022,25.0943,2026-01-14T1700,35,49,0.7,13,5,77,62,50,
黔西南布依族苗族自治州,坪东大道,104.8812,25.0994,2026-01-14T1700,48,54,0.7,10,6,81,60,67,细颗粒物(PM2.5)
钦州市,市环保站,108.6238,21.9667,2026-01-14T1700,31,61,0.4,17,5,149,127,56,颗粒物(PM10)
钦州市,沙埠小学,108.655,21.9481,2026-01-14T1700,24,46,0.3,11,5,155,130,49,
钦州市,港区一小,108.5989,21.7435,2026-01-14T1700,36,78,0.6,23,8,152,135,64,颗粒物(PM10)
钦州市,北职校,108.5959,21.9634,2026-01-14T1700,23,56,0.6,18,10,153,123,53,颗粒物(PM10)
秦皇岛市,建设大厦,119.5247,39.9346,2026-01-14T1700,46,79,0.8,32,7,41,29,65,颗粒物(PM10)
秦皇岛市,文明里,119.5979,39.938,2026-01-14T1700,43,75,0.7,32,10,45,26,63,颗粒物(PM10)
秦皇岛市,南园路157号,119.7458,39.9952,2026-01-14T1700,54,100,0.7,44,9,29,28,75,颗粒物(PM10)
秦皇岛市,翠岛大街1号,119.5131,39.8858,2026-01-14T1700,48,,0.7,26,11,38,30,,
秦皇岛市,北戴河轮滑馆,119.509013,39.825305,2026-01-14T1700,47,92,0.7,44,5,30,29,71,颗粒物(PM10)
青岛市,市南区东部子站,120.404,36.0625,2026-01-14T1700,39,95,0.6,34,10,61,72,73,颗粒物(PM10)
青岛市,四方区子站,120.362344,36.10282,2026-01-14T1700,78,134,1.0,19,5,83,79,104,细颗粒物(PM2.5)
青岛市,市南区西部子站,120.294373,36.054183,2026-01-14T1700,39,78,1.1,34,8,73,70,64,颗粒物(PM10)
青岛市,崂山区子站,120.4581,36.0858,2026-01-14T1700,34,92,0.4,19,8,78,80,71,颗粒物(PM10)
青岛市,城阳区子站,120.3945,36.3083,2026-01-14T1700,61,149,1.1,64,10,61,74,100,颗粒物(PM10)
青岛市,市北区南部,120.3454,36.0735,2026-01-14T1700,,,0.9,,3,81,78,,
青岛市,李沧区北部,120.3897,36.18,2026-01-14T1700,73,129,1.1,51,11,66,70,98,细颗粒物(PM2.5)
青岛市,盟旺路653号,120.5222,36.4089,2026-01-14T1700,70,145,1.2,60,6,77,78,98,颗粒物(PM10)
青岛市,珠江路669号,120.196923,35.954556,2026-01-14T1700,56,90,0.8,30,10,69,81,77,细颗粒物(PM2.5)
青岛市,黄岛区人民政府广场,120.0424,35.8656,2026-01-14T1700,36,88,0.9,29,8,66,73,69,颗粒物(PM10)
清远市,凤城街办,113.0218,23.7086,2026-01-14T1700,56,84,/,45,/,168,125,77,细颗粒物(PM2.5)
清远市,技师学院,113.0479,23.6343,2026-01-14T1700,36,57,0.5,28,8,194,138,93,臭氧1小时(O3_1h)
清远市,清新太和,112.9898,23.7403,2026-01-14T1700,59,92,0.6,43,7,180,141,80,细颗粒物(PM2.5)
清远市,清城东城,113.076,23.72,2026-01-14T1700,42,77,/,37,/,175,129,69,臭氧1小时(O3_1h)
庆阳市,庆阳五中,107.6325,35.7357,2026-01-14T1700,32,78,0.2,7,4,90,81,64,颗粒物(PM10)
庆阳市,市环保局,107.6361,35.7067,2026-01-14T1700,16,82,0.4,7,4,91,81,66,颗粒物(PM10)
曲靖市,环境监测站,103.7897,25.5036,2026-01-14T1700,28,,0.3,11,7,117,96,40,
曲靖市,烟厂办公区,103.8013,25.5357,2026-01-14T1700,22,26,0.3,9,3,116,88,37,
曲靖市,南苑二区,103.7926,25.4651,2026-01-14T1700,14,24,0.3,6,7,119,92,38,
曲靖市,曲靖师范学院,103.7442,25.5259,2026-01-14T1700,17,32,0.3,9,5,115,89,36,
衢州市,环保大楼,118.8694,28.94,2026-01-14T1700,37,61,/,46,/,90,90,56,颗粒物(PM10)
衢州市,衢州学院,118.8622,28.9809,2026-01-14T1700,35,55,0.5,31,8,92,75,53,颗粒物(PM10)
衢州市,衢州三中,118.9646,28.9832,2026-01-14T1700,36,57,0.7,26,6,109,73,54,颗粒物(PM10)
泉州市,涂山街,118.5818,24.9116,2026-01-14T1700,25,62,0.5,15,4,133,116,56,颗粒物(PM10)
泉州市,津头埔,118.597,24.8976,2026-01-14T1700,23,62,0.6,19,6,128,114,56,颗粒物(PM10)
泉州市,万安,118.6669,24.9422,2026-01-14T1700,56,66,0.5,14,,123,115,,
泉州市,霞新路6号,118.6355,24.9148,2026-01-14T1700,25,47,0.5,18,/,131,124,47,
日喀则市,日喀则监测站,88.8873,29.2723,2026-01-14T1700,11,19,0.3,6,19,101,60,32,
日喀则市,林业技术推广中心,88.8775,29.2425,2026-01-14T1700,12,15,0.3,5,10,108,71,34,
日照市,监测站,119.4711,35.421,2026-01-14T1700,88,166,2.2,82,24,11,24,117,细颗粒物(PM2.5)
日照市,市政府广场,119.523,35.4216,2026-01-14T1700,95,185,2.3,96,26,7,59,125,细颗粒物(PM2.5)
日照市,港务局,119.5511,35.4113,2026-01-14T1700,102,202,2.3,100,20,1,54,134,细颗粒物(PM2.5)
日照市,职业技术学院,119.5326,35.4627,2026-01-14T1700,61,195,1.6,81,14,17,59,123,颗粒物(PM10)
日照市,岚山环保分局,119.3267,35.1043,2026-01-14T1700,141,200,1.3,86,17,29,64,188,细颗粒物(PM2.5)
三门峡市,市政府,111.1922,34.7752,2026-01-14T1700,89,111,1.0,47,18,52,30,118,细颗粒物(PM2.5)
三门峡市,开发区,111.1588,34.794,2026-01-14T1700,86,142,0.9,56,10,48,30,114,细颗粒物(PM2.5)
三门峡市,三门峡市第一小学,111.1911,34.7829,2026-01-14T1700,92,136,0.9,,,46,26,122,细颗粒物(PM2.5)
三门峡市,富达温泉假日酒店,111.1031,34.719,2026-01-14T1700,86,123,0.9,62,16,39,26,114,细颗粒物(PM2.5)
三明市,三钢,117.621,26.2626,2026-01-14T1700,20,22,0.5,16,8,111,87,35,
三明市,三明二中,117.6352,26.2714,2026-01-14T1700,14,43,0.6,13,4,106,93,43,
三明市,三元区政府,117.6028,26.2377,2026-01-14T1700,24,42,0.7,20,7,106,84,42,
三亚市,河西子站,109.4962,18.2682,2026-01-14T1700,26,57,0.4,18,2,157,133,54,颗粒物(PM10)
三亚市,君悦子站,109.7348,18.3443,2026-01-14T1700,27,50,0.5,8,6,176,165,70,臭氧1小时(O3_1h)
三亚市,城东小学站,109.1714,18.3739,2026-01-14T1700,28,54,/,9,/,138,119,52,颗粒物(PM10)
山南市,山南监测站,91.7592,29.234,2026-01-14T1700,14,17,0.4,4,5,87,62,28,
山南市,山南人民医院,91.7701,29.2436,2026-01-14T1700,3,14,0.3,3,8,85,62,27,
汕头市,金平子站,116.6795,23.3666,2026-01-14T1700,20,47,0.6,16,6,140,115,47,
汕头市,龙湖子站,116.7248,23.3632,2026-01-14T1700,24,52,/,12,11,134,,51,颗粒物(PM10)
汕头市,濠江子站,116.7257,23.2774,2026-01-14T1700,26,43,/,14,8,131,116,43,
汕头市,澄海子站,116.7518,23.4712,2026-01-14T1700,21,54,0.6,14,,139,115,,
汕头市,潮阳子站,116.6088,23.2539,2026-01-14T1700,18,40,0.5,7,8,142,117,45,
汕头市,潮南峡山,116.4539,23.2684,2026-01-14T1700,24,46,0.6,15,10,145,124,46,
汕头市,潮南子站,116.4069,23.2533,2026-01-14T1700,27,53,/,19,9,129,109,52,颗粒物(PM10)
汕尾市,市环保局,115.3653,22.7751,2026-01-14T1700,21,56,0.6,23,8,122,108,53,颗粒物(PM10)
汕尾市,新城中学,115.362,22.7926,2026-01-14T1700,19,53,0.4,19,6,127,115,52,颗粒物(PM10)
商洛市,监测站,109.9155,33.8714,2026-01-14T1700,29,97,0.4,10,4,88,69,74,颗粒物(PM10)
商洛市,商州区中学,109.9647,33.8486,2026-01-14T1700,23,148,0.3,8,5,89,66,99,颗粒物(PM10)
商丘市,环境监测站,115.6701,34.4283,2026-01-14T1700,170,189,0.9,47,7,52,46,220,细颗粒物(PM2.5)
商丘市,粮食局,115.6458,34.4047,2026-01-14T1700,165,204,1.1,46,6,44,43,215,细颗粒物(PM2.5)
商丘市,梁园区档案局,115.6069,34.4465,2026-01-14T1700,166,199,0.9,56,8,40,39,216,细颗粒物(PM2.5)
商丘市,北海东路185号,115.6701,34.3767,2026-01-14T1700,156,216,0.9,39,6,53,46,206,细颗粒物(PM2.5)
商丘市,中山大街3号,115.6172,34.3704,2026-01-14T1700,169,235,0.7,48,8,45,45,219,细颗粒物(PM2.5)
上海市,普陀,121.401,31.2382,2026-01-14T1700,44,73,0.7,58,9,102,103,62,"颗粒物(PM10),细颗粒物(PM2.5)"
上海市,十五厂,121.4774,31.2043,2026-01-14T1700,52,81,0.9,60,9,96,98,72,细颗粒物(PM2.5)
上海市,虹口,121.4673,31.3011,2026-01-14T1700,48,84,0.6,58,10,98,92,67,"颗粒物(PM10),细颗粒物(PM2.5)"
上海市,静安监测站,121.4253,31.226,2026-01-14T1700,42,73,0.4,59,11,109,106,62,颗粒物(PM10)
上海市,浦东川沙,121.7029,31.1905,2026-01-14T1700,37,66,0.5,33,8,117,112,58,颗粒物(PM10)
上海市,浦东新区监测站,121.5339,31.229,2026-01-14T1700,41,69,0.7,41,8,120,108,60,颗粒物(PM10)
上海市,浦东张江,121.5776,31.2038,2026-01-14T1700,42,65,0.5,35,9,122,116,59,细颗粒物(PM2.5)
上海市,宝山庙行,121.4242,31.3303,2026-01-14T1700,41,69,0.4,49,8,93,97,60,颗粒物(PM10)
上海市,崇明上实东滩,121.8789,31.4662,2026-01-14T1700,31,62,0.5,43,6,108,96,56,颗粒物(PM10)
上海市,嘉定南翔,121.316,31.2839,2026-01-14T1700,33,55,0.5,49,6,104,96,53,颗粒物(PM10)
上海市,金山新城,121.3357,30.7455,2026-01-14T1700,54,78,0.9,39,10,130,118,74,细颗粒物(PM2.5)
上海市,闵行浦江,121.4996,31.0741,2026-01-14T1700,43,70,0.5,47,8,114,114,60,"颗粒物(PM10),细颗粒物(PM2.5)"
上海市,青浦徐泾,121.2886,31.1663,2026-01-14T1700,45,74,0.6,42,9,124,105,63,细颗粒物(PM2.5)
上海市,松江图书馆,121.2193,31.0382,2026-01-14T1700,50,80,,36,9,129,118,,
上海市,长宁仙霞,121.3904,31.206,2026-01-14T1700,,78,0.3,62,10,103,97,,
上海市,浦东惠南,121.7964,31.0507,2026-01-14T1700,35,75,0.6,54,7,107,108,63,颗粒物(PM10)
上海市,奉贤南桥新城,121.4891,30.925,2026-01-14T1700,42,78,0.4,50,6,127,122,64,颗粒物(PM10)
上海市,冠生园路458号,121.417401,31.16637,2026-01-14T1700,48,69,0.5,51,8,107,97,67,细颗粒物(PM2.5)
上海市,宁武路151号,121.541914,31.268301,2026-01-14T1700,57,118,0.8,104,10,50,79,84,颗粒物(PM10)
上饶市,市监测站,117.9758,28.4439,2026-01-14T1700,19,32,/,16,6,94,76,32,
上饶市,凤凰光学,117.9521,28.4637,2026-01-14T1700,20,43,0.7,30,8,83,68,43,
上饶市,双创科技城,117.897,28.4316,2026-01-14T1700,30,44,0.6,28,6,91,74,44,
上饶市,裕丰大道,118.190438,28.444845,2026-01-14T1700,25,34,0.7,22,14,109,90,36,
韶关市,市八中,113.5821,24.7733,2026-01-14T1700,40,62,0.5,19,12,144,95,57,细颗粒物(PM2.5)
韶关市,园林处,113.5916,24.7973,2026-01-14T1700,34,37,/,18,10,144,89,49,
韶关市,曲江监测站,113.5971,24.6864,2026-01-14T1700,42,54,0.5,18,16,133,86,59,细颗粒物(PM2.5)
韶关市,大学路288号,113.6668,24.7756,2026-01-14T1700,41,67,/,19,16,142,100,59,颗粒物(PM10)
韶关市,碧湖山庄,113.5556,24.8082,2026-01-14T1700,39,54,0.5,16,,153,102,,
邵阳市,市化工厂,111.5277,27.2442,2026-01-14T1700,39,43,1.0,17,12,115,84,55,细颗粒物(PM2.5)
邵阳市,市环保局,111.4327,27.2276,2026-01-14T1700,39,57,1.2,16,8,107,82,55,细颗粒物(PM2.5)
邵阳市,北塔二期4-26地块,111.446,27.2472,2026-01-14T1700,45,70,0.9,22,11,95,74,63,细颗粒物(PM2.5)
邵阳市,邵水西路287号,111.4739,27.2282,2026-01-14T1700,51,71,0.7,14,11,109,36,70,细颗粒物(PM2.5)
绍兴市,城东开发委,120.6053,29.9927,2026-01-14T1700,47,67,0.4,37,9,101,95,65,细颗粒物(PM2.5)
绍兴市,树下王站,120.5482,30.0003,2026-01-14T1700,40,61,0.5,33,7,106,96,57,细颗粒物(PM2.5)
绍兴市,绍兴中专,120.5685,29.936,2026-01-14T1700,69,,,33,8,105,92,,
绍兴市,柯桥区政府,120.4905,30.086,2026-01-14T1700,33,51,0.5,36,6,106,103,51,颗粒物(PM10)
绍兴市,重华小学,120.8751,30.0249,2026-01-14T1700,61,80,0.3,43,8,106,106,83,细颗粒物(PM2.5)
绍兴市,上虞中学,120.837,30.0137,2026-01-14T1700,58,63,0.4,38,10,119,108,79,细颗粒物(PM2.5)
绍兴市,柯桥妇保,120.4715,30.0414,2026-01-14T1700,32,55,0.5,34,6,107,91,53,颗粒物(PM10)
绍兴市,袍江中学,120.6156,30.0762,2026-01-14T1700,41,69,0.6,39,4,110,104,60,颗粒物(PM10)
深圳市,通心岭子站,114.0948,22.5506,2026-01-14T1700,15,24,0.3,8,7,122,118,39,
深圳市,洪湖,114.1153,22.5713,2026-01-14T1700,15,29,0.6,9,8,127,118,40,
深圳市,华侨城,113.9823,22.5398,2026-01-14T1700,13,26,/,21,/,111,110,35,
深圳市,南海子站,113.9181,22.517,2026-01-14T1700,15,27,0.6,15,6,115,112,36,
深圳市,盐田,114.2345,22.565,2026-01-14T1700,20,37,0.6,13,8,141,115,45,
深圳市,南澳,114.4911,22.5381,2026-01-14T1700,24,39,/,11,/,151,130,48,
深圳市,葵涌,114.41,22.6346,2026-01-14T1700,23,41,0.6,13,9,143,114,45,
深圳市,梅沙,114.2967,22.5978,2026-01-14T1700,23,42,/,20,/,138,131,44,
深圳市,观澜,114.0563,22.7353,2026-01-14T1700,15,39,0.5,36,8,97,103,39,
深圳市,莲花,114.0614,22.556,2026-01-14T1700,15,30,/,14,/,115,109,36,
深圳市,民治,114.0144,22.6163,2026-01-14T1700,15,18,/,16,/,110,102,35,
深圳市,横岗,114.1756,22.6421,2026-01-14T1700,19,34,/,26,/,117,113,37,
深圳市,坪山,114.344,22.7115,2026-01-14T1700,24,51,0.6,14,9,137,117,51,颗粒物(PM10)
深圳市,西乡,113.8952,22.586,2026-01-14T1700,18,46,0.7,58,9,81,100,46,
深圳市,黄阁路,114.214113,22.713717,2026-01-14T1700,13,24,0.5,11,7,116,113,37,
沈阳市,浑南东路,123.5058,41.7084,2026-01-14T1700,31,46,1.2,39,14,36,39,46,
沈阳市,新秀街,123.4238,41.6992,2026-01-14T1700,27,40,1.0,32,10,40,35,40,
沈阳市,东陵路,123.5903,41.8412,2026-01-14T1700,34,,1.0,36,10,34,34,49,
沈阳市,陵东街,123.4267,41.8466,2026-01-14T1700,28,51,1.1,41,17,30,29,51,颗粒物(PM10)
沈阳市,文化路,123.4116,41.7654,2026-01-14T1700,30,48,1.4,32,11,44,38,48,
沈阳市,小河沿,123.4673,41.787,2026-01-14T1700,26,47,1.3,35,13,44,42,47,
沈阳市,太原街,123.4019,41.7978,2026-01-14T1700,36,44,1.2,52,18,22,27,52,细颗粒物(PM2.5)
沈阳市,京沈街,123.3778,41.9233,2026-01-14T1700,28,33,0.8,44,12,34,33,40,
沈阳市,沈辽西路,123.2429,41.7341,2026-01-14T1700,25,44,0.8,28,10,48,40,44,
沈阳市,裕农路,123.5951,41.9085,2026-01-14T1700,36,59,1.1,41,7,35,43,55,颗粒物(PM10)
十堰市,滨河新村,110.78,32.6494,2026-01-14T1700,45,62,0.9,36,/,43,32,63,细颗粒物(PM2.5)
十堰市,刘家沟,110.7305,32.6408,2026-01-14T1700,42,60,/,19,/,60,45,59,细颗粒物(PM2.5)
十堰市,铁二处,110.8843,32.5712,2026-01-14T1700,106,149,1.4,71,9,8,14,139,细颗粒物(PM2.5)
十堰市,郧阳区金沙路,110.8053,32.8401,2026-01-14T1700,57,68,1.2,51,9,33,42,78,细颗粒物(PM2.5)
石河子市,艾青诗歌馆,86.0391,44.298,2026-01-14T1700,77,109,1.0,11,8,71,53,103,细颗粒物(PM2.5)
石河子市,南区管委会,86.047,44.2331,2026-01-14T1700,118,158,1.2,22,8,67,53,155,细颗粒物(PM2.5)
石河子市,世纪广场,86.0791,44.3018,2026-01-14T1700,,,0.7,,8,,52,,
石河子市,城南景苑小区,86.0126,44.2349,2026-01-14T1700,97,133,1.0,17,4,79,61,128,细颗粒物(PM2.5)
石家庄市,高新区,114.5919,38.0328,2026-01-14T1700,64,106,1.0,63,10,12,17,87,细颗粒物(PM2.5)
石家庄市,西南高教,114.4556,38.0136,2026-01-14T1700,80,150,0.9,62,6,15,17,107,细颗粒物(PM2.5)
石家庄市,世纪公园,114.533,38.0177,2026-01-14T1700,75,115,1.0,52,11,14,19,100,细颗粒物(PM2.5)
石家庄市,人民会堂,114.5105,38.0489,2026-01-14T1700,80,128,0.9,58,4,17,21,107,细颗粒物(PM2.5)
石家庄市,鹿泉一中,114.2887,38.0905,2026-01-14T1700,73,138,1.0,61,7,13,16,98,细颗粒物(PM2.5)
石家庄市,栾城区星河路,114.6491,37.9014,2026-01-14T1700,71,118,0.9,56,18,20,15,95,细颗粒物(PM2.5)
石家庄市,裕华西路63号,114.4563,38.0365,2026-01-14T1700,86,129,1.1,60,6,15,20,114,细颗粒物(PM2.5)
石家庄市,和平路363号,114.5586,38.0581,2026-01-14T1700,82,123,1.0,61,7,13,19,109,细颗粒物(PM2.5)
石家庄市,廉州西路160号,114.8347,38.0213,2026-01-14T1700,96,141,0.9,44,4,15,12,127,细颗粒物(PM2.5)
石家庄市,北城路41号,114.4498,38.0729,2026-01-14T1700,69,102,0.9,55,7,22,26,93,细颗粒物(PM2.5)
石家庄市,矿区区委大楼,114.0494,38.059,2026-01-14T1700,41,119,0.3,19,12,68,34,85,颗粒物(PM10)
石嘴山市,大武口朝阳西街,106.3668,39.0145,2026-01-14T1700,38,134,0.2,5,3,89,78,92,颗粒物(PM10)
石嘴山市,惠农南大街,106.7713,39.2278,2026-01-14T1700,44,166,0.4,10,8,79,83,108,颗粒物(PM10)
石嘴山市,红果子镇惠新街,106.7074,39.1332,2026-01-14T1700,36,169,0.5,14,23,75,80,110,颗粒物(PM10)
石嘴山市,妇女儿童医院,106.3495,38.9837,2026-01-14T1700,20,138,0.3,7,5,97,78,94,颗粒物(PM10)
石嘴山市,石大公路,106.7495,39.2068,2026-01-14T1700,38,156,0.4,8,5,76,78,103,颗粒物(PM10)
双鸭山市,双合村,131.1509,46.6936,2026-01-14T1700,19,29,0.4,8,6,53,54,29,
双鸭山市,南小市,131.1651,46.6191,2026-01-14T1700,17,22,0.6,25,11,35,48,25,
双鸭山市,环保局,131.1526,46.6554,2026-01-14T1700,10,37,0.5,24,5,38,49,37,
朔州市,平朔,112.4399,39.3521,2026-01-14T1700,34,426,0.2,7,5,80,72,308,颗粒物(PM10)
朔州市,朔唯,112.4574,39.362,2026-01-14T1700,40,374,/,3,4,73,62,235,颗粒物(PM10)
朔州市,区政府,112.426,39.3199,2026-01-14T1700,38,372,0.3,5,3,85,77,232,颗粒物(PM10)
朔州市,市环保局,112.4075,39.3277,2026-01-14T1700,38,,/,9,3,85,75,,
朔州市,市二中,112.4273,39.3682,2026-01-14T1700,40,367,/,6,4,86,76,225,颗粒物(PM10)
朔州市,一水厂,112.2938,39.5296,2026-01-14T1700,33,350,0.4,1,3,85,76,200,颗粒物(PM10)
四平市,境园,124.3744,43.1842,2026-01-14T1700,25,37,0.4,27,10,41,42,37,
四平市,植物园,124.4029,43.1411,2026-01-14T1700,16,31,0.3,33,10,41,54,31,
四平市,世纪城,124.3286,43.1726,2026-01-14T1700,,70,0.5,28,10,44,47,,
松原市,江南,124.8007,45.1213,2026-01-14T1700,,,,24,13,48,50,,
松原市,江北,124.7967,45.1721,2026-01-14T1700,19,22,0.4,20,9,45,54,28,
苏州市,轧钢厂,120.5974,31.3247,2026-01-14T1700,57,99,0.4,56,9,83,74,78,细颗粒物(PM2.5)
苏州市,吴中区,120.6329,31.2741,2026-01-14T1700,54,95,0.6,63,10,55,50,74,细颗粒物(PM2.5)
苏州市,苏州新区,120.5566,31.3049,2026-01-14T1700,48,72,0.6,80,10,58,66,67,细颗粒物(PM2.5)
苏州市,苏州工业园区,120.668709,31.312523,2026-01-14T1700,62,80,0.7,59,10,87,72,84,细颗粒物(PM2.5)
苏州市,相城区,120.6408,31.3707,2026-01-14T1700,,,0.8,,14,75,82,,
苏州市,方洲路,120.7431,31.3188,2026-01-14T1700,52,80,0.5,58,9,83,72,72,细颗粒物(PM2.5)
苏州市,木渎中学,120.4979,31.2777,2026-01-14T1700,42,57,0.6,34,7,87,75,59,细颗粒物(PM2.5)
苏州市,越秀幼儿园,120.642,31.1733,2026-01-14T1700,51,97,0.7,55,8,83,74,74,颗粒物(PM10)
苏州市,高铁新城,120.6502,31.4117,2026-01-14T1700,63,111,0.4,82,11,50,61,85,细颗粒物(PM2.5)
苏州市,学森路9号,120.4282,31.3228,2026-01-14T1700,39,207,0.4,55,11,82,83,129,颗粒物(PM10)
宿迁市,宿迁学院,118.2924,33.933,2026-01-14T1700,136,192,0.8,57,6,47,53,180,细颗粒物(PM2.5)
宿迁市,宿迁中学,118.2321,33.9572,2026-01-14T1700,,,1.1,72,,38,45,,
宿迁市,市供电局,118.2781,33.9658,2026-01-14T1700,144,196,1.1,66,5,44,45,192,细颗粒物(PM2.5)
宿迁市,宿豫区政府,118.3243,33.95,2026-01-14T1700,138,203,1.2,91,8,33,47,183,细颗粒物(PM2.5)
宿迁市,春华路,118.352,33.7886,2026-01-14T1700,121,131,0.7,44,8,59,49,159,细颗粒物(PM2.5)
宿州市,远航博物馆,116.9508,33.666,2026-01-14T1700,91,138,0.8,38,7,76,60,120,细颗粒物(PM2.5)
宿州市,社会福利中心,116.9708,33.5911,2026-01-14T1700,91,137,0.9,54,9,56,61,120,细颗粒物(PM2.5)
宿州市,皖北煤电集团,116.9647,33.6252,2026-01-14T1700,,,1.0,53,,60,62,,
宿州市,中兴路,116.9929,33.6412,2026-01-14T1700,109,163,0.9,50,10,63,59,143,细颗粒物(PM2.5)
绥化市,人和东街,126.9783,46.6365,2026-01-14T1700,58,69,0.7,34,6,38,47,79,细颗粒物(PM2.5)
绥化市,党政办公中心,126.964,46.6527,2026-01-14T1700,47,56,0.7,29,6,46,46,65,细颗粒物(PM2.5)
随州市,市委党校,113.3587,31.7275,2026-01-14T1700,85,96,0.7,20,7,107,87,113,细颗粒物(PM2.5)
随州市,市林业局,113.3745,31.6926,2026-01-14T1700,83,103,0.8,19,8,97,73,110,细颗粒物(PM2.5)
随州市,市立交桥水厂,113.3984,31.7309,2026-01-14T1700,109,109,0.7,22,8,96,77,143,细颗粒物(PM2.5)
遂宁市,市监测站,105.5581,30.5231,2026-01-14T1700,48,89,0.6,22,6,84,54,70,颗粒物(PM10)
遂宁市,美宁食品公司,105.5917,30.4727,2026-01-14T1700,77,100,0.5,18,12,94,59,103,细颗粒物(PM2.5)
遂宁市,环岛商务中心9号楼,105.5911,30.5368,2026-01-14T1700,66,88,0.6,20,12,78,55,89,细颗粒物(PM2.5)
塔城地区,东门外小游园,82.9993,46.7432,2026-01-14T1700,17,36,0.4,9,8,75,61,36,
塔城地区,文化广场,82.9716,46.7464,2026-01-14T1700,25,35,0.6,9,6,66,66,36,
台州市,黄岩环保大楼,121.2727,28.6461,2026-01-14T1700,26,57,/,20,/,118,112,54,颗粒物(PM10)
台州市,台州环保大楼,121.4188,28.6545,2026-01-14T1700,21,49,0.4,22,/,111,106,49,
台州市,路桥田洋王,121.3768,28.5772,2026-01-14T1700,22,59,0.6,26,6,119,109,55,颗粒物(PM10)
台州市,台州科技职业学院,121.25678,28.66823971,2026-01-14T1700,21,55,0.4,24,6,119,104,53,颗粒物(PM10)
太原市,尖草坪,112.5138,37.8916,2026-01-14T1700,42,202,0.1,12,3,84,40,126,颗粒物(PM10)
太原市,晋源,112.4691,37.7125,2026-01-14T1700,40,116,0.2,5,3,93,48,83,颗粒物(PM10)
太原市,小店,112.5595,37.7391,2026-01-14T1700,41,161,0.2,5,4,92,43,106,颗粒物(PM10)
太原市,坞城,112.5705,37.8199,2026-01-14T1700,46,150,,7,5,87,35,,
太原市,南寨,112.5495,37.9853,2026-01-14T1700,48,156,0.2,10,6,87,48,103,颗粒物(PM10)
太原市,金胜,112.4702,37.7821,2026-01-14T1700,44,201,0.2,11,2,90,41,126,颗粒物(PM10)
太原市,育英中学,112.5608,37.8807,2026-01-14T1700,44,147,0.3,11,7,87,41,99,颗粒物(PM10)
太原市,西矿街336号,112.449,37.8509,2026-01-14T1700,108,280,0.3,7,3,90,45,165,颗粒物(PM10)
太原市,迎宾北路9号,112.4792,37.9393,2026-01-14T1700,57,237,0.3,10,2,89,47,144,颗粒物(PM10)
太原市,迎泽大街248号,112.551,37.8575,2026-01-14T1700,32,216,0.3,11,3,83,34,133,颗粒物(PM10)
泰安市,监测站,117.1436,36.1938,2026-01-14T1700,108,173,1.0,36,12,64,51,142,细颗粒物(PM2.5)
泰安市,人口学校,117.0905,36.2002,2026-01-14T1700,135,171,1.1,49,13,60,57,179,细颗粒物(PM2.5)
泰安市,电力学校,117.0992,36.1757,2026-01-14T1700,145,183,1.0,54,13,56,54,193,细颗粒物(PM2.5)
泰安市,国网新校,117.1812,36.2273,2026-01-14T1700,124,193,1.4,63,12,39,47,163,细颗粒物(PM2.5)
泰安市,交通技校,117.0315,36.2017,2026-01-14T1700,122,154,1.1,40,10,,64,160,细颗粒物(PM2.5)
泰安市,山东第一医科大学,117.083,36.13,2026-01-14T1700,138,163,0.5,49,10,48,40,183,细颗粒物(PM2.5)
泰州市,公园路,119.9042,32.488,2026-01-14T1700,46,75,0.8,53,10,66,65,64,细颗粒物(PM2.5)
泰州市,莲花,119.9189,32.4626,2026-01-14T1700,41,63,0.9,43,14,89,82,58,细颗粒物(PM2.5)
泰州市,留学生创业园,119.8877,32.4636,2026-01-14T1700,51,78,0.9,60,15,67,72,70,细颗粒物(PM2.5)
泰州市,王营,119.8767,32.3291,2026-01-14T1700,53,80,0.7,47,15,79,66,73,细颗粒物(PM2.5)
泰州市,姜堰区政府广场,120.1226,32.515,2026-01-14T1700,69,94,0.8,49,14,73,62,93,细颗粒物(PM2.5)
泰州市,周山河街区,119.9186,32.4322,2026-01-14T1700,48,78,0.6,46,15,73,65,67,细颗粒物(PM2.5)
唐山市,十二中,118.1707,39.6505,2026-01-14T1700,42,81,1.3,49,8,23,26,66,颗粒物(PM10)
唐山市,小山,118.1868,39.6219,2026-01-14T1700,51,84,1.3,47,11,21,28,70,细颗粒物(PM2.5)
唐山市,冀东油田职工医院,118.4357,39.277,2026-01-14T1700,59,93,0.9,51,8,14,29,80,细颗粒物(PM2.5)
唐山市,正泰大街热力站,118.0927,39.5807,2026-01-14T1700,61,97,1.2,43,8,20,19,83,细颗粒物(PM2.5)
唐山市,丰润区政府,118.1561,39.8322,2026-01-14T1700,43,78,0.8,36,10,28,32,64,颗粒物(PM10)
唐山市,金山小学,118.436906,39.73802,2026-01-14T1700,48,91,1.4,55,12,16,33,71,颗粒物(PM10)
唐山市,政府服务中心,118.2449,39.6693,2026-01-14T1700,41,71,0.9,41,15,25,16,61,颗粒物(PM10)
唐山市,消防缸窑路中队,118.2043,39.6703,2026-01-14T1700,40,88,1.2,34,11,40,28,69,颗粒物(PM10)
唐山市,路南电大,118.1432,39.6203,2026-01-14T1700,60,97,1.3,45,7,19,27,82,细颗粒物(PM2.5)
唐山市,光明北路515号,118.1267,39.6579,2026-01-14T1700,65,108,1.3,,5,14,17,,
唐山市,友谊北路34号,118.130859,39.636026,2026-01-14T1700,49,89,1.3,44,7,30,28,70,颗粒物(PM10)
天津市,勤俭道,117.1446,39.1659,2026-01-14T1700,48,89,0.9,65,10,15,15,70,颗粒物(PM10)
天津市,前进道,117.2016,39.0928,2026-01-14T1700,52,99,1.2,64,9,11,16,75,颗粒物(PM10)
天津市,淮河道,117.1837,39.2134,2026-01-14T1700,57,110,1.4,60,10,8,10,80,颗粒物(PM10)
天津市,跃进路,117.308261,39.088386,2026-01-14T1700,65,119,1.2,68,10,9,12,88,细颗粒物(PM2.5)
天津市,第四大街,117.707,39.0344,2026-01-14T1700,73,134,1.4,85,11,0,8,98,细颗粒物(PM2.5)
天津市,永明路,117.4573,38.8395,2026-01-14T1700,100,177,2.1,76,12,2,15,132,细颗粒物(PM2.5)
天津市,汉北路,117.7641,39.1588,2026-01-14T1700,64,120,1.4,61,14,3,15,87,细颗粒物(PM2.5)
天津市,河西一经路,117.7917,39.2473,2026-01-14T1700,67,140,1.6,76,9,1,6,95,颗粒物(PM10)
天津市,津沽路,117.3747,38.9845,2026-01-14T1700,76,124,1.7,68,12,9,14,102,细颗粒物(PM2.5)
天津市,宾水西道,117.159,39.0844,2026-01-14T1700,52,91,0.9,60,10,9,14,72,细颗粒物(PM2.5)
天津市,大理道,117.194,39.1069,2026-01-14T1700,54,100,1.2,66,12,8,14,75,颗粒物(PM10)
天津市,中山北路,117.2096,39.1698,2026-01-14T1700,59,109,1.4,67,8,8,9,80,"颗粒物(PM10),细颗粒物(PM2.5)"
天津市,西四道,117.385,39.1483,2026-01-14T1700,53,98,1.7,68,13,9,14,74,颗粒物(PM10)
天津市,雍阳西道,117.0362,39.3827,2026-01-14T1700,43,81,1.0,49,10,20,20,66,颗粒物(PM10)
天津市,辛老路,117.0291,39.0612,2026-01-14T1700,59,101,0.6,62,15,14,16,80,细颗粒物(PM2.5)
天津市,地纬路,116.9638,38.9374,2026-01-14T1700,46,79,0.4,52,10,20,15,65,颗粒物(PM10)
天津市,北环路,117.4065,40.0583,2026-01-14T1700,49,80,1.3,36,7,36,35,68,细颗粒物(PM2.5)
天津市,建设路,117.3041,39.7167,2026-01-14T1700,43,79,1.0,41,13,26,23,65,颗粒物(PM10)
天津市,滨水东路,117.8201,39.3519,2026-01-14T1700,62,115,2.0,72,16,3,18,84,细颗粒物(PM2.5)
天津市,光华路,117.24369,39.102911,2026-01-14T1700,52,107,1.4,67,11,11,12,79,颗粒物(PM10)
天水市,公园小学,105.72058,34.57859,2026-01-14T1700,36,157,0.3,10,19,95,76,104,颗粒物(PM10)
天水市,麦积国土局,105.89428,34.55353,2026-01-14T1700,23,162,0.9,14,6,95,62,106,颗粒物(PM10)
铁岭市,水上乐园,123.865,42.292,2026-01-14T1700,29,54,0.6,29,11,49,51,52,颗粒物(PM10)
铁岭市,金沙江路北,123.7158,42.2218,2026-01-14T1700,27,31,0.7,23,7,53,57,39,
铁岭市,新华街20号,123.835,42.2853,2026-01-14T1700,18,52,0.6,26,11,52,54,51,颗粒物(PM10)
通化市,光明,125.9359,41.7174,2026-01-14T1700,30,57,1.0,50,16,21,28,54,颗粒物(PM10)
通化市,铁路,125.9446,41.7323,2026-01-14T1700,26,43,0.7,65,28,17,25,43,
通辽市,艺术职业学校,122.253,43.6801,2026-01-14T1700,44,77,0.8,42,19,28,35,64,颗粒物(PM10)
通辽市,老干部活动中心,122.2584,43.6333,2026-01-14T1700,49,93,0.9,45,13,30,44,72,颗粒物(PM10)
通辽市,东方明珠社区,122.2923,43.6189,2026-01-14T1700,62,95,0.9,40,14,29,36,84,细颗粒物(PM2.5)
铜川市,王益区政府,109.0696,35.0699,2026-01-14T1700,18,113,0.5,9,2,85,55,82,颗粒物(PM10)
铜川市,新区管委会,108.9345,34.9059,2026-01-14T1700,34,169,0.3,8,3,85,76,110,颗粒物(PM10)
铜川市,大唐三路,108.949652,34.870529,2026-01-14T1700,26,169,0.2,10,1,85,74,110,颗粒物(PM10)
铜陵市,市第四中学,117.8176,30.9412,2026-01-14T1700,35,68,0.9,33,20,90,92,59,颗粒物(PM10)
铜陵市,市新民污水厂,117.7806,30.9413,2026-01-14T1700,51,,0.6,39,16,91,82,,
铜陵市,车站新区,117.846,30.9414,2026-01-14T1700,43,62,0.5,32,16,90,87,60,细颗粒物(PM2.5)
铜陵市,市职教基地,117.8472,30.9699,2026-01-14T1700,26,66,0.8,29,15,93,86,58,颗粒物(PM10)
铜仁市,铜仁卫校,109.1839,27.7344,2026-01-14T1700,70,112,1.4,50,1,20,16,94,细颗粒物(PM2.5)
铜仁市,铜仁七中,109.1752,27.6945,2026-01-14T1700,99,,,43,3,38,30,130,细颗粒物(PM2.5)
吐鲁番市,市环保局,89.1905,42.9419,2026-01-14T1700,128,199,1.8,23,4,52,39,169,细颗粒物(PM2.5)
吐鲁番市,地区环保局,89.1674,42.9558,2026-01-14T1700,128,191,1.7,22,5,52,35,169,细颗粒物(PM2.5)
威海市,华夏技校,122.121,37.4231,2026-01-14T1700,18,66,0.3,27,/,71,73,58,颗粒物(PM10)
威海市,山大分校,122.0508,37.5236,2026-01-14T1700,17,46,/,15,/,84,78,46,
威海市,市监测站,122.1067,37.5067,2026-01-14T1700,27,61,0.5,18,4,87,80,56,颗粒物(PM10)
威海市,文登开发区,122.0693,37.2175,2026-01-14T1700,17,47,/,17,/,74,74,47,
威海市,临港区管委会,122.1379,37.3414,2026-01-14T1700,21,44,0.4,16,6,86,77,44,
潍坊市,环保局,119.1436,36.7022,2026-01-14T1700,76,161,1.1,54,10,51,55,106,颗粒物(PM10)
潍坊市,坊子邮政,119.1638,36.6524,2026-01-14T1700,90,166,1.1,62,13,43,61,119,细颗粒物(PM2.5)
潍坊市,潍坊七中,119.0587,36.7209,2026-01-14T1700,93,153,1.0,51,10,46,51,123,细颗粒物(PM2.5)
潍坊市,高新实验学校,119.1978,36.6871,2026-01-14T1700,85,151,0.8,55,7,44,64,113,细颗粒物(PM2.5)
潍坊市,潍坊学院,119.1758,36.7139,2026-01-14T1700,79,153,1.0,47,11,58,61,105,细颗粒物(PM2.5)
潍坊市,寒亭区实验一小,119.2046,36.7696,2026-01-14T1700,83,156,0.9,57,12,49,61,110,细颗粒物(PM2.5)
渭南市,体育馆,109.4605,34.4927,2026-01-14T1700,73,376,0.4,25,4,72,49,238,颗粒物(PM10)
渭南市,高新一小,109.4257,34.5067,2026-01-14T1700,70,387,,21,4,74,56,253,颗粒物(PM10)
渭南市,渭花路4号,109.505065,34.492137,2026-01-14T1700,85,422,0.3,20,4,72,51,303,颗粒物(PM10)
温州市,瓯海,120.6342,28.0088,2026-01-14T1700,24,37,,27,8,102,91,,
温州市,南浦,120.6747,27.9881,2026-01-14T1700,27,46,0.3,31,6,103,96,46,
温州市,龙湾,120.76,27.9745,2026-01-14T1700,24,58,0.4,24,7,107,95,54,颗粒物(PM10)
温州市,茶山,120.6985,27.9252,2026-01-14T1700,13,38,/,12,/,125,106,40,
温州市,鹿城惠民路,120.6935,28.0114,2026-01-14T1700,17,51,0.4,24,/,110,95,51,颗粒物(PM10)
文山壮族苗族自治州,州水务局,104.2533,23.3595,2026-01-14T1700,3,22,0.4,6,,83,78,,
文山壮族苗族自治州,市便民服务中心,104.2319,23.3892,2026-01-14T1700,20,39,0.7,10,6,75,76,39,
乌海市,市林业局,106.8172,39.6972,2026-01-14T1700,41,262,0.4,3,8,94,92,156,颗粒物(PM10)
乌海市,中海勃湾学校,106.7907,39.6666,2026-01-14T1700,44,249,0.3,2,7,97,95,150,颗粒物(PM10)
乌海市,海北新区,106.8129,39.7274,2026-01-14T1700,46,297,0.3,4,11,85,84,174,颗粒物(PM10)
乌海市,海拉北路,106.8212,39.6741,2026-01-14T1700,51,294,0.3,4,16,82,79,172,颗粒物(PM10)
乌兰察布市,集宁新区,113.1306,40.9924,2026-01-14T1700,34,105,0.4,19,5,72,68,78,颗粒物(PM10)
乌兰察布市,光明街小学,113.1076,41.0385,2026-01-14T1700,,,,,,,59,,
乌兰察布市,北京八中,113.1383,40.9513,2026-01-14T1700,38,163,0.6,19,6,63,58,107,颗粒物(PM10)
乌兰察布市,市委党校,113.1776,40.9779,2026-01-14T1700,33,135,0.6,19,4,72,67,93,颗粒物(PM10)
乌鲁木齐市,监测站,87.5796,43.8299,2026-01-14T1700,71,97,0.7,28,3,43,32,95,细颗粒物(PM2.5)
乌鲁木齐市,收费所,87.6044,43.7679,2026-01-14T1700,74,81,1.0,27,5,42,33,99,细颗粒物(PM2.5)
乌鲁木齐市,铁路局,87.5529,43.8704,2026-01-14T1700,71,86,0.7,29,2,54,46,95,细颗粒物(PM2.5)
乌鲁木齐市,三十一中学,87.6408,43.8258,2026-01-14T1700,74,94,0.7,27,8,43,32,99,细颗粒物(PM2.5)
乌鲁木齐市,米东区环保局,87.7218,44.1747,2026-01-14T1700,177,207,1.1,28,11,83,60,227,细颗粒物(PM2.5)
乌鲁木齐市,培训基地,87.4652,43.4569,2026-01-14T1700,26,46,0.6,16,5,80,77,46,
乌鲁木齐市,达坂城区环保局,88.3088,43.3637,2026-01-14T1700,29,52,0.5,20,8,,74,,
乌鲁木齐市,红光山片区,87.6132,43.8791,2026-01-14T1700,74,,0.8,35,9,45,39,99,细颗粒物(PM2.5)
乌鲁木齐市,新师大温泉校区,87.7008,43.8003,2026-01-14T1700,60,79,0.7,,5,56,40,,
乌鲁木齐市,大绿谷,87.4892,43.84,2026-01-14T1700,63,72,0.7,20,3,54,32,85,细颗粒物(PM2.5)
无锡市,雪浪,120.2693,31.4864,2026-01-14T1700,41,78,1.1,54,8,83,80,64,颗粒物(PM10)
无锡市,黄巷,120.2761,31.621,2026-01-14T1700,24,59,0.7,52,5,63,65,55,颗粒物(PM10)
无锡市,漆塘,120.2422,31.5037,2026-01-14T1700,48,92,0.7,36,11,89,77,71,颗粒物(PM10)
无锡市,东亭,120.3489,31.5865,2026-01-14T1700,24,48,0.5,46,9,75,70,48,
无锡市,旺庄,120.3538,31.5474,2026-01-14T1700,29,62,0.7,46,5,81,71,56,颗粒物(PM10)
无锡市,荣巷,120.2447,31.5633,2026-01-14T1700,46,73,0.8,51,9,78,74,64,细颗粒物(PM2.5)
无锡市,堰桥,120.2986,31.6816,2026-01-14T1700,12,46,0.1,60,,65,50,,
无锡市,清舒道1号,120.3138,31.4927,2026-01-14T1700,44,70,0.6,42,10,98,83,62,细颗粒物(PM2.5)
无锡市,健康路105号,120.2925,31.5685,2026-01-14T1700,34,78,0.5,54,6,63,57,64,颗粒物(PM10)
吴忠市,教育园区,106.1535,37.9648,2026-01-14T1700,46,140,0.2,2,5,90,83,95,颗粒物(PM10)
吴忠市,新区二泵站,106.1851,37.9957,2026-01-14T1700,34,218,0.2,3,4,83,78,134,颗粒物(PM10)
吴忠市,文卫南街,106.2176,37.9832,2026-01-14T1700,21,156,0.2,7,5,85,79,103,颗粒物(PM10)
芜湖市,监测站,118.3603,31.3515,2026-01-14T1700,50,64,1.3,43,17,83,58,69,细颗粒物(PM2.5)
芜湖市,科创中心,118.3716,31.4135,2026-01-14T1700,43,58,1.1,58,15,72,52,60,细颗粒物(PM2.5)
芜湖市,四水厂,118.3671,31.3132,2026-01-14T1700,48,63,1.0,62,16,67,56,67,细颗粒物(PM2.5)
芜湖市,市气象局,118.4209,31.3704,2026-01-14T1700,48,59,0.9,55,14,69,60,67,细颗粒物(PM2.5)
芜湖市,清苑社区,118.4783,31.3226,2026-01-14T1700,37,54,0.4,46,14,96,75,53,细颗粒物(PM2.5)
芜湖市,扬子职业技术学院,118.2746,31.2326,2026-01-14T1700,42,67,0.8,33,15,83,67,59,"颗粒物(PM10),细颗粒物(PM2.5)"
芜湖市,湾沚区人民法院,118.5726,31.1371,2026-01-14T1700,22,33,0.7,18,8,96,79,33,
梧州市,市十一中,111.3126,23.4772,2026-01-14T1700,39,53,0,8,11,182,125,78,臭氧1小时(O3_1h)
梧州市,龙新,111.26,23.4794,2026-01-14T1700,38,68,0.2,14,5,173,108,67,臭氧1小时(O3_1h)
梧州市,政贤路18号,111.2416,23.4155,2026-01-14T1700,39,73,0.4,22,8,173,102,67,臭氧1小时(O3_1h)
五家渠市,农水大厦,87.5352,44.1606,2026-01-14T1700,96,143,0.9,,10,70,53,127,细颗粒物(PM2.5)
五家渠市,经开区管委会,87.5461,44.1909,2026-01-14T1700,137,173,1.2,16,8,75,61,182,细颗粒物(PM2.5)
五家渠市,建设西街760号,87.055284,43.999117,2026-01-14T1700,149,158,1.2,27,6,68,62,199,细颗粒物(PM2.5)
武汉市,东湖梨园,114.3676,30.5584,2026-01-14T1700,32,45,0.8,19,6,90,70,46,
武汉市,汉阳月湖,114.2527,30.5578,2026-01-14T1700,29,45,0.7,27,6,97,64,45,
武汉市,汉口花桥,114.2819,30.6189,2026-01-14T1700,37,61,0.8,34,10,86,65,56,颗粒物(PM10)
武汉市,武昌紫阳,114.3024,30.5332,2026-01-14T1700,40,51,0.6,31,11,93,71,57,细颗粒物(PM2.5)
武汉市,青山钢花,114.3646,30.6217,2026-01-14T1700,41,62,0.9,44,6,83,71,58,细颗粒物(PM2.5)
武汉市,沌口新区,114.156697,30.482592,2026-01-14T1700,38,48,0.8,24,10,102,72,54,细颗粒物(PM2.5)
武汉市,汉口江滩,114.3013,30.5944,2026-01-14T1700,48,53,0.6,81,8,43,55,67,细颗粒物(PM2.5)
武汉市,吴家山,114.1285,30.6339,2026-01-14T1700,37,,0.5,21,10,117,67,53,细颗粒物(PM2.5)
武汉市,民族大道182号,114.3876,30.4908,2026-01-14T1700,32,53,0.6,20,7,100,79,52,颗粒物(PM10)
武威市,监测站,102.6203,37.925,2026-01-14T1700,18,48,0.2,6,11,85,65,48,
武威市,钟楼街149号,102.6447,37.9293,2026-01-14T1700,18,52,0.2,4,9,92,66,51,颗粒物(PM10)
西安市,兴庆小区,108.9931,34.2629,2026-01-14T1700,40,273,0.5,15,3,75,56,162,颗粒物(PM10)
西安市,纺织城,109.0595,34.2569,2026-01-14T1700,44,281,0.2,21,2,74,51,166,颗粒物(PM10)
西安市,小寨,108.9377,34.2178,2026-01-14T1700,39,168,0.4,11,6,85,59,109,颗粒物(PM10)
西安市,市人民体育场,108.9522,34.2739,2026-01-14T1700,40,311,0.4,17,1,,54,181,颗粒物(PM10)
西安市,高新西区,108.8923,34.2322,2026-01-14T1700,30,214,0.5,,2,82,53,132,颗粒物(PM10)
西安市,经开区,108.9386,34.3446,2026-01-14T1700,50,287,0.4,12,2,71,53,169,颗粒物(PM10)
西安市,长安区,108.894,34.1557,2026-01-14T1700,36,227,0.2,6,3,87,62,139,颗粒物(PM10)
西安市,临潼区,109.213,34.3748,2026-01-14T1700,41,306,0.3,14,4,77,65,178,颗粒物(PM10)
西安市,广运潭,109.0508,34.321,2026-01-14T1700,52,309,0.4,16,1,78,55,180,颗粒物(PM10)
西安市,无线电监控中心,109.1019,34.5302,2026-01-14T1700,56,360,0.2,12,2,80,54,215,颗粒物(PM10)
西安市,行知小学,108.8869,34.2662,2026-01-14T1700,36,252,0.4,18,3,76,54,151,颗粒物(PM10)
西安市,西苑北路977号,108.596239,34.118792,2026-01-14T1700,41,200,0.2,13,1,93,71,125,颗粒物(PM10)
西安市,曲江池东路988号,108.9817,34.2035,2026-01-14T1700,32,248,0.3,5,1,88,62,149,颗粒物(PM10)
西宁市,城北区政府,101.7775,36.643,2026-01-14T1700,13,58,0.7,6,6,93,87,54,颗粒物(PM10)
西宁市,世纪职校,101.8304,36.5785,2026-01-14T1700,10,34,0.4,12,7,88,79,34,
西宁市,海晏路105号,101.6769,36.6535,2026-01-14T1700,10,54,0.2,3,2,89,82,52,颗粒物(PM10)
西双版纳傣族自治州,景洪市江南,100.8018,21.9995,2026-01-14T1700,31,51,0.6,7,6,82,57,51,颗粒物(PM10)
西双版纳傣族自治州,景洪市江北,100.7995,22.0238,2026-01-14T1700,19,36,0.5,10,5,95,67,36,
锡林郭勒盟,市环保监测站,116.1048,43.9318,2026-01-14T1700,23,75,0.3,9,5,70,66,63,颗粒物(PM10)
锡林郭勒盟,市政府,116.0778,43.9312,2026-01-14T1700,12,58,0.3,7,6,79,74,54,颗粒物(PM10)
厦门市,洪文,118.1519,24.4768,2026-01-14T1700,22,46,0.5,11,4,139,120,46,
厦门市,鼓浪屿,118.0671,24.4447,2026-01-14T1700,22,38,/,35,3,129,106,41,
厦门市,湖里中学,118.0937,24.5054,2026-01-14T1700,23,50,0.6,16,2,147,109,50,
厦门市,集美中学,118.0961,24.5689,2026-01-14T1700,22,43,0.4,20,3,148,115,47,
厦门市,同安二实小,118.1502,24.7246,2026-01-14T1700,20,41,0.5,23,4,142,116,45,
咸宁市,长江产业园,114.3379,29.8683,2026-01-14T1700,24,46,0.4,29,7,97,84,46,
咸宁市,双鹤路18号,114.3182,29.8447,2026-01-14T1700,23,36,0.6,18,3,115,94,36,
咸宁市,碧桂路,114.284,29.8595,2026-01-14T1700,22,33,0.5,,,112,94,,
咸阳市,实验中学,108.6726,34.315,2026-01-14T1700,39,256,0.3,9,3,83,68,153,颗粒物(PM10)
咸阳市,师范学院,108.7226,34.3622,2026-01-14T1700,42,263,0.3,14,3,87,75,157,颗粒物(PM10)
咸阳市,奥体中心,108.6394,34.408,2026-01-14T1700,48,276,0.3,11,4,78,70,163,颗粒物(PM10)
咸阳市,五陵塬路2号,108.6601,34.3767,2026-01-14T1700,48,269,0.8,29,2,74,70,160,颗粒物(PM10)
咸阳市,胭脂路9号,108.6372,34.3031,2026-01-14T1700,45,235,0.3,20,2,77,62,143,颗粒物(PM10)
湘潭市,板塘,112.9508,27.8626,2026-01-14T1700,39,42,0.5,8,7,90,77,55,细颗粒物(PM2.5)
湘潭市,市监测站,112.9114,27.8404,2026-01-14T1700,37,59,1.2,18,14,119,105,55,颗粒物(PM10)
湘潭市,江麓,112.8935,27.8729,2026-01-14T1700,30,53,1.0,13,9,126,114,52,颗粒物(PM10)
湘潭市,岳塘,112.9227,27.8159,2026-01-14T1700,35,68,0.5,18,3,139,117,59,颗粒物(PM10)
湘潭市,科大,112.9073,27.9118,2026-01-14T1700,35,46,,6,4,102,84,,
湘潭市,昭山,113.0048,27.9153,2026-01-14T1700,30,51,0.4,17,6,125,102,51,颗粒物(PM10)
湘西土家族苗族自治州,州政府,109.7298,28.3164,2026-01-14T1700,128,,1.3,69,3,24,33,169,细颗粒物(PM2.5)
湘西土家族苗族自治州,吉首市计生局,109.6957,28.2676,2026-01-14T1700,88,98,1.0,54,9,37,37,117,细颗粒物(PM2.5)
襄阳市,襄城运动路,112.1555,32.0197,2026-01-14T1700,64,92,0.7,28,9,73,59,87,细颗粒物(PM2.5)
襄阳市,高新管委会,112.1829,32.1146,2026-01-14T1700,75,100,0.8,24,11,72,52,100,细颗粒物(PM2.5)
襄阳市,襄州航空路,112.2105,32.0903,2026-01-14T1700,66,99,0.8,26,10,72,52,89,细颗粒物(PM2.5)
襄阳市,襄城隆中路,112.0764,32.0089,2026-01-14T1700,49,91,0.5,22,10,76,60,71,颗粒物(PM10)
襄阳市,高新台子湾,112.1154,32.103,2026-01-14T1700,51,86,0.4,,6,73,56,,
襄阳市,铁院东路4号,112.1433,32.0581,2026-01-14T1700,48,103,0.6,22,7,63,52,77,颗粒物(PM10)
孝感市,东城区,113.9062,30.9378,2026-01-14T1700,55,95,0.8,18,9,115,88,75,细颗粒物(PM2.5)
孝感市,天仙南路1号,113.946,30.8999,2026-01-14T1700,47,72,0.6,25,8,100,74,65,细颗粒物(PM2.5)
忻州市,开发区,112.7313,38.457,2026-01-14T1700,63,375,0.4,7,6,82,69,236,颗粒物(PM10)
忻州市,会展中心,112.7023,38.4932,2026-01-14T1700,80,380,0.4,12,4,80,63,243,颗粒物(PM10)
忻州市,市政府,112.7279,38.4157,2026-01-14T1700,81,328,0.3,12,4,83,74,189,颗粒物(PM10)
新乡市,环保西院,113.836,35.3104,2026-01-14T1700,,,1.5,70,18,11,15,,
新乡市,开发区,113.8847,35.2724,2026-01-14T1700,85,130,1.0,60,15,23,20,113,细颗粒物(PM2.5)
新乡市,环保东院,113.8836,35.3028,2026-01-14T1700,96,161,1.3,66,14,14,18,127,细颗粒物(PM2.5)
新乡市,市委党校,113.9194,35.2847,2026-01-14T1700,87,136,0.8,59,15,25,22,115,细颗粒物(PM2.5)
新乡市,市政府,113.9189,35.3042,2026-01-14T1700,101,168,0.9,60,20,22,22,133,细颗粒物(PM2.5)
新乡市,行政服务中心,113.9002,35.372,2026-01-14T1700,134,181,1.5,70,25,13,15,178,细颗粒物(PM2.5)
新乡市,建设东路46号,113.916569,35.331547,2026-01-14T1700,141,220,1.3,70,26,15,20,188,细颗粒物(PM2.5)
