area,positionname,longitude,latitude,timepoint,pm2_5,pm10,co,no2,so2,o3,o3_8h,aqi,primarypollutant
阿坝藏族羌族自治州,马师校,102.2503,31.8896,2026-03-07T0000,12,30,0.4,13,5,40,75,30,
阿坝藏族羌族自治州,马尔康中学西区,102.2174,31.9016,2026-03-07T0000,11,37,0.4,9,6,48,74,37,
阿克苏地区,电视台,80.2899,41.1684,2026-03-07T0000,88,316,2.1,69,8,18,95,183,颗粒物(PM10)
阿克苏地区,艺术中心,80.2592,41.1541,2026-03-07T0000,83,271,0.9,40,8,38,98,161,颗粒物(PM10)
阿拉善盟,蒙二幼,105.699,38.8409,2026-03-07T0000,18,64,0.5,6,10,86,92,60,颗粒物(PM10)
阿拉善盟,环保局新楼,105.7198,38.8508,2026-03-07T0000,15,50,0.4,5,8,88,90,50,
阿勒泰地区,市站,88.1266,47.8515,2026-03-07T0000,12,18,0.3,33,6,78,102,25,
阿勒泰地区,阿勒泰路33号,88.1198,47.7931,2026-03-07T0000,3,13,0.3,7,6,102,100,32,
阿里地区,阿里监测站,80.1171,32.4999,2026-03-07T0000,3,12,0.3,6,13,110,123,35,
阿里地区,阿里藏医院,80.0906,32.5029,2026-03-07T0000,3,7,0.2,1,8,123,126,39,
安康市,汉滨区检察院,109.0088,32.6974,2026-03-07T0000,15,21,0.6,10,3,46,66,22,
安康市,市邮政管理局,109.0324,32.6913,2026-03-07T0000,16,24,0.8,12,4,42,62,24,
安庆市,环科院,117.0806,30.5181,2026-03-07T0000,41,62,0.7,11,8,77,89,62,细颗粒物(PM2.5)
安庆市,马山宾馆,117.0331,30.5118,2026-03-07T0000,43,57,0.7,17,6,75,86,66,细颗粒物(PM2.5)
安庆市,安庆大学,116.9897,30.6146,2026-03-07T0000,36,38,0.7,13,4,78,94,52,细颗粒物(PM2.5)
安庆市,市人大,117.0598,30.5351,2026-03-07T0000,39,59,0.6,17,6,78,89,58,细颗粒物(PM2.5)
安顺市,凤凰山,105.9408,26.2431,2026-03-07T0000,18,NA,0.5,7,10,52,45,26,
安顺市,金钟山,105.9443,26.2567,2026-03-07T0000,21,26,0.6,6,8,51,46,30,
安顺市,娄家坡,105.8983,26.248,2026-03-07T0000,22,23,0.6,8,10,48,43,32,
安阳市,红庙街,114.3552,36.1017,2026-03-07T0000,34,NA,0.3,10,1,68,69,49,
安阳市,银杏小区,114.361,36.0681,2026-03-07T0000,42,NA,0.4,9,3,70,74,64,细颗粒物(PM2.5)
安阳市,信访局,114.3921,36.0879,2026-03-07T0000,37,NA,0.5,11,2,69,77,54,细颗粒物(PM2.5)
安阳市,左辅环卫站,114.4706,36.0634,2026-03-07T0000,36,38,0.4,12,1,63,77,52,细颗粒物(PM2.5)
安阳市,钢三路198号,114.2918,36.0769,2026-03-07T0000,38,42,0.4,17,1,54,67,56,细颗粒物(PM2.5)
鞍山市,深沟寺,123.0441,41.1201,2026-03-07T0000,31,47,0.8,28,21,50,81,47,
鞍山市,太阳城,123.011,41.0931,2026-03-07T0000,32,46,0.7,24,21,58,84,46,
鞍山市,太平,123.0483,41.1445,2026-03-07T0000,37,63,1.1,31,20,49,82,60,颗粒物(PM10)
鞍山市,铁西三道街,122.964,41.0968,2026-03-07T0000,41,59,1.4,32,31,53,78,62,细颗粒物(PM2.5)
鞍山市,明达新区,123.0219,41.0822,2026-03-07T0000,27,38,0.7,21,19,58,81,39,
鞍山市,兴盛南路290号,122.944647,41.082639,2026-03-07T0000,89,NA,1.7,71,13,6,83,NA,NA
巴彦淖尔市,附二中,107.4206,40.7609,2026-03-07T0000,26,50,0.4,12,8,53,79,50,
巴彦淖尔市,市环保大楼,107.37,40.7372,2026-03-07T0000,26,46,0.5,15,8,56,80,46,
巴音郭楞蒙古自治州,孔雀公园,86.1476,41.7529,2026-03-07T0000,19,60,0.4,18,10,74,89,58,颗粒物(PM10)
巴音郭楞蒙古自治州,棉纺厂,86.1971,41.7166,2026-03-07T0000,25,98,/,40,/,46,94,85,颗粒物(PM10)
巴音郭楞蒙古自治州,经济开发区,86.236,41.7172,2026-03-07T0000,15,46,0.3,6,6,74,85,46,
巴中市,市五中,106.776805,31.852614,2026-03-07T0000,30,35,0.7,19,7,35,77,43,
巴中市,圣泉水务公司,106.7419,31.8654,2026-03-07T0000,23,30,1.0,28,8,28,81,33,
巴中市,市中心医院,106.7617,31.8343,2026-03-07T0000,32,43,0.8,33,8,16,80,46,
白城市,洮北区环保局,122.7909,45.608,2026-03-07T0000,40,55,0.6,21,10,52,85,60,细颗粒物(PM2.5)
白城市,市环保局,122.8741,45.5725,2026-03-07T0000,55,88,0.9,60,10,6,90,90,细颗粒物(PM2.5)
白山市,喜丰,126.4219,41.9172,2026-03-07T0000,18,55,0.8,49,8,29,90,54,颗粒物(PM10)
白山市,环保局,126.4082,41.9416,2026-03-07T0000,24,45,0.7,24,11,45,92,45,
白银市,第三小学,104.1727,36.5448,2026-03-07T0000,32,74,0.5,35,31,53,100,68,颗粒物(PM10)
白银市,动力公司,104.1467,36.5482,2026-03-07T0000,29,78,0.5,20,31,60,98,70,颗粒物(PM10)
百色市,市监测站,106.6102,23.901,2026-03-07T0000,43,61,0.9,33,11,31,77,66,细颗粒物(PM2.5)
百色市,市中心血站,106.6524,23.8842,2026-03-07T0000,72,86,1.1,31,17,44,77,111,细颗粒物(PM2.5)
百色市,龙景西路,106.6273,23.8798,2026-03-07T0000,64,92,0.9,28,15,33,75,104,细颗粒物(PM2.5)
蚌埠市,工人疗养院,117.396,32.9389,2026-03-07T0000,44,67,0.6,16,3,68,60,68,细颗粒物(PM2.5)
蚌埠市,百货大楼,117.3606,32.9428,2026-03-07T0000,44,68,0.6,14,6,68,56,68,细颗粒物(PM2.5)
蚌埠市,蚌埠学院,117.4183,32.8909,2026-03-07T0000,48,63,0.5,27,4,58,54,76,细颗粒物(PM2.5)
蚌埠市,淮上区政府,117.3534,32.9672,2026-03-07T0000,51,63,0.6,12,4,74,58,82,细颗粒物(PM2.5)
蚌埠市,高新区,117.3143,32.8977,2026-03-07T0000,56,73,0.6,38,6,46,56,92,细颗粒物(PM2.5)
蚌埠市,蚌埠田家炳中学,117.3091,32.9314,2026-03-07T0000,49,74,0.6,16,4,68,59,78,细颗粒物(PM2.5)
包头市,市环境监测站,109.8761,40.6533,2026-03-07T0000,29,46,0.9,72,9,5,81,46,
包头市,包头八中,109.9992,40.5843,2026-03-07T0000,43,93,1.1,78,11,3,78,81,颗粒物(PM10)
包头市,惠龙物流,109.8641,40.6288,2026-03-07T0000,38,64,1.3,77,10,4,80,60,颗粒物(PM10)
包头市,东河鸿龙湾,110.0376,40.5546,2026-03-07T0000,83,107,1.3,90,11,12,84,121,细颗粒物(PM2.5)
包头市,滨河大厦,109.9154,40.5684,2026-03-07T0000,63,79,0.9,88,13,6,80,103,细颗粒物(PM2.5)
包头市,包头市委党校,109.9449,40.6259,2026-03-07T0000,17,36,0.9,79,14,5,80,40,
包头市,昆区政府,109.8332,40.6577,2026-03-07T0000,37,59,1.2,90,12,4,80,57,颗粒物(PM10)
宝鸡市,竹园沟,107.0802,34.3129,2026-03-07T0000,69,69,0.8,26,6,32,89,109,细颗粒物(PM2.5)
宝鸡市,监测站,107.1429,34.3549,2026-03-07T0000,56,63,0.8,20,5,26,77,92,细颗粒物(PM2.5)
宝鸡市,技工学校,107.1172,34.3759,2026-03-07T0000,64,64,1.0,24,3,30,88,104,细颗粒物(PM2.5)
宝鸡市,文理学院,107.2025,34.3518,2026-03-07T0000,66,113,0.9,20,4,29,88,106,细颗粒物(PM2.5)
宝鸡市,三迪小学,107.2396,34.3626,2026-03-07T0000,59,66,0.9,22,3,30,89,98,细颗粒物(PM2.5)
宝鸡市,滨河北路,107.1721,34.3558,2026-03-07T0000,63,94,0.8,20,4,29,84,103,细颗粒物(PM2.5)
宝鸡市,陈仓区北开路21号,107.3898,34.3601,2026-03-07T0000,45,61,0.8,19,6,31,87,70,细颗粒物(PM2.5)
保定市,游泳馆,115.4803,38.8568,2026-03-07T0000,34,57,0.4,32,2,50,80,55,颗粒物(PM10)
保定市,华电二区,115.509,38.8895,2026-03-07T0000,29,58,0.3,41,3,43,81,56,颗粒物(PM10)
保定市,接待中心,115.4588,38.9037,2026-03-07T0000,33,53,0.3,29,2,40,78,53,颗粒物(PM10)
保定市,地表水厂,115.4484,38.8344,2026-03-07T0000,38,65,0.2,40,4,43,78,61,颗粒物(PM10)
保定市,满城区生态环境分局,115.3136,38.9511,2026-03-07T0000,53,85,0.2,41,4,33,84,86,细颗粒物(PM2.5)
保定市,清苑区第二中学,115.4709,38.7628,2026-03-07T0000,43,84,0.5,38,2,37,78,75,颗粒物(PM10)
保定市,徐水物探局,115.6231,39.0223,2026-03-07T0000,50,86,0.4,41,1,36,79,80,细颗粒物(PM2.5)
保定市,双鹰农机,115.4199,38.8665,2026-03-07T0000,51,77,0.6,48,4,34,87,82,细颗粒物(PM2.5)
保定市,植保所站,115.515,38.8589,2026-03-07T0000,32,73,0.4,54,1,27,78,67,颗粒物(PM10)
保山市,市环境监测站,99.1589,25.1137,2026-03-07T0000,58,78,0.3,7,6,144,154,96,细颗粒物(PM2.5)
保山市,市环保局,99.1616,25.1381,2026-03-07T0000,62,83,0.7,5,4,134,154,102,细颗粒物(PM2.5)
北海市,海滩公园,109.1435,21.4085,2026-03-07T0000,19,35,0.7,15,3,89,115,35,
北海市,新市环保局,109.0983,21.466,2026-03-07T0000,42,44,0.8,32,7,67,110,64,细颗粒物(PM2.5)
北海市,北海工业园,109.1775,21.5232,2026-03-07T0000,44,NA,1.0,23,6,57,112,68,细颗粒物(PM2.5)
北海市,龙潭自来水厂,109.1844,21.4396,2026-03-07T0000,36,48,1.0,16,7,59,105,52,细颗粒物(PM2.5)
北京市,万寿西宫,116.3611,39.8786,2026-03-07T0000,16,27,0.4,52,2,30,79,27,
北京市,东四,116.4174,39.9289,2026-03-07T0000,16,23,0.2,28,5,39,71,23,
北京市,天坛,116.4073,39.8858,2026-03-07T0000,12,19,0.6,27,2,27,73,19,
北京市,农展馆,116.4622,39.9364,2026-03-07T0000,14,24,0.5,29,5,43,78,24,
北京市,官园,116.3399,39.9293,2026-03-07T0000,22,35,0.5,43,5,34,69,35,
北京市,海淀万柳,116.2879,39.9613,2026-03-07T0000,36,NA,0.7,48,2,16,62,52,细颗粒物(PM2.5)
北京市,顺义新城,116.6635,40.1349,2026-03-07T0000,23,38,0.4,27,3,38,88,38,
北京市,怀柔镇,116.6275,40.327,2026-03-07T0000,8,11,0.5,10,4,48,79,15,
北京市,昌平镇,116.2295,40.217,2026-03-07T0000,8,15,0.4,13,2,53,74,17,
北京市,奥体中心,116.3968,39.982,2026-03-07T0000,14,25,0.6,30,3,35,67,25,
北京市,密云新城,116.8336,40.4095,2026-03-07T0000,8,13,0.3,10,2,45,83,15,
北京市,门头沟三家店,116.0879,39.9725,2026-03-07T0000,14,24,0.4,31,3,27,70,24,
北京市,丰台云岗,116.1507,39.8246,2026-03-07T0000,24,43,0.5,27,2,37,73,43,
北京市,房山燕山,115.9578,39.7602,2026-03-07T0000,23,34,0.4,11,3,53,68,34,
北京市,大兴旧宫,116.4669,39.7734,2026-03-07T0000,42,63,0.7,41,3,26,74,64,细颗粒物(PM2.5)
北京市,延庆石河营,115.9859,40.4562,2026-03-07T0000,12,18,0.5,24,1,29,78,18,
北京市,怀柔新城,116.6151,40.3052,2026-03-07T0000,9,11,0.3,8,2,56,79,18,
北京市,丰台小屯,116.2542,39.8764,2026-03-07T0000,31,55,0.4,55,3,21,68,54,颗粒物(PM10)
北京市,密云镇,116.8399,40.3843,2026-03-07T0000,9,15,0.4,19,2,38,82,15,
北京市,延庆百泉,115.9423,40.4431,2026-03-07T0000,17,26,0.5,17,3,49,79,26,
北京市,通州新华,116.6598,39.9164,2026-03-07T0000,31,44,0.5,41,3,27,79,45,
北京市,石景山八角,116.1942,39.9158,2026-03-07T0000,18,40,0.5,48,3,9,65,40,
北京市,平谷新城,117.078628,40.151726,2026-03-07T0000,23,30,0.4,17,3,58,82,33,
本溪市,大峪,123.8274146,41.31234549,2026-03-07T0000,24,33,0.6,11,9,61,81,35,
本溪市,彩屯,123.7169,41.3094,2026-03-07T0000,33,45,0.8,26,10,49,82,48,
本溪市,东明,123.7672166,41.28649327,2026-03-07T0000,20,34,0.8,24,9,53,78,34,
本溪市,新立屯,123.799345,41.266614,2026-03-07T0000,24,32,0.8,34,5,24,72,35,
本溪市,威宁,123.829144,41.336777,2026-03-07T0000,26,52,0.6,39,4,21,83,52,颗粒物(PM10)
毕节市,八中,105.287,27.3133,2026-03-07T0000,28,32,0.8,15,9,10,36,40,
毕节市,师专,105.3079,27.2987,2026-03-07T0000,19,28,0.6,13,9,15,38,28,
毕节市,工业大道,105.3688,27.3598,2026-03-07T0000,21,NA,/,11,9,19,42,30,
滨州市,第二水厂,117.9961,37.3604,2026-03-07T0000,21,36,0.2,20,9,60,81,36,
滨州市,北中新校,117.9789,37.3931,2026-03-07T0000,18,41,0.1,20,13,65,76,41,
滨州市,中海酒店,117.9379,37.3959,2026-03-07T0000,20,39,0.6,20,9,74,84,39,
滨州市,开发区一中,117.9381509,37.35547456,2026-03-07T0000,23,41,0.5,16,11,59,81,41,
滨州市,金海六路,118.0914,37.6938,2026-03-07T0000,25,37,0.6,12,4,64,94,37,
滨州市,滨州市西街道办事处,117.9955,37.3752,2026-03-07T0000,21,34,0.3,15,14,64,82,34,
亳州市,污水处理厂,115.8071,33.8399,2026-03-07T0000,76,102,0.4,29,4,32,73,115,细颗粒物(PM2.5)
亳州市,三国揽胜宫,115.7789,33.8519,2026-03-07T0000,74,130,0.4,20,4,41,70,113,细颗粒物(PM2.5)
亳州市,亳州学院,115.7631,33.803,2026-03-07T0000,72,115,0.5,21,3,44,68,111,细颗粒物(PM2.5)
博尔塔拉蒙古自治州,市党校,82.0482,44.8553,2026-03-07T0000,25,58,0.5,22,2,63,92,56,颗粒物(PM10)
博尔塔拉蒙古自治州,市环保局,82.0805,44.8966,2026-03-07T0000,33,51,0.8,35,3,58,84,51,颗粒物(PM10)
沧州市,沧县城建局,116.8733,38.2922,2026-03-07T0000,68,86,0.5,35,4,35,80,108,细颗粒物(PM2.5)
沧州市,电视转播站,116.8462,38.3189,2026-03-07T0000,79,89,0.7,42,2,35,82,118,细颗粒物(PM2.5)
沧州市,市环保局,116.8588,38.3161,2026-03-07T0000,64,78,0.6,30,4,40,77,104,细颗粒物(PM2.5)
沧州市,河北水利电力学院,116.8011,38.294,2026-03-07T0000,70,78,0.7,34,4,36,74,110,细颗粒物(PM2.5)
昌都市,昌都监测站,97.1813,31.1289,2026-03-07T0000,11,20,0.5,4,4,77,76,25,
昌都市,昌都会议中心,97.1707,31.1428,2026-03-07T0000,9,28,0.5,6,6,73,83,28,
昌吉回族自治州,新区政务中心,87.2722,44.0298,2026-03-07T0000,75,NA,0.8,27,6,110,137,114,细颗粒物(PM2.5)
昌吉回族自治州,亚心广场,87.3069,44.0093,2026-03-07T0000,81,102,0.8,24,9,114,140,120,细颗粒物(PM2.5)
昌吉回族自治州,财政所,87.2057,43.9289,2026-03-07T0000,79,124,0.8,43,7,63,138,118,细颗粒物(PM2.5)
长春市,客车厂,125.2874,43.9024,2026-03-07T0000,39,47,0.7,54,8,16,76,58,细颗粒物(PM2.5)
长春市,邮电学院,125.2943,43.8508,2026-03-07T0000,35,48,0.6,31,8,41,77,50,
长春市,劳动公园,125.3648,43.8745,2026-03-07T0000,36,55,0.6,31,9,44,77,54,颗粒物(PM10)
长春市,园林处,125.3233,43.8781,2026-03-07T0000,36,39,0.3,23,10,51,78,52,细颗粒物(PM2.5)
长春市,净月潭,125.4604,43.7904,2026-03-07T0000,35,42,0.5,33,14,39,85,50,
长春市,经开区环卫处,125.38,43.8422,2026-03-07T0000,35,50,0.5,24,6,46,83,50,
长春市,高新区管委会,125.234,43.7761,2026-03-07T0000,27,42,0.6,35,10,35,79,42,
长春市,岱山公园,125.1695,43.83,2026-03-07T0000,34,54,0.6,42,8,28,78,53,颗粒物(PM10)
长春市,北亚泰大街1068号,125.334645,43.916281,2026-03-07T0000,42,53,0.6,43,12,26,75,64,细颗粒物(PM2.5)
长沙市,经开区环保局,113.082,28.2421,2026-03-07T0000,48,64,0.8,45,4,26,50,76,细颗粒物(PM2.5)
长沙市,高开区环保局,112.8873,28.2202,2026-03-07T0000,61,76,1.0,26,6,36,60,101,细颗粒物(PM2.5)
长沙市,马坡岭,113.0785,28.2012,2026-03-07T0000,57,70,0.9,55,5,14,52,94,细颗粒物(PM2.5)
长沙市,湖南师范大学,112.9448,28.1894,2026-03-07T0000,54,80,1.0,30,4,48,68,88,细颗粒物(PM2.5)
长沙市,雨花区环保局,113.0177,28.1322,2026-03-07T0000,51,66,0.9,48,4,39,57,82,细颗粒物(PM2.5)
长沙市,伍家岭,112.9795,28.2593,2026-03-07T0000,59,77,0.9,36,5,32,57,98,细颗粒物(PM2.5)
长沙市,火车新站,113.002,28.1944,2026-03-07T0000,56,68,0.9,45,4,32,60,92,细颗粒物(PM2.5)
长沙市,天心区环保局,112.9846,28.1177,2026-03-07T0000,62,71,0.8,37,6,46,61,102,细颗粒物(PM2.5)
长沙市,湖南中医药大学,112.8906,28.1307,2026-03-07T0000,58,84,0.9,31,6,40,68,96,细颗粒物(PM2.5)
长治市,清华站,113.1146,36.1547,2026-03-07T0000,32,36,0.7,12,5,66,70,46,
长治市,审计局,113.0887,36.2126,2026-03-07T0000,36,NA,0.7,9,6,71,68,52,细颗粒物(PM2.5)
长治市,长治八中,113.0845,36.1856,2026-03-07T0000,34,NA,0.7,7,8,71,72,49,
长治市,德盛苑,113.1561,36.1912,2026-03-07T0000,53,NA,1.1,15,5,51,71,86,细颗粒物(PM2.5)
长治市,向阳小学,113.0603,36.0464,2026-03-07T0000,43,66,0.8,11,6,72,76,66,细颗粒物(PM2.5)
长治市,屯留一中,112.8788,36.315,2026-03-07T0000,36,40,0.4,16,3,64,80,52,细颗粒物(PM2.5)
长治市,英华南巷50号,113.113092,36.199482,2026-03-07T0000,40,NA,0.7,11,5,68,68,60,细颗粒物(PM2.5)
长治市,学府街1号,113.23666,36.33435,2026-03-07T0000,38,48,0.8,20,2,44,69,56,细颗粒物(PM2.5)
常德市,市二中,111.696,28.9725,2026-03-07T0000,54,75,1.0,8,7,67,81,88,细颗粒物(PM2.5)
常德市,武陵区永安,111.7152,29.0288,2026-03-07T0000,52,72,0.9,12,6,67,82,84,细颗粒物(PM2.5)
常德市,鼎城区玉霞,111.6891,28.9881,2026-03-07T0000,50,69,0.8,12,8,71,84,80,细颗粒物(PM2.5)
常德市,武陵区长庚,111.6651,29.0526,2026-03-07T0000,56,62,0.9,9,7,69,86,92,细颗粒物(PM2.5)
常州市,市监测站,119.9524,31.7586,2026-03-07T0000,24,43,0.4,18,6,71,72,43,
常州市,武进监测站,119.9351,31.703,2026-03-07T0000,26,45,0.3,15,7,73,73,45,
常州市,行政中心,119.9701,31.813,2026-03-07T0000,25,65,0.3,24,4,59,66,61,颗粒物(PM10)
常州市,经开区,120.0434,31.7726,2026-03-07T0000,23,48,0.4,18,11,74,74,48,
常州市,钟楼,119.8919,31.7892,2026-03-07T0000,26,45,0.3,23,6,68,77,45,
常州市,武进经发区,119.8595,31.706,2026-03-07T0000,33,52,0.4,21,7,66,68,52,颗粒物(PM10)
常州市,金坛城区,119.5812,31.7256,2026-03-07T0000,33,55,0.6,14,7,72,78,54,颗粒物(PM10)
常州市,崇义南街5-H号,119.9551,31.863,2026-03-07T0000,22,48,0.4,13,4,73,71,48,
朝阳市,西梁,120.4318,41.588,2026-03-07T0000,10,37,0.7,32,7,NA,77,NA,NA
朝阳市,河畔小区,120.452,41.565,2026-03-07T0000,15,20,0.6,18,7,54,87,22,
朝阳市,八里堡,120.4176,41.5648,2026-03-07T0000,44,45,0.8,62,9,3,85,68,细颗粒物(PM2.5)
潮州市,市政府,116.6179,23.6608,2026-03-07T0000,40,42,0.5,10,8,70,76,60,细颗粒物(PM2.5)
潮州市,金山,116.646,23.676,2026-03-07T0000,37,NA,0.6,10,2,69,76,54,细颗粒物(PM2.5)
郴州市,市职中,113.0116,25.8228,2026-03-07T0000,30,33,0.7,28,4,0,57,43,
郴州市,市审计局,113.0381,25.8074,2026-03-07T0000,29,37,/,25,4,6,52,42,
郴州市,市环保局,113.0348,25.7757,2026-03-07T0000,29,61,0.6,42,4,8,61,58,颗粒物(PM10)
郴州市,好美居路49号,113.0138,25.8011,2026-03-07T0000,29,43,/,33,4,0,59,43,
成都市,金泉两河,103.9727,30.7242,2026-03-07T0000,39,53,0.5,12,2,62,73,58,细颗粒物(PM2.5)
成都市,十里店,104.1423,30.6765,2026-03-07T0000,36,50,0.5,11,4,46,62,52,细颗粒物(PM2.5)
成都市,三瓦窑,104.0594,30.5765,2026-03-07T0000,35,50,0.6,14,2,59,81,50,
成都市,沙河铺,104.1122,30.6306,2026-03-07T0000,40,48,0.5,20,4,36,68,60,细颗粒物(PM2.5)
成都市,大石西路,104.0219,30.6561,2026-03-07T0000,40,44,0.5,13,5,62,68,60,细颗粒物(PM2.5)
成都市,龙泉驿区区政府,104.2724,30.559,2026-03-07T0000,40,41,0.6,13,6,46,78,60,细颗粒物(PM2.5)
成都市,金博路,104.0028,30.6891,2026-03-07T0000,38,NA,0.8,19,6,60,73,56,细颗粒物(PM2.5)
成都市,华阳,104.056,30.5228,2026-03-07T0000,31,36,0.7,14,2,65,75,45,
成都市,青石路225号,104.387954,30.746684,2026-03-07T0000,42,51,0.8,22,4,42,74,64,细颗粒物(PM2.5)
成都市,科学城,104.0788,30.4054,2026-03-07T0000,41,60,0.8,8,7,66,79,62,细颗粒物(PM2.5)
成都市,光华大道三段,103.8505,30.6946,2026-03-07T0000,40,50,0.6,20,3,61,68,60,细颗粒物(PM2.5)
成都市,八角井街185号,104.3257,30.6406,2026-03-07T0000,38,49,0.7,15,4,46,69,56,细颗粒物(PM2.5)
成都市,鲸龙路1057号,104.2433276,30.53529463,2026-03-07T0000,40,57,0.6,26,5,39,79,60,细颗粒物(PM2.5)
承德市,铁路,117.9531,40.908,2026-03-07T0000,16,39,0.6,18,1,39,83,39,
承德市,中国银行,117.9397,40.9763,2026-03-07T0000,20,30,0.5,22,1,27,84,30,
承德市,杏林街1号,117.9462,40.95,2026-03-07T0000,31,43,0.6,32,4,21,86,45,
承德市,滨河大街98号,117.7994,40.9605,2026-03-07T0000,14,36,0.4,22,2,34,91,36,
池州市,池州学院,117.4698,30.6617,2026-03-07T0000,74,89,0.9,21,4,61,85,113,细颗粒物(PM2.5)
池州市,展览馆,117.4918,30.6617,2026-03-07T0000,58,86,0.8,23,3,59,84,96,细颗粒物(PM2.5)
池州市,第八中学,117.5626,30.695,2026-03-07T0000,63,87,0.7,27,4,56,83,103,细颗粒物(PM2.5)
池州市,第十二中学,117.5037,30.6242,2026-03-07T0000,65,89,0.9,27,4,57,84,105,细颗粒物(PM2.5)
赤峰市,松山一中,118.9229,42.2816,2026-03-07T0000,23,35,0.9,43,9,19,66,35,
赤峰市,哈达街,118.9588,42.2733,2026-03-07T0000,27,38,1.0,38,15,24,74,39,
赤峰市,天义路,118.8792,42.2551,2026-03-07T0000,34,NA,0.9,26,11,40,88,49,
赤峰市,银河街,119.2656,42.0356,2026-03-07T0000,14,33,0.9,24,12,42,93,33,
赤峰市,桥北物流园区,118.9359,42.3146,2026-03-07T0000,18,36,0.8,32,3,34,89,36,
崇左市,市环保局江州分局,107.3473,22.4137,2026-03-07T0000,52,68,1.0,17,8,91,117,84,细颗粒物(PM2.5)
崇左市,石景林东路7号,107.375,22.3736,2026-03-07T0000,58,NA,1.2,22,8,83,115,96,细颗粒物(PM2.5)
滁州市,市政府原办公楼,118.31131,32.3033,2026-03-07T0000,43,53,0.7,12,4,72,76,66,细颗粒物(PM2.5)
滁州市,图书馆,118.3268,32.2633,2026-03-07T0000,31,61,0.3,11,6,71,79,58,颗粒物(PM10)
滁州市,银山路666号,118.3196,32.3335,2026-03-07T0000,35,49,0.6,12,5,76,82,50,
滁州市,黄山路555号,118.3426,32.2979,2026-03-07T0000,37,65,0.5,16,4,70,82,61,颗粒物(PM10)
楚雄彝族自治州,市经济开发区,101.5379,25.0492,2026-03-07T0000,65,84,0.8,9,4,104,113,105,细颗粒物(PM2.5)
楚雄彝族自治州,团结路562号,101.5536,25.0343,2026-03-07T0000,50,60,0.7,6,7,102,124,80,细颗粒物(PM2.5)
达州市,市环境监测站,107.5087,31.2186,2026-03-07T0000,32,56,0.3,44,5,12,61,55,颗粒物(PM10)
达州市,凤凰小区,107.4988,31.2132,2026-03-07T0000,36,58,0.4,50,4,9,67,56,颗粒物(PM10)
达州市,达县机关宾馆,107.5081,31.1987,2026-03-07T0000,37,66,0.6,56,4,0,62,62,颗粒物(PM10)
达州市,市政中心,107.4644,31.2124,2026-03-07T0000,36,74,0.8,60,5,2,67,68,颗粒物(PM10)
大理白族自治州,大理市环境监测站,100.2168,25.5818,2026-03-07T0000,57,71,0.8,9,7,131,138,94,细颗粒物(PM2.5)
大理白族自治州,大理古城,100.1542,25.7055,2026-03-07T0000,54,72,0.6,5,8,133,136,88,细颗粒物(PM2.5)
大连市,甘井子,121.6119,38.974,2026-03-07T0000,12,20,0.4,9,8,84,91,27,
大连市,周水子,121.565,38.9509,2026-03-07T0000,20,32,0.4,14,6,77,86,32,
大连市,星海三站,121.5637,38.8849,2026-03-07T0000,13,27,0.5,9,8,69,76,27,
大连市,青泥洼桥,121.6301,38.9117,2026-03-07T0000,13,27,0.5,11,4,78,87,27,
大连市,傅家庄,121.6248,38.8643,2026-03-07T0000,14,26,0.4,14,4,67,77,26,
大连市,七贤岭,121.5117,38.8636,2026-03-07T0000,13,25,0.4,9,7,82,88,26,
大连市,金州,121.7507,39.1339,2026-03-07T0000,17,26,0.4,10,3,76,88,26,
大连市,开发区,121.7811,39.0495,2026-03-07T0000,17,26,0.4,16,8,75,88,26,
大连市,双D港,121.9762,39.0631,2026-03-07T0000,16,30,0.4,15,8,79,96,30,
大连市,旅顺,121.2548,38.8188,2026-03-07T0000,16,29,0.5,9,5,73,82,29,
大庆市,大同区,124.8085,46.0381,2026-03-07T0000,25,41,0.5,13,10,74,86,41,
大庆市,龙凤区,125.1166,46.5255,2026-03-07T0000,18,42,0.4,43,4,50,75,42,
大庆市,红岗区,124.8894,46.4007,2026-03-07T0000,36,43,0.7,32,6,49,84,52,细颗粒物(PM2.5)
大庆市,萨尔图区,125.1391,46.578,2026-03-07T0000,23,41,0.7,60,4,34,76,41,
大庆市,让胡路区,124.9026,46.6217,2026-03-07T0000,30,37,0.6,33,5,51,78,43,
大庆市,萨区政府监测点,125.127,46.6277,2026-03-07T0000,24,48,1.2,47,8,44,85,48,
大同市,云冈宾馆,113.2926,40.0759,2026-03-07T0000,57,81,0.8,49,7,25,76,94,细颗粒物(PM2.5)
大同市,大同大学,113.3437,40.0921,2026-03-07T0000,42,64,0.6,37,4,47,88,64,细颗粒物(PM2.5)
大同市,安家小村,113.2637,40.129,2026-03-07T0000,38,65,0.6,37,7,40,80,61,颗粒物(PM10)
大同市,大同市卫生学校,113.3399,40.0586,2026-03-07T0000,55,83,0.7,44,9,39,85,90,细颗粒物(PM2.5)
大同市,云冈站,113.1371,40.1122,2026-03-07T0000,38,122,0.6,56,20,3,78,101,颗粒物(PM10)
大同市,图书馆,113.1186,40.2556,2026-03-07T0000,29,47,0.5,20,5,29,83,47,
大同市,区一中,113.5931,40.0459,2026-03-07T0000,42,50,0.5,9,7,71,54,64,细颗粒物(PM2.5)
大同市,魏都大道141号,113.2798248,40.09972476,2026-03-07T0000,53,111,1.0,69,11,8,82,94,颗粒物(PM10)
大兴安岭地区,科技局,124.1068,50.4091,2026-03-07T0000,16,28,0.3,6,6,65,81,28,
大兴安岭地区,红旗社区,124.117,50.4279,2026-03-07T0000,21,31,0.6,24,13,46,83,31,
丹东市,江湾东路,124.33,40.0625,2026-03-07T0000,17,30,0.4,10,8,79,86,30,
丹东市,临江后街,124.4242,40.1513,2026-03-07T0000,16,26,0.4,8,8,80,85,26,
丹东市,元宝山,124.3935,40.1461,2026-03-07T0000,14,25,0.4,12,5,75,83,25,
丹东市,民主桥,124.3634,40.1093,2026-03-07T0000,16,30,0.4,9,5,77,83,30,
儋州市,第一中学子站,109.5726195,19.51688767,2026-03-07T0000,20,32,0.5,4,6,78,86,32,
儋州市,东坡学校子站,109.5567,19.5187,2026-03-07T0000,22,31,0.7,5,4,81,89,32,
德宏傣族景颇族自治州,德宏州监测站,98.5611,24.4273,2026-03-07T0000,107,115,1.1,20,6,69,122,143,细颗粒物(PM2.5)
德宏傣族景颇族自治州,芒市人民政府综合楼,98.5887,24.4366,2026-03-07T0000,79,122,0.8,12,5,84,122,118,细颗粒物(PM2.5)
德阳市,东山公园,104.424,31.1209,2026-03-07T0000,44,45,0.7,32,2,32,67,68,细颗粒物(PM2.5)
德阳市,西小区,104.3827,31.1318,2026-03-07T0000,44,64,0.8,20,3,54,67,68,细颗粒物(PM2.5)
德阳市,耐火材料厂,104.3553,31.1091,2026-03-07T0000,50,56,0.7,23,1,49,70,80,细颗粒物(PM2.5)
德阳市,市林业局,104.4144,31.1495,2026-03-07T0000,44,53,0.7,16,5,50,69,68,细颗粒物(PM2.5)
德州市,儿童乐园,116.3034,37.4675,2026-03-07T0000,6,66,0.6,19,13,60,88,62,颗粒物(PM10)
德州市,监理站,116.2992,37.4449,2026-03-07T0000,37,63,0.6,24,5,61,89,60,颗粒物(PM10)
德州市,九衢泉纯净水厂,116.2722,37.438,2026-03-07T0000,52,95,0.9,80,6,15,94,84,细颗粒物(PM2.5)
德州市,开发区人民医院,116.3693,37.44,2026-03-07T0000,43,66,0.6,28,14,50,87,66,细颗粒物(PM2.5)
德州市,陵城艺术中心,116.5687,37.3331,2026-03-07T0000,43,63,0.7,18,8,49,84,66,细颗粒物(PM2.5)
德州市,新河东路,116.352738,37.420875,2026-03-07T0000,36,63,0.5,30,12,44,85,60,颗粒物(PM10)
迪庆藏族自治州,迪庆州站,99.7054,27.8319,2026-03-07T0000,38,50,0.6,8,11,111,106,56,细颗粒物(PM2.5)
迪庆藏族自治州,质量技术监督局,99.7122,27.8129,2026-03-07T0000,28,43,0.6,5,6,119,116,43,
定西市,将台街,104.6092,35.5962,2026-03-07T0000,24,71,0.3,6,8,92,113,65,颗粒物(PM10)
定西市,正龙路62号,104.6159,35.5701,2026-03-07T0000,16,78,0.4,4,6,89,110,70,颗粒物(PM10)
定州市,交通局,114.9883,38.5232,2026-03-07T0000,51,72,0.7,49,8,36,83,82,细颗粒物(PM2.5)
定州市,第五中学,115.0045,38.5136,2026-03-07T0000,51,87,0.6,52,6,24,76,82,细颗粒物(PM2.5)
东莞市,东城石井,113.7943,23.0132,2026-03-07T0000,18,24,0.6,16,6,51,102,26,
东莞市,南城西平,113.7384,22.9659,2026-03-07T0000,18,27,0.7,39,8,26,106,27,
东莞市,万江金泰,113.7283,23.041,2026-03-07T0000,17,24,0.6,12,6,53,99,25,
东莞市,裕兴路,113.8666,23.1062,2026-03-07T0000,16,20,0.7,11,7,55,87,23,
东莞市,教育路1号,114.0076,22.9739,2026-03-07T0000,16,27,0.6,15,5,52,92,27,
东莞市,长怡路1号,113.7981,22.8124,2026-03-07T0000,15,27,0.7,21,6,46,97,27,
东营市,市环保局,118.6612,37.4313,2026-03-07T0000,21,29,0.5,12,6,85,87,30,
东营市,开发区管委会,118.6903,37.4337,2026-03-07T0000,19,35,0.6,14,6,91,91,35,
东营市,垦利区民丰路,118.5721,37.5654,2026-03-07T0000,24,34,0.7,20,10,81,91,35,
东营市,河口城区,118.5063,37.8606,2026-03-07T0000,17,29,0.8,15,3,67,94,29,
东营市,胜利站,118.4979,37.4623,2026-03-07T0000,NA,NA,0.7,11,6,81,84,NA,NA
东营市,理想之城,118.5753,37.4405,2026-03-07T0000,18,31,0.7,12,2,79,89,31,
鄂尔多斯市,综合楼,110.0024,39.8127,2026-03-07T0000,17,53,0.5,55,15,23,71,53,颗粒物(PM10)
鄂尔多斯市,巴音孟克林场办事处,109.9485,39.8259,2026-03-07T0000,17,39,0.6,38,10,36,73,39,
鄂尔多斯市,康泽苑,109.7734,39.5987,2026-03-07T0000,19,39,0.5,34,5,26,74,39,
鄂尔多斯市,华泰汽车城,109.8121,39.5987,2026-03-07T0000,11,34,0.5,60,9,4,75,34,
鄂尔多斯市,奥林花园,109.9734,39.7884,2026-03-07T0000,27,70,0.6,70,7,3,75,65,颗粒物(PM10)
鄂州市,市政府,114.894,30.3989,2026-03-07T0000,34,56,0.8,27,10,52,64,55,颗粒物(PM10)
鄂州市,赵家坝,114.8986,30.3714,2026-03-07T0000,39,59,0.8,27,10,47,65,58,细颗粒物(PM2.5)
鄂州市,精准医疗中心,114.8093,30.4091,2026-03-07T0000,36,60,0.8,35,5,36,62,58,颗粒物(PM10)
恩施土家族苗族自治州,湖北民院,109.4978,30.2979,2026-03-07T0000,46,62,0.6,28,6,11,46,72,细颗粒物(PM2.5)
恩施土家族苗族自治州,龙凤新区,109.5061,30.3771,2026-03-07T0000,42,56,0.6,18,7,3,48,64,细颗粒物(PM2.5)
防城港市,沙万,108.3411,21.6159,2026-03-07T0000,36,52,0.7,23,9,75,93,52,"颗粒物(PM10),细颗粒物(PM2.5)"
防城港市,防城档案局,108.3515,21.7733,2026-03-07T0000,46,67,0.8,26,6,40,99,72,细颗粒物(PM2.5)
防城港市,大海花园,108.3506,21.6414,2026-03-07T0000,45,NA,0.9,17,18,87,116,70,细颗粒物(PM2.5)
佛山市,湾梁,113.1293,23.0065,2026-03-07T0000,NA,34,/,33,/,38,114,NA,NA
佛山市,华材职中,113.1082,23.0477,2026-03-07T0000,23,39,0.6,29,6,45,110,39,
佛山市,南海气象局,113.1439,23.045,2026-03-07T0000,26,36,/,33,/,40,112,38,
佛山市,顺德苏岗,113.2879,22.8094,2026-03-07T0000,24,28,0.7,46,/,24,114,35,
佛山市,高明孔堂,112.8384,22.8678,2026-03-07T0000,27,42,/,27,/,52,112,42,
佛山市,三水监测站,112.8835,23.1584,2026-03-07T0000,32,41,0.7,48,6,32,97,46,
佛山市,三水云东海,112.8668,23.185,2026-03-07T0000,25,41,/,35,/,24,101,41,
佛山市,容桂街道办,113.2568,22.7629,2026-03-07T0000,22,31,/,33,/,38,102,32,
福州市,师大,119.2681,26.0506,2026-03-07T0000,19,40,0.5,13,3,104,98,40,
福州市,五四北路,119.2983,26.1028,2026-03-07T0000,20,35,0.5,13,4,107,98,35,
福州市,杨桥西路,119.2648,26.0769,2026-03-07T0000,18,36,/,9,4,112,99,36,
福州市,九龙,119.5799,26.0937,2026-03-07T0000,9,38,0.5,9,4,99,116,38,
福州市,吴航,119.5188,25.9666,2026-03-07T0000,17,28,0.6,10,4,100,114,32,
福州市,路通桥巷6号,119.3106,26.0648,2026-03-07T0000,24,30,/,9,/,111,102,35,
抚顺市,望花区,123.7974,41.8494,2026-03-07T0000,21,36,0.6,17,8,61,86,36,
抚顺市,顺城区,123.9161,41.8827,2026-03-07T0000,32,40,0.7,43,9,26,85,46,
抚顺市,东洲区,124.0437,41.8615,2026-03-07T0000,25,47,0.5,22,9,47,80,47,
抚顺市,新抚区,123.9246,41.8638,2026-03-07T0000,21,35,0.4,17,8,67,91,35,
抚顺市,大伙房水库,124.0972,41.8961,2026-03-07T0000,18,36,0.5,13,9,58,86,36,
抚顺市,沈抚新城,123.708,41.8386,2026-03-07T0000,37,59,0.6,74,8,5,84,57,颗粒物(PM10)
抚州市,市站,116.3544,27.9833,2026-03-07T0000,44,53,1.0,7,6,78,92,68,细颗粒物(PM2.5)
抚州市,血防站,116.3562,27.9631,2026-03-07T0000,44,54,0.9,4,5,76,91,68,细颗粒物(PM2.5)
抚州市,采茶剧团,116.3561,28.0007,2026-03-07T0000,41,50,1.2,9,4,70,87,62,细颗粒物(PM2.5)
抚州市,医学分院,116.3854,27.9648,2026-03-07T0000,27,53,1.1,11,4,72,88,53,颗粒物(PM10)
阜新市,工业园区,121.6095,41.9978,2026-03-07T0000,32,55,0.6,33,12,26,86,54,颗粒物(PM10)
阜新市,长青街,121.6567,42.0188,2026-03-07T0000,25,48,0.5,44,8,17,85,48,
阜新市,农业园区,121.6672,42.07,2026-03-07T0000,14,37,0.6,11,5,67,78,37,
阜新市,玉龙新城,121.6343,42.0455,2026-03-07T0000,24,48,0.7,55,4,8,83,48,
阜阳市,市监测站,115.8276,32.8929,2026-03-07T0000,72,94,0.7,16,4,52,56,111,细颗粒物(PM2.5)
阜阳市,开发区,115.8551,32.8606,2026-03-07T0000,70,112,0.8,15,4,46,54,110,细颗粒物(PM2.5)
阜阳市,阜阳职业技术学院,115.783962,32.889217,2026-03-07T0000,57,93,0.7,14,6,54,58,94,细颗粒物(PM2.5)
阜阳市,市规划展馆,115.79,32.8614,2026-03-07T0000,72,99,0.8,13,6,53,61,111,细颗粒物(PM2.5)
阜阳市,枣园社区,115.835101,32.918568,2026-03-07T0000,75,106,0.8,15,7,46,54,114,细颗粒物(PM2.5)
甘南藏族自治州,州政府,102.9097,34.9841,2026-03-07T0000,30,61,0.8,43,7,21,86,58,颗粒物(PM10)
甘南藏族自治州,甘肃民族师范学院,102.8915,34.9618,2026-03-07T0000,16,67,0.6,51,2,24,99,63,颗粒物(PM10)
甘孜藏族自治州,水桥子,101.96,30.048,2026-03-07T0000,6,11,0.7,7,6,54,65,17,
甘孜藏族自治州,州环保局,101.9534,29.9976,2026-03-07T0000,13,NA,0.6,10,6,55,70,19,
赣州市,地委,114.9368,25.8663,2026-03-07T0000,23,41,0.8,25,2,57,84,41,
赣州市,气象台,114.946,25.8483,2026-03-07T0000,27,56,0.5,26,5,66,87,55,颗粒物(PM10)
赣州市,市图书馆,114.932,25.8332,2026-03-07T0000,18,44,0.6,19,4,65,81,44,
赣州市,华坚鞋城,114.8905,25.8472,2026-03-07T0000,33,44,0.4,13,5,80,81,48,
赣州市,赣县区卫计委,115.0094,25.8614,2026-03-07T0000,19,42,0.6,23,3,38,81,42,
固原市,监测站,106.2753,36.0057,2026-03-07T0000,47,94,0.5,14,8,76,92,82,颗粒物(PM10)
固原市,新区,106.2384,36.0189,2026-03-07T0000,50,84,0.4,14,7,76,89,80,细颗粒物(PM2.5)
广安市,市委,106.6307,30.4577,2026-03-07T0000,38,50,0.8,30,7,38,81,56,细颗粒物(PM2.5)
广安市,友谊中学,106.6266,30.4662,2026-03-07T0000,25,45,0.7,18,12,49,82,45,
广安市,广电花园,106.6386,30.4551,2026-03-07T0000,41,60,0.9,36,8,24,79,62,细颗粒物(PM2.5)
广安市,北辰小学,106.6347,30.4868,2026-03-07T0000,31,41,0.7,12,5,51,76,45,
广元市,老城,105.8211,32.4444,2026-03-07T0000,44,75,1.0,46,12,9,70,68,"颗粒物(PM10),细颗粒物(PM2.5)"
广元市,监测站,105.8629,32.429,2026-03-07T0000,40,61,0.9,25,6,25,71,60,细颗粒物(PM2.5)
广元市,经开区,105.8047,32.4167,2026-03-07T0000,42,56,0.9,27,5,26,64,64,细颗粒物(PM2.5)
广州市,广雅中学,113.2346,23.1423,2026-03-07T0000,21,29,0.4,19,2,54,98,30,
广州市,市五中,113.2611,23.105,2026-03-07T0000,18,23,/,25,6,56,117,26,
广州市,广东商学院,113.3477,23.0916,2026-03-07T0000,23,28,0.6,31,4,40,103,33,
广州市,市八十六中,113.4332,23.105,2026-03-07T0000,18,27,/,38,6,40,110,27,
广州市,番禺中学,113.3506,22.9488,2026-03-07T0000,21,36,0.5,22,4,42,106,36,
广州市,花都师范,113.2147,23.3918,2026-03-07T0000,28,34,0.8,36,6,36,96,40,
广州市,市监测站,113.2599,23.1329,2026-03-07T0000,18,27,/,26,1,50,100,27,
广州市,九龙镇镇龙,113.5618,23.3119,2026-03-07T0000,16,22,0.7,6,5,58,85,23,
广州市,麓湖,113.2764,23.1544,2026-03-07T0000,18,26,0.7,25,3,42,101,26,
广州市,体育西,113.3209,23.1323,2026-03-07T0000,18,27,0.7,23,5,51,98,27,
广州市,从化街口,113.5718,23.5493,2026-03-07T0000,18,24,0.6,10,10,54,85,26,
广州市,白云竹料,113.3463,23.369,2026-03-07T0000,16,24,0.7,14,4,54,98,24,
广州市,白云嘉禾,113.2981,23.2365,2026-03-07T0000,16,25,/,20,9,57,103,25,
广州市,黄埔科学城,113.4256,23.1716,2026-03-07T0000,20,24,0.6,8,7,63,104,29,
广州市,番禺大学城,113.3942,23.0485,2026-03-07T0000,19,36,0.6,32,4,39,115,36,
广州市,南沙黄阁,113.4923,22.8169,2026-03-07T0000,12,33,/,35,6,32,115,33,
广州市,南沙街,113.534,22.7893,2026-03-07T0000,22,46,0.7,14,6,42,115,46,
广州市,花都梯面,113.2905,23.5541,2026-03-07T0000,14,18,/,19,6,23,87,20,
广州市,从化良口,113.786,23.7479,2026-03-07T0000,13,16,/,7,4,63,83,20,
广州市,增城荔城,113.805,23.2614,2026-03-07T0000,16,20,0.6,10,7,63,90,23,
贵港市,江南子站,109.604387,23.066791,2026-03-07T0000,37,63,0.8,39,8,36,100,60,颗粒物(PM10)
贵港市,荷城子站,109.5669,23.1065,2026-03-07T0000,25,36,0.8,28,8,49,93,36,
贵港市,新世纪学校,109.5886,23.1172,2026-03-07T0000,28,36,0.9,34,/,44,98,40,
贵港市,中山路155-3号,109.5933,23.095,2026-03-07T0000,30,46,0.9,23,/,57,102,46,
贵阳市,马鞍山,106.6863,26.6035,2026-03-07T0000,41,NA,/,11,4,32,34,62,细颗粒物(PM2.5)
贵阳市,鉴湖路,106.6241,26.6266,2026-03-07T0000,36,41,0.5,11,3,34,34,52,细颗粒物(PM2.5)
贵阳市,燕子冲,106.7468,26.6344,2026-03-07T0000,27,39,0.6,11,6,41,43,39,
贵阳市,碧云窝,106.6556,26.4362,2026-03-07T0000,36,51,/,18,7,34,50,52,细颗粒物(PM2.5)
贵阳市,红边门,106.6963,26.6063,2026-03-07T0000,39,44,/,14,6,34,38,58,细颗粒物(PM2.5)
贵阳市,新华路,106.7162383,26.56964667,2026-03-07T0000,44,56,0.4,16,4,34,38,68,细颗粒物(PM2.5)
贵阳市,太慈桥,106.6742,26.542,2026-03-07T0000,49,NA,/,21,4,26,37,78,细颗粒物(PM2.5)
贵阳市,花果园大街66号,106.688212,26.56952,2026-03-07T0000,42,58,/,15,1,29,37,64,细颗粒物(PM2.5)
贵阳市,漓江路57号,106.687268,26.516892,2026-03-07T0000,35,NA,NA,19,6,32,39,NA,NA
桂林市,龙隐路小学,110.3091,25.2705,2026-03-07T0000,35,NA,0.8,10,3,75,96,50,
桂林市,八中,110.2849361,25.22909545,2026-03-07T0000,21,42,0.6,15,3,62,82,42,
桂林市,旅游学院,110.296,25.1254,2026-03-07T0000,34,47,0.6,9,4,78,95,49,
桂林市,环湖路276号,110.1835,25.2444,2026-03-07T0000,29,44,0.6,9,3,70,96,44,
桂林市,信义路13号,110.2803,25.2773,2026-03-07T0000,33,36,0.7,12,4,73,91,48,
果洛藏族自治州,玛沁县大武镇,100.2262,34.4854,2026-03-07T0000,16,47,0.5,10,20,50,95,47,
哈尔滨市,松北商大,126.5557,45.8109,2026-03-07T0000,47,47,0.6,29,6,51,87,74,细颗粒物(PM2.5)
哈尔滨市,南岗学府路,126.6162,45.719,2026-03-07T0000,33,52,0.4,22,12,72,89,52,颗粒物(PM10)
哈尔滨市,太平宏伟公园,126.6894,45.7733,2026-03-07T0000,43,44,0.6,30,35,59,84,66,细颗粒物(PM2.5)
哈尔滨市,道外承德广场,126.6361,45.7672,2026-03-07T0000,37,66,1.2,22,16,72,90,62,颗粒物(PM10)
哈尔滨市,动力和平路,126.644,45.7261,2026-03-07T0000,29,60,1.0,24,30,68,89,58,颗粒物(PM10)
哈尔滨市,道里建国路,126.5933,45.7479,2026-03-07T0000,38,40,0.3,25,11,73,86,56,细颗粒物(PM2.5)
哈尔滨市,平房东轻厂,126.6127,45.6119,2026-03-07T0000,64,NA,1.0,104,10,22,74,104,细颗粒物(PM2.5)
哈尔滨市,呼兰师专,126.5875,45.9827,2026-03-07T0000,66,NA,0.6,36,8,50,80,106,细颗粒物(PM2.5)
哈尔滨市,省农科院,126.6299,45.6799,2026-03-07T0000,42,61,0.9,68,NA,13,88,NA,NA
哈尔滨市,华山路1号,126.6769,45.7379,2026-03-07T0000,31,36,0.8,21,3,74,88,45,
哈尔滨市,解放大街52号,126.9717,45.5356,2026-03-07T0000,30,58,0.8,30,11,57,86,56,颗粒物(PM10)
哈密市,地区监测站,93.5124,42.8176,2026-03-07T0000,20,40,0.3,15,5,58,81,40,
哈密市,哈密师范学校,93.5014,42.8312,2026-03-07T0000,16,53,0.5,31,7,46,83,53,颗粒物(PM10)
海北藏族自治州,海晏县西海镇,100.9016,36.9464,2026-03-07T0000,22,98,0.5,3,13,97,94,85,颗粒物(PM10)
海东市,平安区公安局北苑,102.074,36.5056,2026-03-07T0000,42,102,0.6,5,21,97,107,88,颗粒物(PM10)
海东市,滨河路,102.0984,36.5119,2026-03-07T0000,41,98,0.7,23,18,74,94,85,颗粒物(PM10)
海口市,海南大学,110.3189,20.0596,2026-03-07T0000,19,31,0.5,5,5,116,111,37,
海口市,秀英海南医院,110.2827,20.0051,2026-03-07T0000,21,28,0.6,8,7,108,104,34,
海口市,海南师范大学,110.3391,19.9979,2026-03-07T0000,22,32,0.6,8,6,107,107,34,
海口市,龙华路环保局宿舍,110.3303,20.0359,2026-03-07T0000,20,28,0.4,8,/,114,112,36,
海口市,桂林洋子站,110.5111,19.9737,2026-03-07T0000,24,37,/,7,/,106,104,37,
海口市,长滨二路9号,110.1952,20.0451,2026-03-07T0000,20,28,/,7,/,108,105,34,
海南藏族自治州,共和县恰卜恰镇,100.6158,36.2985,2026-03-07T0000,13,42,0.3,22,11,46,94,42,
海西蒙古族藏族自治州,德令哈市,97.373,37.376,2026-03-07T0000,12,NA,0.4,4,18,86,103,27,
邯郸市,矿院,114.492,36.5712,2026-03-07T0000,33,40,0.6,14,3,65,82,48,
邯郸市,丛台公园,114.4839,36.6136,2026-03-07T0000,50,59,0.5,7,3,65,78,80,细颗粒物(PM2.5)
邯郸市,香泉濮院小区,114.7893,36.5592,2026-03-07T0000,33,46,0.5,9,3,61,80,48,
邯郸市,峰峰矿区临水派出所,114.1998,36.4439,2026-03-07T0000,29,31,0.5,2,2,73,79,42,
邯郸市,建安街268号,114.5209,36.7697,2026-03-07T0000,48,NA,0.5,17,1,62,80,76,细颗粒物(PM2.5)
邯郸市,丛台东路558号,114.5488,36.6177,2026-03-07T0000,36,37,0.6,16,3,56,82,52,细颗粒物(PM2.5)
汉中市,市监测站,107.0155,33.0707,2026-03-07T0000,46,57,0.8,29,6,29,67,72,细颗粒物(PM2.5)
汉中市,鑫源开发区,107.0083,33.114,2026-03-07T0000,55,55,0.8,31,10,36,73,90,细颗粒物(PM2.5)
汉中市,南郑大河坎水厂,107.0072,33.0323,2026-03-07T0000,42,73,0.9,20,5,23,66,67,颗粒物(PM10)
杭州市,滨江,120.2073,30.2111,2026-03-07T0000,54,83,0.8,24,7,55,84,88,细颗粒物(PM2.5)
杭州市,西溪,120.0625,30.2737,2026-03-07T0000,62,84,0.7,22,9,50,86,102,细颗粒物(PM2.5)
杭州市,下沙,120.3417,30.315,2026-03-07T0000,62,89,0.7,22,6,52,81,102,细颗粒物(PM2.5)
杭州市,卧龙桥,120.1252,30.2465,2026-03-07T0000,57,78,0.6,21,7,54,86,94,细颗粒物(PM2.5)
杭州市,浙江农大,120.1902,30.2691,2026-03-07T0000,60,88,0.8,21,6,57,92,100,细颗粒物(PM2.5)
杭州市,和睦小学,120.1195,30.3121,2026-03-07T0000,61,86,0.9,25,5,51,87,101,细颗粒物(PM2.5)
杭州市,临平镇,120.3076,30.4146,2026-03-07T0000,58,83,0.7,23,6,60,90,96,细颗粒物(PM2.5)
杭州市,城厢镇,120.2753,30.1839,2026-03-07T0000,53,80,0.8,27,8,48,84,86,细颗粒物(PM2.5)
杭州市,云栖,120.0883,30.1808,2026-03-07T0000,51,73,0.8,27,4,51,82,82,细颗粒物(PM2.5)
杭州市,镇二中,119.9463,30.0496,2026-03-07T0000,43,52,0.9,34,4,38,77,66,细颗粒物(PM2.5)
杭州市,市府大楼,119.7184,30.2367,2026-03-07T0000,58,71,0.8,20,6,47,78,96,细颗粒物(PM2.5)
杭州市,消防大队,120.1554,30.2863,2026-03-07T0000,61,82,0.8,24,7,46,82,101,细颗粒物(PM2.5)
合肥市,明珠广场,117.1957,31.7845,2026-03-07T0000,66,92,1.1,20,6,55,92,106,细颗粒物(PM2.5)
合肥市,三里街,117.307,31.8765,2026-03-07T0000,53,83,0.8,25,6,55,85,86,细颗粒物(PM2.5)
合肥市,琥珀山庄,117.2587,31.8703,2026-03-07T0000,62,90,1.0,25,6,62,92,102,细颗粒物(PM2.5)
合肥市,庐阳区,117.2593,31.9376,2026-03-07T0000,55,85,1.0,21,5,64,90,90,细颗粒物(PM2.5)
合肥市,瑶海区,117.345251,31.861615,2026-03-07T0000,53,88,0.9,26,4,60,89,86,细颗粒物(PM2.5)
合肥市,包河区,117.3033,31.7967,2026-03-07T0000,59,90,1.0,52,7,38,77,98,细颗粒物(PM2.5)
合肥市,滨湖新区,117.278,31.7392,2026-03-07T0000,62,92,1.0,17,3,60,90,102,细颗粒物(PM2.5)
合肥市,高新区,117.1324,31.8395,2026-03-07T0000,62,90,0.9,18,4,62,90,102,细颗粒物(PM2.5)
合肥市,高教基地,117.3802,31.9148,2026-03-07T0000,49,83,0.8,22,8,65,96,78,细颗粒物(PM2.5)
合肥市,中国科学技术大学,117.2518,31.8404,2026-03-07T0000,57,85,0.9,16,8,63,98,94,细颗粒物(PM2.5)
和田地区,地区环保局,79.9241,37.0878,2026-03-07T0000,126,461,1.2,36,3,32,79,352,颗粒物(PM10)
和田地区,市环保局,79.9132,37.1137,2026-03-07T0000,106,429,1.0,41,2,39,80,312,颗粒物(PM10)
河池市,市环保站,108.0496,24.6957,2026-03-07T0000,32,40,0.7,9,9,66,76,46,
河池市,上任中路54号,108.0901,24.6945,2026-03-07T0000,33,38,0.6,19,7,60,77,48,
河源市,东埔,114.6962,23.7538,2026-03-07T0000,17,20,0.7,22,5,41,68,25,
河源市,老城,114.6895,23.7232,2026-03-07T0000,23,29,0.7,20,6,32,71,33,
菏泽市,定陶老年大学,115.5562,35.089,2026-03-07T0000,12,22,0.2,11,4,86,90,27,
菏泽市,黄河路600号,115.4239,35.2593,2026-03-07T0000,18,35,0.4,14,2,68,83,35,
菏泽市,菏泽市人社局,115.5025,35.2727,2026-03-07T0000,17,36,0.4,13,2,78,84,36,
菏泽市,永昌路1号,115.479691,35.244011,2026-03-07T0000,18,24,0.4,12,1,86,95,27,
菏泽市,长城路999号,115.471542,35.280012,2026-03-07T0000,15,28,0.3,11,2,85,90,28,
贺州市,环保小区,111.5264,24.4178,2026-03-07T0000,30,37,0.8,10,3,66,90,43,
贺州市,政协大楼,111.561,24.4074,2026-03-07T0000,33,44,0.6,46,5,48,83,48,
贺州市,西湾,111.4744,24.455,2026-03-07T0000,30,42,0.7,13,6,55,78,43,
鹤壁市,市监测站,114.17,35.9019,2026-03-07T0000,35,NA,0.6,6,2,71,70,50,
鹤壁市,市交警支队,114.2953,35.7512,2026-03-07T0000,33,36,0.5,16,7,52,64,48,
鹤壁市,迎宾馆,114.2877,35.7302,2026-03-07T0000,36,38,0.6,15,5,60,66,52,细颗粒物(PM2.5)
鹤壁市,大新区,114.2616,35.6824,2026-03-07T0000,34,NA,0.5,10,3,62,70,49,
鹤壁市,南山宾馆,114.1573,35.9607,2026-03-07T0000,32,42,0.5,5,4,63,67,46,
鹤岗市,哈啤分公司,130.2537,47.3416,2026-03-07T0000,6,22,0.7,4,8,81,82,26,
鹤岗市,斯达机电,130.2683,47.3087,2026-03-07T0000,8,29,0.3,4,8,86,89,29,
鹤岗市,东山纸板厂,130.3114,47.3388,2026-03-07T0000,7,48,0.4,8,6,78,84,48,
黑河市,交通局,127.4832,50.2524,2026-03-07T0000,22,NA,0.3,4,4,78,79,32,
黑河市,环保局,127.5146,50.2339,2026-03-07T0000,19,25,0.7,15,3,65,76,28,
衡水市,电机北厂,115.6839,37.754,2026-03-07T0000,43,48,0.4,27,3,61,85,66,细颗粒物(PM2.5)
衡水市,市监测站,115.6303,37.7318,2026-03-07T0000,40,48,0.5,26,2,53,81,60,细颗粒物(PM2.5)
衡水市,市城管局,115.6684,37.7216,2026-03-07T0000,38,61,0.5,33,3,52,84,58,颗粒物(PM10)
衡水市,地表水厂,115.599,37.5491,2026-03-07T0000,35,60,0.5,70,4,6,88,58,颗粒物(PM10)
衡阳市,衡阳化工总厂,112.6209,26.9268,2026-03-07T0000,50,56,1.1,12,11,42,81,80,细颗粒物(PM2.5)
衡阳市,珠晖区环保局,112.621,26.8957,2026-03-07T0000,43,56,1.0,18,5,39,74,66,细颗粒物(PM2.5)
衡阳市,市委党校,112.628,26.8654,2026-03-07T0000,41,51,1.2,15,9,46,82,62,细颗粒物(PM2.5)
衡阳市,市监测站,112.6007,26.8977,2026-03-07T0000,43,76,0.9,24,8,36,79,69,颗粒物(PM10)
衡阳市,真空机电公司,112.5658,26.9013,2026-03-07T0000,53,63,1.5,34,8,27,81,86,细颗粒物(PM2.5)
衡阳市,师范学院,112.6703,26.8817,2026-03-07T0000,46,62,1.1,12,5,49,83,72,细颗粒物(PM2.5)
红河哈尼族彝族自治州,州图书馆,103.3757,23.3679,2026-03-07T0000,26,30,0.5,4,4,74,68,38,
红河哈尼族彝族自治州,蒙自市朝阳路,103.401,23.3561,2026-03-07T0000,26,28,0.4,5,7,76,72,38,
呼和浩特市,呼市一监,111.6506,40.7517,2026-03-07T0000,30,66,0.7,58,8,20,86,62,颗粒物(PM10)
呼和浩特市,如意水处理厂,111.7516,40.8369,2026-03-07T0000,22,28,0.5,50,13,19,85,32,
呼和浩特市,二十九中,111.727798,40.806187,2026-03-07T0000,41,56,0.6,62,14,7,81,62,细颗粒物(PM2.5)
呼和浩特市,化肥厂生活区,111.717,40.7617,2026-03-07T0000,30,61,0.5,38,6,26,81,58,颗粒物(PM10)
呼和浩特市,海东办,111.6519,40.8389,2026-03-07T0000,28,56,0.7,67,7,6,81,55,颗粒物(PM10)
呼和浩特市,成吉思汗西街8号,111.591512,40.827312,2026-03-07T0000,9,14,0.3,31,4,37,73,16,
呼和浩特市,公园东路75号,111.6597,40.8077,2026-03-07T0000,24,44,0.5,46,11,34,80,44,
呼和浩特市,金海路35号,111.5427,40.7846,2026-03-07T0000,12,29,0.4,58,6,10,73,29,
呼伦贝尔市,国华电力东,119.7511,49.1576,2026-03-07T0000,22,37,0.1,15,5,73,84,37,
呼伦贝尔市,伊敏大街东7号,119.7569,49.2222,2026-03-07T0000,21,32,0.5,10,7,81,81,32,
湖州市,城西水厂,120.075,30.867,2026-03-07T0000,44,64,0.6,18,6,82,97,68,细颗粒物(PM2.5)
湖州市,仁皇山新区,120.083,30.8929,2026-03-07T0000,44,67,0.6,22,5,74,92,68,细颗粒物(PM2.5)
湖州市,吴兴区站,120.1846,30.8592,2026-03-07T0000,47,68,0.4,20,5,59,86,74,细颗粒物(PM2.5)
湖州市,南浔区站,120.4146,30.8538,2026-03-07T0000,45,63,0.7,17,7,76,86,70,细颗粒物(PM2.5)
葫芦岛市,龙港区,120.904878,40.721091,2026-03-07T0000,23,43,0.8,43,11,25,84,43,
葫芦岛市,化工街,120.8382,40.7521,2026-03-07T0000,20,24,0.6,70,18,14,82,35,
葫芦岛市,新区,120.8339,40.7078,2026-03-07T0000,12,23,0.4,58,10,25,80,29,
葫芦岛市,东城区,120.8697,40.7679,2026-03-07T0000,33,40,1.0,75,21,4,80,48,
怀化市,河西地税局,109.9297,27.5383,2026-03-07T0000,36,43,/,11,2,54,50,52,细颗粒物(PM2.5)
怀化市,市四医院,109.9783,27.5342,2026-03-07T0000,38,56,0.7,15,8,38,48,56,细颗粒物(PM2.5)
怀化市,监测楼,109.9971,27.5579,2026-03-07T0000,36,56,0.5,20,5,32,51,55,颗粒物(PM10)
淮安市,钵池山,119.0566,33.5991,2026-03-07T0000,38,46,0.3,15,9,76,80,56,细颗粒物(PM2.5)
淮安市,北京南路,119.0083,33.578,2026-03-07T0000,39,51,0.3,10,7,78,75,58,细颗粒物(PM2.5)
淮安市,市监测站,118.9938,33.6083,2026-03-07T0000,42,NA,0.5,12,10,80,81,64,细颗粒物(PM2.5)
淮安市,楚州区监测站,119.135,33.5038,2026-03-07T0000,43,49,0.3,21,6,66,81,66,细颗粒物(PM2.5)
淮安市,新华书店,118.8757,33.2897,2026-03-07T0000,43,52,0.3,14,6,74,71,66,细颗粒物(PM2.5)
淮安市,枚皋中路89号,119.119691,33.550006,2026-03-07T0000,48,57,0.5,22,9,71,83,76,细颗粒物(PM2.5)
淮安市,承德北路606号,119.028838,33.631911,2026-03-07T0000,38,58,0.4,13,7,81,82,56,"颗粒物(PM10),细颗粒物(PM2.5)"
淮北市,监测站,116.8005,33.9749,2026-03-07T0000,50,80,0.6,16,6,75,73,80,细颗粒物(PM2.5)
淮北市,烈山区政府,116.8094,33.9008,2026-03-07T0000,48,66,0.4,14,4,75,72,76,细颗粒物(PM2.5)
淮北市,市博物馆,116.7926,33.9534,2026-03-07T0000,52,74,0.5,14,2,73,72,84,细颗粒物(PM2.5)
淮北市,杜集区第一实验学校,116.8322,33.9884,2026-03-07T0000,48,72,0.4,16,6,72,74,76,细颗粒物(PM2.5)
淮南市,潘集区政府,116.8304,32.7726,2026-03-07T0000,66,91,0.7,19,5,51,59,106,细颗粒物(PM2.5)
淮南市,谢家集区政府,116.8569,32.5949,2026-03-07T0000,57,86,0.7,17,6,60,66,94,细颗粒物(PM2.5)
淮南市,八公山区政府,116.8279,32.6333,2026-03-07T0000,64,94,0.7,16,6,59,68,104,细颗粒物(PM2.5)
淮南市,经济技术开发区消防队,117.0561,32.6536,2026-03-07T0000,61,93,0.6,18,6,54,58,101,细颗粒物(PM2.5)
淮南市,山南新区,117.011,32.5891,2026-03-07T0000,56,87,0.6,16,6,66,70,92,细颗粒物(PM2.5)
淮南市,国庆中路369号,117.003137,32.644456,2026-03-07T0000,61,96,0.7,14,11,52,53,101,细颗粒物(PM2.5)
黄冈市,职工中心,114.9021,30.474,2026-03-07T0000,31,50,0.7,16,5,67,62,50,
黄冈市,红卫路,114.8858,30.4519,2026-03-07T0000,38,45,0.2,16,4,68,62,56,细颗粒物(PM2.5)
黄冈市,市林业局,114.9134,30.4446,2026-03-07T0000,39,56,0.6,15,3,71,67,58,细颗粒物(PM2.5)
黄南藏族自治州,同仁县隆务镇,102.02,35.5101,2026-03-07T0000,34,63,0.2,1,10,87,90,60,颗粒物(PM10)
黄山市,延安路89号,118.2905,29.6965,2026-03-07T0000,33,43,0.6,11,4,62,91,48,
黄山市,黄山区政府5号楼,118.1369,30.2755,2026-03-07T0000,30,53,0.8,17,2,24,87,53,颗粒物(PM10)
黄山市,滨江东路7-2号,118.335445,29.720283,2026-03-07T0000,32,55,/,10,/,62,92,54,颗粒物(PM10)
黄石市,沈家营,115.0547,30.2332,2026-03-07T0000,31,51,1.1,18,6,50,58,51,颗粒物(PM10)
黄石市,铁山,114.899,30.211,2026-03-07T0000,34,46,0.6,26,7,56,69,49,
黄石市,团城山,115.0259,30.2108,2026-03-07T0000,42,48,1.0,12,8,67,64,64,细颗粒物(PM2.5)
黄石市,笔架山北路,115.0174,30.1591,2026-03-07T0000,36,66,0.9,17,7,52,61,62,颗粒物(PM10)
黄石市,磁湖东路29号,115.078022,30.21118,2026-03-07T0000,33,45,0.8,7,6,60,70,48,
惠州市,河南岸金山湖子站,114.4181,23.0528,2026-03-07T0000,16,22,0.7,11,6,48,65,23,
惠州市,下埔横江三路子站,114.4055,23.0824,2026-03-07T0000,NA,NA,NA,9,8,NA,76,NA,NA
惠州市,惠阳区承修路船湖子站,114.4645,22.7832,2026-03-07T0000,19,27,0.7,12,6,41,71,28,
惠州市,大亚湾管委会子站,114.5316,22.7423,2026-03-07T0000,12,17,0.6,8,2,43,67,18,
惠州市,惠阳秋长,114.4334,22.8134,2026-03-07T0000,15,17,/,10,/,47,74,22,
惠州市,大亚湾霞涌,114.6521,22.7755,2026-03-07T0000,12,17,/,9,/,54,65,18,
惠州市,文华一路1号,114.4089,23.1147,2026-03-07T0000,16,21,/,9,/,54,74,23,
鸡西市,环保局,130.9618,45.2926,2026-03-07T0000,27,34,0.2,12,7,82,89,39,
鸡西市,第一中学,130.9294,45.2959,2026-03-07T0000,39,45,0.4,14,4,76,88,58,细颗粒物(PM2.5)
鸡西市,欧美日汽修厂,131.0069,45.2988,2026-03-07T0000,33,40,0.3,15,11,73,86,48,
吉安市,红声器材厂,114.9753,27.0803,2026-03-07T0000,33,57,0.5,21,6,58,94,55,颗粒物(PM10)
吉安市,市环境监测站,114.9903,27.1313,2026-03-07T0000,43,44,/,21,8,60,94,66,细颗粒物(PM2.5)
吉安市,青原区法院,115.009527,27.096792,2026-03-07T0000,28,52,0.6,13,6,70,102,52,颗粒物(PM10)
吉林市,哈达湾,126.54,43.8622,2026-03-07T0000,31,34,0.8,32,10,66,85,45,
吉林市,东局子,126.5843,43.8358,2026-03-07T0000,31,41,0.6,15,4,75,86,45,
吉林市,电力学院,126.5051,43.8243,2026-03-07T0000,53,83,1.4,28,10,44,85,86,细颗粒物(PM2.5)
吉林市,江北,126.6133,43.8971,2026-03-07T0000,21,25,0.8,6,6,75,84,30,
吉林市,江南公园,126.5549,43.8304,2026-03-07T0000,26,35,0.7,14,9,86,80,38,
吉林市,九站,126.4737,43.953,2026-03-07T0000,44,50,0.7,58,12,27,80,68,细颗粒物(PM2.5)
济南市,科干所,116.9866,36.6118,2026-03-07T0000,32,48,0.4,13,5,70,81,48,
济南市,农科所,116.9379,36.6652,2026-03-07T0000,44,51,0.5,19,4,56,82,68,细颗粒物(PM2.5)
济南市,开发区,117.1265,36.6736,2026-03-07T0000,43,61,0.6,25,4,63,86,66,细颗粒物(PM2.5)
济南市,省种子仓库,117.0616,36.6865,2026-03-07T0000,48,95,0.6,49,9,30,84,83,颗粒物(PM10)
济南市,机床二厂,116.9495185,36.644937,2026-03-07T0000,38,51,0.6,15,4,76,85,56,细颗粒物(PM2.5)
济南市,市监测站,117.0496,36.6629,2026-03-07T0000,40,56,0.5,19,4,66,81,60,细颗粒物(PM2.5)
济南市,长清党校,116.7674,36.5458,2026-03-07T0000,40,51,0.6,23,1,60,85,60,细颗粒物(PM2.5)
济南市,东山小学,117.5323,36.6865,2026-03-07T0000,52,83,0.8,33,3,45,82,84,细颗粒物(PM2.5)
济南市,泰兴公司,117.7181,36.205,2026-03-07T0000,50,68,0.7,52,7,34,89,80,细颗粒物(PM2.5)
济南市,莱芜战役纪念馆,117.6861,36.2172,2026-03-07T0000,51,73,0.6,37,5,50,94,82,细颗粒物(PM2.5)
济南市,济阳区政府,117.1673,36.9782,2026-03-07T0000,44,63,0.6,22,9,59,77,68,细颗粒物(PM2.5)
济南市,锦屏中学,117.1168,36.6299,2026-03-07T0000,43,49,0.5,10,7,51,82,66,细颗粒物(PM2.5)
济南市,山财大街5号,117.7107,36.2385,2026-03-07T0000,53,70,0.7,50,10,38,80,86,细颗粒物(PM2.5)
济南市,无影山路12号,116.9744,36.6889,2026-03-07T0000,44,78,0.7,66,9,14,80,70,颗粒物(PM10)
济宁市,火炬城,116.6229,35.4288,2026-03-07T0000,44,54,0.6,25,2,49,88,68,细颗粒物(PM2.5)
济宁市,北湖一中,116.5808,35.3703,2026-03-07T0000,39,53,0.3,26,4,48,89,58,细颗粒物(PM2.5)
济宁市,服务中心,116.8251,35.5592,2026-03-07T0000,44,67,0.4,22,2,51,79,68,细颗粒物(PM2.5)
济宁市,市第七中学,116.5907,35.4054,2026-03-07T0000,38,63,0.6,27,7,54,93,60,颗粒物(PM10)
济宁市,任和路,116.6075,35.4566,2026-03-07T0000,39,65,0.5,26,5,50,89,61,颗粒物(PM10)
济宁市,文体南路1号,116.5648,35.3921,2026-03-07T0000,42,68,0.5,30,3,44,92,64,细颗粒物(PM2.5)
济源市,市委党校,112.6071,35.1015,2026-03-07T0000,32,54,0.4,8,4,63,68,53,颗粒物(PM10)
济源市,沁园中路1号,112.596,35.0702,2026-03-07T0000,30,33,0.5,9,2,70,71,43,
佳木斯市,佳纺,130.2749,46.8028,2026-03-07T0000,34,89,0.6,33,6,39,73,78,颗粒物(PM10)
佳木斯市,环保局,130.3258,46.7975,2026-03-07T0000,25,64,0.3,14,6,64,80,60,颗粒物(PM10)
佳木斯市,顺和街,130.363,46.806,2026-03-07T0000,30,53,0.3,12,7,66,80,53,颗粒物(PM10)
佳木斯市,长安路196号,130.3952,46.8268,2026-03-07T0000,24,54,0.4,13,6,59,82,53,颗粒物(PM10)
嘉兴市,清河小学,120.7439,30.778,2026-03-07T0000,39,72,0.5,21,5,71,88,66,颗粒物(PM10)
嘉兴市,嘉兴学院,120.7261,30.7477,2026-03-07T0000,41,59,0.7,20,5,75,92,62,细颗粒物(PM2.5)
嘉兴市,南湖区残联,120.7845,30.7524,2026-03-07T0000,44,71,0.8,18,4,68,86,68,细颗粒物(PM2.5)
嘉兴市,秀洲住建,120.6915,30.7741,2026-03-07T0000,39,73,0.9,21,7,77,96,67,颗粒物(PM10)
嘉峪关市,气象局,98.291,39.7705,2026-03-07T0000,35,129,0.3,10,5,82,112,104,颗粒物(PM10)
嘉峪关市,酒钢宾馆,98.2672,39.7978,2026-03-07T0000,44,141,0.5,10,12,83,107,109,颗粒物(PM10)
嘉峪关市,雄关区,98.2644,39.7723,2026-03-07T0000,34,111,0.5,10,9,78,110,94,颗粒物(PM10)
江门市,北街,113.1063,22.6058,2026-03-07T0000,23,36,/,33,/,52,129,36,
江门市,西区,113.073,22.5835,2026-03-07T0000,26,49,/,33,/,48,132,49,
江门市,圭峰西,113.0218,22.531,2026-03-07T0000,24,38,/,24,/,49,128,38,
江门市,东湖,113.0826,22.5947,2026-03-07T0000,25,36,0.6,28,5,48,127,36,
江门市,江海富民,113.1077,22.5647,2026-03-07T0000,23,40,0.5,28,/,55,132,40,
江门市,新会银湖,113.0496,22.4669,2026-03-07T0000,39,49,0.6,73,7,12,125,58,细颗粒物(PM2.5)
焦作市,马村街道办,113.3137,35.2643,2026-03-07T0000,26,103,0.6,13,3,65,61,88,颗粒物(PM10)
焦作市,焦作技师学院,113.2464,35.2374,2026-03-07T0000,23,26,0.8,6,3,69,62,33,
焦作市,中站许衡医院,113.1656,35.2536,2026-03-07T0000,31,47,0.6,9,6,67,66,47,
焦作市,原李万街道办,113.2456,35.18,2026-03-07T0000,27,44,0.4,9,5,70,64,44,
焦作市,新安路1731号,113.234,35.219,2026-03-07T0000,32,NA,0.4,12,6,74,67,46,
焦作市,人民路3066号,113.2722,35.2121,2026-03-07T0000,24,44,0.6,8,4,72,66,44,
揭阳市,新兴,116.3701,23.5345,2026-03-07T0000,37,45,0.6,18,7,63,68,54,细颗粒物(PM2.5)
揭阳市,西马,116.3261,23.5442,2026-03-07T0000,37,45,0.5,15,6,61,64,54,细颗粒物(PM2.5)
揭阳市,东兴,116.361,23.5627,2026-03-07T0000,46,47,/,13,5,64,66,72,细颗粒物(PM2.5)
揭阳市,渔湖,116.4151,23.5295,2026-03-07T0000,39,NA,/,15,6,71,76,58,细颗粒物(PM2.5)
揭阳市,曲溪,116.4028,23.5699,2026-03-07T0000,40,44,0.7,18,12,71,76,60,细颗粒物(PM2.5)
金昌市,天庆家园,102.1691,38.5166,2026-03-07T0000,92,149,0.9,15,13,66,102,130,细颗粒物(PM2.5)
金昌市,金川区人防中心,102.1648,38.5369,2026-03-07T0000,55,133,0.7,12,10,66,98,105,颗粒物(PM10)
金昌市,长春路96号,102.193042,38.531887,2026-03-07T0000,45,144,0.8,22,14,56,95,110,颗粒物(PM10)
金华市,十五中,119.6478,29.0773,2026-03-07T0000,43,67,0.5,34,4,61,91,66,细颗粒物(PM2.5)
金华市,监测站,119.6859,29.1032,2026-03-07T0000,42,74,0.8,38,2,36,77,68,颗粒物(PM10)
金华市,气象局,119.656,29.1132,2026-03-07T0000,48,67,0.8,42,3,46,82,76,细颗粒物(PM2.5)
锦州市,南山,121.1114,41.0879,2026-03-07T0000,20,NA,0.6,13,25,58,85,29,
锦州市,开发区,121.060361,40.842794,2026-03-07T0000,35,59,0.9,75,18,2,84,57,颗粒物(PM10)
锦州市,百股街道,121.1836,41.1118,2026-03-07T0000,30,50,0.8,47,7,17,86,50,
锦州市,天安街道,121.1176,41.1224,2026-03-07T0000,10,17,0.3,7,12,83,86,26,
锦州市,北湖公园,121.1303,41.1385,2026-03-07T0000,11,NA,0.5,4,6,86,91,27,
晋城市,自来水公司,112.8496,35.5051,2026-03-07T0000,15,35,0.6,9,3,66,73,35,
晋城市,市环保局,112.8509,35.4886,2026-03-07T0000,7,41,0.6,12,3,70,76,41,
晋城市,泽州一中,112.8258,35.4804,2026-03-07T0000,19,39,0.4,8,2,73,76,39,
晋城市,前书院路,112.8246,35.5152,2026-03-07T0000,21,30,0.6,8,3,68,73,30,
晋城市,祥云街666号,112.8864,35.4773,2026-03-07T0000,26,34,0.4,7,5,68,75,38,
晋中市,榆次区政府,112.6992,37.6984,2026-03-07T0000,50,66,0.5,31,9,39,72,80,细颗粒物(PM2.5)
晋中市,榆次三中,112.7195,37.683,2026-03-07T0000,37,68,0.4,17,9,52,75,63,颗粒物(PM10)
晋中市,广安街188号,112.7375,37.7215,2026-03-07T0000,41,76,0.5,34,8,31,74,69,颗粒物(PM10)
晋中市,迎宾街26号,112.7478,37.6954,2026-03-07T0000,41,70,0.5,20,8,50,77,65,颗粒物(PM10)
荆门市,竹园小学,112.2012,31.048,2026-03-07T0000,62,90,0.7,25,1,31,66,102,细颗粒物(PM2.5)
荆门市,掇刀,112.1968,30.9892,2026-03-07T0000,76,101,0.8,29,5,40,81,115,细颗粒物(PM2.5)
荆门市,西山林语,112.1849,31.0361,2026-03-07T0000,58,71,0.8,20,4,44,68,96,细颗粒物(PM2.5)
荆门市,龙泉中学南校,112.1631,31.0134,2026-03-07T0000,NA,NA,NA,NA,NA,NA,NA,NA,NA
荆门市,新台西路6号,112.2213,31.0654,2026-03-07T0000,70,110,0.7,26,4,19,69,110,细颗粒物(PM2.5)
荆州市,市图书馆,112.2493,30.3198,2026-03-07T0000,54,63,0.8,34,7,45,71,88,细颗粒物(PM2.5)
荆州市,市委党校,112.2009,30.3543,2026-03-07T0000,54,82,0.8,40,7,28,67,88,细颗粒物(PM2.5)
荆州市,管委会,112.2749,30.3124,2026-03-07T0000,59,71,0.9,29,9,33,68,98,细颗粒物(PM2.5)
荆州市,学苑路85号,112.1722,30.3366,2026-03-07T0000,64,72,1.1,28,1,33,78,104,细颗粒物(PM2.5)
景德镇市,老干部活动中心,117.2114,29.2931,2026-03-07T0000,24,30,0.7,11,5,52,79,35,
景德镇市,兽医站,117.1893,29.2789,2026-03-07T0000,22,44,0.5,9,5,64,82,44,
景德镇市,陶研所,117.246,29.2958,2026-03-07T0000,25,36,0.7,24,4,21,79,36,
景德镇市,青少年活动中心,117.154766,29.256967,2026-03-07T0000,29,34,/,12,3,55,75,42,
九江市,十里,115.9873,29.6816,2026-03-07T0000,44,64,0.7,25,6,79,93,68,细颗粒物(PM2.5)
九江市,茅山头,115.9583,29.7047,2026-03-07T0000,55,62,0.8,15,5,82,90,90,细颗粒物(PM2.5)
九江市,西园,115.9877,29.7295,2026-03-07T0000,52,66,0.8,31,3,74,85,84,细颗粒物(PM2.5)
九江市,综合工业园,115.9112,29.6038,2026-03-07T0000,49,52,0.7,25,6,74,90,78,细颗粒物(PM2.5)
九江市,外国语学校,116.0254,29.6995,2026-03-07T0000,51,62,0.8,18,6,72,82,82,细颗粒物(PM2.5)
九江市,莲花大道8号,116.010205,29.659402,2026-03-07T0000,40,57,0.5,16,4,68,83,60,细颗粒物(PM2.5)
酒泉市,玉门东路5号,98.495752,39.733935,2026-03-07T0000,51,171,0.4,11,6,66,94,120,颗粒物(PM10)
酒泉市,北大街108号,98.5099,39.7506,2026-03-07T0000,46,134,0.4,8,7,71,92,106,颗粒物(PM10)
喀什地区,巡警大队,76.0071,39.466,2026-03-07T0000,122,423,0.8,34,5,50,61,304,颗粒物(PM10)
喀什地区,吾办,75.9756,39.4693,2026-03-07T0000,129,393,0.8,36,29,33,55,262,颗粒物(PM10)
喀什地区,老干局,75.9485,39.4688,2026-03-07T0000,102,419,1.0,31,8,40,57,299,颗粒物(PM10)
开封市,肿瘤医院,114.3389,34.778,2026-03-07T0000,28,NA,0.5,13,6,82,83,40,
开封市,世纪星幼儿园,114.2884,34.7966,2026-03-07T0000,21,29,0.6,12,7,78,76,30,
开封市,龙亭公园,114.3434,34.8101,2026-03-07T0000,28,NA,0.6,14,7,79,81,40,
开封市,汴京公园,114.3645,34.7955,2026-03-07T0000,25,NA,0.5,11,4,78,79,36,
开封市,技师学院,114.2485,34.8306,2026-03-07T0000,17,20,0.6,12,8,78,79,25,
开封市,祥符区生态环境局,114.4518,34.7503,2026-03-07T0000,30,38,0.7,20,8,79,78,43,
克拉玛依市,长征新村,84.886,45.6029,2026-03-07T0000,31,44,1.2,12,6,91,99,45,
克拉玛依市,南林小区,84.8894,45.5827,2026-03-07T0000,26,44,0.4,7,3,95,107,44,
克拉玛依市,独山子区,84.896,44.3328,2026-03-07T0000,62,108,1.1,42,4,80,126,102,细颗粒物(PM2.5)
克拉玛依市,乌尔禾区商贸楼,85.6888,46.0909,2026-03-07T0000,49,71,0.8,18,9,106,99,78,细颗粒物(PM2.5)
克拉玛依市,白碱滩区新站,85.1045,45.6895,2026-03-07T0000,45,54,0.5,72,10,50,104,70,细颗粒物(PM2.5)
克孜勒苏柯尔克孜自治州,市人民政府,76.1457,39.7143,2026-03-07T0000,105,360,0.3,29,5,44,74,215,颗粒物(PM10)
克孜勒苏柯尔克孜自治州,克州文化中心,76.1654,39.7157,2026-03-07T0000,105,342,0.8,31,5,44,71,196,颗粒物(PM10)
昆明市,呈贡新区,102.8203,24.889,2026-03-07T0000,58,66,0.9,21,7,86,130,96,细颗粒物(PM2.5)
昆明市,龙泉镇,102.7253,25.0904,2026-03-07T0000,66,76,0.6,17,4,75,117,106,细颗粒物(PM2.5)
昆明市,东风东路,102.7267,25.0378,2026-03-07T0000,56,68,0.8,15,6,89,122,92,细颗粒物(PM2.5)
昆明市,金鼎山,102.6744,25.0671,2026-03-07T0000,59,79,0.9,21,4,81,124,98,细颗粒物(PM2.5)
昆明市,碧鸡广场,102.6643,25.0401,2026-03-07T0000,58,84,0.9,29,5,67,119,96,细颗粒物(PM2.5)
昆明市,官渡区博物馆,102.7491,25.012,2026-03-07T0000,54,65,0.9,13,3,88,120,88,细颗粒物(PM2.5)
昆明市,青年创业园,102.8016,24.8336,2026-03-07T0000,50,78,0.8,26,9,66,122,80,细颗粒物(PM2.5)
昆明市,昆明学院,102.8,24.9787,2026-03-07T0000,53,76,0.7,13,3,86,121,86,细颗粒物(PM2.5)
昆明市,晋宁区生态环境分局,102.5969,24.6738,2026-03-07T0000,54,73,0.7,10,2,92,127,88,细颗粒物(PM2.5)
昆明市,云天化总部,102.6673,24.9861,2026-03-07T0000,54,93,0.9,13,10,83,123,88,细颗粒物(PM2.5)
拉萨市,八廓街,91.132,29.6515,2026-03-07T0000,19,28,0.6,30,5,58,103,28,
拉萨市,市环保局,91.1221,29.6748,2026-03-07T0000,25,38,0.8,34,4,40,90,38,
拉萨市,区监测站,91.0874,29.6476,2026-03-07T0000,16,19,0.9,42,5,50,98,23,
拉萨市,西藏大学,91.1774,29.6541,2026-03-07T0000,8,16,1.1,15,6,74,100,24,
拉萨市,区辐射站,90.9798,29.6586,2026-03-07T0000,25,36,1.1,51,6,30,92,36,
拉萨市,拉萨火车站,91.0831,29.6292,2026-03-07T0000,7,16,0.8,36,4,53,100,18,
来宾市,来宾技工学校,109.2203,23.7252,2026-03-07T0000,56,77,1.0,43,9,23,107,92,细颗粒物(PM2.5)
来宾市,兴宾区政府,109.1781,23.7293,2026-03-07T0000,93,107,1.1,23,9,52,118,130,细颗粒物(PM2.5)
来宾市,中南小学,109.2312,23.7428,2026-03-07T0000,77,109,1.0,60,7,7,109,116,细颗粒物(PM2.5)
兰州市,铁路设计院,103.8309,36.0467,2026-03-07T0000,NA,NA,NA,NA,NA,NA,NA,NA,NA
兰州市,百合公园,103.7439,36.0841,2026-03-07T0000,34,67,0.7,16,10,68,97,63,颗粒物(PM10)
兰州市,和平,103.9613,35.9985,2026-03-07T0000,35,91,0.7,30,12,55,106,80,颗粒物(PM10)
兰州市,庄浪东路808号,103.629272,36.093822,2026-03-07T0000,29,83,0.3,30,10,50,107,74,颗粒物(PM10)
兰州市,安宁西路88号,103.7251,36.104344,2026-03-07T0000,23,84,0.4,22,19,71,115,75,颗粒物(PM10)
兰州市,北滨河东路1号,103.846982,36.067567,2026-03-07T0000,30,69,0.5,25,8,75,102,64,颗粒物(PM10)
廊坊市,药材公司,116.6712,39.5109,2026-03-07T0000,68,69,0.8,36,3,29,80,108,细颗粒物(PM2.5)
廊坊市,开发区,116.7215,39.5592,2026-03-07T0000,68,78,0.7,29,3,41,82,108,细颗粒物(PM2.5)
廊坊市,北华航天学院,116.7246,39.5273,2026-03-07T0000,68,81,0.6,32,2,38,83,108,细颗粒物(PM2.5)
廊坊市,河北工业大学,116.7022,39.5454,2026-03-07T0000,69,86,0.7,26,3,39,79,109,细颗粒物(PM2.5)
乐山市,牛耳桥,103.7629,29.5844,2026-03-07T0000,46,55,0.8,17,6,52,64,72,细颗粒物(PM2.5)
乐山市,市第三水厂,103.7501,29.6002,2026-03-07T0000,45,51,0.8,18,4,53,67,70,细颗粒物(PM2.5)
乐山市,市监测站,103.7571,29.5664,2026-03-07T0000,45,58,0.8,17,7,45,65,70,细颗粒物(PM2.5)
乐山市,理工大学,103.7313,29.563,2026-03-07T0000,51,54,0.8,19,5,36,68,82,细颗粒物(PM2.5)
丽江市,丽江古城,100.2497,26.8802,2026-03-07T0000,36,49,0.4,6,8,115,119,52,细颗粒物(PM2.5)
丽江市,市中心,100.2203,26.8906,2026-03-07T0000,36,NA,0.4,7,6,122,122,52,细颗粒物(PM2.5)
丽水市,监测站大楼,119.9141,28.4513,2026-03-07T0000,38,48,0.4,17,4,54,100,56,细颗粒物(PM2.5)
丽水市,莲都小学,119.93,28.4589,2026-03-07T0000,36,49,/,20,/,61,101,52,细颗粒物(PM2.5)
丽水市,余庄前,119.8794,28.4232,2026-03-07T0000,40,45,0.4,17,3,23,99,60,细颗粒物(PM2.5)
连云港市,市环境监测站,119.1759,34.5885,2026-03-07T0000,48,51,0.7,18,7,71,83,76,细颗粒物(PM2.5)
连云港市,德源药业,119.3577,34.6971,2026-03-07T0000,31,44,0.7,12,7,77,85,45,
连云港市,新城一中,119.178,34.8442,2026-03-07T0000,39,54,1.1,30,14,51,85,58,细颗粒物(PM2.5)
连云港市,胡沟管理处,119.3607,34.7519,2026-03-07T0000,27,27,1.1,9,4,78,87,39,
连云港市,矿山设计院,119.1478,34.5913,2026-03-07T0000,48,61,0.8,19,8,72,84,76,细颗粒物(PM2.5)
连云港市,工贸学校,119.2414,34.6539,2026-03-07T0000,52,64,0.6,15,10,68,85,84,细颗粒物(PM2.5)
连云港市,连云街道,119.4171,34.734,2026-03-07T0000,22,31,0.3,19,6,74,84,32,
凉山彝族自治州,西昌市政府,102.2629,27.8981,2026-03-07T0000,62,NA,0.9,8,13,88,116,102,细颗粒物(PM2.5)
凉山彝族自治州,凉山州政府,102.2686,27.885,2026-03-07T0000,70,NA,0.8,14,11,67,108,110,细颗粒物(PM2.5)
凉山彝族自治州,凯乐南路30号,102.2342,27.8859,2026-03-07T0000,68,77,1.0,36,9,49,114,108,细颗粒物(PM2.5)
辽阳市,宏伟区,123.1978,41.2036,2026-03-07T0000,45,81,0.7,32,10,32,84,73,颗粒物(PM10)
辽阳市,新华园,123.1684,41.2497,2026-03-07T0000,50,NA,0.9,38,12,34,83,80,细颗粒物(PM2.5)
辽阳市,滨河路,123.2355,41.2663,2026-03-07T0000,42,48,0.7,44,10,29,80,64,细颗粒物(PM2.5)
辽阳市,铁西路150号,123.153,41.2874,2026-03-07T0000,63,NA,1.4,60,13,12,78,103,细颗粒物(PM2.5)
辽源市,环保局,125.1359,42.8845,2026-03-07T0000,22,36,0.6,17,5,53,84,36,
辽源市,安宁大街333号,125.0998,42.9134,2026-03-07T0000,27,44,0.6,9,3,42,78,44,
聊城市,区政府,115.9789,36.4372,2026-03-07T0000,33,48,0.7,16,10,74,84,48,
聊城市,监控中心,115.9772,36.4986,2026-03-07T0000,40,75,0.6,26,10,54,88,68,颗粒物(PM10)
聊城市,九州社区,116.0443,36.436,2026-03-07T0000,39,56,0.6,23,1,74,84,58,细颗粒物(PM2.5)
聊城市,星美广场,116.0564,36.4609,2026-03-07T0000,37,58,0.6,17,3,79,76,56,颗粒物(PM10)
聊城市,利民路,116.0091,36.4495,2026-03-07T0000,35,52,0.6,21,8,70,86,52,颗粒物(PM10)
林芝市,林芝监测站,94.3683,29.6373,2026-03-07T0000,15,19,0.4,1,4,104,97,33,
林芝市,林芝人民医院,94.3616,29.6634,2026-03-07T0000,13,22,0.4,1,2,98,91,31,
临沧市,市环保局,100.0779,23.8981,2026-03-07T0000,102,NA,1.0,21,11,72,137,139,细颗粒物(PM2.5)
临沧市,市气象局,100.0894,23.882,2026-03-07T0000,108,NA,0.9,19,8,86,141,144,细颗粒物(PM2.5)
临汾市,临钢医院,111.5552,36.0791,2026-03-07T0000,35,41,0.7,21,8,43,70,50,
临汾市,技工学校,111.4984,36.0734,2026-03-07T0000,39,NA,0.6,16,4,56,68,58,细颗粒物(PM2.5)
临汾市,市委,111.5017,36.0857,2026-03-07T0000,27,32,0.6,10,3,62,72,39,
临汾市,唐尧大酒店,111.5048,36.1015,2026-03-07T0000,24,41,0.7,16,5,57,69,41,
临汾市,启星学校,111.4879,36.053,2026-03-07T0000,30,34,0.4,18,6,52,67,43,
临夏回族自治州,滨河东路1号,103.2464,35.6123,2026-03-07T0000,109,269,1.4,50,11,6,102,160,颗粒物(PM10)
临夏回族自治州,新华街21号,103.207136,35.599807,2026-03-07T0000,82,146,1.1,26,12,37,91,120,细颗粒物(PM2.5)
临沂市,沂河小区,118.3429,35.0532,2026-03-07T0000,53,68,0.5,21,8,56,81,86,细颗粒物(PM2.5)
临沂市,鲁南制药厂,118.2962,35.0568,2026-03-07T0000,49,68,0.4,23,9,64,81,78,细颗粒物(PM2.5)
临沂市,新光毛纺厂,118.2793,34.9976,2026-03-07T0000,57,70,0.8,22,8,57,82,94,细颗粒物(PM2.5)
临沂市,河东保险公司,118.3955,35.0889,2026-03-07T0000,55,66,0.6,28,7,57,88,90,细颗粒物(PM2.5)
临沂市,十里堡居委,118.3563,35.0215,2026-03-07T0000,48,61,0.7,24,7,62,88,76,细颗粒物(PM2.5)
临沂市,南坊新区,118.359,35.1067,2026-03-07T0000,53,58,0.5,22,8,60,90,86,细颗粒物(PM2.5)
临沂市,皇山花园小区,118.3915,35.0297,2026-03-07T0000,55,63,0.6,28,11,58,90,90,细颗粒物(PM2.5)
柳州市,柳东小学,109.4854,24.3898,2026-03-07T0000,32,47,0.4,11,5,77,101,47,
柳州市,环保监测站,109.4109,24.3304,2026-03-07T0000,33,47,0.8,14,4,84,98,48,
柳州市,河西水厂,109.3886,24.3408,2026-03-07T0000,33,52,0.8,15,6,90,105,52,颗粒物(PM10)
柳州市,市四中,109.4263,24.2951,2026-03-07T0000,45,51,0.7,18,7,81,104,70,细颗粒物(PM2.5)
柳州市,市九中,109.396,24.3658,2026-03-07T0000,33,47,0.7,9,7,84,93,48,
柳州市,古亭山,109.4912,24.3164,2026-03-07T0000,39,44,0.7,15,7,83,106,58,细颗粒物(PM2.5)
柳州市,市二中,109.5422,24.3994,2026-03-07T0000,39,48,0.6,16,6,76,105,58,细颗粒物(PM2.5)
六安市,监测大楼,116.5078,31.7369,2026-03-07T0000,67,87,0.7,18,5,52,91,107,细颗粒物(PM2.5)
六安市,皖西学院,116.4738,31.7642,2026-03-07T0000,76,92,0.6,24,4,43,97,115,细颗粒物(PM2.5)
六安市,朝阳厂,116.4997,31.7904,2026-03-07T0000,74,93,0.7,28,4,46,96,113,细颗粒物(PM2.5)
六安市,开发区,116.5566,31.7885,2026-03-07T0000,67,101,0.7,25,4,44,99,107,细颗粒物(PM2.5)
六盘水市,黄土坡,104.8293,26.592,2026-03-07T0000,6,10,0.9,14,6,36,55,12,
六盘水市,民中,104.8481,26.5898,2026-03-07T0000,6,15,0.8,9,4,39,54,15,
六盘水市,双水,104.9541,26.5506,2026-03-07T0000,3,7,0.2,6,3,49,56,16,
六盘水市,钟山大道中段564号,104.8899,26.5685,2026-03-07T0000,3,16,0.9,8,8,40,51,16,
龙岩市,龙岩市监测站,117.022,25.1031,2026-03-07T0000,13,NA,0.8,6,6,56,75,19,
龙岩市,闽西职业技术学院,117.0257,25.0662,2026-03-07T0000,15,20,0.6,12,5,31,77,22,
龙岩市,龙岩学院,117.0195,25.0306,2026-03-07T0000,14,20,/,11,3,28,79,20,
陇南市,滨江中学,104.9344,33.3827,2026-03-07T0000,31,68,0.6,13,6,61,92,63,颗粒物(PM10)
陇南市,市总工会,104.9551,33.3709,2026-03-07T0000,29,64,0.6,7,4,66,91,60,颗粒物(PM10)
娄底市,市监测站,111.9984,27.7346,2026-03-07T0000,60,66,0.7,18,5,78,86,100,细颗粒物(PM2.5)
娄底市,市政府,111.9888,27.7035,2026-03-07T0000,58,NA,0.5,12,3,79,86,96,细颗粒物(PM2.5)
娄底市,涟钢职大,111.9812,27.7591,2026-03-07T0000,62,72,0.3,10,2,85,92,102,细颗粒物(PM2.5)
娄底市,娄底体校,112.0303,27.7457,2026-03-07T0000,60,78,0.7,12,2,68,76,100,细颗粒物(PM2.5)
泸州市,小市上码头,105.4427,28.9063,2026-03-07T0000,48,54,0.5,17,8,35,50,76,细颗粒物(PM2.5)
泸州市,兰田宪桥,105.4241,28.8573,2026-03-07T0000,51,66,1.0,22,6,16,41,82,细颗粒物(PM2.5)
泸州市,市环监站,105.4378,28.8833,2026-03-07T0000,46,65,0.4,24,10,28,46,72,细颗粒物(PM2.5)
泸州市,纳溪中医医院,105.3689,28.7783,2026-03-07T0000,62,79,0.9,28,6,2,39,102,细颗粒物(PM2.5)
吕梁市,环保局,111.1447,37.5212,2026-03-07T0000,22,54,0.2,66,4,7,56,53,颗粒物(PM10)
吕梁市,自来水公司,111.1285,37.5338,2026-03-07T0000,22,56,0.6,46,5,21,60,55,颗粒物(PM10)
吕梁市,马茂庄小学,111.1225,37.5093,2026-03-07T0000,28,87,0.5,40,8,28,54,77,颗粒物(PM10)
洛阳市,市委党校,112.3934,34.6517,2026-03-07T0000,24,26,0.7,20,5,52,49,35,
洛阳市,河南林校,112.494,34.6883,2026-03-07T0000,34,38,0.6,26,8,46,54,49,
洛阳市,开发区管委会,112.3843,34.623,2026-03-07T0000,19,27,0.6,17,8,54,56,28,
洛阳市,市委新办公区,112.4263,34.6249,2026-03-07T0000,33,NA,0.6,22,6,48,51,48,
洛阳市,伊滨,112.6005,34.6323,2026-03-07T0000,29,30,0.5,18,6,60,56,42,
洛阳市,中移产业园,112.495,34.6338,2026-03-07T0000,28,30,0.6,26,7,42,50,40,
洛阳市,吉利监测站,112.5736,34.8993,2026-03-07T0000,38,NA,0.4,15,6,67,63,56,细颗粒物(PM2.5)
洛阳市,河科大西苑校区,112.3678,34.6623,2026-03-07T0000,26,NA,0.7,24,6,58,54,38,
洛阳市,英才小学,112.4387,34.678,2026-03-07T0000,27,31,0.6,23,7,52,53,39,
洛阳市,春都路1号院,112.460027,34.694929,2026-03-07T0000,32,38,0.7,18,6,45,46,46,
漯河市,三五一五工厂,114.051,33.5721,2026-03-07T0000,65,91,0.9,24,4,53,60,105,细颗粒物(PM2.5)
漯河市,漯河大学,114.0055,33.5698,2026-03-07T0000,70,85,0.6,20,5,56,59,110,细颗粒物(PM2.5)
漯河市,市水利局,114.0134,33.5826,2026-03-07T0000,54,88,0.6,22,5,54,58,88,细颗粒物(PM2.5)
漯河市,市广电局,114.0261,33.5697,2026-03-07T0000,68,85,0.6,19,5,53,55,108,细颗粒物(PM2.5)
漯河市,市图书馆,113.9691,33.568,2026-03-07T0000,66,106,0.8,19,5,56,55,106,细颗粒物(PM2.5)
漯河市,韶山路11号,114.089259,33.588274,2026-03-07T0000,50,129,0.7,27,6,44,50,104,颗粒物(PM10)
马鞍山市,湖东路四小,118.5084,31.6838,2026-03-07T0000,56,93,0.6,19,5,57,82,92,细颗粒物(PM2.5)
马鞍山市,开发区,118.5019,31.6449,2026-03-07T0000,55,93,0.6,21,4,59,86,90,细颗粒物(PM2.5)
马鞍山市,雨山,118.4914,31.681,2026-03-07T0000,51,99,0.7,17,4,60,85,85,颗粒物(PM10)
马鞍山市,慈湖高新区,118.527362,31.722269,2026-03-07T0000,57,82,0.5,18,4,60,80,94,细颗粒物(PM2.5)
茂名市,电白南海,111.0285,21.469,2026-03-07T0000,26,44,0.8,18,6,120,108,44,
茂名市,茂石化七小,110.9294,21.6533,2026-03-07T0000,32,36,0.7,21,7,91,103,46,
茂名市,健康路,110.9108,21.6688,2026-03-07T0000,28,36,0.8,17,5,110,111,40,
茂名市,高岭,110.8592,21.6826,2026-03-07T0000,31,41,/,20,3,105,108,45,
茂名市,电白水东,111.0101,21.5165,2026-03-07T0000,34,39,/,22,5,91,99,49,
眉山市,气象局,103.8414,30.0871,2026-03-07T0000,43,58,0.7,19,5,55,80,66,细颗粒物(PM2.5)
眉山市,区人社局,103.829,30.0563,2026-03-07T0000,54,60,0.8,20,7,53,66,88,细颗粒物(PM2.5)
眉山市,眉职院,103.8836,30.0695,2026-03-07T0000,47,68,0.7,13,5,60,77,74,细颗粒物(PM2.5)
梅州市,梅江月梅,116.1248,24.3307,2026-03-07T0000,18,24,/,11,/,28,58,26,
梅州市,梅县新城,116.0798,24.2719,2026-03-07T0000,24,43,0.8,33,8,9,58,43,
梅州市,梅龙,116.1234,24.2994,2026-03-07T0000,32,41,0.9,19,6,19,64,46,
绵阳市,富乐山,104.7775,31.4741,2026-03-07T0000,34,43,0.8,27,9,25,68,49,
绵阳市,高新区自来水公司,104.6698,31.4668,2026-03-07T0000,36,51,0.9,52,7,16,62,52,细颗粒物(PM2.5)
绵阳市,西科大附属小学,104.6899,31.5324,2026-03-07T0000,44,62,0.7,36,7,18,69,68,细颗粒物(PM2.5)
绵阳市,安州区旅游局,104.5647,31.5343,2026-03-07T0000,40,69,0.7,20,9,NA,70,NA,NA
绵阳市,科技城新区公安局,104.7092,31.4972,2026-03-07T0000,34,46,0.8,46,8,26,67,49,
绵阳市,绵阳市气象局,104.765114,31.453094,2026-03-07T0000,38,53,0.9,41,6,11,55,56,细颗粒物(PM2.5)
牡丹江市,环保大楼,129.61,44.561,2026-03-07T0000,23,39,0.6,18,2,70,91,39,
牡丹江市,机车工厂,129.6364,44.6075,2026-03-07T0000,21,30,0.4,17,8,60,89,30,
牡丹江市,第一中学,129.6386,44.5462,2026-03-07T0000,28,NA,0.6,26,6,36,89,40,
牡丹江市,东晓云街98号,129.5992,44.5964,2026-03-07T0000,27,38,0.6,16,3,57,92,39,
内江市,市监测站,105.0703,29.61,2026-03-07T0000,48,59,0.8,NA,6,NA,58,NA,NA
内江市,内江二中,105.0657,29.5807,2026-03-07T0000,48,95,0.8,52,8,11,67,83,颗粒物(PM10)
内江市,内江日报社,105.0407,29.5828,2026-03-07T0000,46,62,0.6,34,8,31,63,72,细颗粒物(PM2.5)
内江市,玉峰路西段888号,105.0433,29.6105,2026-03-07T0000,48,60,0.5,24,7,36,68,76,细颗粒物(PM2.5)
那曲市,那曲监测站,92.0653,31.4846,2026-03-07T0000,30,60,0.9,24,4,58,94,58,颗粒物(PM10)
那曲市,那曲市委宣传部,92.0515,31.4787,2026-03-07T0000,20,53,0.5,8,5,66,102,53,颗粒物(PM10)
南昌市,省林业公司,115.8887,28.7006,2026-03-07T0000,38,53,0.6,21,4,60,88,56,细颗粒物(PM2.5)
南昌市,林科所,115.813,28.7443,2026-03-07T0000,33,56,0.8,13,8,72,87,55,颗粒物(PM10)
南昌市,建工学校,115.8518,28.687,2026-03-07T0000,38,60,0.7,20,8,63,82,58,颗粒物(PM10)
南昌市,象湖,115.8926,28.6425,2026-03-07T0000,51,64,0.7,26,9,60,86,82,细颗粒物(PM2.5)
南昌市,机电学校,115.9084,28.6062,2026-03-07T0000,46,93,0.7,25,6,63,91,81,颗粒物(PM10)
南昌市,外国语学校,115.9718,28.7032,2026-03-07T0000,53,71,0.9,24,8,62,86,86,细颗粒物(PM2.5)
南昌市,工业二路,115.7923,28.6873,2026-03-07T0000,33,55,0.7,16,4,76,93,54,颗粒物(PM10)
南昌市,南京东路235号,115.931587,28.686774,2026-03-07T0000,45,63,0.7,24,6,61,90,70,细颗粒物(PM2.5)
南充市,南充市委,106.0791,30.8022,2026-03-07T0000,33,49,0.7,58,7,9,74,49,
南充市,南充炼油厂,106.1038,30.8215,2026-03-07T0000,25,59,0.7,26,8,41,70,57,颗粒物(PM10)
南充市,梨树横街98号,106.108336,30.788436,2026-03-07T0000,38,55,0.6,38,7,35,76,56,细颗粒物(PM2.5)
南充市,清泉寺北路188号,106.1172,30.843,2026-03-07T0000,30,49,0.5,13,12,66,84,49,
南充市,同庆路1号,106.067,30.7616,2026-03-07T0000,39,55,0.9,58,7,16,78,58,细颗粒物(PM2.5)
南京市,迈皋桥,118.8033,32.1085,2026-03-07T0000,34,60,0.4,20,5,79,96,58,颗粒物(PM10)
南京市,草场门,118.7487,32.057,2026-03-07T0000,46,73,0.4,25,8,67,88,72,细颗粒物(PM2.5)
南京市,中华门,118.770105,32.004342,2026-03-07T0000,36,66,0.6,11,4,63,83,62,颗粒物(PM10)
南京市,瑞金路,118.8059,32.0329,2026-03-07T0000,40,70,0.6,2,3,53,62,65,颗粒物(PM10)
南京市,玄武湖,118.7946,32.0774,2026-03-07T0000,36,68,0.6,20,6,56,81,63,颗粒物(PM10)
南京市,浦口,118.6415,32.0964,2026-03-07T0000,42,78,0.4,25,4,55,78,70,颗粒物(PM10)
南京市,奥体中心,118.730129,32.000956,2026-03-07T0000,36,77,0.4,21,7,65,88,70,颗粒物(PM10)
南京市,仙林大学城,118.9072,32.1047,2026-03-07T0000,28,58,0.7,20,5,66,82,56,颗粒物(PM10)
南京市,江宁彩虹桥,118.8443,31.919,2026-03-07T0000,24,69,0.6,10,4,84,93,64,颗粒物(PM10)
南京市,六合雄州,118.8497,32.3599,2026-03-07T0000,33,49,0.6,14,4,67,73,49,
南京市,新模范马路66号,118.7641,32.0841,2026-03-07T0000,30,68,0.7,22,5,78,106,63,颗粒物(PM10)
南京市,汶溪路181号,118.8707617,31.34017673,2026-03-07T0000,64,110,0.5,24,7,53,86,104,细颗粒物(PM2.5)
南京市,中山西路1号,119.019,31.6512,2026-03-07T0000,35,68,0.8,11,3,64,76,63,颗粒物(PM10)
南宁市,二十一中,108.3098,22.788,2026-03-07T0000,50,NA,0.7,19,5,81,102,80,细颗粒物(PM2.5)
南宁市,北湖,108.3135,22.8529,2026-03-07T0000,54,NA,0.8,20,4,88,108,88,细颗粒物(PM2.5)
南宁市,市监测站,108.3205,22.8222,2026-03-07T0000,43,49,0.8,15,7,98,112,66,细颗粒物(PM2.5)
南宁市,大自然花园,108.3828,22.8038,2026-03-07T0000,39,46,0.5,14,6,91,110,58,细颗粒物(PM2.5)
南宁市,区农职院,108.2397,22.8462,2026-03-07T0000,44,47,0.7,18,7,85,112,68,细颗粒物(PM2.5)
南宁市,英华嘉园,108.3285,22.7356,2026-03-07T0000,53,54,0.7,15,4,92,107,86,细颗粒物(PM2.5)
南宁市,红星社区,108.4829,22.762,2026-03-07T0000,61,NA,0.7,32,6,54,107,101,细颗粒物(PM2.5)
南宁市,起凤路9号,108.2927,23.1477,2026-03-07T0000,51,62,0.8,16,4,89,111,82,细颗粒物(PM2.5)
南宁市,乐贤路16号,108.2177,22.7774,2026-03-07T0000,59,76,0.8,49,4,51,113,98,细颗粒物(PM2.5)
南平市,南平市监测站,118.1682,26.6371,2026-03-07T0000,25,32,0.3,6,4,62,66,36,
南平市,南平七中,118.1757,26.6276,2026-03-07T0000,23,23,0.5,7,2,68,70,33,
南通市,狼山街道,120.9056,31.9669,2026-03-07T0000,19,42,0.5,11,4,78,85,42,
南通市,城中,120.8635,32.0231,2026-03-07T0000,25,41,0.6,10,3,82,89,41,
南通市,星湖花园,120.9376,31.9301,2026-03-07T0000,21,39,0.5,11,3,78,86,39,
南通市,紫琅学院,120.8053,32.046,2026-03-07T0000,20,41,0.5,12,4,79,88,41,
南通市,通州监测站,121.0631,32.0644,2026-03-07T0000,17,31,0.6,8,3,85,93,31,
南通市,环境教育馆,120.9348,31.9874,2026-03-07T0000,19,46,0.4,14,3,77,88,46,
南通市,洪江路,120.8692,31.9885,2026-03-07T0000,19,29,0.5,6,3,81,83,29,
南阳市,瓦房庄,112.5338,33.0086,2026-03-07T0000,75,105,0.9,12,3,48,39,114,细颗粒物(PM2.5)
南阳市,汉画馆,112.5002,32.9734,2026-03-07T0000,86,114,0.8,15,4,49,40,124,细颗粒物(PM2.5)
南阳市,气象站,112.5778,33.0144,2026-03-07T0000,66,125,0.9,16,4,44,39,106,细颗粒物(PM2.5)
南阳市,理工学院,112.548,32.9687,2026-03-07T0000,61,101,0.9,13,4,46,37,101,细颗粒物(PM2.5)
南阳市,卧龙区政府,112.5233,32.9921,2026-03-07T0000,61,110,0.9,13,5,45,36,101,细颗粒物(PM2.5)
宁波市,区环保大楼,121.8352,29.9111,2026-03-07T0000,25,55,0.5,12,6,90,85,54,颗粒物(PM10)
宁波市,万里学院,121.5595,29.8208,2026-03-07T0000,33,58,0.6,13,4,77,78,56,颗粒物(PM10)
宁波市,龙赛医院,121.713,29.9564,2026-03-07T0000,22,45,0.5,12,4,88,85,45,
宁波市,太古小学,121.5855,29.8635,2026-03-07T0000,30,59,0.6,17,3,89,93,57,颗粒物(PM10)
宁波市,市环境监测中心,121.5239,29.8673,2026-03-07T0000,29,54,0.6,11,5,88,89,53,颗粒物(PM10)
宁波市,万里国际学校,121.6156,29.9015,2026-03-07T0000,29,47,0.7,15,3,87,90,47,
宁波市,白沙活动中心,121.5593,29.8976,2026-03-07T0000,30,43,0.6,11,4,90,90,43,
宁波市,中科路88号,121.8962,29.7529,2026-03-07T0000,32,53,0.7,13,5,92,90,53,颗粒物(PM10)
宁德市,宁德市监测站,119.5387,26.6611,2026-03-07T0000,15,33,0.5,13,3,99,105,33,
宁德市,宁德一中,119.5231,26.6562,2026-03-07T0000,18,31,0.4,12,4,100,105,32,
怒江傈僳族自治州,州监测站,98.859,25.8541,2026-03-07T0000,79,93,0.7,18,8,78,123,118,细颗粒物(PM2.5)
怒江傈僳族自治州,泸水一中,98.8607,25.8168,2026-03-07T0000,83,93,0.9,19,6,59,112,121,细颗粒物(PM2.5)
攀枝花市,弄弄坪,101.6891,26.571,2026-03-07T0000,69,118,1.0,31,15,82,142,109,细颗粒物(PM2.5)
攀枝花市,河门口,101.577,26.5914,2026-03-07T0000,66,91,1.0,23,37,61,139,106,细颗粒物(PM2.5)
攀枝花市,仁和,101.7365,26.4986,2026-03-07T0000,66,88,0.6,9,8,105,129,106,细颗粒物(PM2.5)
攀枝花市,四十中小,101.7222,26.567,2026-03-07T0000,80,90,1.2,42,15,79,129,119,细颗粒物(PM2.5)
盘锦市,开发区,122.0303,41.1489,2026-03-07T0000,48,53,1.1,48,6,3,81,76,细颗粒物(PM2.5)
盘锦市,兴隆台,122.0486,41.0883,2026-03-07T0000,50,62,1.3,79,8,3,84,80,细颗粒物(PM2.5)
盘锦市,新生街道,121.8297,41.1026,2026-03-07T0000,25,52,0.5,76,9,NA,81,NA,NA
平顶山市,新华旅馆,113.3257,33.7423,2026-03-07T0000,65,98,0.4,23,5,52,52,105,细颗粒物(PM2.5)
平顶山市,规划设计院,113.2917,33.737,2026-03-07T0000,56,94,0.5,19,5,55,53,92,细颗粒物(PM2.5)
平顶山市,平顶山工学院,113.182,33.7738,2026-03-07T0000,52,87,0.3,18,3,61,52,84,细颗粒物(PM2.5)
平顶山市,石龙区,112.8736,33.9068,2026-03-07T0000,63,72,0.7,18,5,56,54,103,细颗粒物(PM2.5)
平顶山市,姚电大道23号,113.284,33.7139,2026-03-07T0000,61,89,0.5,18,5,57,56,101,细颗粒物(PM2.5)
平凉市,聚贤嘉苑,106.6633,35.5338,2026-03-07T0000,44,75,0.6,29,6,49,90,68,"颗粒物(PM10),细颗粒物(PM2.5)"
平凉市,博物馆,106.7021,35.5307,2026-03-07T0000,61,109,1.3,37,10,41,90,101,细颗粒物(PM2.5)
萍乡市,中医院,113.8384,27.6436,2026-03-07T0000,31,57,0.4,17,4,82,97,55,颗粒物(PM10)
萍乡市,市环保局,113.8677,27.6438,2026-03-07T0000,34,50,0.5,9,3,76,89,50,
萍乡市,安源区政府,113.8663,27.6202,2026-03-07T0000,31,61,0.8,12,5,67,78,58,颗粒物(PM10)
萍乡市,联洪村委会,113.8686,27.6668,2026-03-07T0000,32,50,0.3,9,2,70,83,50,
莆田市,荔城区仓后路,119.0142,25.4324,2026-03-07T0000,18,32,/,9,/,107,89,34,
莆田市,莆田市监测站,119.0016,25.4553,2026-03-07T0000,23,26,0.5,9,2,106,86,34,
莆田市,涵江区六中,119.112,25.4561,2026-03-07T0000,18,33,0.5,7,/,108,98,34,
莆田市,秀屿区政府,119.1014,25.3215,2026-03-07T0000,15,35,0.6,6,2,108,109,35,
濮阳市,环保局,115.0312,35.7636,2026-03-07T0000,34,NA,0.5,21,6,58,75,49,
濮阳市,濮水河管理处,115,35.7667,2026-03-07T0000,42,47,0.6,16,7,59,84,64,细颗粒物(PM2.5)
濮阳市,中原东路68号,115.0552,35.7816,2026-03-07T0000,40,45,0.4,13,4,66,79,60,细颗粒物(PM2.5)
濮阳市,任丘路479号,115.0923632,35.76857718,2026-03-07T0000,34,47,0.6,13,4,70,81,49,
普洱市,市环保局,100.9801,22.7634,2026-03-07T0000,29,58,0.7,7,6,69,108,56,颗粒物(PM10)
普洱市,普洱第二中学,100.9763,22.8237,2026-03-07T0000,27,52,0.6,3,5,86,111,52,颗粒物(PM10)
七台河市,中波台,131.0413,45.7795,2026-03-07T0000,30,44,0.4,21,8,64,95,44,
七台河市,人民广场,131.0136,45.7688,2026-03-07T0000,32,46,0.5,27,10,58,92,46,
七台河市,新建矿广场,130.8639,45.8144,2026-03-07T0000,48,70,0.3,16,5,57,75,76,细颗粒物(PM2.5)
齐齐哈尔市,安居小区,123.9307,47.3641,2026-03-07T0000,28,46,0.4,23,4,56,82,46,
齐齐哈尔市,中心广场,123.9497,47.3389,2026-03-07T0000,31,41,0.5,22,8,56,78,45,
齐齐哈尔市,农牧车辆厂,123.9483,47.3229,2026-03-07T0000,24,48,0.6,14,13,53,83,48,
齐齐哈尔市,市环境监测站,123.9442,47.2994,2026-03-07T0000,26,54,0.4,21,4,60,82,53,颗粒物(PM10)
齐齐哈尔市,富区青少年活动中心,123.6341,47.2079,2026-03-07T0000,32,57,0.6,42,5,40,81,55,颗粒物(PM10)
黔东南苗族侗族自治州,市环境监测站,107.9765,26.5724,2026-03-07T0000,32,38,0.8,6,5,50,54,46,
黔东南苗族侗族自治州,凯里学院,107.8909,26.531,2026-03-07T0000,34,41,0.6,14,5,53,56,49,
黔南布依族苗族自治州,小围寨,107.5223,26.2371,2026-03-07T0000,42,NA,0.7,11,5,28,51,64,细颗粒物(PM2.5)
黔南布依族苗族自治州,沙坝,107.5175,26.2977,2026-03-07T0000,39,48,0.8,12,5,28,49,58,细颗粒物(PM2.5)
黔西南布依族苗族自治州,场坝街,104.9022,25.0943,2026-03-07T0000,50,63,0.7,7,2,52,51,80,细颗粒物(PM2.5)
黔西南布依族苗族自治州,坪东大道,104.8812,25.0994,2026-03-07T0000,43,58,0.7,7,4,47,48,66,细颗粒物(PM2.5)
钦州市,市环保站,108.6238,21.9667,2026-03-07T0000,53,78,0.7,20,5,80,102,86,细颗粒物(PM2.5)
钦州市,沙埠小学,108.655,21.9481,2026-03-07T0000,68,96,0.7,32,11,60,106,108,细颗粒物(PM2.5)
钦州市,港区一小,108.5989,21.7435,2026-03-07T0000,36,44,0.7,22,4,84,95,52,细颗粒物(PM2.5)
钦州市,北职校,108.5959,21.9634,2026-03-07T0000,56,80,0.9,29,4,57,104,92,细颗粒物(PM2.5)
秦皇岛市,建设大厦,119.5247,39.9346,2026-03-07T0000,33,48,0.5,69,5,14,90,48,
秦皇岛市,文明里,119.5979,39.938,2026-03-07T0000,23,57,0.5,55,8,35,89,55,颗粒物(PM10)
秦皇岛市,南园路157号,119.7458,39.9952,2026-03-07T0000,26,30,0.4,37,6,58,90,38,
秦皇岛市,翠岛大街1号,119.5131,39.8858,2026-03-07T0000,28,45,0.4,22,7,64,88,45,
秦皇岛市,北戴河轮滑馆,119.509013,39.825305,2026-03-07T0000,24,41,0.6,47,5,41,92,41,
青岛市,市南区东部子站,120.404,36.0625,2026-03-07T0000,16,29,0.6,9,9,80,83,29,
青岛市,四方区子站,120.362344,36.10282,2026-03-07T0000,17,27,0.6,14,5,75,87,27,
青岛市,市南区西部子站,120.294373,36.054183,2026-03-07T0000,16,22,0.5,11,3,79,85,25,
青岛市,崂山区子站,120.4581,36.0858,2026-03-07T0000,16,24,0.4,4,7,82,84,26,
青岛市,城阳区子站,120.3945,36.3083,2026-03-07T0000,20,34,0.6,13,6,80,87,34,
青岛市,市北区南部,120.3454,36.0735,2026-03-07T0000,17,29,0.5,10,4,74,81,29,
青岛市,李沧区北部,120.3897,36.18,2026-03-07T0000,18,29,0.5,12,8,78,82,29,
青岛市,盟旺路653号,120.5222,36.4089,2026-03-07T0000,23,36,0.6,12,2,70,96,36,
青岛市,珠江路669号,120.196923,35.954556,2026-03-07T0000,14,19,0.4,20,8,79,86,25,
青岛市,黄岛区人民政府广场,120.0424,35.8656,2026-03-07T0000,16,27,0.5,13,7,75,85,27,
清远市,凤城街办,113.0218,23.7086,2026-03-07T0000,16,24,/,18,/,62,98,24,
清远市,技师学院,113.0479,23.6343,2026-03-07T0000,18,29,0.6,15,7,65,102,29,
清远市,清新太和,112.9898,23.7403,2026-03-07T0000,25,29,0.5,16,6,70,107,36,
清远市,清城东城,113.076,23.72,2026-03-07T0000,19,36,/,17,/,58,100,36,
庆阳市,庆阳五中,107.6325,35.7357,2026-03-07T0000,20,44,0.4,10,4,62,90,44,
庆阳市,市环保局,107.6361,35.7067,2026-03-07T0000,18,47,0.3,10,4,63,89,47,
曲靖市,环境监测站,103.7897,25.5036,2026-03-07T0000,46,63,0.6,8,6,96,132,72,细颗粒物(PM2.5)
曲靖市,烟厂办公区,103.8013,25.5357,2026-03-07T0000,46,61,0.7,8,3,80,115,72,细颗粒物(PM2.5)
曲靖市,南苑二区,103.7926,25.4651,2026-03-07T0000,44,65,0.7,10,3,83,112,68,细颗粒物(PM2.5)
曲靖市,曲靖师范学院,103.7442,25.5259,2026-03-07T0000,54,NA,0.5,9,2,88,128,88,细颗粒物(PM2.5)
衢州市,环保大楼,118.8694,28.94,2026-03-07T0000,42,58,/,25,/,62,101,64,细颗粒物(PM2.5)
衢州市,衢州学院,118.8622,28.9809,2026-03-07T0000,74,NA,0.6,29,4,NA,101,113,细颗粒物(PM2.5)
衢州市,衢州三中,118.9646,28.9832,2026-03-07T0000,39,57,0.7,29,5,50,91,58,细颗粒物(PM2.5)
泉州市,涂山街,118.5818,24.9116,2026-03-07T0000,24,41,0.6,10,3,88,74,41,
泉州市,津头埔,118.597,24.8976,2026-03-07T0000,25,42,0.5,11,2,96,81,42,
泉州市,万安,118.6669,24.9422,2026-03-07T0000,22,44,0.6,11,3,87,76,44,
泉州市,霞新路6号,118.6355,24.9148,2026-03-07T0000,19,32,0.5,11,/,86,76,32,
日喀则市,日喀则监测站,88.8873,29.2723,2026-03-07T0000,33,47,1.1,41,12,40,98,48,
日喀则市,林业技术推广中心,88.8775,29.2425,2026-03-07T0000,22,40,0.7,23,10,53,99,40,
日照市,监测站,119.4711,35.421,2026-03-07T0000,28,41,0.7,16,6,76,83,41,
日照市,市政府广场,119.523,35.4216,2026-03-07T0000,31,44,0.6,15,5,81,85,45,
日照市,港务局,119.5511,35.4113,2026-03-07T0000,30,46,0.6,17,4,80,85,46,
日照市,职业技术学院,119.5326,35.4627,2026-03-07T0000,30,41,0.7,17,6,80,85,43,
日照市,岚山环保分局,119.3267,35.1043,2026-03-07T0000,55,85,3.7,35,29,56,86,90,细颗粒物(PM2.5)
三门峡市,市政府,111.1922,34.7752,2026-03-07T0000,13,19,0.5,12,6,60,53,19,
三门峡市,开发区,111.1588,34.794,2026-03-07T0000,33,33,0.5,10,6,63,56,48,
三门峡市,三门峡市第一小学,111.1911,34.7829,2026-03-07T0000,24,NA,0.4,13,10,63,58,35,
三门峡市,富达温泉假日酒店,111.1031,34.719,2026-03-07T0000,17,19,0.5,17,8,54,48,25,
三明市,三钢,117.621,26.2626,2026-03-07T0000,17,NA,0.7,16,4,20,60,25,
三明市,三明二中,117.6352,26.2714,2026-03-07T0000,12,16,0.4,12,6,25,57,18,
三明市,三元区政府,117.6028,26.2377,2026-03-07T0000,21,21,0.7,27,4,10,61,30,
三亚市,河西子站,109.4962,18.2682,2026-03-07T0000,24,33,0.6,6,4,99,109,35,
三亚市,君悦子站,109.7348,18.3443,2026-03-07T0000,24,39,0.6,7,4,94,106,39,
三亚市,城东小学站,109.1714,18.3739,2026-03-07T0000,28,46,/,16,/,76,113,46,
山南市,山南监测站,91.7592,29.234,2026-03-07T0000,8,19,0.4,12,2,69,89,22,
山南市,山南人民医院,91.7701,29.2436,2026-03-07T0000,3,17,0.4,2,6,81,86,26,
汕头市,金平子站,116.6795,23.3666,2026-03-07T0000,19,33,0.6,9,5,81,91,33,
汕头市,龙湖子站,116.7248,23.3632,2026-03-07T0000,20,34,/,12,5,82,87,34,
汕头市,濠江子站,116.7257,23.2774,2026-03-07T0000,17,25,/,11,7,86,88,27,
汕头市,澄海子站,116.7518,23.4712,2026-03-07T0000,20,27,0.6,8,6,72,84,29,
汕头市,潮阳子站,116.6088,23.2539,2026-03-07T0000,16,19,0.4,5,6,87,92,28,
汕头市,潮南峡山,116.4539,23.2684,2026-03-07T0000,18,29,0.6,7,6,85,89,29,
汕头市,潮南子站,116.4069,23.2533,2026-03-07T0000,21,38,/,9,6,72,76,38,
汕尾市,市环保局,115.3653,22.7751,2026-03-07T0000,15,20,0.7,10,5,78,74,25,
汕尾市,新城中学,115.362,22.7926,2026-03-07T0000,16,25,0.6,9,6,75,67,25,
商洛市,监测站,109.9155,33.8714,2026-03-07T0000,11,18,0.9,17,4,39,43,18,
商洛市,商州区中学,109.9647,33.8486,2026-03-07T0000,13,NA,0.8,17,4,35,42,19,
商丘市,环境监测站,115.6701,34.4283,2026-03-07T0000,30,61,0.2,13,1,83,85,58,颗粒物(PM10)
商丘市,粮食局,115.6458,34.4047,2026-03-07T0000,33,66,0.3,13,2,76,83,62,颗粒物(PM10)
商丘市,梁园区档案局,115.6069,34.4465,2026-03-07T0000,24,53,0.3,13,2,82,86,53,颗粒物(PM10)
商丘市,北海东路185号,115.6701,34.3767,2026-03-07T0000,33,50,0.3,14,4,75,84,50,
商丘市,中山大街3号,115.6172,34.3704,2026-03-07T0000,32,53,0.3,17,5,75,86,53,颗粒物(PM10)
上海市,普陀,121.401,31.2382,2026-03-07T0000,25,35,0.5,15,5,84,81,36,
上海市,十五厂,121.4774,31.2043,2026-03-07T0000,24,36,0.8,18,9,84,84,36,
上海市,虹口,121.4673,31.3011,2026-03-07T0000,22,37,0.2,15,4,75,79,37,
上海市,静安监测站,121.4253,31.226,2026-03-07T0000,21,32,0.3,17,6,87,84,32,
上海市,浦东川沙,121.7029,31.1905,2026-03-07T0000,24,37,0.5,14,4,79,82,37,
上海市,浦东新区监测站,121.5339,31.229,2026-03-07T0000,19,30,0.6,15,6,77,80,30,
上海市,浦东张江,121.5776,31.2038,2026-03-07T0000,24,34,0.7,12,6,86,87,35,
上海市,宝山庙行,121.4242,31.3303,2026-03-07T0000,17,39,0.5,18,9,72,74,39,
上海市,崇明上实东滩,121.8789,31.4662,2026-03-07T0000,19,29,0.5,4,7,95,95,30,
上海市,嘉定南翔,121.316,31.2839,2026-03-07T0000,23,34,0.5,14,4,82,80,34,
上海市,金山新城,121.3357,30.7455,2026-03-07T0000,28,37,0.5,10,3,82,80,40,
上海市,闵行浦江,121.4996,31.0741,2026-03-07T0000,23,34,0.7,13,6,80,82,34,
上海市,青浦徐泾,121.2886,31.1663,2026-03-07T0000,23,36,0.5,16,4,93,92,36,
上海市,松江图书馆,121.2193,31.0382,2026-03-07T0000,27,43,0.6,15,6,80,86,43,
上海市,长宁仙霞,121.3904,31.206,2026-03-07T0000,22,35,0.4,10,7,85,79,35,
上海市,浦东惠南,121.7964,31.0507,2026-03-07T0000,21,33,0.6,12,4,84,84,33,
上海市,奉贤南桥新城,121.4891,30.925,2026-03-07T0000,29,39,0.5,11,3,84,85,42,
上海市,冠生园路458号,121.417401,31.16637,2026-03-07T0000,24,34,0.7,17,6,82,81,35,
上海市,宁武路151号,121.541914,31.268301,2026-03-07T0000,25,37,0.3,21,7,73,80,37,
上饶市,市监测站,117.9758,28.4439,2026-03-07T0000,42,63,/,24,6,58,104,64,细颗粒物(PM2.5)
上饶市,凤凰光学,117.9521,28.4637,2026-03-07T0000,42,59,0.7,20,7,53,98,64,细颗粒物(PM2.5)
上饶市,双创科技城,117.897,28.4316,2026-03-07T0000,45,55,0.8,17,4,63,104,70,细颗粒物(PM2.5)
上饶市,裕丰大道,118.190438,28.444845,2026-03-07T0000,42,62,0.6,12,11,71,104,64,细颗粒物(PM2.5)
韶关市,市八中,113.5821,24.7733,2026-03-07T0000,24,36,0.5,20,8,45,84,36,
韶关市,园林处,113.5916,24.7973,2026-03-07T0000,28,35,/,25,6,51,90,40,
韶关市,曲江监测站,113.5971,24.6864,2026-03-07T0000,31,46,0.9,32,6,20,87,46,
韶关市,大学路288号,113.6668,24.7756,2026-03-07T0000,20,28,/,9,7,50,85,29,
韶关市,碧湖山庄,113.5556,24.8082,2026-03-07T0000,30,40,0.8,10,7,75,92,43,
邵阳市,市化工厂,111.5277,27.2442,2026-03-07T0000,59,67,0.8,12,5,60,87,98,细颗粒物(PM2.5)
邵阳市,市环保局,111.4327,27.2276,2026-03-07T0000,61,NA,NA,11,6,66,89,101,细颗粒物(PM2.5)
邵阳市,北塔二期4-26地块,111.446,27.2472,2026-03-07T0000,58,NA,0.9,11,8,66,85,96,细颗粒物(PM2.5)
邵阳市,邵水西路287号,111.4739,27.2282,2026-03-07T0000,57,NA,0.8,14,6,63,88,94,细颗粒物(PM2.5)
绍兴市,城东开发委,120.6053,29.9927,2026-03-07T0000,44,64,0.7,21,8,54,79,68,细颗粒物(PM2.5)
绍兴市,树下王站,120.5482,30.0003,2026-03-07T0000,50,61,0.6,19,6,56,82,80,细颗粒物(PM2.5)
绍兴市,绍兴中专,120.5685,29.936,2026-03-07T0000,40,63,0.8,19,7,59,88,60,"颗粒物(PM10),细颗粒物(PM2.5)"
绍兴市,柯桥区政府,120.4905,30.086,2026-03-07T0000,48,72,0.6,21,5,54,86,76,细颗粒物(PM2.5)
绍兴市,重华小学,120.8751,30.0249,2026-03-07T0000,44,66,0.6,15,7,74,83,68,细颗粒物(PM2.5)
绍兴市,上虞中学,120.837,30.0137,2026-03-07T0000,48,73,0.6,15,7,74,82,76,细颗粒物(PM2.5)
绍兴市,柯桥妇保,120.4715,30.0414,2026-03-07T0000,50,66,0.6,20,6,51,79,80,细颗粒物(PM2.5)
绍兴市,袍江中学,120.6156,30.0762,2026-03-07T0000,57,77,0.7,16,8,60,82,94,细颗粒物(PM2.5)
深圳市,通心岭子站,114.0948,22.5506,2026-03-07T0000,18,25,0.6,20,5,37,92,26,
深圳市,洪湖,114.1153,22.5713,2026-03-07T0000,15,22,0.7,17,5,44,86,22,
深圳市,华侨城,113.9823,22.5398,2026-03-07T0000,18,25,/,20,/,36,101,26,
深圳市,南海子站,113.9181,22.517,2026-03-07T0000,20,27,0.6,18,6,44,113,29,
深圳市,盐田,114.2345,22.565,2026-03-07T0000,18,26,0.6,22,6,40,72,26,
深圳市,南澳,114.4911,22.5381,2026-03-07T0000,12,20,/,6,/,71,79,23,
深圳市,葵涌,114.41,22.6346,2026-03-07T0000,13,22,0.7,14,7,31,73,22,
深圳市,梅沙,114.2967,22.5978,2026-03-07T0000,16,25,/,14,/,39,82,25,
深圳市,观澜,114.0563,22.7353,2026-03-07T0000,18,29,0.8,16,5,46,104,29,
深圳市,莲花,114.0614,22.556,2026-03-07T0000,18,24,/,21,/,28,86,26,
深圳市,民治,114.0144,22.6163,2026-03-07T0000,16,25,/,14,/,44,96,25,
深圳市,横岗,114.1756,22.6421,2026-03-07T0000,21,27,/,13,/,44,87,30,
深圳市,坪山,114.344,22.7115,2026-03-07T0000,16,24,0.6,12,4,46,80,24,
深圳市,西乡,113.8952,22.586,2026-03-07T0000,15,23,0.7,13,6,45,115,23,
深圳市,黄阁路,114.214113,22.713717,2026-03-07T0000,15,20,0.9,12,6,48,84,22,
沈阳市,浑南东路,123.5058,41.7084,2026-03-07T0000,15,29,0.4,25,18,54,76,29,
沈阳市,新秀街,123.4238,41.6992,2026-03-07T0000,8,16,0.4,16,7,72,86,23,
沈阳市,东陵路,123.5903,41.8412,2026-03-07T0000,25,33,0.5,40,4,25,81,36,
沈阳市,陵东街,123.4267,41.8466,2026-03-07T0000,9,24,0.5,20,8,63,84,24,
沈阳市,文化路,123.4116,41.7654,2026-03-07T0000,9,25,0.5,19,13,66,78,25,
沈阳市,小河沿,123.4673,41.787,2026-03-07T0000,10,28,0.6,17,19,63,84,28,
沈阳市,太原街,123.4019,41.7978,2026-03-07T0000,13,26,0.3,17,7,74,99,26,
沈阳市,京沈街,123.3778,41.9233,2026-03-07T0000,13,19,0.6,17,15,65,86,21,
沈阳市,沈辽西路,123.2429,41.7341,2026-03-07T0000,32,50,0.6,43,9,41,74,50,
沈阳市,裕农路,123.5951,41.9085,2026-03-07T0000,26,36,0.6,40,9,37,83,38,
十堰市,滨河新村,110.78,32.6494,2026-03-07T0000,28,30,1.2,18,/,36,60,40,
十堰市,刘家沟,110.7305,32.6408,2026-03-07T0000,29,NA,/,14,/,36,69,42,
十堰市,铁二处,110.8843,32.5712,2026-03-07T0000,44,NA,1.2,16,5,27,38,68,细颗粒物(PM2.5)
十堰市,郧阳区金沙路,110.8053,32.8401,2026-03-07T0000,23,36,1.1,12,5,36,48,36,
石河子市,艾青诗歌馆,86.0391,44.298,2026-03-07T0000,108,140,1.1,29,10,123,140,144,细颗粒物(PM2.5)
石河子市,南区管委会,86.047,44.2331,2026-03-07T0000,70,106,1.0,21,7,121,139,110,细颗粒物(PM2.5)
石河子市,世纪广场,86.0791,44.3018,2026-03-07T0000,125,147,1.3,36,10,133,154,165,细颗粒物(PM2.5)
石河子市,城南景苑小区,86.0126,44.2349,2026-03-07T0000,70,101,0.9,15,7,138,152,110,细颗粒物(PM2.5)
石家庄市,高新区,114.5919,38.0328,2026-03-07T0000,66,NA,0.5,17,4,57,76,106,细颗粒物(PM2.5)
石家庄市,西南高教,114.4556,38.0136,2026-03-07T0000,47,69,0.4,23,3,56,78,74,细颗粒物(PM2.5)
石家庄市,世纪公园,114.533,38.0177,2026-03-07T0000,39,69,0.5,12,1,57,73,64,颗粒物(PM10)
石家庄市,人民会堂,114.5105,38.0489,2026-03-07T0000,39,60,0.5,8,3,66,74,58,"颗粒物(PM10),细颗粒物(PM2.5)"
石家庄市,鹿泉一中,114.2887,38.0905,2026-03-07T0000,46,55,0.5,6,1,61,72,72,细颗粒物(PM2.5)
石家庄市,栾城区星河路,114.6491,37.9014,2026-03-07T0000,53,NA,0.6,28,1,59,76,86,细颗粒物(PM2.5)
石家庄市,裕华西路63号,114.4563,38.0365,2026-03-07T0000,46,61,0.5,23,2,57,77,72,细颗粒物(PM2.5)
石家庄市,和平路363号,114.5586,38.0581,2026-03-07T0000,45,60,0.5,18,3,59,76,70,细颗粒物(PM2.5)
石家庄市,廉州西路160号,114.8347,38.0213,2026-03-07T0000,62,72,0.8,23,1,42,76,102,细颗粒物(PM2.5)
石家庄市,北城路41号,114.4498,38.0729,2026-03-07T0000,39,83,0.4,25,3,56,81,74,颗粒物(PM10)
石家庄市,矿区区委大楼,114.0494,38.059,2026-03-07T0000,43,90,0.6,45,9,23,70,79,颗粒物(PM10)
石嘴山市,大武口朝阳西街,106.3668,39.0145,2026-03-07T0000,13,44,0.4,15,8,57,81,44,
石嘴山市,惠农南大街,106.7713,39.2278,2026-03-07T0000,11,44,0.3,28,10,43,84,44,
石嘴山市,红果子镇惠新街,106.7074,39.1332,2026-03-07T0000,22,48,0.4,24,3,44,84,48,
石嘴山市,妇女儿童医院,106.3495,38.9837,2026-03-07T0000,9,80,0.5,19,8,54,80,72,颗粒物(PM10)
石嘴山市,石大公路,106.7495,39.2068,2026-03-07T0000,20,51,0.3,22,6,44,78,51,颗粒物(PM10)
双鸭山市,双合村,131.1509,46.6936,2026-03-07T0000,33,67,1.0,25,9,39,41,63,颗粒物(PM10)
双鸭山市,南小市,131.1651,46.6191,2026-03-07T0000,47,NA,0.9,26,3,29,77,74,细颗粒物(PM2.5)
双鸭山市,环保局,131.1526,46.6554,2026-03-07T0000,37,56,0.6,44,6,24,79,55,颗粒物(PM10)
朔州市,平朔,112.4399,39.3521,2026-03-07T0000,71,170,0.7,42,11,10,78,120,颗粒物(PM10)
朔州市,朔唯,112.4574,39.362,2026-03-07T0000,70,137,/,40,23,19,73,110,细颗粒物(PM2.5)
朔州市,区政府,112.426,39.3199,2026-03-07T0000,40,79,0.5,32,10,22,77,71,颗粒物(PM10)
朔州市,市环保局,112.4075,39.3277,2026-03-07T0000,36,71,/,30,7,29,70,65,颗粒物(PM10)
朔州市,市二中,112.4273,39.3682,2026-03-07T0000,58,154,/,28,12,24,84,114,颗粒物(PM10)
朔州市,一水厂,112.2938,39.5296,2026-03-07T0000,17,67,0.4,36,3,25,68,63,颗粒物(PM10)
四平市,境园,124.3744,43.1842,2026-03-07T0000,44,59,0.8,51,4,3,82,68,细颗粒物(PM2.5)
四平市,植物园,124.4029,43.1411,2026-03-07T0000,50,NA,0.8,55,6,13,85,80,细颗粒物(PM2.5)
四平市,世纪城,124.3286,43.1726,2026-03-07T0000,46,73,0.6,51,7,20,82,72,细颗粒物(PM2.5)
松原市,江南,124.8007,45.1213,2026-03-07T0000,40,45,0.6,28,1,40,74,60,细颗粒物(PM2.5)
松原市,江北,124.7967,45.1721,2026-03-07T0000,18,34,0.4,30,1,41,80,34,
苏州市,轧钢厂,120.5974,31.3247,2026-03-07T0000,22,34,0.6,12,8,80,70,34,
苏州市,吴中区,120.6329,31.2741,2026-03-07T0000,24,43,0.6,18,6,68,71,43,
苏州市,苏州新区,120.5566,31.3049,2026-03-07T0000,24,39,0.6,14,7,83,77,39,
苏州市,苏州工业园区,120.668709,31.312523,2026-03-07T0000,23,42,0.5,19,6,79,80,42,
苏州市,相城区,120.6408,31.3707,2026-03-07T0000,21,43,0.6,14,5,83,78,43,
苏州市,方洲路,120.7431,31.3188,2026-03-07T0000,23,43,0.7,20,6,72,82,43,
苏州市,木渎中学,120.4979,31.2777,2026-03-07T0000,26,53,0.5,14,6,80,76,53,颗粒物(PM10)
苏州市,越秀幼儿园,120.642,31.1733,2026-03-07T0000,27,73,0.6,16,5,73,81,67,颗粒物(PM10)
苏州市,高铁新城,120.6502,31.4117,2026-03-07T0000,26,41,0.6,13,5,82,77,41,
苏州市,学森路9号,120.4282,31.3228,2026-03-07T0000,25,44,0.7,20,5,65,66,44,
宿迁市,宿迁学院,118.2924,33.933,2026-03-07T0000,51,72,0.6,16,4,73,86,82,细颗粒物(PM2.5)
宿迁市,宿迁中学,118.2321,33.9572,2026-03-07T0000,59,74,0.6,10,4,74,87,98,细颗粒物(PM2.5)
宿迁市,市供电局,118.2781,33.9658,2026-03-07T0000,55,72,0.6,12,4,75,93,90,细颗粒物(PM2.5)
宿迁市,宿豫区政府,118.3243,33.95,2026-03-07T0000,59,73,0.5,9,6,66,87,98,细颗粒物(PM2.5)
宿迁市,春华路,118.352,33.7886,2026-03-07T0000,57,64,0.4,13,4,72,80,94,细颗粒物(PM2.5)
宿州市,远航博物馆,116.9508,33.666,2026-03-07T0000,57,81,0.5,26,1,53,70,94,细颗粒物(PM2.5)
宿州市,社会福利中心,116.9708,33.5911,2026-03-07T0000,65,84,0.4,30,5,50,58,105,细颗粒物(PM2.5)
宿州市,皖北煤电集团,116.9647,33.6252,2026-03-07T0000,52,92,0.7,25,3,48,60,84,细颗粒物(PM2.5)
宿州市,中兴路,116.9929,33.6412,2026-03-07T0000,54,85,0.6,25,3,50,62,88,细颗粒物(PM2.5)
绥化市,人和东街,126.9783,46.6365,2026-03-07T0000,39,39,0.5,13,5,82,91,58,细颗粒物(PM2.5)
绥化市,党政办公中心,126.964,46.6527,2026-03-07T0000,39,42,0.4,16,4,86,95,58,细颗粒物(PM2.5)
随州市,市委党校,113.3587,31.7275,2026-03-07T0000,58,81,0.6,18,2,52,80,96,细颗粒物(PM2.5)
随州市,市林业局,113.3745,31.6926,2026-03-07T0000,62,84,0.9,11,3,56,88,102,细颗粒物(PM2.5)
随州市,市立交桥水厂,113.3984,31.7309,2026-03-07T0000,66,83,0.8,16,1,58,89,106,细颗粒物(PM2.5)
遂宁市,市监测站,105.5581,30.5231,2026-03-07T0000,24,42,0.5,35,7,32,83,42,
遂宁市,美宁食品公司,105.5917,30.4727,2026-03-07T0000,28,49,0.8,29,6,24,76,49,
遂宁市,环岛商务中心9号楼,105.5911,30.5368,2026-03-07T0000,27,42,0.6,28,5,41,79,42,
塔城地区,东门外小游园,82.9993,46.7432,2026-03-07T0000,15,40,0.4,8,2,73,72,40,
塔城地区,文化广场,82.9716,46.7464,2026-03-07T0000,27,NA,0.8,8,2,72,77,39,
台州市,黄岩环保大楼,121.2727,28.6461,2026-03-07T0000,28,38,/,26,/,56,96,40,
台州市,台州环保大楼,121.4188,28.6545,2026-03-07T0000,28,40,0.5,13,/,79,102,40,
台州市,路桥田洋王,121.3768,28.5772,2026-03-07T0000,25,39,0.5,15,4,78,100,39,
台州市,台州科技职业学院,121.25678,28.66823971,2026-03-07T0000,24,43,0.5,18,6,70,96,43,
太原市,尖草坪,112.5138,37.8916,2026-03-07T0000,32,52,0.4,29,3,41,72,52,颗粒物(PM10)
太原市,晋源,112.4691,37.7125,2026-03-07T0000,36,57,0.5,22,4,47,71,55,颗粒物(PM10)
太原市,小店,112.5595,37.7391,2026-03-07T0000,39,83,0.6,27,7,45,75,74,颗粒物(PM10)
太原市,坞城,112.5705,37.8199,2026-03-07T0000,33,70,0.6,22,6,53,74,65,颗粒物(PM10)
太原市,南寨,112.5495,37.9853,2026-03-07T0000,37,54,0.6,21,4,28,76,54,细颗粒物(PM2.5)
太原市,金胜,112.4702,37.7821,2026-03-07T0000,43,84,0.5,32,4,38,70,75,颗粒物(PM10)
太原市,育英中学,112.5608,37.8807,2026-03-07T0000,36,74,0.6,23,7,51,71,68,颗粒物(PM10)
太原市,西矿街336号,112.449,37.8509,2026-03-07T0000,32,61,0.5,24,3,39,73,58,颗粒物(PM10)
太原市,迎宾北路9号,112.4792,37.9393,2026-03-07T0000,26,62,0.5,26,5,38,78,59,颗粒物(PM10)
太原市,迎泽大街248号,112.551,37.8575,2026-03-07T0000,44,66,0.6,23,1,50,70,68,细颗粒物(PM2.5)
泰安市,监测站,117.1436,36.1938,2026-03-07T0000,42,56,0.5,12,1,78,86,64,细颗粒物(PM2.5)
泰安市,人口学校,117.0905,36.2002,2026-03-07T0000,39,56,0.5,13,4,75,86,58,细颗粒物(PM2.5)
泰安市,电力学校,117.0992,36.1757,2026-03-07T0000,43,53,0.3,8,2,79,88,66,细颗粒物(PM2.5)
泰安市,国网新校,117.1812,36.2273,2026-03-07T0000,40,44,0.6,9,3,76,87,60,细颗粒物(PM2.5)
泰安市,交通技校,117.0315,36.2017,2026-03-07T0000,37,44,0.4,14,2,71,90,54,细颗粒物(PM2.5)
泰安市,山东第一医科大学,117.083,36.13,2026-03-07T0000,47,63,0.5,26,2,58,87,74,细颗粒物(PM2.5)
泰州市,公园路,119.9042,32.488,2026-03-07T0000,33,41,0.4,11,4,84,83,48,
泰州市,莲花,119.9189,32.4626,2026-03-07T0000,34,46,0.5,11,7,85,85,49,
泰州市,留学生创业园,119.8877,32.4636,2026-03-07T0000,30,51,0.8,12,10,83,82,51,颗粒物(PM10)
泰州市,王营,119.8767,32.3291,2026-03-07T0000,31,53,0.5,14,7,91,89,53,颗粒物(PM10)
泰州市,姜堰区政府广场,120.1226,32.515,2026-03-07T0000,39,47,0.5,NA,6,86,86,NA,NA
泰州市,周山河街区,119.9186,32.4322,2026-03-07T0000,32,51,0.5,9,8,79,80,51,颗粒物(PM10)
唐山市,十二中,118.1707,39.6505,2026-03-07T0000,41,56,0.8,20,2,34,84,62,细颗粒物(PM2.5)
唐山市,小山,118.1868,39.6219,2026-03-07T0000,48,57,0.7,19,2,34,86,76,细颗粒物(PM2.5)
唐山市,冀东油田职工医院,118.4357,39.277,2026-03-07T0000,41,76,0.9,46,6,30,89,69,颗粒物(PM10)
唐山市,正泰大街热力站,118.0927,39.5807,2026-03-07T0000,59,85,0.9,22,3,25,81,98,细颗粒物(PM2.5)
唐山市,丰润区政府,118.1561,39.8322,2026-03-07T0000,57,86,1.1,37,2,14,88,94,细颗粒物(PM2.5)
唐山市,金山小学,118.436906,39.73802,2026-03-07T0000,55,80,0.9,32,8,29,92,90,细颗粒物(PM2.5)
唐山市,政府服务中心,118.2449,39.6693,2026-03-07T0000,51,76,1.1,26,3,6,80,82,细颗粒物(PM2.5)
唐山市,消防缸窑路中队,118.2043,39.6703,2026-03-07T0000,40,64,0.8,15,7,38,93,60,"颗粒物(PM10),细颗粒物(PM2.5)"
唐山市,路南电大,118.1432,39.6203,2026-03-07T0000,56,77,0.8,20,2,27,79,92,细颗粒物(PM2.5)
唐山市,光明北路515号,118.1267,39.6579,2026-03-07T0000,54,72,0.6,19,3,58,86,88,细颗粒物(PM2.5)
唐山市,友谊北路34号,118.130859,39.636026,2026-03-07T0000,57,75,1.1,18,2,41,87,94,细颗粒物(PM2.5)
天津市,勤俭道,117.1446,39.1659,2026-03-07T0000,59,74,0.8,35,6,42,75,98,细颗粒物(PM2.5)
天津市,前进道,117.2016,39.0928,2026-03-07T0000,57,76,0.7,36,6,43,81,94,细颗粒物(PM2.5)
天津市,淮河道,117.1837,39.2134,2026-03-07T0000,58,76,0.9,54,7,21,79,96,细颗粒物(PM2.5)
天津市,跃进路,117.308261,39.088386,2026-03-07T0000,55,73,0.7,48,4,28,77,90,细颗粒物(PM2.5)
天津市,第四大街,117.707,39.0344,2026-03-07T0000,49,74,0.8,79,5,12,52,78,细颗粒物(PM2.5)
天津市,永明路,117.4573,38.8395,2026-03-07T0000,46,56,0.7,46,7,41,66,72,细颗粒物(PM2.5)
天津市,汉北路,117.7641,39.1588,2026-03-07T0000,44,75,1.0,74,6,13,62,68,"颗粒物(PM10),细颗粒物(PM2.5)"
天津市,河西一经路,117.7917,39.2473,2026-03-07T0000,50,72,0.8,93,9,4,78,80,细颗粒物(PM2.5)
天津市,津沽路,117.3747,38.9845,2026-03-07T0000,62,79,0.8,57,6,21,68,102,细颗粒物(PM2.5)
天津市,宾水西道,117.159,39.0844,2026-03-07T0000,64,78,0.8,30,5,38,71,104,细颗粒物(PM2.5)
天津市,大理道,117.194,39.1069,2026-03-07T0000,58,72,0.8,32,6,48,82,96,细颗粒物(PM2.5)
天津市,中山北路,117.2096,39.1698,2026-03-07T0000,56,72,0.6,35,6,34,73,92,细颗粒物(PM2.5)
天津市,西四道,117.385,39.1483,2026-03-07T0000,54,72,0.7,46,6,32,69,88,细颗粒物(PM2.5)
天津市,雍阳西道,117.0362,39.3827,2026-03-07T0000,58,82,0.7,33,6,39,82,96,细颗粒物(PM2.5)
天津市,辛老路,117.0291,39.0612,2026-03-07T0000,64,80,0.7,35,6,33,74,104,细颗粒物(PM2.5)
天津市,地纬路,116.9638,38.9374,2026-03-07T0000,60,80,0.6,44,8,22,73,100,细颗粒物(PM2.5)
天津市,北环路,117.4065,40.0583,2026-03-07T0000,27,35,0.6,21,3,42,76,39,
天津市,建设路,117.3041,39.7167,2026-03-07T0000,63,80,1.9,54,8,19,77,103,细颗粒物(PM2.5)
天津市,滨水东路,117.8201,39.3519,2026-03-07T0000,43,73,0.9,77,9,15,78,67,颗粒物(PM10)
天津市,光华路,117.24369,39.102911,2026-03-07T0000,62,80,1.0,38,3,36,73,102,细颗粒物(PM2.5)
天水市,公园小学,105.72058,34.57859,2026-03-07T0000,40,60,0.6,23,11,82,100,60,细颗粒物(PM2.5)
天水市,麦积国土局,105.89428,34.55353,2026-03-07T0000,50,85,0.7,27,14,80,95,80,细颗粒物(PM2.5)
铁岭市,水上乐园,123.865,42.292,2026-03-07T0000,20,31,0.6,51,7,27,80,31,
铁岭市,金沙江路北,123.7158,42.2218,2026-03-07T0000,17,26,0.5,14,7,59,81,26,
铁岭市,新华街20号,123.835,42.2853,2026-03-07T0000,24,50,0.5,20,11,50,80,50,
通化市,光明,125.9359,41.7174,2026-03-07T0000,23,37,0.6,14,8,57,88,37,
通化市,铁路,125.9446,41.7323,2026-03-07T0000,21,39,0.4,14,6,61,89,39,
通辽市,艺术职业学校,122.253,43.6801,2026-03-07T0000,17,57,0.5,16,7,64,88,55,颗粒物(PM10)
通辽市,老干部活动中心,122.2584,43.6333,2026-03-07T0000,17,33,0.4,15,13,66,84,33,
通辽市,东方明珠社区,122.2923,43.6189,2026-03-07T0000,15,47,0.4,14,19,70,83,47,
铜川市,王益区政府,109.0696,35.0699,2026-03-07T0000,16,23,0.4,10,2,54,75,23,
铜川市,新区管委会,108.9345,34.9059,2026-03-07T0000,26,28,0.9,16,2,40,65,38,
铜川市,大唐三路,108.949652,34.870529,2026-03-07T0000,24,NA,0.7,12,1,49,72,35,
铜陵市,市第四中学,117.8176,30.9412,2026-03-07T0000,73,103,0.6,18,6,61,95,112,细颗粒物(PM2.5)
铜陵市,市新民污水厂,117.7806,30.9413,2026-03-07T0000,73,96,0.7,17,5,60,92,112,细颗粒物(PM2.5)
铜陵市,车站新区,117.846,30.9414,2026-03-07T0000,66,118,0.7,20,6,60,96,106,细颗粒物(PM2.5)
铜陵市,市职教基地,117.8472,30.9699,2026-03-07T0000,70,104,0.6,14,7,64,95,110,细颗粒物(PM2.5)
铜仁市,铜仁卫校,109.1839,27.7344,2026-03-07T0000,32,43,0.8,19,2,39,70,46,
铜仁市,铜仁七中,109.1752,27.6945,2026-03-07T0000,34,43,0.7,15,1,39,59,49,
吐鲁番市,市环保局,89.1905,42.9419,2026-03-07T0000,70,108,1.1,44,3,50,95,110,细颗粒物(PM2.5)
吐鲁番市,地区环保局,89.1674,42.9558,2026-03-07T0000,66,132,1.1,32,5,48,93,106,细颗粒物(PM2.5)
威海市,华夏技校,122.121,37.4231,2026-03-07T0000,8,12,0.5,10,/,86,91,27,
威海市,山大分校,122.0508,37.5236,2026-03-07T0000,9,24,/,8,/,88,95,28,
威海市,市监测站,122.1067,37.5067,2026-03-07T0000,8,22,0.4,8,4,86,90,27,
威海市,文登开发区,122.0693,37.2175,2026-03-07T0000,10,26,/,7,/,84,92,27,
威海市,临港区管委会,122.1379,37.3414,2026-03-07T0000,9,22,0.3,6,4,86,95,27,
潍坊市,环保局,119.1436,36.7022,2026-03-07T0000,NA,NA,NA,NA,NA,NA,83,NA,NA
潍坊市,坊子邮政,119.1638,36.6524,2026-03-07T0000,12,34,0.5,17,15,78,83,34,
潍坊市,潍坊七中,119.0587,36.7209,2026-03-07T0000,12,29,0.4,8,5,88,84,29,
潍坊市,高新实验学校,119.1978,36.6871,2026-03-07T0000,12,39,0.1,11,48,85,84,39,
潍坊市,潍坊学院,119.1758,36.7139,2026-03-07T0000,11,24,0.3,12,57,81,86,26,
潍坊市,寒亭区实验一小,119.2046,36.7696,2026-03-07T0000,14,22,0.5,20,7,73,85,23,
渭南市,体育馆,109.4605,34.4927,2026-03-07T0000,37,39,0.7,18,4,44,67,54,细颗粒物(PM2.5)
渭南市,高新一小,109.4257,34.5067,2026-03-07T0000,39,NA,0.7,18,4,43,66,58,细颗粒物(PM2.5)
渭南市,桢州大街,110.4531,35.4578,2026-03-07T0000,46,NA,1.0,21,1,50,66,72,细颗粒物(PM2.5)
渭南市,太史大街,110.4368,35.4773,2026-03-07T0000,41,53,0.9,21,3,49,61,62,细颗粒物(PM2.5)
渭南市,渭花路4号,109.5051,34.4921,2026-03-07T0000,38,NA,0.7,18,5,42,63,56,细颗粒物(PM2.5)
温州市,瓯海,120.6342,28.0088,2026-03-07T0000,25,41,0.5,16,7,74,95,41,
温州市,南浦,120.6747,27.9881,2026-03-07T0000,26,38,0.6,18,6,82,107,38,
温州市,龙湾,120.76,27.9745,2026-03-07T0000,23,39,0.5,17,5,76,98,39,
温州市,茶山,120.6985,27.9252,2026-03-07T0000,30,41,/,18,/,84,108,43,
温州市,鹿城惠民路,120.6935,28.0114,2026-03-07T0000,24,42,0.5,16,/,74,99,42,
文山壮族苗族自治州,州水务局,104.2533,23.3595,2026-03-07T0000,18,34,0.5,8,7,65,75,34,
文山壮族苗族自治州,市便民服务中心,104.2319,23.3892,2026-03-07T0000,21,NA,0.6,7,6,69,74,30,
乌海市,市林业局,106.8172,39.6972,2026-03-07T0000,18,86,0.5,22,16,58,72,76,颗粒物(PM10)
乌海市,中海勃湾学校,106.7907,39.6666,2026-03-07T0000,14,61,0.7,36,24,49,78,58,颗粒物(PM10)
乌海市,海北新区,106.8129,39.7274,2026-03-07T0000,10,93,0.5,26,22,56,73,81,颗粒物(PM10)
乌海市,海拉北路,106.8212,39.6741,2026-03-07T0000,10,76,0.5,25,24,57,74,69,颗粒物(PM10)
乌兰察布市,集宁新区,113.1306,40.9924,2026-03-07T0000,23,29,0.5,37,6,42,85,33,
乌兰察布市,光明街小学,113.1076,41.0385,2026-03-07T0000,26,48,1.1,89,8,4,83,48,
乌兰察布市,北京八中,113.1383,40.9513,2026-03-07T0000,20,31,0.9,44,13,14,71,31,
乌兰察布市,市委党校,113.1776,40.9779,2026-03-07T0000,23,43,0.7,66,4,12,88,43,
乌鲁木齐市,监测站,87.5796,43.8299,2026-03-07T0000,64,78,1.1,58,5,72,114,104,细颗粒物(PM2.5)
乌鲁木齐市,收费所,87.6044,43.7679,2026-03-07T0000,49,62,0.8,60,5,57,104,78,细颗粒物(PM2.5)
乌鲁木齐市,铁路局,87.5529,43.8704,2026-03-07T0000,96,123,1.0,102,7,18,108,133,细颗粒物(PM2.5)
乌鲁木齐市,三十一中学,87.6408,43.8258,2026-03-07T0000,45,59,0.4,16,6,122,120,70,细颗粒物(PM2.5)
乌鲁木齐市,米东区环保局,87.7218,44.1747,2026-03-07T0000,97,117,1.0,28,12,108,124,134,细颗粒物(PM2.5)
乌鲁木齐市,培训基地,87.4652,43.4569,2026-03-07T0000,18,NA,0.4,14,5,94,110,30,
乌鲁木齐市,达坂城区环保局,88.3088,43.3637,2026-03-07T0000,29,43,0.6,26,8,74,96,43,
乌鲁木齐市,红光山片区,87.6132,43.8791,2026-03-07T0000,71,93,1.2,78,2,51,116,110,细颗粒物(PM2.5)
乌鲁木齐市,新师大温泉校区,87.7008,43.8003,2026-03-07T0000,38,46,0.5,20,7,122,128,56,细颗粒物(PM2.5)
乌鲁木齐市,大绿谷,87.4892,43.84,2026-03-07T0000,49,106,1.2,90,6,36,111,90,颗粒物(PM10)
无锡市,雪浪,120.2693,31.4864,2026-03-07T0000,20,46,0.5,18,7,75,74,46,
无锡市,黄巷,120.2761,31.621,2026-03-07T0000,19,44,0.5,13,5,67,64,44,
无锡市,漆塘,120.2422,31.5037,2026-03-07T0000,20,61,0.5,14,6,72,69,58,颗粒物(PM10)
无锡市,东亭,120.3489,31.5865,2026-03-07T0000,19,41,0.6,22,7,65,67,41,
无锡市,旺庄,120.3538,31.5474,2026-03-07T0000,19,43,0.6,17,4,72,70,43,
无锡市,荣巷,120.2447,31.5633,2026-03-07T0000,18,48,0.8,17,4,75,75,48,
无锡市,堰桥,120.2986,31.6816,2026-03-07T0000,21,46,0.5,14,4,72,68,46,
无锡市,清舒道1号,120.3138,31.4927,2026-03-07T0000,18,39,0.6,20,3,71,75,39,
无锡市,健康路105号,120.2925,31.5685,2026-03-07T0000,17,46,0.7,14,5,71,69,46,
吴忠市,教育园区,106.1535,37.9648,2026-03-07T0000,18,76,0.4,26,7,40,82,69,颗粒物(PM10)
吴忠市,新区二泵站,106.1851,37.9957,2026-03-07T0000,23,79,0.5,21,6,49,76,71,颗粒物(PM10)
吴忠市,文卫南街,106.2176,37.9832,2026-03-07T0000,24,79,0.4,27,7,NA,82,NA,NA
芜湖市,监测站,118.3603,31.3515,2026-03-07T0000,67,102,0.7,20,7,57,87,107,细颗粒物(PM2.5)
芜湖市,科创中心,118.3716,31.4135,2026-03-07T0000,70,110,0.8,18,6,58,87,110,细颗粒物(PM2.5)
芜湖市,四水厂,118.3671,31.3132,2026-03-07T0000,66,104,0.9,21,5,62,94,106,细颗粒物(PM2.5)
芜湖市,市气象局,118.4209,31.3704,2026-03-07T0000,59,100,0.8,14,5,61,96,98,细颗粒物(PM2.5)
芜湖市,清苑社区,118.4783,31.3226,2026-03-07T0000,66,102,0.8,27,5,54,88,106,细颗粒物(PM2.5)
芜湖市,扬子职业技术学院,118.2746,31.2326,2026-03-07T0000,71,102,0.8,21,7,63,94,110,细颗粒物(PM2.5)
芜湖市,湾沚区人民法院,118.5726,31.1371,2026-03-07T0000,63,86,0.9,25,8,53,86,103,细颗粒物(PM2.5)
梧州市,市十一中,111.3126,23.4772,2026-03-07T0000,28,49,0.7,47,9,5,77,49,
梧州市,龙新,111.26,23.4794,2026-03-07T0000,24,71,0.3,48,5,1,88,65,颗粒物(PM10)
梧州市,政贤路18号,111.2416,23.4155,2026-03-07T0000,28,57,0.6,41,5,1,67,55,颗粒物(PM10)
五家渠市,农水大厦,87.5352,44.1606,2026-03-07T0000,86,100,0.9,13,8,97,114,124,细颗粒物(PM2.5)
五家渠市,经开区管委会,87.5461,44.1909,2026-03-07T0000,77,97,0.9,18,8,107,122,116,细颗粒物(PM2.5)
五家渠市,建设西街760号,87.055284,43.999117,2026-03-07T0000,85,119,1.1,37,8,87,153,123,细颗粒物(PM2.5)
武汉市,东湖梨园,114.3676,30.5584,2026-03-07T0000,56,71,0.8,43,8,33,65,92,细颗粒物(PM2.5)
武汉市,汉阳月湖,114.2527,30.5578,2026-03-07T0000,76,NA,0.7,29,4,41,65,115,细颗粒物(PM2.5)
武汉市,汉口花桥,114.2819,30.6189,2026-03-07T0000,74,NA,0.6,30,3,54,59,113,细颗粒物(PM2.5)
武汉市,武昌紫阳,114.3024,30.5332,2026-03-07T0000,73,78,0.9,28,9,49,68,112,细颗粒物(PM2.5)
武汉市,青山钢花,114.3646,30.6217,2026-03-07T0000,62,72,0.9,32,7,48,62,102,细颗粒物(PM2.5)
武汉市,沌口新区,114.156697,30.482592,2026-03-07T0000,67,78,0.9,59,10,31,57,107,细颗粒物(PM2.5)
武汉市,汉口江滩,114.3013,30.5944,2026-03-07T0000,64,73,0.6,32,6,52,61,104,细颗粒物(PM2.5)
武汉市,吴家山,114.1285,30.6339,2026-03-07T0000,77,NA,0.8,32,4,44,56,116,细颗粒物(PM2.5)
武汉市,民族大道182号,114.3876,30.4908,2026-03-07T0000,65,80,0.9,39,7,26,70,105,细颗粒物(PM2.5)
武威市,监测站,102.6203,37.925,2026-03-07T0000,140,204,1.4,67,11,15,99,186,细颗粒物(PM2.5)
武威市,钟楼街149号,102.6447,37.9293,2026-03-07T0000,93,151,1.0,31,14,66,101,130,细颗粒物(PM2.5)
西安市,兴庆小区,108.9931,34.2629,2026-03-07T0000,31,34,1.0,19,4,27,62,45,
西安市,纺织城,109.0595,34.2569,2026-03-07T0000,34,41,0.8,19,4,29,53,49,
西安市,小寨,108.9377,34.2178,2026-03-07T0000,34,55,0.7,21,4,27,56,54,颗粒物(PM10)
西安市,市人民体育场,108.9522,34.2739,2026-03-07T0000,34,NA,1.1,17,4,28,68,49,
西安市,高新西区,108.8923,34.2322,2026-03-07T0000,31,46,1.0,19,3,29,67,46,
西安市,经开区,108.9386,34.3446,2026-03-07T0000,27,30,0.7,18,2,34,68,39,
西安市,长安区,108.894,34.1557,2026-03-07T0000,38,51,0.9,21,4,25,58,56,细颗粒物(PM2.5)
西安市,临潼区,109.213,34.3748,2026-03-07T0000,38,44,0.9,18,4,30,64,56,细颗粒物(PM2.5)
西安市,广运潭,109.0508,34.321,2026-03-07T0000,30,37,1.0,18,1,31,64,43,
西安市,无线电监控中心,109.1019,34.5302,2026-03-07T0000,28,NA,0.7,13,3,37,62,40,
西安市,行知小学,108.8869,34.2662,2026-03-07T0000,34,46,1.0,19,4,28,65,49,
西安市,西苑北路977号,108.596239,34.118792,2026-03-07T0000,39,54,1.2,26,5,26,67,58,细颗粒物(PM2.5)
西安市,曲江池东路988号,108.9817,34.2035,2026-03-07T0000,37,44,1.0,20,4,34,62,54,细颗粒物(PM2.5)
西宁市,城北区政府,101.7775,36.643,2026-03-07T0000,32,81,0.8,20,21,83,97,73,颗粒物(PM10)
西宁市,世纪职校,101.8304,36.5785,2026-03-07T0000,40,76,0.8,11,24,86,92,69,颗粒物(PM10)
西宁市,海晏路105号,101.6769,36.6535,2026-03-07T0000,35,76,0.4,15,18,80,83,69,颗粒物(PM10)
西双版纳傣族自治州,景洪市江南,100.8018,21.9995,2026-03-07T0000,42,71,0.9,11,7,63,86,65,颗粒物(PM10)
西双版纳傣族自治州,景洪市江北,100.7995,22.0238,2026-03-07T0000,48,66,0.6,10,6,64,99,76,细颗粒物(PM2.5)
锡林郭勒盟,市环保监测站,116.1048,43.9318,2026-03-07T0000,3,14,0.3,7,4,68,76,22,
锡林郭勒盟,市政府,116.0778,43.9312,2026-03-07T0000,6,21,0.2,5,3,80,85,25,
厦门市,洪文,118.1519,24.4768,2026-03-07T0000,24,43,0.5,12,2,102,83,43,
厦门市,鼓浪屿,118.0671,24.4447,2026-03-07T0000,26,42,/,10,3,103,82,42,
厦门市,湖里中学,118.0937,24.5054,2026-03-07T0000,24,43,0.5,9,1,104,78,43,
厦门市,集美中学,118.0961,24.5689,2026-03-07T0000,26,38,0.4,10,2,98,74,38,
厦门市,同安二实小,118.1502,24.7246,2026-03-07T0000,27,36,0.5,10,2,85,66,39,
咸宁市,长江产业园,114.3379,29.8683,2026-03-07T0000,34,47,0.9,20,6,80,82,49,
咸宁市,双鹤路18号,114.3182,29.8447,2026-03-07T0000,28,47,1.2,16,4,68,82,47,
咸宁市,碧桂路,114.284,29.8595,2026-03-07T0000,43,48,0.6,15,5,77,80,66,细颗粒物(PM2.5)
咸阳市,实验中学,108.6726,34.315,2026-03-07T0000,31,32,1.0,18,5,33,67,45,
咸阳市,师范学院,108.7226,34.3622,2026-03-07T0000,25,NA,0.8,17,3,35,65,36,
咸阳市,奥体中心,108.6394,34.408,2026-03-07T0000,22,32,0.8,14,2,38,68,32,
咸阳市,五陵塬路2号,108.6601,34.3767,2026-03-07T0000,27,36,0.8,20,3,36,70,39,
咸阳市,胭脂路9号,108.6372,34.3031,2026-03-07T0000,33,47,0.9,22,2,31,71,48,
咸阳市,杨扶路,108.0371,34.3035,2026-03-07T0000,26,NA,1.1,17,1,32,82,38,
咸阳市,新桥路,108.0895,34.2623,2026-03-07T0000,33,34,1.0,25,2,29,78,48,
湘潭市,板塘,112.9508,27.8626,2026-03-07T0000,52,79,0.6,56,2,17,61,84,细颗粒物(PM2.5)
湘潭市,市监测站,112.9114,27.8404,2026-03-07T0000,61,68,0.6,27,4,47,65,101,细颗粒物(PM2.5)
湘潭市,江麓,112.8935,27.8729,2026-03-07T0000,56,73,0.7,22,2,50,64,92,细颗粒物(PM2.5)
湘潭市,岳塘,112.9227,27.8159,2026-03-07T0000,56,66,0.6,30,2,44,66,92,细颗粒物(PM2.5)
湘潭市,科大,112.9073,27.9118,2026-03-07T0000,61,65,0.9,22,3,45,66,101,细颗粒物(PM2.5)
湘潭市,昭山,113.0048,27.9153,2026-03-07T0000,65,83,0.9,56,3,7,60,105,细颗粒物(PM2.5)
湘西土家族苗族自治州,州政府,109.7298,28.3164,2026-03-07T0000,36,42,0.4,15,3,32,56,52,细颗粒物(PM2.5)
湘西土家族苗族自治州,吉首市计生局,109.6957,28.2676,2026-03-07T0000,39,42,0.5,19,4,35,54,58,细颗粒物(PM2.5)
襄阳市,襄城运动路,112.1555,32.0197,2026-03-07T0000,81,127,0.9,20,8,30,66,120,细颗粒物(PM2.5)
襄阳市,高新管委会,112.1829,32.1146,2026-03-07T0000,92,125,0.9,29,8,34,62,130,细颗粒物(PM2.5)
襄阳市,襄州航空路,112.2105,32.0903,2026-03-07T0000,90,118,0.7,18,6,30,62,128,细颗粒物(PM2.5)
襄阳市,襄城隆中路,112.0764,32.0089,2026-03-07T0000,88,134,0.9,25,8,26,61,126,细颗粒物(PM2.5)
襄阳市,高新台子湾,112.1154,32.103,2026-03-07T0000,90,130,0.7,20,5,30,47,128,细颗粒物(PM2.5)
襄阳市,铁院东路4号,112.1433,32.0581,2026-03-07T0000,79,122,0.9,20,6,29,63,118,细颗粒物(PM2.5)
孝感市,东城区,113.9062,30.9378,2026-03-07T0000,60,73,0.7,24,4,53,91,100,细颗粒物(PM2.5)
孝感市,天仙南路1号,113.946,30.8999,2026-03-07T0000,54,81,0.5,13,2,66,80,88,细颗粒物(PM2.5)
忻州市,开发区,112.7313,38.457,2026-03-07T0000,30,41,0.7,19,6,52,77,43,
忻州市,会展中心,112.7023,38.4932,2026-03-07T0000,28,42,0.7,42,5,22,69,42,
忻州市,市政府,112.7279,38.4157,2026-03-07T0000,33,60,0.7,56,10,9,80,58,颗粒物(PM10)
辛集市,市政府,115.2124,37.9433,2026-03-07T0000,75,90,0.6,27,8,45,81,114,细颗粒物(PM2.5)
辛集市,城管大队,115.2008,37.9338,2026-03-07T0000,73,92,0.8,37,2,41,84,112,细颗粒物(PM2.5)
新乡市,环保西院,113.836,35.3104,2026-03-07T0000,38,44,0.6,20,4,59,69,56,细颗粒物(PM2.5)
新乡市,开发区,113.8847,35.2724,2026-03-07T0000,30,41,0.3,13,4,68,70,43,
新乡市,环保东院,113.8836,35.3028,2026-03-07T0000,23,48,0.5,10,3,66,68,48,
新乡市,市委党校,113.9194,35.2847,2026-03-07T0000,27,34,0.1,19,8,65,74,39,
新乡市,市政府,113.9189,35.3042,2026-03-07T0000,26,37,0.1,20,4,60,69,38,
新乡市,行政服务中心,113.9002,35.372,2026-03-07T0000,45,129,0.4,17,11,53,65,104,颗粒物(PM10)
新乡市,建设东路46号,113.916569,35.331547,2026-03-07T0000,37,40,0.1,16,8,44,58,54,细颗粒物(PM2.5)
新余市,飞宇,114.9887,27.8433,2026-03-07T0000,39,64,0.4,14,11,58,101,60,颗粒物(PM10)
新余市,第二水厂,114.9234,27.8248,2026-03-07T0000,44,62,0.6,12,8,59,103,68,细颗粒物(PM2.5)
新余市,市气象局,114.931,27.8037,2026-03-07T0000,38,51,0.3,18,2,40,107,56,细颗粒物(PM2.5)
新余市,新钢沁园村,114.9148,27.8069,2026-03-07T0000,32,68,0.4,16,14,64,109,63,颗粒物(PM10)
信阳市,平桥分局,114.1096,32.1059,2026-03-07T0000,80,NA,0.5,18,5,50,72,119,细颗粒物(PM2.5)
信阳市,南湾水厂,113.9956,32.1272,2026-03-07T0000,71,96,0.6,18,3,50,72,110,细颗粒物(PM2.5)
信阳市,市酿酒公司,114.078,32.1194,2026-03-07T0000,78,97,0.7,19,4,47,71,117,细颗粒物(PM2.5)
信阳市,审计局,114.0712,32.1393,2026-03-07T0000,85,97,0.6,19,7,51,71,123,细颗粒物(PM2.5)
兴安盟,洮儿河南路,122.0921,46.065,2026-03-07T0000,30,48,0.6,13,5,55,79,48,
兴安盟,科尔沁北路63号,122.0383,46.0691,2026-03-07T0000,27,52,0.6,14,4,47,80,52,颗粒物(PM10)
邢台市,达活泉,114.4687,37.0883,2026-03-07T0000,42,69,0.8,19,5,50,76,64,"颗粒物(PM10),细颗粒物(PM2.5)"
邢台市,邢师高专,114.4954,37.0309,2026-03-07T0000,37,59,0.7,16,5,55,85,57,颗粒物(PM10)
邢台市,路桥公司,114.5281,37.0857,2026-03-07T0000,43,54,0.5,18,1,53,78,66,细颗粒物(PM2.5)
邢台市,市环保局,114.4721,37.0713,2026-03-07T0000,41,66,0.6,11,5,56,86,62,"颗粒物(PM10),细颗粒物(PM2.5)"
邢台市,襄都区政府南院,114.5558,37.0578,2026-03-07T0000,42,63,0.5,21,3,49,73,64,细颗粒物(PM2.5)
徐州市,新城区,117.257,34.2161,2026-03-07T0000,57,81,0.6,20,8,64,86,94,细颗粒物(PM2.5)
徐州市,农科院,117.2933,34.2796,2026-03-07T0000,74,NA,0.5,26,9,59,79,113,细颗粒物(PM2.5)
徐州市,鼓楼区政府,117.1812,34.29,2026-03-07T0000,64,68,0.8,24,8,55,82,104,细颗粒物(PM2.5)
徐州市,铜山区招生办,117.1693,34.1781,2026-03-07T0000,52,75,0.5,29,5,62,85,84,细颗粒物(PM2.5)
