area,positionname,longitude,latitude,timepoint,pm2_5,pm10,co,no2,so2,o3,o3_8h,aqi,primarypollutant
阿坝藏族羌族自治州,马师校,102.2503,31.8896,2026-02-12T0100,9,19,0.4,12,4,40,,19,
阿坝藏族羌族自治州,马尔康中学西区,102.2174,31.9016,2026-02-12T0100,7,20,0.5,9,4,50,,20,
阿克苏地区,电视台,80.2899,41.1684,2026-02-12T0100,144,439,1.6,77,11,10,,324,颗粒物(PM10)
阿克苏地区,艺术中心,80.2592,41.1541,2026-02-12T0100,152,434,2.0,90,7,9,,318,颗粒物(PM10)
阿拉善盟,蒙二幼,105.699,38.8409,2026-02-12T0100,23,79,0.6,10,10,76,,65,颗粒物(PM10)
阿拉善盟,环保局新楼,105.7198,38.8508,2026-02-12T0100,23,78,0.5,6,10,93,,64,颗粒物(PM10)
阿勒泰地区,市站,88.1266,47.8515,2026-02-12T0100,3,14,0.2,15,3,75,,24,
阿勒泰地区,阿勒泰路33号,88.1198,47.7931,2026-02-12T0100,3,16,0.4,21,8,70,,22,
阿里地区,阿里监测站,80.1171,32.4999,2026-02-12T0100,3,6,0.5,8,12,71,,23,
阿里地区,阿里藏医院,80.0906,32.5029,2026-02-12T0100,3,8,0.4,3,9,80,,25,
安康市,汉滨区检察院,109.0088,32.6974,2026-02-12T0100,30,69,0.5,11,2,38,,60,颗粒物(PM10)
安康市,市邮政管理局,109.0324,32.6913,2026-02-12T0100,39,84,0.8,25,4,21,,67,颗粒物(PM10)
安庆市,环科院,117.0806,30.5181,2026-02-12T0100,101,198,0.9,65,9,1,,133,细颗粒物(PM2.5)
安庆市,马山宾馆,117.0331,30.5118,2026-02-12T0100,92,180,0.9,46,6,6,,122,细颗粒物(PM2.5)
安庆市,安庆大学,116.9897,30.6146,2026-02-12T0100,,,,,,,39,,
安庆市,市人大,117.0598,30.5351,2026-02-12T0100,105,196,1.0,63,8,0,,138,细颗粒物(PM2.5)
安顺市,凤凰山,105.9408,26.2431,2026-02-12T0100,24,,0.5,13,11,43,,35,
安顺市,金钟山,105.9443,26.2567,2026-02-12T0100,19,28,0.8,9,15,45,,28,
安顺市,娄家坡,105.8983,26.248,2026-02-12T0100,16,20,0.7,9,10,46,,23,
安阳市,红庙街,114.3552,36.1017,2026-02-12T0100,61,137,0.6,31,7,41,,94,颗粒物(PM10)
安阳市,银杏小区,114.361,36.0681,2026-02-12T0100,62,142,0.6,41,15,40,,96,颗粒物(PM10)
安阳市,信访局,114.3921,36.0879,2026-02-12T0100,61,137,0.7,32,6,35,,94,颗粒物(PM10)
安阳市,左辅环卫站,114.4706,36.0634,2026-02-12T0100,53,149,0.6,25,4,44,,100,颗粒物(PM10)
安阳市,钢三路198号,114.2918,36.0769,2026-02-12T0100,53,155,0.6,36,4,33,,103,颗粒物(PM10)
鞍山市,深沟寺,123.0441,41.1201,2026-02-12T0100,62,97,0.8,16,11,93,,84,细颗粒物(PM2.5)
鞍山市,太阳城,123.011,41.0931,2026-02-12T0100,65,101,0.8,16,14,86,,88,细颗粒物(PM2.5)
鞍山市,太平,123.0483,41.1445,2026-02-12T0100,58,92,0.8,17,14,88,,79,细颗粒物(PM2.5)
鞍山市,铁西三道街,122.964,41.0968,2026-02-12T0100,66,100,0.8,38,39,72,,89,细颗粒物(PM2.5)
鞍山市,明达新区,123.0219,41.0822,2026-02-12T0100,61,94,0.8,17,13,91,,83,细颗粒物(PM2.5)
鞍山市,兴盛南路290号,122.944647,41.082639,2026-02-12T0100,61,87,1.2,30,19,75,,83,细颗粒物(PM2.5)
巴彦淖尔市,附二中,107.4206,40.7609,2026-02-12T0100,39,83,0.5,20,8,51,,67,颗粒物(PM10)
巴彦淖尔市,市环保大楼,107.37,40.7372,2026-02-12T0100,46,85,0.5,22,6,48,,68,颗粒物(PM10)
巴音郭楞蒙古自治州,孔雀公园,86.1476,41.7529,2026-02-12T0100,133,450,1.2,76,10,5,,338,颗粒物(PM10)
巴音郭楞蒙古自治州,棉纺厂,86.1971,41.7166,2026-02-12T0100,93,461,/,15,/,52,,352,颗粒物(PM10)
巴音郭楞蒙古自治州,经济开发区,86.236,41.7172,2026-02-12T0100,41,335,0.6,14,6,55,,193,颗粒物(PM10)
巴中市,市五中,106.776805,31.852614,2026-02-12T0100,55,78,1.0,32,6,13,,75,细颗粒物(PM2.5)
巴中市,圣泉水务公司,106.7419,31.8654,2026-02-12T0100,44,59,1.1,15,7,50,,62,细颗粒物(PM2.5)
巴中市,市中心医院,106.7617,31.8343,2026-02-12T0100,,,,,,,80,,
白城市,洮北区环保局,122.7909,45.608,2026-02-12T0100,71,72,0.8,23,7,47,,95,细颗粒物(PM2.5)
白城市,市环保局,122.8741,45.5725,2026-02-12T0100,48,75,0.9,40,6,15,,67,细颗粒物(PM2.5)
白山市,喜丰,126.4219,41.9172,2026-02-12T0100,58,80,1.3,68,12,13,,79,细颗粒物(PM2.5)
白山市,环保局,126.4082,41.9416,2026-02-12T0100,51,56,1.2,36,12,23,,70,细颗粒物(PM2.5)
白银市,第三小学,104.1727,36.5448,2026-02-12T0100,24,67,0.4,35,3,49,,59,颗粒物(PM10)
白银市,动力公司,104.1467,36.5482,2026-02-12T0100,26,65,0.7,12,2,67,,58,颗粒物(PM10)
百色市,市监测站,106.6102,23.901,2026-02-12T0100,24,34,0.7,13,12,36,,35,
百色市,市中心血站,106.6524,23.8842,2026-02-12T0100,20,34,0.7,8,12,37,,34,
百色市,龙景西路,106.6273,23.8798,2026-02-12T0100,22,41,0.6,10,10,36,,41,
蚌埠市,工人疗养院,117.396,32.9389,2026-02-12T0100,77,125,0.9,24,8,90,,103,细颗粒物(PM2.5)
蚌埠市,百货大楼,117.3606,32.9428,2026-02-12T0100,86,143,0.9,37,8,71,,114,细颗粒物(PM2.5)
蚌埠市,蚌埠学院,117.4183,32.8909,2026-02-12T0100,74,127,0.6,25,6,87,,99,细颗粒物(PM2.5)
蚌埠市,淮上区政府,117.3534,32.9672,2026-02-12T0100,82,127,0.7,32,7,80,,109,细颗粒物(PM2.5)
蚌埠市,高新区,117.3143,32.8977,2026-02-12T0100,99,139,0.7,35,6,51,,130,细颗粒物(PM2.5)
蚌埠市,蚌埠田家炳中学,117.3091,32.9314,2026-02-12T0100,99,156,0.7,33,17,66,,130,细颗粒物(PM2.5)
包头市,市环境监测站,109.8761,40.6533,2026-02-12T0100,34,107,0.7,26,8,58,,79,颗粒物(PM10)
包头市,包头八中,109.9992,40.5843,2026-02-12T0100,38,108,0.9,46,7,33,,79,颗粒物(PM10)
包头市,惠龙物流,109.8641,40.6288,2026-02-12T0100,45,104,1.3,32,10,60,,77,颗粒物(PM10)
包头市,东河鸿龙湾,110.0376,40.5546,2026-02-12T0100,51,101,1.6,107,10,3,,76,颗粒物(PM10)
包头市,滨河大厦,109.9154,40.5684,2026-02-12T0100,51,105,1.1,94,10,1,,78,颗粒物(PM10)
包头市,包头市委党校,109.9449,40.6259,2026-02-12T0100,36,92,0.8,89,9,4,,71,颗粒物(PM10)
包头市,昆区政府,109.8332,40.6577,2026-02-12T0100,27,92,0.6,20,10,74,,71,颗粒物(PM10)
宝鸡市,竹园沟,107.0802,34.3129,2026-02-12T0100,47,140,0.4,16,6,48,,95,颗粒物(PM10)
宝鸡市,监测站,107.1429,34.3549,2026-02-12T0100,45,160,0.5,26,4,34,,105,颗粒物(PM10)
宝鸡市,技工学校,107.1172,34.3759,2026-02-12T0100,64,170,0.6,16,6,45,,110,颗粒物(PM10)
宝鸡市,文理学院,107.2025,34.3518,2026-02-12T0100,86,175,0.6,27,5,38,,114,细颗粒物(PM2.5)
宝鸡市,三迪小学,107.2396,34.3626,2026-02-12T0100,77,196,0.8,42,4,31,,123,颗粒物(PM10)
宝鸡市,滨河北路,107.1721,34.3558,2026-02-12T0100,91,231,0.7,17,6,39,,141,颗粒物(PM10)
宝鸡市,陈仓区北开路21号,107.3898,34.3601,2026-02-12T0100,112,256,1.1,54,8,15,,153,颗粒物(PM10)
保定市,游泳馆,115.4803,38.8568,2026-02-12T0100,97,143,1.2,90,8,6,,128,细颗粒物(PM2.5)
保定市,华电二区,115.509,38.8895,2026-02-12T0100,79,131,1.3,80,8,0,,105,细颗粒物(PM2.5)
保定市,接待中心,115.4588,38.9037,2026-02-12T0100,95,136,1.2,63,5,1,,125,细颗粒物(PM2.5)
保定市,地表水厂,115.4484,38.8344,2026-02-12T0100,78,141,0.9,85,7,4,,104,细颗粒物(PM2.5)
保定市,满城区生态环境分局,115.3136,38.9511,2026-02-12T0100,108,210,1.8,82,14,3,,142,细颗粒物(PM2.5)
保定市,清苑区第二中学,115.4709,38.7628,2026-02-12T0100,103,193,0.8,47,12,40,,135,细颗粒物(PM2.5)
保定市,徐水物探局,115.6231,39.0223,2026-02-12T0100,114,231,1.2,74,16,3,,149,细颗粒物(PM2.5)
保定市,双鹰农机,115.4199,38.8665,2026-02-12T0100,90,183,0.9,64,6,14,,119,细颗粒物(PM2.5)
保定市,植保所站,115.515,38.8589,2026-02-12T0100,98,166,1.0,89,9,0,,129,细颗粒物(PM2.5)
保山市,市环境监测站,99.1589,25.1137,2026-02-12T0100,19,21,0.3,6,4,71,,28,
保山市,市环保局,99.1616,25.1381,2026-02-12T0100,9,24,0.5,2,3,78,,25,
北海市,海滩公园,109.1435,21.4085,2026-02-12T0100,22,42,0.7,15,3,26,,42,
北海市,新市环保局,109.0983,21.466,2026-02-12T0100,23,,0.8,16,8,25,,33,
北海市,北海工业园,109.1775,21.5232,2026-02-12T0100,27,47,0.9,13,5,21,,47,
北海市,龙潭自来水厂,109.1844,21.4396,2026-02-12T0100,30,45,0.9,13,3,18,,45,
北京市,万寿西宫,116.3611,39.8786,2026-02-12T0100,56,108,0.8,65,4,16,,79,颗粒物(PM10)
北京市,东四,116.4174,39.9289,2026-02-12T0100,45,88,0.9,69,6,9,,69,颗粒物(PM10)
北京市,天坛,116.4073,39.8858,2026-02-12T0100,58,100,1.0,72,1,4,,79,细颗粒物(PM2.5)
北京市,农展馆,116.4622,39.9364,2026-02-12T0100,57,110,1.1,77,7,3,,80,颗粒物(PM10)
北京市,官园,116.3399,39.9293,2026-02-12T0100,35,67,0.6,59,5,14,,59,颗粒物(PM10)
北京市,海淀万柳,116.2879,39.9613,2026-02-12T0100,29,107,0.6,60,3,11,,79,颗粒物(PM10)
北京市,顺义新城,116.6635,40.1349,2026-02-12T0100,32,63,0.6,27,6,39,,57,颗粒物(PM10)
北京市,怀柔镇,116.6275,40.327,2026-02-12T0100,23,40,0.6,11,4,52,,40,
北京市,昌平镇,116.2295,40.217,2026-02-12T0100,30,48,0.6,23,3,47,,48,
北京市,奥体中心,116.3968,39.982,2026-02-12T0100,35,68,0.7,87,6,4,,59,颗粒物(PM10)
北京市,密云新城,116.8336,40.4095,2026-02-12T0100,27,50,0.6,16,3,41,,50,
北京市,门头沟三家店,116.0879,39.9725,2026-02-12T0100,24,44,0.4,19,3,40,,44,
北京市,丰台云岗,116.1507,39.8246,2026-02-12T0100,24,50,0.5,23,3,46,,50,
北京市,房山燕山,115.9578,39.7602,2026-02-12T0100,39,65,0.5,14,4,51,,58,颗粒物(PM10)
北京市,大兴旧宫,116.4669,39.7734,2026-02-12T0100,64,131,0.7,52,4,25,,91,颗粒物(PM10)
北京市,延庆石河营,115.9859,40.4562,2026-02-12T0100,26,49,0.6,30,3,16,,49,
北京市,怀柔新城,116.6151,40.3052,2026-02-12T0100,28,40,0.4,12,2,53,,40,
北京市,丰台小屯,116.2542,39.8764,2026-02-12T0100,48,104,0.8,74,4,3,,77,颗粒物(PM10)
北京市,密云镇,116.8399,40.3843,2026-02-12T0100,31,54,0.6,47,3,10,,52,颗粒物(PM10)
北京市,延庆百泉,115.9423,40.4431,2026-02-12T0100,30,45,0.6,23,3,22,,45,
北京市,通州新华,116.6598,39.9164,2026-02-12T0100,93,141,1.0,88,3,1,,123,细颗粒物(PM2.5)
北京市,石景山八角,116.1942,39.9158,2026-02-12T0100,40,79,0.5,39,2,24,,65,颗粒物(PM10)
北京市,平谷新城,117.078628,40.151726,2026-02-12T0100,44,65,0.7,21,4,27,,62,细颗粒物(PM2.5)
本溪市,大峪,123.8274146,41.31234549,2026-02-12T0100,32,63,1.1,65,8,7,,57,颗粒物(PM10)
本溪市,彩屯,123.7169,41.3094,2026-02-12T0100,72,96,1.7,35,12,31,,97,细颗粒物(PM2.5)
本溪市,东明,123.7672166,41.28649327,2026-02-12T0100,54,76,1.6,59,10,2,,74,细颗粒物(PM2.5)
本溪市,新立屯,123.799345,41.266614,2026-02-12T0100,29,42,0.8,46,12,35,,42,
本溪市,威宁,123.829144,41.336777,2026-02-12T0100,35,73,1.3,44,5,11,,62,颗粒物(PM10)
毕节市,八中,105.287,27.3133,2026-02-12T0100,42,72,0.9,15,12,36,,61,颗粒物(PM10)
毕节市,师专,105.3079,27.2987,2026-02-12T0100,39,68,0.7,15,12,40,,59,颗粒物(PM10)
毕节市,工业大道,105.3688,27.3598,2026-02-12T0100,43,65,/,17,13,36,,60,细颗粒物(PM2.5)
滨州市,第二水厂,117.9961,37.3604,2026-02-12T0100,72,124,1.0,88,34,2,,97,细颗粒物(PM2.5)
滨州市,北中新校,117.9789,37.3931,2026-02-12T0100,58,107,1.0,57,26,16,,79,"颗粒物(PM10),细颗粒物(PM2.5)"
滨州市,中海酒店,117.9379,37.3959,2026-02-12T0100,49,88,1.0,42,25,47,,69,颗粒物(PM10)
滨州市,开发区一中,117.9381509,37.35547456,2026-02-12T0100,66,122,1.0,70,38,13,,89,细颗粒物(PM2.5)
滨州市,金海六路,118.0914,37.6938,2026-02-12T0100,56,93,0.7,46,20,38,,77,细颗粒物(PM2.5)
滨州市,滨州市西街道办事处,117.9955,37.3752,2026-02-12T0100,80,122,1.0,62,28,,,107,细颗粒物(PM2.5)
亳州市,污水处理厂,115.8071,33.8399,2026-02-12T0100,67,137,,21,8,81,,,
亳州市,三国揽胜宫,115.7789,33.8519,2026-02-12T0100,66,169,0.5,21,8,80,,110,颗粒物(PM10)
亳州市,亳州学院,115.7631,33.803,2026-02-12T0100,79,165,0.6,14,8,72,,108,颗粒物(PM10)
博尔塔拉蒙古自治州,市党校,82.0482,44.8553,2026-02-12T0100,17,72,0.8,18,2,70,,61,颗粒物(PM10)
博尔塔拉蒙古自治州,市环保局,82.0805,44.8966,2026-02-12T0100,42,99,0.9,29,5,61,,75,颗粒物(PM10)
沧州市,沧县城建局,116.8733,38.2922,2026-02-12T0100,69,108,0.8,33,20,53,,93,细颗粒物(PM2.5)
沧州市,电视转播站,116.8462,38.3189,2026-02-12T0100,78,132,0.7,32,12,48,,104,细颗粒物(PM2.5)
沧州市,市环保局,116.8588,38.3161,2026-02-12T0100,73,129,0.7,42,15,30,,98,细颗粒物(PM2.5)
沧州市,河北水利电力学院,116.8011,38.294,2026-02-12T0100,73,141,0.8,33,17,41,,98,细颗粒物(PM2.5)
昌都市,昌都监测站,97.1813,31.1289,2026-02-12T0100,6,26,0.6,7,3,59,,26,
昌都市,昌都会议中心,97.1707,31.1428,2026-02-12T0100,,11,0.3,1,4,70,,,
昌吉回族自治州,新区政务中心,87.2722,44.0298,2026-02-12T0100,75,113,1.3,25,2,64,,100,细颗粒物(PM2.5)
昌吉回族自治州,亚心广场,87.3069,44.0093,2026-02-12T0100,103,141,1.2,23,7,71,,135,细颗粒物(PM2.5)
昌吉回族自治州,财政所,87.2057,43.9289,2026-02-12T0100,129,132,1.1,20,5,69,,170,细颗粒物(PM2.5)
长春市,客车厂,125.2874,43.9024,2026-02-12T0100,74,83,1.2,75,8,7,,99,细颗粒物(PM2.5)
长春市,邮电学院,125.2943,43.8508,2026-02-12T0100,74,99,1.1,74,8,9,,99,细颗粒物(PM2.5)
长春市,劳动公园,125.3648,43.8745,2026-02-12T0100,77,117,2.4,69,13,8,,103,细颗粒物(PM2.5)
长春市,园林处,125.3233,43.8781,2026-02-12T0100,91,97,1.3,68,14,12,,120,细颗粒物(PM2.5)
长春市,净月潭,125.4604,43.7904,2026-02-12T0100,49,62,0.6,21,6,51,,68,细颗粒物(PM2.5)
长春市,经开区环卫处,125.38,43.8422,2026-02-12T0100,58,86,1.0,67,5,1,,79,细颗粒物(PM2.5)
长春市,高新区管委会,125.234,43.7761,2026-02-12T0100,100,134,2.2,55,7,4,,132,细颗粒物(PM2.5)
长春市,岱山公园,125.1695,43.83,2026-02-12T0100,77,80,0.9,73,10,5,,103,细颗粒物(PM2.5)
长春市,北亚泰大街1068号,125.334645,43.916281,2026-02-12T0100,119,125,1.8,71,10,4,,156,细颗粒物(PM2.5)
长沙市,经开区环保局,113.082,28.2421,2026-02-12T0100,44,67,0.8,45,3,8,,62,细颗粒物(PM2.5)
长沙市,高开区环保局,112.8873,28.2202,2026-02-12T0100,54,70,1.2,29,5,26,,74,细颗粒物(PM2.5)
长沙市,马坡岭,113.0785,28.2012,2026-02-12T0100,58,91,0.9,43,4,4,,79,细颗粒物(PM2.5)
长沙市,湖南师范大学,112.9448,28.1894,2026-02-12T0100,37,61,0.9,20,3,16,,56,颗粒物(PM10)
长沙市,雨花区环保局,113.0177,28.1322,2026-02-12T0100,50,64,0.9,48,8,3,,69,细颗粒物(PM2.5)
长沙市,伍家岭,112.9795,28.2593,2026-02-12T0100,69,150,1.2,40,5,1,,100,颗粒物(PM10)
长沙市,火车新站,113.002,28.1944,2026-02-12T0100,48,69,1.1,48,2,11,,67,细颗粒物(PM2.5)
长沙市,天心区环保局,112.9846,28.1177,2026-02-12T0100,42,67,0.8,52,6,3,,59,"颗粒物(PM10),细颗粒物(PM2.5)"
长沙市,湖南中医药大学,112.8906,28.1307,2026-02-12T0100,44,81,1.1,41,6,4,,66,颗粒物(PM10)
长治市,清华站,113.1146,36.1547,2026-02-12T0100,41,82,0.6,21,12,67,,66,颗粒物(PM10)
长治市,审计局,113.0887,36.2126,2026-02-12T0100,33,80,0.6,22,12,74,,65,颗粒物(PM10)
长治市,长治八中,113.0845,36.1856,2026-02-12T0100,30,93,0.5,15,14,69,,72,颗粒物(PM10)
长治市,德盛苑,113.1561,36.1912,2026-02-12T0100,32,87,0.5,10,12,99,,69,颗粒物(PM10)
长治市,向阳小学,113.0603,36.0464,2026-02-12T0100,38,108,0.3,16,15,80,,79,颗粒物(PM10)
长治市,屯留一中,112.8788,36.315,2026-02-12T0100,35,73,0.8,64,44,4,,62,颗粒物(PM10)
长治市,英华南巷50号,113.113092,36.199482,2026-02-12T0100,33,82,0.4,8,13,79,,66,颗粒物(PM10)
长治市,学府街1号,113.23666,36.33435,2026-02-12T0100,35,88,0.7,35,10,48,,69,颗粒物(PM10)
常德市,市二中,111.696,28.9725,2026-02-12T0100,50,92,1.1,25,5,34,,71,颗粒物(PM10)
常德市,武陵区永安,111.7152,29.0288,2026-02-12T0100,56,84,1.2,39,5,24,,77,细颗粒物(PM2.5)
常德市,鼎城区玉霞,111.6891,28.9881,2026-02-12T0100,55,89,1.4,41,5,2,,75,细颗粒物(PM2.5)
常德市,武陵区长庚,111.6651,29.0526,2026-02-12T0100,71,100,1.4,49,4,2,,95,细颗粒物(PM2.5)
常州市,市监测站,119.9524,31.7586,2026-02-12T0100,119,168,1.2,77,8,5,,156,细颗粒物(PM2.5)
常州市,武进监测站,119.9351,31.703,2026-02-12T0100,108,147,1.3,36,8,55,,142,细颗粒物(PM2.5)
常州市,行政中心,119.9701,31.813,2026-02-12T0100,116,152,1.3,92,6,4,,152,细颗粒物(PM2.5)
常州市,经开区,120.0434,31.7726,2026-02-12T0100,106,166,1.2,35,6,57,,139,细颗粒物(PM2.5)
常州市,钟楼,119.8919,31.7892,2026-02-12T0100,113,144,1.2,63,8,,,148,细颗粒物(PM2.5)
常州市,武进经发区,119.8595,31.706,2026-02-12T0100,105,139,1.2,32,7,70,,138,细颗粒物(PM2.5)
常州市,金坛城区,119.5812,31.7256,2026-02-12T0100,100,141,1.0,39,8,50,,132,细颗粒物(PM2.5)
常州市,崇义南街5-H号,119.9551,31.863,2026-02-12T0100,121,149,1.6,97,7,6,,159,细颗粒物(PM2.5)
朝阳市,西梁,120.4318,41.588,2026-02-12T0100,74,111,1.8,66,16,2,,99,细颗粒物(PM2.5)
朝阳市,河畔小区,120.452,41.565,2026-02-12T0100,68,101,1.7,65,14,4,,92,细颗粒物(PM2.5)
朝阳市,八里堡,120.4176,41.5648,2026-02-12T0100,88,104,1.8,69,15,4,,117,细颗粒物(PM2.5)
潮州市,市政府,116.6179,23.6608,2026-02-12T0100,19,28,0.4,6,4,72,,28,
潮州市,金山,116.646,23.676,2026-02-12T0100,18,,0.5,8,3,77,,26,
郴州市,市职中,113.0116,25.8228,2026-02-12T0100,24,32,0.9,,4,0,,,
郴州市,市审计局,113.0381,25.8074,2026-02-12T0100,28,28,/,20,3,0,,40,
郴州市,市环保局,113.0348,25.7757,2026-02-12T0100,42,,0.8,20,4,0,,59,细颗粒物(PM2.5)
郴州市,好美居路49号,113.0138,25.8011,2026-02-12T0100,,,,,,,21,,
成都市,金泉两河,103.9727,30.7242,2026-02-12T0100,50,68,0.9,61,2,12,,69,细颗粒物(PM2.5)
成都市,十里店,104.1423,30.6765,2026-02-12T0100,54,80,0.7,23,3,49,,74,细颗粒物(PM2.5)
成都市,三瓦窑,104.0594,30.5765,2026-02-12T0100,41,69,0.9,63,2,15,,60,颗粒物(PM10)
成都市,沙河铺,104.1122,30.6306,2026-02-12T0100,49,67,0.6,50,4,27,,68,细颗粒物(PM2.5)
成都市,大石西路,104.0219,30.6561,2026-02-12T0100,52,78,0.8,38,4,31,,72,细颗粒物(PM2.5)
成都市,龙泉驿区区政府,104.2724,30.559,2026-02-12T0100,40,,0.3,14,6,62,,57,细颗粒物(PM2.5)
成都市,金博路,104.0028,30.6891,2026-02-12T0100,49,63,0.7,53,4,17,,68,细颗粒物(PM2.5)
成都市,华阳,104.056,30.5228,2026-02-12T0100,47,63,0.5,64,3,15,,65,细颗粒物(PM2.5)
成都市,青石路225号,104.387954,30.746684,2026-02-12T0100,43,56,0.7,54,3,18,,60,细颗粒物(PM2.5)
成都市,科学城,104.0788,30.4054,2026-02-12T0100,29,52,0.8,14,6,44,,51,颗粒物(PM10)
成都市,光华大道三段,103.8505,30.6946,2026-02-12T0100,45,86,0.7,49,3,29,,68,颗粒物(PM10)
成都市,八角井街185号,104.3257,30.6406,2026-02-12T0100,35,54,0.6,20,4,40,,52,颗粒物(PM10)
成都市,鲸龙路1057号,104.2433276,30.53529463,2026-02-12T0100,36,58,0.5,50,4,22,,54,颗粒物(PM10)
承德市,铁路,117.9531,40.908,2026-02-12T0100,38,62,0.9,27,7,22,,56,颗粒物(PM10)
承德市,中国银行,117.9397,40.9763,2026-02-12T0100,31,63,0.8,36,4,13,,57,颗粒物(PM10)
承德市,杏林街1号,117.9462,40.95,2026-02-12T0100,36,50,0.8,40,8,19,,52,细颗粒物(PM2.5)
承德市,滨河大街98号,117.7994,40.9605,2026-02-12T0100,19,45,0.5,31,6,23,,45,
池州市,池州学院,117.4698,30.6617,2026-02-12T0100,48,100,1.0,32,4,43,,75,颗粒物(PM10)
池州市,展览馆,117.4918,30.6617,2026-02-12T0100,42,94,0.8,30,2,20,,72,颗粒物(PM10)
池州市,第八中学,117.5626,30.695,2026-02-12T0100,38,100,0.8,17,3,67,,75,颗粒物(PM10)
池州市,第十二中学,117.5037,30.6242,2026-02-12T0100,39,93,0.7,54,4,13,,72,颗粒物(PM10)
赤峰市,松山一中,118.9229,42.2816,2026-02-12T0100,30,62,1.0,35,8,19,,56,颗粒物(PM10)
赤峰市,哈达街,118.9588,42.2733,2026-02-12T0100,36,72,1.1,40,17,17,,61,颗粒物(PM10)
赤峰市,天义路,118.8792,42.2551,2026-02-12T0100,30,40,0.9,41,9,15,,43,
赤峰市,银河街,119.2656,42.0356,2026-02-12T0100,46,88,1.6,29,18,23,,69,颗粒物(PM10)
赤峰市,桥北物流园区,118.9359,42.3146,2026-02-12T0100,38,60,1.0,36,8,24,,55,颗粒物(PM10)
崇左市,市环保局江州分局,107.3473,22.4137,2026-02-12T0100,19,30,0.8,10,4,26,,30,
崇左市,石景林东路7号,107.375,22.3736,2026-02-12T0100,21,36,0.8,24,2,20,,36,
滁州市,市政府原办公楼,118.31131,32.3033,2026-02-12T0100,89,115,0.8,56,4,22,,118,细颗粒物(PM2.5)
滁州市,图书馆,118.3268,32.2633,2026-02-12T0100,65,117,0.9,30,7,54,,88,细颗粒物(PM2.5)
滁州市,银山路666号,118.3196,32.3335,2026-02-12T0100,88,108,0.7,38,9,18,,117,细颗粒物(PM2.5)
滁州市,黄山路555号,118.3426,32.2979,2026-02-12T0100,92,146,0.7,73,4,17,,122,细颗粒物(PM2.5)
楚雄彝族自治州,市经济开发区,101.5379,25.0492,2026-02-12T0100,24,54,0.5,44,3,16,,52,颗粒物(PM10)
楚雄彝族自治州,团结路562号,101.5536,25.0343,2026-02-12T0100,30,49,0.6,17,4,43,,49,
达州市,市环境监测站,107.5087,31.2186,2026-02-12T0100,49,85,0.6,42,5,14,,68,"颗粒物(PM10),细颗粒物(PM2.5)"
达州市,凤凰小区,107.4988,31.2132,2026-02-12T0100,44,78,0.6,47,4,12,,64,颗粒物(PM10)
达州市,达县机关宾馆,107.5081,31.1987,2026-02-12T0100,52,78,0.8,51,4,6,,72,细颗粒物(PM2.5)
达州市,市政中心,107.4644,31.2124,2026-02-12T0100,46,83,0.8,64,4,4,,67,颗粒物(PM10)
大理白族自治州,大理市环境监测站,100.2168,25.5818,2026-02-12T0100,14,20,0.4,8,7,77,,25,
大理白族自治州,大理古城,100.1542,25.7055,2026-02-12T0100,13,17,0.4,3,8,82,,26,
大连市,甘井子,121.6119,38.974,2026-02-12T0100,99,125,0.6,40,13,66,,130,细颗粒物(PM2.5)
大连市,周水子,121.565,38.9509,2026-02-12T0100,89,107,0.7,30,8,68,,118,细颗粒物(PM2.5)
大连市,星海三站,121.5637,38.8849,2026-02-12T0100,87,97,0.7,20,6,64,,115,细颗粒物(PM2.5)
大连市,青泥洼桥,121.6301,38.9117,2026-02-12T0100,79,96,0.8,26,10,69,,105,细颗粒物(PM2.5)
大连市,傅家庄,121.6248,38.8643,2026-02-12T0100,76,118,0.6,24,9,67,,102,细颗粒物(PM2.5)
大连市,七贤岭,121.5117,38.8636,2026-02-12T0100,78,98,0.7,25,7,66,,104,细颗粒物(PM2.5)
大连市,金州,121.7507,39.1339,2026-02-12T0100,91,125,0.7,28,15,80,,120,细颗粒物(PM2.5)
大连市,开发区,121.7811,39.0495,2026-02-12T0100,81,98,0.8,56,5,28,,108,细颗粒物(PM2.5)
大连市,双D港,121.9762,39.0631,2026-02-12T0100,79,105,0.9,40,11,55,,105,细颗粒物(PM2.5)
大连市,旅顺,121.2548,38.8188,2026-02-12T0100,92,105,0.8,22,9,64,,122,细颗粒物(PM2.5)
大庆市,大同区,124.8085,46.0381,2026-02-12T0100,55,64,0.9,16,12,65,,75,细颗粒物(PM2.5)
大庆市,龙凤区,125.1166,46.5255,2026-02-12T0100,69,,0.7,37,32,36,,93,细颗粒物(PM2.5)
大庆市,红岗区,124.8894,46.4007,2026-02-12T0100,37,48,0.9,37,9,32,,53,细颗粒物(PM2.5)
大庆市,萨尔图区,125.1391,46.578,2026-02-12T0100,43,77,0.8,57,13,16,,64,颗粒物(PM10)
大庆市,让胡路区,124.9026,46.6217,2026-02-12T0100,40,46,1.0,53,7,18,,57,细颗粒物(PM2.5)
大庆市,萨区政府监测点,125.127,46.6277,2026-02-12T0100,29,56,0.8,40,9,36,,53,颗粒物(PM10)
大同市,云冈宾馆,113.2926,40.0759,2026-02-12T0100,44,110,2.0,59,10,4,,80,颗粒物(PM10)
大同市,大同大学,113.3437,40.0921,2026-02-12T0100,24,112,0.6,21,11,48,,81,颗粒物(PM10)
大同市,安家小村,113.2637,40.129,2026-02-12T0100,30,107,1.9,51,16,14,,79,颗粒物(PM10)
大同市,大同市卫生学校,113.3399,40.0586,2026-02-12T0100,37,143,2.6,61,10,12,,97,颗粒物(PM10)
大同市,云冈站,113.1371,40.1122,2026-02-12T0100,30,93,0.8,47,22,4,,72,颗粒物(PM10)
大同市,图书馆,113.1186,40.2556,2026-02-12T0100,28,94,0.6,14,4,36,,72,颗粒物(PM10)
大同市,区一中,113.5931,40.0459,2026-02-12T0100,43,97,1.4,20,13,47,,74,颗粒物(PM10)
大同市,魏都大道141号,113.2798248,40.09972476,2026-02-12T0100,44,136,2.2,63,11,6,,93,颗粒物(PM10)
大兴安岭地区,科技局,124.1068,50.4091,2026-02-12T0100,22,41,0.3,4,4,51,,41,
大兴安岭地区,红旗社区,124.117,50.4279,2026-02-12T0100,29,34,0.5,48,6,16,,42,
丹东市,江湾东路,124.33,40.0625,2026-02-12T0100,57,79,1.4,37,6,25,,78,细颗粒物(PM2.5)
丹东市,临江后街,124.4242,40.1513,2026-02-12T0100,80,103,2.1,30,19,43,,107,细颗粒物(PM2.5)
丹东市,元宝山,124.3935,40.1461,2026-02-12T0100,49,70,1.7,22,20,55,,68,细颗粒物(PM2.5)
丹东市,民主桥,124.3634,40.1093,2026-02-12T0100,94,131,1.5,61,9,2,,124,细颗粒物(PM2.5)
儋州市,第一中学子站,109.5726195,19.51688767,2026-02-12T0100,11,22,0.5,2,4,66,,22,
儋州市,东坡学校子站,109.5567,19.5187,2026-02-12T0100,8,31,0.5,3,2,73,,31,
德宏傣族景颇族自治州,德宏州监测站,98.5611,24.4273,2026-02-12T0100,41,55,0.6,15,7,48,,58,细颗粒物(PM2.5)
德宏傣族景颇族自治州,芒市人民政府综合楼,98.5887,24.4366,2026-02-12T0100,13,43,0.7,10,4,44,,43,
德阳市,东山公园,104.424,31.1209,2026-02-12T0100,56,64,0.8,36,1,37,,77,细颗粒物(PM2.5)
德阳市,西小区,104.3827,31.1318,2026-02-12T0100,74,83,0.8,33,3,36,,99,细颗粒物(PM2.5)
德阳市,耐火材料厂,104.3553,31.1091,2026-02-12T0100,73,,0.7,30,1,39,,98,细颗粒物(PM2.5)
德阳市,市林业局,104.4144,31.1495,2026-02-12T0100,57,71,0.9,60,5,3,,78,细颗粒物(PM2.5)
德州市,儿童乐园,116.3034,37.4675,2026-02-12T0100,73,171,1.1,27,16,82,,111,颗粒物(PM10)
德州市,监理站,116.2992,37.4449,2026-02-12T0100,77,175,0.9,32,14,89,,113,颗粒物(PM10)
德州市,九衢泉纯净水厂,116.2722,37.438,2026-02-12T0100,86,178,1.1,36,12,72,,114,"颗粒物(PM10),细颗粒物(PM2.5)"
德州市,开发区人民医院,116.3693,37.44,2026-02-12T0100,85,188,0.9,30,20,72,,119,颗粒物(PM10)
德州市,陵城艺术中心,116.5687,37.3331,2026-02-12T0100,91,171,1.1,37,29,60,,120,细颗粒物(PM2.5)
德州市,新河东路,116.352738,37.420875,2026-02-12T0100,79,175,1.0,43,19,56,,113,颗粒物(PM10)
迪庆藏族自治州,迪庆州站,99.7054,27.8319,2026-02-12T0100,14,22,0.7,6,5,88,,28,
迪庆藏族自治州,质量技术监督局,99.7122,27.8129,2026-02-12T0100,11,17,0.5,4,6,96,,30,
定西市,将台街,104.6092,35.5962,2026-02-12T0100,79,122,1.1,32,21,22,,105,细颗粒物(PM2.5)
定西市,正龙路62号,104.6159,35.5701,2026-02-12T0100,55,105,1.1,17,11,29,,78,颗粒物(PM10)
东莞市,东城石井,113.7943,23.0132,2026-02-12T0100,18,28,0.6,18,4,52,,28,
东莞市,南城西平,113.7384,22.9659,2026-02-12T0100,17,27,0.6,29,5,42,,27,
东莞市,万江金泰,113.7283,23.041,2026-02-12T0100,20,34,0.8,20,4,36,,34,
东莞市,裕兴路,113.8666,23.1062,2026-02-12T0100,9,19,0.7,10,5,52,,19,
东莞市,教育路1号,114.0076,22.9739,2026-02-12T0100,8,18,0.5,17,4,57,,18,
东莞市,长怡路1号,113.7981,22.8124,2026-02-12T0100,15,29,0.6,21,6,55,,29,
东营市,市环保局,118.6612,37.4313,2026-02-12T0100,44,66,0.8,69,32,15,,62,细颗粒物(PM2.5)
东营市,开发区管委会,118.6903,37.4337,2026-02-12T0100,32,60,0.6,53,30,43,,55,颗粒物(PM10)
东营市,垦利区民丰路,118.5721,37.5654,2026-02-12T0100,28,51,0.8,52,13,34,,51,颗粒物(PM10)
东营市,河口城区,118.5063,37.8606,2026-02-12T0100,50,80,0.9,74,27,18,,69,细颗粒物(PM2.5)
东营市,胜利站,118.4979,37.4623,2026-02-12T0100,29,68,0.8,75,26,23,,59,颗粒物(PM10)
东营市,理想之城,118.5753,37.4405,2026-02-12T0100,35,68,0.8,79,27,10,,59,颗粒物(PM10)
鄂尔多斯市,综合楼,110.0024,39.8127,2026-02-12T0100,39,92,1.0,51,12,32,,71,颗粒物(PM10)
鄂尔多斯市,巴音孟克林场办事处,109.9485,39.8259,2026-02-12T0100,22,68,0.4,21,6,69,,59,颗粒物(PM10)
鄂尔多斯市,康泽苑,109.7734,39.5987,2026-02-12T0100,26,105,0.4,21,5,50,,78,颗粒物(PM10)
鄂尔多斯市,华泰汽车城,109.8121,39.5987,2026-02-12T0100,29,102,0.5,30,7,32,,76,颗粒物(PM10)
鄂尔多斯市,奥林花园,109.9734,39.7884,2026-02-12T0100,34,95,0.6,46,6,36,,73,颗粒物(PM10)
鄂州市,市政府,114.894,30.3989,2026-02-12T0100,105,138,0.9,36,63,50,,138,细颗粒物(PM2.5)
鄂州市,赵家坝,114.8986,30.3714,2026-02-12T0100,92,117,0.9,14,10,74,,122,细颗粒物(PM2.5)
鄂州市,精准医疗中心,114.8093,30.4091,2026-02-12T0100,110,138,1.1,62,27,36,,144,细颗粒物(PM2.5)
恩施土家族苗族自治州,湖北民院,109.4978,30.2979,2026-02-12T0100,52,78,0.9,2,6,36,,72,细颗粒物(PM2.5)
恩施土家族苗族自治州,龙凤新区,109.5061,30.3771,2026-02-12T0100,36,62,0.7,9,7,32,,56,颗粒物(PM10)
防城港市,沙万,108.3411,21.6159,2026-02-12T0100,19,26,0.5,11,5,38,,28,
防城港市,防城档案局,108.3515,21.7733,2026-02-12T0100,19,29,0.6,10,5,37,,29,
防城港市,大海花园,108.3506,21.6414,2026-02-12T0100,44,,1.5,25,7,40,,62,细颗粒物(PM2.5)
佛山市,湾梁,113.1293,23.0065,2026-02-12T0100,25,27,/,21,/,29,,36,
佛山市,华材职中,113.1082,23.0477,2026-02-12T0100,25,27,0.5,26,6,28,,36,
佛山市,南海气象局,113.1439,23.045,2026-02-12T0100,24,28,/,22,/,26,,35,
佛山市,顺德苏岗,113.2879,22.8094,2026-02-12T0100,23,39,0.9,27,/,28,,39,
佛山市,高明孔堂,112.8384,22.8678,2026-02-12T0100,18,29,/,15,/,36,,29,
佛山市,三水监测站,112.8835,23.1584,2026-02-12T0100,20,22,0.6,12,2,30,,29,
佛山市,三水云东海,112.8668,23.185,2026-02-12T0100,17,25,/,15,/,31,,25,
佛山市,容桂街道办,113.2568,22.7629,2026-02-12T0100,22,31,/,23,/,31,,32,
福州市,师大,119.2681,26.0506,2026-02-12T0100,34,38,0.4,19,3,52,,49,
福州市,五四北路,119.2983,26.1028,2026-02-12T0100,31,35,0.5,15,4,64,,45,
福州市,杨桥西路,119.2648,26.0769,2026-02-12T0100,30,36,/,17,4,54,,43,
福州市,九龙,119.5799,26.0937,2026-02-12T0100,27,34,0.5,14,4,49,,39,
福州市,吴航,119.5188,25.9666,2026-02-12T0100,26,47,0.6,13,5,79,,47,
福州市,路通桥巷6号,119.3106,26.0648,2026-02-12T0100,42,44,/,20,/,43,,59,细颗粒物(PM2.5)
抚顺市,望花区,123.7974,41.8494,2026-02-12T0100,73,111,2.0,54,13,18,,98,细颗粒物(PM2.5)
抚顺市,顺城区,123.9161,41.8827,2026-02-12T0100,78,115,1.7,72,14,4,,104,细颗粒物(PM2.5)
抚顺市,东洲区,124.0437,41.8615,2026-02-12T0100,57,85,1.3,28,13,30,,78,细颗粒物(PM2.5)
抚顺市,新抚区,123.9246,41.8638,2026-02-12T0100,81,138,1.4,60,8,7,,108,细颗粒物(PM2.5)
抚顺市,大伙房水库,124.0972,41.8961,2026-02-12T0100,38,53,1.1,18,10,48,,54,细颗粒物(PM2.5)
抚顺市,沈抚新城,123.708,41.8386,2026-02-12T0100,62,88,1.7,63,14,24,,84,细颗粒物(PM2.5)
抚州市,市站,116.3544,27.9833,2026-02-12T0100,75,82,1.3,24,5,33,,100,细颗粒物(PM2.5)
抚州市,血防站,116.3562,27.9631,2026-02-12T0100,64,77,1.2,45,5,8,,87,细颗粒物(PM2.5)
抚州市,采茶剧团,116.3561,28.0007,2026-02-12T0100,62,81,1.4,21,4,27,,84,细颗粒物(PM2.5)
抚州市,医学分院,116.3854,27.9648,2026-02-12T0100,59,85,1.2,28,4,23,,80,细颗粒物(PM2.5)
阜新市,工业园区,121.6095,41.9978,2026-02-12T0100,116,367,1.6,67,25,3,,225,颗粒物(PM10)
阜新市,长青街,121.6567,42.0188,2026-02-12T0100,116,120,1.6,64,14,2,,152,细颗粒物(PM2.5)
阜新市,农业园区,121.6672,42.07,2026-02-12T0100,85,110,1.0,30,26,51,,113,细颗粒物(PM2.5)
阜新市,玉龙新城,121.6343,42.0455,2026-02-12T0100,78,116,1.4,57,18,8,,104,细颗粒物(PM2.5)
阜阳市,市监测站,115.8276,32.8929,2026-02-12T0100,62,136,0.6,19,7,74,,93,颗粒物(PM10)
阜阳市,开发区,115.8551,32.8606,2026-02-12T0100,57,137,0.5,19,8,72,,94,颗粒物(PM10)
阜阳市,阜阳职业技术学院,115.783962,32.889217,2026-02-12T0100,44,126,0.5,21,9,87,,88,颗粒物(PM10)
阜阳市,市规划展馆,115.79,32.8614,2026-02-12T0100,56,163,0.6,17,11,81,,107,颗粒物(PM10)
阜阳市,枣园社区,115.835101,32.918568,2026-02-12T0100,41,160,0.5,17,11,82,,105,颗粒物(PM10)
甘南藏族自治州,州政府,102.9097,34.9841,2026-02-12T0100,41,58,0.8,26,8,26,,58,细颗粒物(PM2.5)
甘南藏族自治州,甘肃民族师范学院,102.8915,34.9618,2026-02-12T0100,28,62,0.4,22,6,38,,56,颗粒物(PM10)
甘孜藏族自治州,水桥子,101.96,30.048,2026-02-12T0100,6,18,0.7,12,6,38,,18,
甘孜藏族自治州,州环保局,101.9534,29.9976,2026-02-12T0100,13,,0.7,3,6,65,,21,
赣州市,地委,114.9368,25.8663,2026-02-12T0100,24,37,0.7,12,7,38,,37,
赣州市,气象台,114.946,25.8483,2026-02-12T0100,31,49,0.6,13,6,38,,49,
赣州市,市图书馆,114.932,25.8332,2026-02-12T0100,24,37,0.9,12,5,38,,37,
赣州市,华坚鞋城,114.8905,25.8472,2026-02-12T0100,34,38,0.5,15,4,40,,49,
赣州市,赣县区卫计委,115.0094,25.8614,2026-02-12T0100,25,36,0.8,14,7,25,,36,
固原市,监测站,106.2753,36.0057,2026-02-12T0100,51,130,0.5,18,12,58,,90,颗粒物(PM10)
固原市,新区,106.2384,36.0189,2026-02-12T0100,44,112,0.6,18,10,61,,81,颗粒物(PM10)
广安市,市委,106.6307,30.4577,2026-02-12T0100,99,108,1.6,65,6,6,,130,细颗粒物(PM2.5)
广安市,友谊中学,106.6266,30.4662,2026-02-12T0100,66,95,1.3,43,6,28,,89,细颗粒物(PM2.5)
广安市,广电花园,106.6386,30.4551,2026-02-12T0100,89,95,1.2,51,6,9,,118,细颗粒物(PM2.5)
广安市,北辰小学,106.6347,30.4868,2026-02-12T0100,73,81,1.0,23,9,37,,98,细颗粒物(PM2.5)
广元市,老城,105.8211,32.4444,2026-02-12T0100,39,77,0.5,55,2,14,,64,颗粒物(PM10)
广元市,监测站,105.8629,32.429,2026-02-12T0100,34,52,0.6,17,5,43,,51,颗粒物(PM10)
广元市,经开区,105.8047,32.4167,2026-02-12T0100,46,77,0.9,45,3,9,,64,"颗粒物(PM10),细颗粒物(PM2.5)"
广州市,广雅中学,113.2346,23.1423,2026-02-12T0100,24,34,0.7,34,2,22,,35,
广州市,市五中,113.2611,23.105,2026-02-12T0100,21,32,/,26,6,29,,32,
广州市,广东商学院,113.3477,23.0916,2026-02-12T0100,24,32,0.9,26,6,25,,35,
广州市,市八十六中,113.4332,23.105,2026-02-12T0100,20,35,/,25,4,34,,35,
广州市,番禺中学,113.3506,22.9488,2026-02-12T0100,22,47,0.8,26,3,28,,47,
广州市,花都师范,113.2147,23.3918,2026-02-12T0100,16,21,0.7,15,5,36,,23,
广州市,市监测站,113.2599,23.1329,2026-02-12T0100,22,32,/,23,1,22,,32,
广州市,九龙镇镇龙,113.5618,23.3119,2026-02-12T0100,23,31,0.7,17,6,29,,33,
广州市,麓湖,113.2764,23.1544,2026-02-12T0100,24,33,0.6,35,4,19,,35,
广州市,体育西,113.3209,23.1323,2026-02-12T0100,25,33,0.9,30,6,23,,36,
广州市,从化街口,113.5718,23.5493,2026-02-12T0100,20,28,0.8,22,9,24,,29,
广州市,白云竹料,113.3463,23.369,2026-02-12T0100,16,20,0.7,15,3,36,,23,
广州市,白云嘉禾,113.2981,23.2365,2026-02-12T0100,21,30,/,30,6,22,,30,
广州市,黄埔科学城,113.4256,23.1716,2026-02-12T0100,24,29,0.8,15,5,36,,35,
广州市,番禺大学城,113.3942,23.0485,2026-02-12T0100,19,43,0.7,20,7,34,,43,
广州市,南沙黄阁,113.4923,22.8169,2026-02-12T0100,21,47,/,46,6,18,,47,
广州市,南沙街,113.534,22.7893,2026-02-12T0100,,,,,,,,,
广州市,花都梯面,113.2905,23.5541,2026-02-12T0100,16,19,/,13,4,26,,23,
广州市,从化良口,113.786,23.7479,2026-02-12T0100,15,17,/,11,8,27,,22,
广州市,增城荔城,113.805,23.2614,2026-02-12T0100,11,15,0.5,11,5,54,,17,
贵港市,江南子站,109.604387,23.066791,2026-02-12T0100,35,,0.8,16,4,22,,50,
贵港市,荷城子站,109.5669,23.1065,2026-02-12T0100,16,36,1.1,18,5,20,,36,
贵港市,新世纪学校,109.5886,23.1172,2026-02-12T0100,26,29,0.7,23,/,16,,38,
贵港市,中山路155-3号,109.5933,23.095,2026-02-12T0100,31,36,0.6,19,/,17,,45,
贵阳市,马鞍山,106.6863,26.6035,2026-02-12T0100,23,36,/,15,6,40,,36,
贵阳市,鉴湖路,106.6241,26.6266,2026-02-12T0100,18,29,0.6,14,3,42,,29,
贵阳市,燕子冲,106.7468,26.6344,2026-02-12T0100,21,36,0.5,12,10,49,,36,
贵阳市,碧云窝,106.6556,26.4362,2026-02-12T0100,19,36,/,12,15,40,,36,
贵阳市,红边门,106.6963,26.6063,2026-02-12T0100,21,36,/,17,9,40,,36,
贵阳市,新华路,106.7162383,26.56964667,2026-02-12T0100,20,53,0.5,21,8,38,,52,颗粒物(PM10)
贵阳市,太慈桥,106.6742,26.542,2026-02-12T0100,19,24,/,15,5,40,,28,
贵阳市,花果园大街66号,106.688212,26.56952,2026-02-12T0100,20,22,/,13,1,31,,29,
贵阳市,漓江路57号,106.687268,26.516892,2026-02-12T0100,14,29,0.7,13,9,42,,29,
桂林市,龙隐路小学,110.3091,25.2705,2026-02-12T0100,26,29,0.7,12,3,19,,38,
桂林市,八中,110.2849361,25.22909545,2026-02-12T0100,24,46,0.7,23,3,18,,46,
桂林市,旅游学院,110.296,25.1254,2026-02-12T0100,26,38,0.8,11,4,25,,38,
桂林市,环湖路276号,110.1835,25.2444,2026-02-12T0100,19,22,1.0,18,2,34,,28,
桂林市,信义路13号,110.2803,25.2773,2026-02-12T0100,30,,1.1,16,5,25,,43,
果洛藏族自治州,玛沁县大武镇,100.2262,34.4854,2026-02-12T0100,,,,,,,,,
哈尔滨市,松北商大,126.5557,45.8109,2026-02-12T0100,67,,1.1,59,5,7,,90,细颗粒物(PM2.5)
哈尔滨市,南岗学府路,126.6162,45.719,2026-02-12T0100,90,109,1.7,72,8,6,,119,细颗粒物(PM2.5)
哈尔滨市,太平宏伟公园,126.6894,45.7733,2026-02-12T0100,113,126,2.0,43,11,10,,148,细颗粒物(PM2.5)
哈尔滨市,道外承德广场,126.6361,45.7672,2026-02-12T0100,60,83,1.1,78,9,6,,82,细颗粒物(PM2.5)
哈尔滨市,动力和平路,126.644,45.7261,2026-02-12T0100,64,71,1.2,63,11,11,,87,细颗粒物(PM2.5)
哈尔滨市,道里建国路,126.5933,45.7479,2026-02-12T0100,108,124,1.8,82,12,10,,142,细颗粒物(PM2.5)
哈尔滨市,平房东轻厂,126.6127,45.6119,2026-02-12T0100,70,,1.0,60,11,20,,94,细颗粒物(PM2.5)
哈尔滨市,呼兰师专,126.5875,45.9827,2026-02-12T0100,132,135,1.6,55,14,19,,175,细颗粒物(PM2.5)
哈尔滨市,省农科院,126.6299,45.6799,2026-02-12T0100,87,127,1.5,74,7,4,,115,细颗粒物(PM2.5)
哈尔滨市,华山路1号,126.6769,45.7379,2026-02-12T0100,61,97,1.7,75,14,10,,83,细颗粒物(PM2.5)
哈尔滨市,解放大街52号,126.9717,45.5356,2026-02-12T0100,64,78,1.1,27,19,30,,87,细颗粒物(PM2.5)
哈密市,地区监测站,93.5124,42.8176,2026-02-12T0100,47,92,0.9,26,9,32,,71,颗粒物(PM10)
哈密市,哈密师范学校,93.5014,42.8312,2026-02-12T0100,69,171,1.9,71,8,12,,111,颗粒物(PM10)
海北藏族自治州,海晏县西海镇,100.9016,36.9464,2026-02-12T0100,8,26,0.3,1,8,58,,26,
海东市,平安区公安局北苑,102.074,36.5056,2026-02-12T0100,51,68,0.9,6,17,50,,70,细颗粒物(PM2.5)
海东市,滨河路,102.0984,36.5119,2026-02-12T0100,54,86,0.9,57,32,26,,74,细颗粒物(PM2.5)
海口市,海南大学,110.3189,20.0596,2026-02-12T0100,16,35,0.4,5,5,88,,35,
海口市,秀英海南医院,110.2827,20.0051,2026-02-12T0100,17,29,0.3,14,7,70,,29,
海口市,海南师范大学,110.3391,19.9979,2026-02-12T0100,19,28,0.4,9,5,81,,28,
海口市,龙华路环保局宿舍,110.3303,20.0359,2026-02-12T0100,16,27,0.6,6,/,90,,29,
海口市,桂林洋子站,110.5111,19.9737,2026-02-12T0100,15,30,/,5,/,71,,30,
海口市,长滨二路9号,110.1952,20.0451,2026-02-12T0100,16,31,/,6,/,71,,31,
海南藏族自治州,共和县恰卜恰镇,100.6158,36.2985,2026-02-12T0100,32,,0.5,20,10,46,,46,
海西蒙古族藏族自治州,德令哈市,97.373,37.376,2026-02-12T0100,18,43,0.7,14,18,69,,43,
邯郸市,矿院,114.492,36.5712,2026-02-12T0100,71,125,0.6,28,4,38,,95,细颗粒物(PM2.5)
邯郸市,丛台公园,114.4839,36.6136,2026-02-12T0100,53,114,0.6,38,8,43,,82,颗粒物(PM10)
邯郸市,香泉濮院小区,114.7893,36.5592,2026-02-12T0100,48,156,0.6,13,4,64,,103,颗粒物(PM10)
邯郸市,峰峰矿区临水派出所,114.1998,36.4439,2026-02-12T0100,41,78,0.8,10,9,83,,64,颗粒物(PM10)
邯郸市,建安街268号,114.5209,36.7697,2026-02-12T0100,50,109,0.7,20,13,52,,80,颗粒物(PM10)
邯郸市,丛台东路558号,114.5488,36.6177,2026-02-12T0100,88,126,0.6,32,4,40,,117,细颗粒物(PM2.5)
汉中市,市监测站,107.0155,33.0707,2026-02-12T0100,92,139,1.1,29,6,31,,122,细颗粒物(PM2.5)
汉中市,鑫源开发区,107.0083,33.114,2026-02-12T0100,78,103,1.2,33,7,33,,104,细颗粒物(PM2.5)
汉中市,南郑大河坎水厂,107.0072,33.0323,2026-02-12T0100,62,108,0.8,17,5,40,,84,细颗粒物(PM2.5)
杭州市,滨江,120.2073,30.2111,2026-02-12T0100,70,132,0.7,58,7,33,,94,细颗粒物(PM2.5)
杭州市,西溪,120.0625,30.2737,2026-02-12T0100,47,86,0.8,33,8,15,,68,颗粒物(PM10)
杭州市,下沙,120.3417,30.315,2026-02-12T0100,73,111,0.5,54,9,47,,98,细颗粒物(PM2.5)
杭州市,卧龙桥,120.1252,30.2465,2026-02-12T0100,49,78,0.6,16,8,24,,68,细颗粒物(PM2.5)
杭州市,浙江农大,120.1902,30.2691,2026-02-12T0100,59,115,0.9,59,6,19,,83,颗粒物(PM10)
杭州市,和睦小学,120.1195,30.3121,2026-02-12T0100,70,116,1.0,57,5,17,,94,细颗粒物(PM2.5)
杭州市,临平镇,120.3076,30.4146,2026-02-12T0100,75,122,0.8,23,7,74,,100,细颗粒物(PM2.5)
杭州市,城厢镇,120.2753,30.1839,2026-02-12T0100,66,110,1.0,54,8,29,,89,细颗粒物(PM2.5)
杭州市,云栖,120.0883,30.1808,2026-02-12T0100,47,81,0.7,14,4,38,,66,颗粒物(PM10)
杭州市,镇二中,119.9463,30.0496,2026-02-12T0100,52,79,1.1,34,4,23,,72,细颗粒物(PM2.5)
杭州市,市府大楼,119.7184,30.2367,2026-02-12T0100,46,65,0.6,20,10,29,,64,细颗粒物(PM2.5)
杭州市,消防大队,120.1554,30.2863,2026-02-12T0100,70,111,1.0,54,6,28,,94,细颗粒物(PM2.5)
合肥市,明珠广场,117.1957,31.7845,2026-02-12T0100,56,122,0.7,49,7,56,,86,颗粒物(PM10)
合肥市,三里街,117.307,31.8765,2026-02-12T0100,60,129,1.1,54,7,52,,90,颗粒物(PM10)
合肥市,琥珀山庄,117.2587,31.8703,2026-02-12T0100,71,124,1.2,98,7,11,,95,细颗粒物(PM2.5)
合肥市,庐阳区,117.2593,31.9376,2026-02-12T0100,63,139,0.8,90,9,28,,95,颗粒物(PM10)
合肥市,瑶海区,117.345251,31.861615,2026-02-12T0100,50,129,0.5,40,6,78,,90,颗粒物(PM10)
合肥市,包河区,117.3033,31.7967,2026-02-12T0100,60,127,0.9,78,9,34,,89,颗粒物(PM10)
合肥市,滨湖新区,117.278,31.7392,2026-02-12T0100,52,134,0.8,21,5,84,,92,颗粒物(PM10)
合肥市,高新区,117.1324,31.8395,2026-02-12T0100,51,124,0.6,23,6,81,,87,颗粒物(PM10)
合肥市,高教基地,117.3802,31.9148,2026-02-12T0100,59,112,0.7,39,7,44,,81,颗粒物(PM10)
合肥市,中国科学技术大学,117.2518,31.8404,2026-02-12T0100,53,127,0.9,59,8,45,,89,颗粒物(PM10)
和田地区,地区环保局,79.9241,37.0878,2026-02-12T0100,178,617,3.2,56,10,23,,500,颗粒物(PM10)
和田地区,市环保局,79.9132,37.1137,2026-02-12T0100,167,621,2.0,67,9,17,,500,颗粒物(PM10)
河池市,市环保站,108.0496,24.6957,2026-02-12T0100,20,35,0.8,15,4,31,,35,
河池市,上任中路54号,108.0901,24.6945,2026-02-12T0100,19,30,0.7,15,7,28,,30,
河源市,东埔,114.6962,23.7538,2026-02-12T0100,14,15,0.6,11,5,40,,20,
河源市,老城,114.6895,23.7232,2026-02-12T0100,13,,0.6,11,5,41,,19,
菏泽市,定陶老年大学,115.5562,35.089,2026-02-12T0100,74,163,0.9,23,6,69,,107,颗粒物(PM10)
菏泽市,黄河路600号,115.4239,35.2593,2026-02-12T0100,82,188,0.6,19,16,70,,119,颗粒物(PM10)
菏泽市,菏泽市人社局,115.5025,35.2727,2026-02-12T0100,63,166,0.6,18,6,84,,108,颗粒物(PM10)
菏泽市,永昌路1号,115.479691,35.244011,2026-02-12T0100,65,166,0.6,16,5,86,,108,颗粒物(PM10)
菏泽市,长城路999号,115.471542,35.280012,2026-02-12T0100,62,174,0.6,21,6,86,,112,颗粒物(PM10)
贺州市,环保小区,111.5264,24.4178,2026-02-12T0100,14,20,0.4,10,3,36,,20,
贺州市,政协大楼,111.561,24.4074,2026-02-12T0100,14,31,0.8,9,4,34,,31,
贺州市,西湾,111.4744,24.455,2026-02-12T0100,13,20,0.8,13,5,28,,20,
鹤壁市,市监测站,114.17,35.9019,2026-02-12T0100,50,115,0.7,24,6,68,,83,颗粒物(PM10)
鹤壁市,市交警支队,114.2953,35.7512,2026-02-12T0100,54,148,0.6,35,10,46,,99,颗粒物(PM10)
鹤壁市,迎宾馆,114.2877,35.7302,2026-02-12T0100,63,152,0.7,39,4,42,,101,颗粒物(PM10)
鹤壁市,大新区,114.2616,35.6824,2026-02-12T0100,58,162,0.8,36,8,38,,106,颗粒物(PM10)
鹤壁市,南山宾馆,114.1573,35.9607,2026-02-12T0100,50,123,0.6,10,7,79,,87,颗粒物(PM10)
鹤岗市,哈啤分公司,130.2537,47.3416,2026-02-12T0100,32,44,0.3,7,7,99,,46,
鹤岗市,斯达机电,130.2683,47.3087,2026-02-12T0100,33,41,0.5,8,6,88,,48,
鹤岗市,东山纸板厂,130.3114,47.3388,2026-02-12T0100,41,76,3.1,40,13,31,,63,颗粒物(PM10)
黑河市,交通局,127.4832,50.2524,2026-02-12T0100,12,20,0.2,3,6,74,,24,
黑河市,环保局,127.5146,50.2339,2026-02-12T0100,,,,,,,75,,
衡水市,电机北厂,115.6839,37.754,2026-02-12T0100,80,152,0.9,27,11,79,,107,细颗粒物(PM2.5)
衡水市,市监测站,115.6303,37.7318,2026-02-12T0100,81,154,0.7,32,12,70,,108,细颗粒物(PM2.5)
衡水市,市城管局,115.6684,37.7216,2026-02-12T0100,73,151,0.7,30,11,76,,101,颗粒物(PM10)
衡水市,地表水厂,115.599,37.5491,2026-02-12T0100,87,166,0.9,60,13,40,,115,细颗粒物(PM2.5)
衡阳市,衡阳化工总厂,112.6209,26.9268,2026-02-12T0100,67,77,1.4,29,9,0,,90,细颗粒物(PM2.5)
衡阳市,珠晖区环保局,112.621,26.8957,2026-02-12T0100,69,92,1.8,34,6,2,,93,细颗粒物(PM2.5)
衡阳市,市委党校,112.628,26.8654,2026-02-12T0100,78,95,1.7,26,10,2,,104,细颗粒物(PM2.5)
衡阳市,市监测站,112.6007,26.8977,2026-02-12T0100,92,132,2.4,37,8,1,,122,细颗粒物(PM2.5)
衡阳市,真空机电公司,112.5658,26.9013,2026-02-12T0100,80,99,1.7,37,7,1,,107,细颗粒物(PM2.5)
衡阳市,师范学院,112.6703,26.8817,2026-02-12T0100,54,70,1.3,29,3,5,,74,细颗粒物(PM2.5)
红河哈尼族彝族自治州,州图书馆,103.3757,23.3679,2026-02-12T0100,10,18,0.8,6,10,57,,18,
红河哈尼族彝族自治州,蒙自市朝阳路,103.401,23.3561,2026-02-12T0100,18,,0.5,3,6,55,,26,
呼和浩特市,呼市一监,111.6506,40.7517,2026-02-12T0100,38,80,0.8,58,9,16,,65,颗粒物(PM10)
呼和浩特市,如意水处理厂,111.7516,40.8369,2026-02-12T0100,34,80,0.8,78,11,5,,65,颗粒物(PM10)
呼和浩特市,二十九中,111.727798,40.806187,2026-02-12T0100,45,91,0.7,44,13,24,,71,颗粒物(PM10)
呼和浩特市,化肥厂生活区,111.717,40.7617,2026-02-12T0100,33,84,0.5,40,6,29,,67,颗粒物(PM10)
呼和浩特市,海东办,111.6519,40.8389,2026-02-12T0100,44,97,0.9,70,5,3,,74,颗粒物(PM10)
呼和浩特市,成吉思汗西街8号,111.591512,40.827312,2026-02-12T0100,24,63,0.4,36,5,39,,57,颗粒物(PM10)
呼和浩特市,公园东路75号,111.6597,40.8077,2026-02-12T0100,39,95,0.9,69,8,14,,73,颗粒物(PM10)
呼和浩特市,金海路35号,111.5427,40.7846,2026-02-12T0100,28,76,0.2,48,7,27,,63,颗粒物(PM10)
呼伦贝尔市,国华电力东,119.7511,49.1576,2026-02-12T0100,15,33,0.4,18,5,56,,33,
呼伦贝尔市,伊敏大街东7号,119.7569,49.2222,2026-02-12T0100,23,,0.3,22,6,58,,33,
湖州市,城西水厂,120.075,30.867,2026-02-12T0100,72,103,0.7,58,5,24,,97,细颗粒物(PM2.5)
湖州市,仁皇山新区,120.083,30.8929,2026-02-12T0100,69,103,0.7,39,5,45,,93,细颗粒物(PM2.5)
湖州市,吴兴区站,120.1846,30.8592,2026-02-12T0100,83,115,0.9,37,5,48,,110,细颗粒物(PM2.5)
湖州市,南浔区站,120.4146,30.8538,2026-02-12T0100,79,117,1.0,34,7,55,,105,细颗粒物(PM2.5)
葫芦岛市,龙港区,120.904878,40.721091,2026-02-12T0100,68,102,1.3,46,10,26,,92,细颗粒物(PM2.5)
葫芦岛市,化工街,120.8382,40.7521,2026-02-12T0100,98,141,1.9,84,27,5,,129,细颗粒物(PM2.5)
葫芦岛市,新区,120.8339,40.7078,2026-02-12T0100,101,108,1.6,82,14,6,,133,细颗粒物(PM2.5)
葫芦岛市,东城区,120.8697,40.7679,2026-02-12T0100,102,136,2.1,68,41,5,,134,细颗粒物(PM2.5)
怀化市,河西地税局,109.9297,27.5383,2026-02-12T0100,43,62,/,22,3,0,,60,细颗粒物(PM2.5)
怀化市,市四医院,109.9783,27.5342,2026-02-12T0100,68,72,0.8,25,6,0,,92,细颗粒物(PM2.5)
怀化市,监测楼,109.9971,27.5579,2026-02-12T0100,62,79,0.5,20,3,0,,84,细颗粒物(PM2.5)
淮安市,钵池山,119.0566,33.5991,2026-02-12T0100,106,132,0.7,33,9,78,,139,细颗粒物(PM2.5)
淮安市,北京南路,119.0083,33.578,2026-02-12T0100,116,139,0.8,59,10,32,,152,细颗粒物(PM2.5)
淮安市,市监测站,118.9938,33.6083,2026-02-12T0100,96,122,1.1,31,21,90,,127,细颗粒物(PM2.5)
淮安市,楚州区监测站,119.135,33.5038,2026-02-12T0100,134,151,0.8,88,6,8,,178,细颗粒物(PM2.5)
淮安市,新华书店,118.8757,33.2897,2026-02-12T0100,107,123,0.6,35,7,67,,140,细颗粒物(PM2.5)
淮安市,枚皋中路89号,119.119691,33.550006,2026-02-12T0100,115,145,0.8,36,9,51,,150,细颗粒物(PM2.5)
淮安市,承德北路606号,119.028838,33.631911,2026-02-12T0100,132,171,1.0,79,9,32,,175,细颗粒物(PM2.5)
淮北市,监测站,116.8005,33.9749,2026-02-12T0100,67,142,0.9,35,8,69,,96,颗粒物(PM10)
淮北市,烈山区政府,116.8094,33.9008,2026-02-12T0100,108,190,0.7,43,8,52,,142,细颗粒物(PM2.5)
淮北市,市博物馆,116.7926,33.9534,2026-02-12T0100,79,155,0.7,29,9,74,,105,细颗粒物(PM2.5)
淮北市,杜集区第一实验学校,116.8322,33.9884,2026-02-12T0100,94,168,0.6,29,8,63,,124,细颗粒物(PM2.5)
淮南市,潘集区政府,116.8304,32.7726,2026-02-12T0100,60,144,0.6,25,8,79,,97,颗粒物(PM10)
淮南市,谢家集区政府,116.8569,32.5949,2026-02-12T0100,60,147,0.6,25,9,70,,99,颗粒物(PM10)
淮南市,八公山区政府,116.8279,32.6333,2026-02-12T0100,63,130,0.5,19,7,80,,90,颗粒物(PM10)
淮南市,经济技术开发区消防队,117.0561,32.6536,2026-02-12T0100,52,124,0.5,27,6,83,,87,颗粒物(PM10)
淮南市,山南新区,117.011,32.5891,2026-02-12T0100,59,156,0.6,25,10,80,,103,颗粒物(PM10)
淮南市,国庆中路369号,117.003137,32.644456,2026-02-12T0100,51,109,0.6,22,8,80,,80,颗粒物(PM10)
黄冈市,职工中心,114.9021,30.474,2026-02-12T0100,118,131,1.0,19,7,59,,155,细颗粒物(PM2.5)
黄冈市,红卫路,114.8858,30.4519,2026-02-12T0100,98,114,0.7,22,8,68,,129,细颗粒物(PM2.5)
黄冈市,市林业局,114.9134,30.4446,2026-02-12T0100,118,164,0.7,25,4,52,,155,细颗粒物(PM2.5)
黄南藏族自治州,同仁县隆务镇,102.02,35.5101,2026-02-12T0100,16,31,0.3,1,8,62,,31,
黄山市,延安路89号,118.2905,29.6965,2026-02-12T0100,18,45,0.5,14,4,24,,45,
黄山市,黄山区政府5号楼,118.1369,30.2755,2026-02-12T0100,29,53,0.4,12,2,17,,52,颗粒物(PM10)
黄山市,滨江东路7-2号,118.335445,29.720283,2026-02-12T0100,32,71,/,11,/,28,,61,颗粒物(PM10)
黄石市,沈家营,115.0547,30.2332,2026-02-12T0100,84,131,1.0,56,6,13,,112,细颗粒物(PM2.5)
黄石市,铁山,114.899,30.211,2026-02-12T0100,90,109,1.6,21,8,67,,119,细颗粒物(PM2.5)
黄石市,团城山,115.0259,30.2108,2026-02-12T0100,112,143,1.0,59,7,14,,147,细颗粒物(PM2.5)
黄石市,笔架山北路,115.0174,30.1591,2026-02-12T0100,103,171,1.4,20,10,58,,135,细颗粒物(PM2.5)
黄石市,磁湖东路29号,115.078022,30.21118,2026-02-12T0100,107,133,1.3,52,6,12,,140,细颗粒物(PM2.5)
惠州市,河南岸金山湖子站,114.4181,23.0528,2026-02-12T0100,12,20,0.6,16,6,51,,20,
惠州市,下埔横江三路子站,114.4055,23.0824,2026-02-12T0100,10,15,0.5,8,6,59,,19,
惠州市,惠阳区承修路船湖子站,114.4645,22.7832,2026-02-12T0100,22,46,0.6,10,6,105,,46,
惠州市,大亚湾管委会子站,114.5316,22.7423,2026-02-12T0100,21,42,0.6,8,6,105,,42,
惠州市,惠阳秋长,114.4334,22.8134,2026-02-12T0100,23,46,/,12,/,118,,46,
惠州市,大亚湾霞涌,114.6521,22.7755,2026-02-12T0100,21,31,/,13,/,102,,32,
惠州市,文华一路1号,114.4089,23.1147,2026-02-12T0100,10,15,/,10,/,57,,18,
鸡西市,环保局,130.9618,45.2926,2026-02-12T0100,26,34,0.3,7,6,78,,38,
鸡西市,第一中学,130.9294,45.2959,2026-02-12T0100,24,,0.4,8,4,80,,35,
鸡西市,欧美日汽修厂,131.0069,45.2988,2026-02-12T0100,27,45,0.0,6,7,75,,45,
吉安市,红声器材厂,114.9753,27.0803,2026-02-12T0100,50,76,0.9,19,7,12,,69,细颗粒物(PM2.5)
吉安市,市环境监测站,114.9903,27.1313,2026-02-12T0100,50,64,/,33,7,2,,69,细颗粒物(PM2.5)
吉安市,青原区法院,115.009527,27.096792,2026-02-12T0100,42,50,0.9,28,8,5,,59,细颗粒物(PM2.5)
吉林市,哈达湾,126.54,43.8622,2026-02-12T0100,45,47,1.0,25,10,61,,63,细颗粒物(PM2.5)
吉林市,东局子,126.5843,43.8358,2026-02-12T0100,56,64,1.0,34,6,37,,77,细颗粒物(PM2.5)
吉林市,电力学院,126.5051,43.8243,2026-02-12T0100,55,62,1.2,38,8,38,,75,细颗粒物(PM2.5)
吉林市,江北,126.6133,43.8971,2026-02-12T0100,69,79,1.1,33,19,36,,93,细颗粒物(PM2.5)
吉林市,江南公园,126.5549,43.8304,2026-02-12T0100,55,64,0.9,47,9,23,,75,细颗粒物(PM2.5)
吉林市,九站,126.4737,43.953,2026-02-12T0100,53,55,0.8,43,8,35,,73,细颗粒物(PM2.5)
济南市,科干所,116.9866,36.6118,2026-02-12T0100,63,,0.7,13,10,120,,,
济南市,农科所,116.9379,36.6652,2026-02-12T0100,74,154,0.8,19,10,110,,102,颗粒物(PM10)
济南市,开发区,117.1265,36.6736,2026-02-12T0100,58,134,0.6,14,8,127,,92,颗粒物(PM10)
济南市,省种子仓库,117.0616,36.6865,2026-02-12T0100,60,149,0.7,16,8,117,,100,颗粒物(PM10)
济南市,机床二厂,116.9495185,36.644937,2026-02-12T0100,67,154,0.7,22,12,114,,102,颗粒物(PM10)
济南市,市监测站,117.0496,36.6629,2026-02-12T0100,60,154,0.8,16,8,121,,102,颗粒物(PM10)
济南市,长清党校,116.7674,36.5458,2026-02-12T0100,67,161,0.8,30,9,109,,106,颗粒物(PM10)
济南市,东山小学,117.5323,36.6865,2026-02-12T0100,72,154,0.7,17,8,108,,102,颗粒物(PM10)
济南市,泰兴公司,117.7181,36.205,2026-02-12T0100,96,146,1.3,70,14,8,,127,细颗粒物(PM2.5)
济南市,莱芜战役纪念馆,117.6861,36.2172,2026-02-12T0100,86,156,1.0,47,18,57,,114,细颗粒物(PM2.5)
济南市,济阳区政府,117.1673,36.9782,2026-02-12T0100,70,154,0.6,21,10,98,,102,颗粒物(PM10)
济南市,锦屏中学,117.1168,36.6299,2026-02-12T0100,61,147,0.6,14,8,122,,99,颗粒物(PM10)
济南市,山财大街5号,117.7107,36.2385,2026-02-12T0100,78,146,1.2,50,21,72,,104,细颗粒物(PM2.5)
济南市,无影山路12号,116.9744,36.6889,2026-02-12T0100,69,146,0.6,18,10,110,,98,颗粒物(PM10)
济宁市,火炬城,116.6229,35.4288,2026-02-12T0100,61,139,0.6,16,4,98,,95,颗粒物(PM10)
济宁市,北湖一中,116.5808,35.3703,2026-02-12T0100,66,147,0.6,15,8,97,,99,颗粒物(PM10)
济宁市,服务中心,116.8251,35.5592,2026-02-12T0100,101,207,0.7,32,9,68,,133,细颗粒物(PM2.5)
济宁市,市第七中学,116.5907,35.4054,2026-02-12T0100,62,145,0.7,16,11,102,,98,颗粒物(PM10)
济宁市,任和路,116.6075,35.4566,2026-02-12T0100,58,154,0.6,16,8,103,,102,颗粒物(PM10)
济宁市,文体南路1号,116.5648,35.3921,2026-02-12T0100,67,133,0.6,16,6,99,,92,颗粒物(PM10)
佳木斯市,佳纺,130.2749,46.8028,2026-02-12T0100,61,62,0.6,28,8,68,,83,细颗粒物(PM2.5)
佳木斯市,环保局,130.3258,46.7975,2026-02-12T0100,53,59,0.6,14,8,80,,73,细颗粒物(PM2.5)
佳木斯市,顺和街,130.363,46.806,2026-02-12T0100,66,,0.6,20,8,79,,89,细颗粒物(PM2.5)
佳木斯市,长安路196号,130.3952,46.8268,2026-02-12T0100,56,59,0.5,14,5,86,,77,细颗粒物(PM2.5)
嘉兴市,清河小学,120.7439,30.778,2026-02-12T0100,96,145,0.4,61,6,20,,127,细颗粒物(PM2.5)
嘉兴市,嘉兴学院,120.7261,30.7477,2026-02-12T0100,91,147,1.1,43,5,31,,120,细颗粒物(PM2.5)
嘉兴市,南湖区残联,120.7845,30.7524,2026-02-12T0100,108,167,0.9,44,5,44,,142,细颗粒物(PM2.5)
嘉兴市,秀洲住建,120.6915,30.7741,2026-02-12T0100,80,124,0.8,59,6,15,,107,细颗粒物(PM2.5)
嘉峪关市,气象局,98.291,39.7705,2026-02-12T0100,25,73,0.6,4,7,,,,
嘉峪关市,酒钢宾馆,98.2672,39.7978,2026-02-12T0100,,,,,,,,,
嘉峪关市,雄关区,98.2644,39.7723,2026-02-12T0100,20,64,0.4,10,11,72,,57,颗粒物(PM10)
江门市,北街,113.1063,22.6058,2026-02-12T0100,24,35,/,22,/,33,,35,
江门市,西区,113.073,22.5835,2026-02-12T0100,23,36,/,25,/,34,,36,
江门市,圭峰西,113.0218,22.531,2026-02-12T0100,20,25,/,20,/,45,,29,
江门市,东湖,113.0826,22.5947,2026-02-12T0100,23,34,0.6,22,5,34,,34,
江门市,江海富民,113.1077,22.5647,2026-02-12T0100,24,49,0.6,25,/,38,,49,
江门市,新会银湖,113.0496,22.4669,2026-02-12T0100,23,48,0.6,28,6,28,,48,
焦作市,马村街道办,113.3137,35.2643,2026-02-12T0100,45,137,1.0,23,11,51,,94,颗粒物(PM10)
焦作市,焦作技师学院,113.2464,35.2374,2026-02-12T0100,31,102,0.4,20,6,68,,76,颗粒物(PM10)
焦作市,中站许衡医院,113.1656,35.2536,2026-02-12T0100,38,88,0.5,16,9,85,,69,颗粒物(PM10)
焦作市,原李万街道办,113.2456,35.18,2026-02-12T0100,45,91,0.9,33,13,36,,71,颗粒物(PM10)
焦作市,新安路1731号,113.234,35.219,2026-02-12T0100,44,112,0.7,31,,58,,,
焦作市,人民路3066号,113.2722,35.2121,2026-02-12T0100,52,122,1.2,58,9,13,,86,颗粒物(PM10)
揭阳市,新兴,116.3701,23.5345,2026-02-12T0100,18,31,0.6,15,7,71,,31,
揭阳市,西马,116.3261,23.5442,2026-02-12T0100,20,44,0.6,12,4,69,,44,
揭阳市,东兴,116.361,23.5627,2026-02-12T0100,15,25,/,11,8,69,,25,
揭阳市,渔湖,116.4151,23.5295,2026-02-12T0100,16,16,/,12,5,77,,25,
揭阳市,曲溪,116.4028,23.5699,2026-02-12T0100,15,29,0.6,8,2,79,,29,
金昌市,天庆家园,102.1691,38.5166,2026-02-12T0100,42,134,0.5,22,41,64,,92,颗粒物(PM10)
金昌市,金川区人防中心,102.1648,38.5369,2026-02-12T0100,35,148,0.5,20,44,61,,99,颗粒物(PM10)
金昌市,长春路96号,102.193042,38.531887,2026-02-12T0100,31,141,0.8,21,43,56,,96,颗粒物(PM10)
金华市,十五中,119.6478,29.0773,2026-02-12T0100,46,79,0.5,16,1,54,,65,颗粒物(PM10)
金华市,监测站,119.6859,29.1032,2026-02-12T0100,42,78,0.6,28,3,40,,64,颗粒物(PM10)
金华市,气象局,119.656,29.1132,2026-02-12T0100,43,78,0.7,29,2,44,,64,颗粒物(PM10)
锦州市,南山,121.1114,41.0879,2026-02-12T0100,68,74,1.0,54,12,15,,92,细颗粒物(PM2.5)
锦州市,开发区,121.060361,40.842794,2026-02-12T0100,87,200,1.5,83,13,2,,125,颗粒物(PM10)
锦州市,百股街道,121.1836,41.1118,2026-02-12T0100,102,111,1.8,51,13,14,,134,细颗粒物(PM2.5)
锦州市,天安街道,121.1176,41.1224,2026-02-12T0100,80,94,1.5,54,15,15,,107,细颗粒物(PM2.5)
锦州市,北湖公园,121.1303,41.1385,2026-02-12T0100,77,108,1.1,35,16,36,,103,细颗粒物(PM2.5)
晋城市,自来水公司,112.8496,35.5051,2026-02-12T0100,44,121,0.6,43,9,23,,86,颗粒物(PM10)
晋城市,市环保局,112.8509,35.4886,2026-02-12T0100,49,119,0.7,53,6,17,,85,颗粒物(PM10)
晋城市,泽州一中,112.8258,35.4804,2026-02-12T0100,30,120,0.6,19,5,57,,85,颗粒物(PM10)
晋城市,前书院路,112.8246,35.5152,2026-02-12T0100,21,94,0.4,16,8,49,,72,颗粒物(PM10)
晋城市,祥云街666号,112.8864,35.4773,2026-02-12T0100,35,100,0.5,34,10,47,,75,颗粒物(PM10)
晋中市,榆次区政府,112.6992,37.6984,2026-02-12T0100,54,110,0.8,64,17,9,,80,颗粒物(PM10)
晋中市,榆次三中,112.7195,37.683,2026-02-12T0100,48,100,0.8,58,13,3,,75,颗粒物(PM10)
晋中市,广安街188号,112.7375,37.7215,2026-02-12T0100,39,102,0.7,69,19,4,,76,颗粒物(PM10)
晋中市,迎宾街26号,112.7478,37.6954,2026-02-12T0100,52,95,0.7,35,16,26,,73,颗粒物(PM10)
荆门市,竹园小学,112.2012,31.048,2026-02-12T0100,71,129,0.9,26,4,48,,95,细颗粒物(PM2.5)
荆门市,掇刀,112.1968,30.9892,2026-02-12T0100,89,146,0.9,26,15,42,,118,细颗粒物(PM2.5)
荆门市,西山林语,112.1849,31.0361,2026-02-12T0100,68,116,0.6,20,4,39,,92,细颗粒物(PM2.5)
荆门市,龙泉中学南校,112.1631,31.0134,2026-02-12T0100,73,122,0.9,19,14,51,,98,细颗粒物(PM2.5)
荆门市,新台西路6号,112.2213,31.0654,2026-02-12T0100,77,113,0.7,22,13,51,,103,细颗粒物(PM2.5)
荆州市,市图书馆,112.2493,30.3198,2026-02-12T0100,61,75,0.8,24,7,,,,
荆州市,市委党校,112.2009,30.3543,2026-02-12T0100,63,92,1.1,32,6,,,,
荆州市,管委会,112.2749,30.3124,2026-02-12T0100,67,92,0.9,29,10,,,,
荆州市,学苑路85号,112.1722,30.3366,2026-02-12T0100,66,78,0.5,20,5,,,,
景德镇市,老干部活动中心,117.2114,29.2931,2026-02-12T0100,44,76,1.0,26,4,0,,63,颗粒物(PM10)
景德镇市,兽医站,117.1893,29.2789,2026-02-12T0100,38,74,0.5,28,4,5,,62,颗粒物(PM10)
景德镇市,陶研所,117.246,29.2958,2026-02-12T0100,30,53,0.8,21,3,2,,52,颗粒物(PM10)
景德镇市,青少年活动中心,117.154766,29.256967,2026-02-12T0100,,,,,,,64,,
九江市,十里,115.9873,29.6816,2026-02-12T0100,57,105,0.8,37,6,31,,78,"颗粒物(PM10),细颗粒物(PM2.5)"
九江市,茅山头,115.9583,29.7047,2026-02-12T0100,72,110,0.8,52,4,5,,97,细颗粒物(PM2.5)
九江市,西园,115.9877,29.7295,2026-02-12T0100,66,128,1.4,76,5,13,,89,"颗粒物(PM10),细颗粒物(PM2.5)"
九江市,综合工业园,115.9112,29.6038,2026-02-12T0100,30,78,0.8,28,5,41,,64,颗粒物(PM10)
九江市,外国语学校,116.0254,29.6995,2026-02-12T0100,53,111,0.7,42,6,33,,81,颗粒物(PM10)
九江市,莲花大道8号,116.010205,29.659402,2026-02-12T0100,29,89,0.5,8,3,62,,70,颗粒物(PM10)
酒泉市,玉门东路5号,98.495752,39.733935,2026-02-12T0100,23,78,0.3,6,10,60,,64,颗粒物(PM10)
酒泉市,北大街108号,98.5099,39.7506,2026-02-12T0100,23,73,0.3,6,9,66,,62,颗粒物(PM10)
喀什地区,巡警大队,76.0071,39.466,2026-02-12T0100,190,500,3.5,97,15,1,,400,颗粒物(PM10)
喀什地区,吾办,75.9756,39.4693,2026-02-12T0100,216,452,2.1,85,5,3,,340,颗粒物(PM10)
喀什地区,老干局,75.9485,39.4688,2026-02-12T0100,195,503,3.2,76,10,6,,403,颗粒物(PM10)
开封市,肿瘤医院,114.3389,34.778,2026-02-12T0100,54,158,0.7,27,8,64,,104,颗粒物(PM10)
开封市,世纪星幼儿园,114.2884,34.7966,2026-02-12T0100,50,159,0.6,28,8,66,,105,颗粒物(PM10)
开封市,龙亭公园,114.3434,34.8101,2026-02-12T0100,51,149,0.5,34,9,63,,100,颗粒物(PM10)
开封市,汴京公园,114.3645,34.7955,2026-02-12T0100,45,158,0.6,30,5,62,,104,颗粒物(PM10)
开封市,技师学院,114.2485,34.8306,2026-02-12T0100,54,148,0.5,22,8,79,,99,颗粒物(PM10)
开封市,祥符区生态环境局,114.4518,34.7503,2026-02-12T0100,50,154,0.5,28,5,61,,102,颗粒物(PM10)
克拉玛依市,长征新村,84.886,45.6029,2026-02-12T0100,40,56,0.8,19,5,60,,57,细颗粒物(PM2.5)
克拉玛依市,南林小区,84.8894,45.5827,2026-02-12T0100,37,61,0.7,11,1,66,,56,颗粒物(PM10)
克拉玛依市,独山子区,84.896,44.3328,2026-02-12T0100,64,85,0.7,12,3,101,,87,细颗粒物(PM2.5)
克拉玛依市,乌尔禾区商贸楼,85.6888,46.0909,2026-02-12T0100,50,68,1.2,18,9,60,,69,细颗粒物(PM2.5)
克拉玛依市,白碱滩区新站,85.1045,45.6895,2026-02-12T0100,45,60,0.8,21,10,66,,63,细颗粒物(PM2.5)
克孜勒苏柯尔克孜自治州,市人民政府,76.1457,39.7143,2026-02-12T0100,113,451,0.4,15,4,50,,339,颗粒物(PM10)
克孜勒苏柯尔克孜自治州,克州文化中心,76.1654,39.7157,2026-02-12T0100,115,428,0.4,10,4,62,,310,颗粒物(PM10)
昆明市,呈贡新区,102.8203,24.889,2026-02-12T0100,20,31,0.3,17,3,63,,31,
昆明市,龙泉镇,102.7253,25.0904,2026-02-12T0100,25,27,0.4,16,3,54,,36,
昆明市,东风东路,102.7267,25.0378,2026-02-12T0100,20,30,0.4,13,6,74,,30,
昆明市,金鼎山,102.6744,25.0671,2026-02-12T0100,34,63,0.5,26,4,46,,57,颗粒物(PM10)
昆明市,碧鸡广场,102.6643,25.0401,2026-02-12T0100,30,52,0.4,26,5,47,,51,颗粒物(PM10)
昆明市,官渡区博物馆,102.7491,25.012,2026-02-12T0100,27,30,0.5,32,4,43,,39,
昆明市,青年创业园,102.8016,24.8336,2026-02-12T0100,26,32,0.7,6,4,73,,38,
昆明市,昆明学院,102.8,24.9787,2026-02-12T0100,25,36,0.6,8,4,76,,36,
昆明市,晋宁区生态环境分局,102.5969,24.6738,2026-02-12T0100,20,31,0.4,5,1,78,,31,
昆明市,云天化总部,102.6673,24.9861,2026-02-12T0100,18,31,0.4,20,5,61,,31,
拉萨市,八廓街,91.132,29.6515,2026-02-12T0100,11,26,0.8,16,7,82,,26,
拉萨市,市环保局,91.1221,29.6748,2026-02-12T0100,6,19,0.4,14,7,86,,27,
拉萨市,区监测站,91.0874,29.6476,2026-02-12T0100,3,9,0.7,12,4,91,,29,
拉萨市,西藏大学,91.1774,29.6541,2026-02-12T0100,8,17,0.3,8,4,90,,29,
拉萨市,区辐射站,90.9798,29.6586,2026-02-12T0100,26,34,0.6,21,4,71,,38,
拉萨市,拉萨火车站,91.0831,29.6292,2026-02-12T0100,9,12,0.2,4,4,98,,31,
来宾市,来宾技工学校,109.2203,23.7252,2026-02-12T0100,19,19,0.9,18,5,30,,28,
来宾市,兴宾区政府,109.1781,23.7293,2026-02-12T0100,17,28,0.9,15,5,40,,28,
来宾市,中南小学,109.2312,23.7428,2026-02-12T0100,20,28,0.7,26,4,23,,29,
兰州市,铁路设计院,103.8309,36.0467,2026-02-12T0100,,,,,,,,,
兰州市,百合公园,103.7439,36.0841,2026-02-12T0100,51,110,1.1,84,10,1,,80,颗粒物(PM10)
兰州市,和平,103.9613,35.9985,2026-02-12T0100,36,107,0.6,14,10,70,,79,颗粒物(PM10)
兰州市,庄浪东路808号,103.629272,36.093822,2026-02-12T0100,41,85,0.6,29,16,59,,68,颗粒物(PM10)
兰州市,安宁西路88号,103.7251,36.104344,2026-02-12T0100,46,108,0.8,50,12,35,,79,颗粒物(PM10)
兰州市,北滨河东路1号,103.846982,36.067567,2026-02-12T0100,45,98,0.8,72,10,15,,74,颗粒物(PM10)
廊坊市,药材公司,116.6712,39.5109,2026-02-12T0100,90,132,0.7,28,6,45,,119,细颗粒物(PM2.5)
廊坊市,开发区,116.7215,39.5592,2026-02-12T0100,93,149,0.8,62,6,19,,123,细颗粒物(PM2.5)
廊坊市,北华航天学院,116.7246,39.5273,2026-02-12T0100,94,130,1.0,56,6,19,,124,细颗粒物(PM2.5)
廊坊市,河北工业大学,116.7022,39.5454,2026-02-12T0100,83,140,0.8,49,10,28,,110,细颗粒物(PM2.5)
乐山市,牛耳桥,103.7629,29.5844,2026-02-12T0100,44,79,0.7,30,5,44,,65,颗粒物(PM10)
乐山市,市第三水厂,103.7501,29.6002,2026-02-12T0100,44,78,0.9,46,3,27,,64,颗粒物(PM10)
乐山市,市监测站,103.7571,29.5664,2026-02-12T0100,39,68,0.9,23,6,55,,59,颗粒物(PM10)
乐山市,理工大学,103.7313,29.563,2026-02-12T0100,36,67,0.8,15,2,64,,59,颗粒物(PM10)
丽江市,丽江古城,100.2497,26.8802,2026-02-12T0100,18,22,0.5,7,6,82,,26,
丽江市,市中心,100.2203,26.8906,2026-02-12T0100,20,,0.3,8,5,84,,29,
丽水市,监测站大楼,119.9141,28.4513,2026-02-12T0100,23,43,0.4,6,4,60,,43,
丽水市,莲都小学,119.93,28.4589,2026-02-12T0100,24,49,/,8,/,61,,49,
丽水市,余庄前,119.8794,28.4232,2026-02-12T0100,24,43,0.5,10,4,14,,43,
连云港市,市环境监测站,119.1759,34.5885,2026-02-12T0100,141,158,0.8,29,8,59,,188,细颗粒物(PM2.5)
连云港市,德源药业,119.3577,34.6971,2026-02-12T0100,124,163,0.9,34,7,52,,163,细颗粒物(PM2.5)
连云港市,新城一中,119.178,34.8442,2026-02-12T0100,141,163,0.8,32,9,69,,188,细颗粒物(PM2.5)
连云港市,胡沟管理处,119.3607,34.7519,2026-02-12T0100,95,139,0.6,14,11,102,,125,细颗粒物(PM2.5)
连云港市,矿山设计院,119.1478,34.5913,2026-02-12T0100,132,168,1.2,30,8,54,,175,细颗粒物(PM2.5)
连云港市,工贸学校,119.2414,34.6539,2026-02-12T0100,118,157,1.0,23,12,89,,155,细颗粒物(PM2.5)
连云港市,连云街道,119.4171,34.734,2026-02-12T0100,96,138,0.7,20,8,110,,127,细颗粒物(PM2.5)
凉山彝族自治州,西昌市政府,102.2629,27.8981,2026-02-12T0100,16,39,0.7,6,9,73,,39,
凉山彝族自治州,凉山州政府,102.2686,27.885,2026-02-12T0100,23,35,0.9,17,11,49,,35,
凉山彝族自治州,凯乐南路30号,102.2342,27.8859,2026-02-12T0100,22,44,0.6,22,8,46,,44,
辽阳市,宏伟区,123.1978,41.2036,2026-02-12T0100,,,,,,,67,,
辽阳市,新华园,123.1684,41.2497,2026-02-12T0100,49,74,1.0,31,14,55,,68,细颗粒物(PM2.5)
辽阳市,滨河路,123.2355,41.2663,2026-02-12T0100,37,47,1.1,14,30,70,,53,细颗粒物(PM2.5)
辽阳市,铁西路150号,123.153,41.2874,2026-02-12T0100,54,78,1.1,26,15,57,,74,细颗粒物(PM2.5)
辽源市,环保局,125.1359,42.8845,2026-02-12T0100,61,78,1.3,45,4,15,,83,细颗粒物(PM2.5)
辽源市,安宁大街333号,125.0998,42.9134,2026-02-12T0100,65,76,1.2,33,4,19,,88,细颗粒物(PM2.5)
聊城市,区政府,115.9789,36.4372,2026-02-12T0100,72,174,0.9,20,17,76,,112,颗粒物(PM10)
聊城市,监控中心,115.9772,36.4986,2026-02-12T0100,71,188,0.9,22,14,91,,119,颗粒物(PM10)
聊城市,九州社区,116.0443,36.436,2026-02-12T0100,77,172,0.8,9,3,85,,111,颗粒物(PM10)
聊城市,星美广场,116.0564,36.4609,2026-02-12T0100,72,174,0.8,14,4,85,,112,颗粒物(PM10)
聊城市,利民路,116.0091,36.4495,2026-02-12T0100,64,177,1.0,20,13,89,,114,颗粒物(PM10)
林芝市,林芝监测站,94.3683,29.6373,2026-02-12T0100,11,15,0.4,1,4,89,,28,
林芝市,林芝人民医院,94.3616,29.6634,2026-02-12T0100,10,18,0.4,2,5,84,,27,
临沧市,市环保局,100.0779,23.8981,2026-02-12T0100,23,28,0.7,8,5,49,,33,
临沧市,市气象局,100.0894,23.882,2026-02-12T0100,28,47,0.6,9,6,50,,47,
临汾市,临钢医院,111.5552,36.0791,2026-02-12T0100,35,84,0.7,16,6,39,,67,颗粒物(PM10)
临汾市,技工学校,111.4984,36.0734,2026-02-12T0100,60,117,0.2,42,11,11,,84,颗粒物(PM10)
临汾市,市委,111.5017,36.0857,2026-02-12T0100,52,112,0.7,49,8,14,,81,颗粒物(PM10)
临汾市,唐尧大酒店,111.5048,36.1015,2026-02-12T0100,34,109,0.9,48,8,18,,80,颗粒物(PM10)
临汾市,启星学校,111.4879,36.053,2026-02-12T0100,53,115,0.7,60,8,10,,83,颗粒物(PM10)
临夏回族自治州,滨河东路1号,103.2464,35.6123,2026-02-12T0100,94,179,1.4,21,7,11,,124,细颗粒物(PM2.5)
临夏回族自治州,新华街21号,103.207136,35.599807,2026-02-12T0100,115,201,1.8,30,10,27,,150,细颗粒物(PM2.5)
临沂市,沂河小区,118.3429,35.0532,2026-02-12T0100,108,166,0.8,28,22,82,,142,细颗粒物(PM2.5)
临沂市,鲁南制药厂,118.2962,35.0568,2026-02-12T0100,129,180,0.9,42,24,60,,170,细颗粒物(PM2.5)
临沂市,新光毛纺厂,118.2793,34.9976,2026-02-12T0100,113,158,0.9,31,23,79,,148,细颗粒物(PM2.5)
临沂市,河东保险公司,118.3955,35.0889,2026-02-12T0100,112,156,1.0,34,18,91,,147,细颗粒物(PM2.5)
临沂市,十里堡居委,118.3563,35.0215,2026-02-12T0100,128,178,1.1,42,26,69,,169,细颗粒物(PM2.5)
临沂市,南坊新区,118.359,35.1067,2026-02-12T0100,101,151,0.7,24,17,90,,133,细颗粒物(PM2.5)
临沂市,皇山花园小区,118.3915,35.0297,2026-02-12T0100,128,180,1.1,42,22,72,,169,细颗粒物(PM2.5)
柳州市,柳东小学,109.4854,24.3898,2026-02-12T0100,14,20,0.8,8,4,41,,20,
柳州市,环保监测站,109.4109,24.3304,2026-02-12T0100,12,24,0.8,14,4,41,,24,
柳州市,河西水厂,109.3886,24.3408,2026-02-12T0100,17,23,0.6,13,5,43,,25,
柳州市,市四中,109.4263,24.2951,2026-02-12T0100,19,26,0,17,6,30,,28,
柳州市,市九中,109.396,24.3658,2026-02-12T0100,15,19,0.9,11,8,36,,22,
柳州市,古亭山,109.4912,24.3164,2026-02-12T0100,15,15,0.9,11,6,37,,22,
柳州市,市二中,109.5422,24.3994,2026-02-12T0100,14,17,0.6,12,5,39,,20,
六安市,监测大楼,116.5078,31.7369,2026-02-12T0100,59,102,0.5,20,3,62,,80,细颗粒物(PM2.5)
六安市,皖西学院,116.4738,31.7642,2026-02-12T0100,54,112,0.6,21,5,70,,81,颗粒物(PM10)
六安市,朝阳厂,116.4997,31.7904,2026-02-12T0100,50,94,0.6,29,6,69,,72,颗粒物(PM10)
六安市,开发区,116.5566,31.7885,2026-02-12T0100,56,122,0.5,16,6,74,,86,颗粒物(PM10)
六盘水市,黄土坡,104.8293,26.592,2026-02-12T0100,16,24,0.8,15,7,33,,24,
六盘水市,民中,104.8481,26.5898,2026-02-12T0100,23,25,0.8,14,4,34,,33,
六盘水市,双水,104.9541,26.5506,2026-02-12T0100,15,,0.7,9,3,41,,22,
六盘水市,钟山大道中段564号,104.8899,26.5685,2026-02-12T0100,21,22,0.9,9,7,35,,30,
龙岩市,龙岩市监测站,117.022,25.1031,2026-02-12T0100,17,,0.8,7,6,37,,25,
龙岩市,闽西职业技术学院,117.0257,25.0662,2026-02-12T0100,16,,0.8,8,5,36,,23,
龙岩市,龙岩学院,117.0195,25.0306,2026-02-12T0100,14,18,/,11,4,35,,20,
陇南市,滨江中学,104.9344,33.3827,2026-02-12T0100,36,72,0.9,20,5,49,,61,颗粒物(PM10)
陇南市,市总工会,104.9551,33.3709,2026-02-12T0100,30,81,0.7,17,2,54,,66,颗粒物(PM10)
娄底市,市监测站,111.9984,27.7346,2026-02-12T0100,72,101,1.0,35,3,8,,97,细颗粒物(PM2.5)
娄底市,市政府,111.9888,27.7035,2026-02-12T0100,60,93,0.7,15,1,6,,82,细颗粒物(PM2.5)
娄底市,涟钢职大,111.9812,27.7591,2026-02-12T0100,62,100,1.3,35,2,4,,84,细颗粒物(PM2.5)
娄底市,娄底体校,112.0303,27.7457,2026-02-12T0100,49,63,0.5,12,2,5,,68,细颗粒物(PM2.5)
泸州市,小市上码头,105.4427,28.9063,2026-02-12T0100,72,98,1.0,29,6,44,,97,细颗粒物(PM2.5)
泸州市,兰田宪桥,105.4241,28.8573,2026-02-12T0100,63,103,0.9,24,8,51,,85,细颗粒物(PM2.5)
泸州市,市环监站,105.4378,28.8833,2026-02-12T0100,64,102,0.8,35,7,39,,87,细颗粒物(PM2.5)
泸州市,纳溪中医医院,105.3689,28.7783,2026-02-12T0100,69,90,0.8,27,8,24,,93,细颗粒物(PM2.5)
吕梁市,环保局,111.1447,37.5212,2026-02-12T0100,,,,,,,74,,
吕梁市,自来水公司,111.1285,37.5338,2026-02-12T0100,43,195,0.5,54,15,1,,123,颗粒物(PM10)
吕梁市,马茂庄小学,111.1225,37.5093,2026-02-12T0100,,,,,,,68,,
洛阳市,市委党校,112.3934,34.6517,2026-02-12T0100,79,153,1.1,61,12,6,,105,细颗粒物(PM2.5)
洛阳市,河南林校,112.494,34.6883,2026-02-12T0100,59,160,0.8,76,13,5,,105,颗粒物(PM10)
洛阳市,开发区管委会,112.3843,34.623,2026-02-12T0100,67,154,0.7,42,10,39,,102,颗粒物(PM10)
洛阳市,市委新办公区,112.4263,34.6249,2026-02-12T0100,66,166,0.7,56,10,17,,108,颗粒物(PM10)
洛阳市,伊滨,112.6005,34.6323,2026-02-12T0100,,,,,,,88,,
洛阳市,中移产业园,112.495,34.6338,2026-02-12T0100,63,152,1.1,78,11,0,,101,颗粒物(PM10)
洛阳市,吉利监测站,112.5736,34.8993,2026-02-12T0100,37,118,0.6,21,9,54,,84,颗粒物(PM10)
洛阳市,河科大西苑校区,112.3678,34.6623,2026-02-12T0100,60,154,1.2,44,15,22,,102,颗粒物(PM10)
洛阳市,英才小学,112.4387,34.678,2026-02-12T0100,79,181,1.1,80,16,5,,116,颗粒物(PM10)
洛阳市,春都路1号院,112.460027,34.694929,2026-02-12T0100,64,171,0.9,64,10,12,,111,颗粒物(PM10)
漯河市,三五一五工厂,114.051,33.5721,2026-02-12T0100,51,155,0.6,20,5,72,,103,颗粒物(PM10)
漯河市,漯河大学,114.0055,33.5698,2026-02-12T0100,47,126,0.7,20,6,66,,88,颗粒物(PM10)
漯河市,市水利局,114.0134,33.5826,2026-02-12T0100,52,129,0.6,19,5,71,,90,颗粒物(PM10)
漯河市,市广电局,114.0261,33.5697,2026-02-12T0100,54,117,0.5,22,6,63,,84,颗粒物(PM10)
漯河市,市图书馆,113.9691,33.568,2026-02-12T0100,47,146,0.7,16,7,63,,98,颗粒物(PM10)
漯河市,韶山路11号,114.089259,33.588274,2026-02-12T0100,53,142,0.5,26,6,62,,96,颗粒物(PM10)
马鞍山市,湖东路四小,118.5084,31.6838,2026-02-12T0100,80,150,0.7,70,5,10,,107,细颗粒物(PM2.5)
马鞍山市,开发区,118.5019,31.6449,2026-02-12T0100,75,150,0.6,66,4,25,,100,"颗粒物(PM10),细颗粒物(PM2.5)"
马鞍山市,雨山,118.4914,31.681,2026-02-12T0100,82,163,1.0,78,5,17,,109,细颗粒物(PM2.5)
马鞍山市,慈湖高新区,118.527362,31.722269,2026-02-12T0100,77,142,0.7,59,4,32,,103,细颗粒物(PM2.5)
茂名市,电白南海,111.0285,21.469,2026-02-12T0100,22,,0.9,17,8,66,,,
茂名市,茂石化七小,110.9294,21.6533,2026-02-12T0100,21,44,0.4,11,8,60,,44,
茂名市,健康路,110.9108,21.6688,2026-02-12T0100,18,29,0.6,10,9,74,,29,
茂名市,高岭,110.8592,21.6826,2026-02-12T0100,22,48,/,17,2,68,,48,
茂名市,电白水东,111.0101,21.5165,2026-02-12T0100,27,36,/,21,8,70,,39,
眉山市,气象局,103.8414,30.0871,2026-02-12T0100,55,86,0.7,34,8,31,,75,细颗粒物(PM2.5)
眉山市,区人社局,103.829,30.0563,2026-02-12T0100,43,64,0.6,35,1,32,,60,细颗粒物(PM2.5)
眉山市,眉职院,103.8836,30.0695,2026-02-12T0100,40,66,0.7,14,3,40,,58,颗粒物(PM10)
梅州市,梅江月梅,116.1248,24.3307,2026-02-12T0100,8,,/,14,/,34,,12,
梅州市,梅县新城,116.0798,24.2719,2026-02-12T0100,8,14,0.6,12,7,40,,14,
梅州市,梅龙,116.1234,24.2994,2026-02-12T0100,10,,0.7,11,7,35,,15,
绵阳市,富乐山,104.7775,31.4741,2026-02-12T0100,46,56,0.8,24,8,26,,64,细颗粒物(PM2.5)
绵阳市,高新区自来水公司,104.6698,31.4668,2026-02-12T0100,58,90,1.0,57,7,1,,79,细颗粒物(PM2.5)
绵阳市,西科大附属小学,104.6899,31.5324,2026-02-12T0100,52,86,0.9,37,8,18,,72,细颗粒物(PM2.5)
绵阳市,安州区旅游局,104.5647,31.5343,2026-02-12T0100,69,112,1.3,44,12,6,,93,细颗粒物(PM2.5)
绵阳市,科技城新区公安局,104.7092,31.4972,2026-02-12T0100,53,78,0.9,38,5,35,,73,细颗粒物(PM2.5)
绵阳市,绵阳市气象局,104.765114,31.453094,2026-02-12T0100,59,87,0.6,47,9,8,,80,细颗粒物(PM2.5)
牡丹江市,环保大楼,129.61,44.561,2026-02-12T0100,40,49,0.6,28,4,58,,57,细颗粒物(PM2.5)
牡丹江市,机车工厂,129.6364,44.6075,2026-02-12T0100,50,79,0.9,60,6,7,,69,细颗粒物(PM2.5)
牡丹江市,第一中学,129.6386,44.5462,2026-02-12T0100,32,,0.7,38,6,24,,46,
牡丹江市,东晓云街98号,129.5992,44.5964,2026-02-12T0100,36,54,0.8,14,7,59,,52,"颗粒物(PM10),细颗粒物(PM2.5)"
内江市,市监测站,105.0703,29.61,2026-02-12T0100,55,80,0.8,28,5,48,,75,细颗粒物(PM2.5)
内江市,内江二中,105.0657,29.5807,2026-02-12T0100,52,78,0.6,49,6,30,,72,细颗粒物(PM2.5)
内江市,内江日报社,105.0407,29.5828,2026-02-12T0100,51,70,0.4,28,8,61,,70,细颗粒物(PM2.5)
内江市,玉峰路西段888号,105.0433,29.6105,2026-02-12T0100,54,63,0.6,23,4,60,,74,细颗粒物(PM2.5)
那曲市,那曲监测站,92.0653,31.4846,2026-02-12T0100,21,,0.9,15,9,77,,30,
那曲市,那曲市委宣传部,92.0515,31.4787,2026-02-12T0100,9,,0.4,2,6,94,,30,
南昌市,省林业公司,115.8887,28.7006,2026-02-12T0100,98,163,0.9,62,4,1,,129,细颗粒物(PM2.5)
南昌市,林科所,115.813,28.7443,2026-02-12T0100,30,85,1.8,71,8,2,,68,颗粒物(PM10)
南昌市,建工学校,115.8518,28.687,2026-02-12T0100,92,204,0.8,60,6,12,,127,颗粒物(PM10)
南昌市,象湖,115.8926,28.6425,2026-02-12T0100,90,122,1.3,46,8,0,,119,细颗粒物(PM2.5)
南昌市,机电学校,115.9084,28.6062,2026-02-12T0100,106,160,1.0,53,5,6,,139,细颗粒物(PM2.5)
南昌市,外国语学校,115.9718,28.7032,2026-02-12T0100,125,179,1.4,49,12,1,,165,细颗粒物(PM2.5)
南昌市,工业二路,115.7923,28.6873,2026-02-12T0100,55,104,0.8,62,4,6,,77,颗粒物(PM10)
南昌市,南京东路235号,115.931587,28.686774,2026-02-12T0100,111,176,1.4,53,7,4,,145,细颗粒物(PM2.5)
南充市,南充市委,106.0791,30.8022,2026-02-12T0100,45,66,0.7,27,3,29,,63,细颗粒物(PM2.5)
南充市,南充炼油厂,106.1038,30.8215,2026-02-12T0100,57,93,0.5,48,6,22,,78,细颗粒物(PM2.5)
南充市,梨树横街98号,106.108336,30.788436,2026-02-12T0100,56,85,0.8,63,6,6,,77,细颗粒物(PM2.5)
南充市,清泉寺北路188号,106.1172,30.843,2026-02-12T0100,45,59,0.7,22,7,58,,63,细颗粒物(PM2.5)
南充市,同庆路1号,106.067,30.7616,2026-02-12T0100,49,72,0.6,72,5,1,,68,细颗粒物(PM2.5)
南京市,迈皋桥,118.8033,32.1085,2026-02-12T0100,68,101,0.8,68,6,15,,92,细颗粒物(PM2.5)
南京市,草场门,118.7487,32.057,2026-02-12T0100,78,134,1.5,103,8,11,,104,细颗粒物(PM2.5)
南京市,中华门,118.770105,32.004342,2026-02-12T0100,87,136,1.0,72,5,1,,115,细颗粒物(PM2.5)
南京市,瑞金路,118.8059,32.0329,2026-02-12T0100,83,110,1.8,89,4,3,,110,细颗粒物(PM2.5)
南京市,玄武湖,118.7946,32.0774,2026-02-12T0100,64,122,1.3,66,1,15,,87,细颗粒物(PM2.5)
南京市,浦口,118.6415,32.0964,2026-02-12T0100,66,123,0.6,16,5,95,,89,细颗粒物(PM2.5)
南京市,奥体中心,118.730129,32.000956,2026-02-12T0100,72,133,1.0,93,5,4,,97,细颗粒物(PM2.5)
南京市,仙林大学城,118.9072,32.1047,2026-02-12T0100,80,119,0.8,63,5,17,,107,细颗粒物(PM2.5)
南京市,江宁彩虹桥,118.8443,31.919,2026-02-12T0100,84,146,1.2,97,4,8,,112,细颗粒物(PM2.5)
南京市,六合雄州,118.8497,32.3599,2026-02-12T0100,110,134,0.8,59,1,16,,144,细颗粒物(PM2.5)
南京市,新模范马路66号,118.7641,32.0841,2026-02-12T0100,76,129,1.1,99,3,16,,102,细颗粒物(PM2.5)
南京市,汶溪路181号,118.8707617,31.34017673,2026-02-12T0100,71,150,1.0,25,6,68,,100,颗粒物(PM10)
南京市,中山西路1号,119.019,31.6512,2026-02-12T0100,69,100,1.3,44,4,8,,93,细颗粒物(PM2.5)
南宁市,二十一中,108.3098,22.788,2026-02-12T0100,18,,0.6,22,4,24,,26,
南宁市,北湖,108.3135,22.8529,2026-02-12T0100,27,,0.7,20,5,27,,39,
南宁市,市监测站,108.3205,22.8222,2026-02-12T0100,19,31,0.7,16,7,32,,31,
南宁市,大自然花园,108.3828,22.8038,2026-02-12T0100,17,,0.8,10,6,37,,,
南宁市,区农职院,108.2397,22.8462,2026-02-12T0100,20,31,1.0,26,4,19,,31,
南宁市,英华嘉园,108.3285,22.7356,2026-02-12T0100,18,18,0.5,12,3,31,,26,
南宁市,红星社区,108.4829,22.762,2026-02-12T0100,17,,0.7,5,5,46,,,
南宁市,起凤路9号,108.2927,23.1477,2026-02-12T0100,28,35,0.7,14,1,19,,40,
南宁市,乐贤路16号,108.2177,22.7774,2026-02-12T0100,22,28,1.0,26,3,20,,32,
南平市,南平市监测站,118.1682,26.6371,2026-02-12T0100,24,43,0.7,16,3,11,,43,
南平市,南平七中,118.1757,26.6276,2026-02-12T0100,18,22,0.7,14,2,10,,26,
南通市,狼山街道,120.9056,31.9669,2026-02-12T0100,69,86,0.6,21,2,61,,93,细颗粒物(PM2.5)
南通市,城中,120.8635,32.0231,2026-02-12T0100,74,91,0.8,25,5,79,,99,细颗粒物(PM2.5)
南通市,星湖花园,120.9376,31.9301,2026-02-12T0100,72,84,0.7,24,4,78,,97,细颗粒物(PM2.5)
南通市,紫琅学院,120.8053,32.046,2026-02-12T0100,72,97,1.0,29,4,62,,97,细颗粒物(PM2.5)
南通市,通州监测站,121.0631,32.0644,2026-02-12T0100,76,92,0.7,17,3,86,,102,细颗粒物(PM2.5)
南通市,环境教育馆,120.9348,31.9874,2026-02-12T0100,69,102,0.9,43,3,36,,93,细颗粒物(PM2.5)
南通市,洪江路,120.8692,31.9885,2026-02-12T0100,72,80,0.7,36,4,59,,97,细颗粒物(PM2.5)
南阳市,瓦房庄,112.5338,33.0086,2026-02-12T0100,54,127,1.0,37,5,38,,89,颗粒物(PM10)
南阳市,汉画馆,112.5002,32.9734,2026-02-12T0100,64,127,0.9,26,4,45,,89,颗粒物(PM10)
南阳市,气象站,112.5778,33.0144,2026-02-12T0100,41,146,0.7,20,5,71,,98,颗粒物(PM10)
南阳市,理工学院,112.548,32.9687,2026-02-12T0100,44,119,0.6,15,6,76,,85,颗粒物(PM10)
南阳市,卧龙区政府,112.5233,32.9921,2026-02-12T0100,48,140,0.8,37,6,39,,95,颗粒物(PM10)
宁波市,区环保大楼,121.8352,29.9111,2026-02-12T0100,88,137,0.9,53,5,30,,117,细颗粒物(PM2.5)
宁波市,万里学院,121.5595,29.8208,2026-02-12T0100,82,116,0.9,49,2,32,,109,细颗粒物(PM2.5)
宁波市,龙赛医院,121.713,29.9564,2026-02-12T0100,90,122,1.0,64,4,24,,119,细颗粒物(PM2.5)
宁波市,太古小学,121.5855,29.8635,2026-02-12T0100,84,129,0.9,62,,20,,112,细颗粒物(PM2.5)
宁波市,市环境监测中心,121.5239,29.8673,2026-02-12T0100,104,147,1.1,84,3,1,,137,细颗粒物(PM2.5)
宁波市,万里国际学校,121.6156,29.9015,2026-02-12T0100,90,122,0.8,36,4,,,119,细颗粒物(PM2.5)
宁波市,白沙活动中心,121.5593,29.8976,2026-02-12T0100,83,134,1.0,70,3,14,,110,细颗粒物(PM2.5)
宁波市,中科路88号,121.8962,29.7529,2026-02-12T0100,95,116,0.8,29,4,38,,125,细颗粒物(PM2.5)
宁德市,宁德市监测站,119.5387,26.6611,2026-02-12T0100,26,26,0.6,13,3,63,,38,
宁德市,宁德一中,119.5231,26.6562,2026-02-12T0100,29,47,0.3,12,4,64,,47,
怒江傈僳族自治州,州监测站,98.859,25.8541,2026-02-12T0100,16,27,0.4,11,5,65,,27,
怒江傈僳族自治州,泸水一中,98.8607,25.8168,2026-02-12T0100,26,28,0.7,18,5,34,,38,
攀枝花市,弄弄坪,101.6891,26.571,2026-02-12T0100,46,121,6.5,74,149,2,,86,颗粒物(PM10)
攀枝花市,河门口,101.577,26.5914,2026-02-12T0100,16,29,0.5,19,21,36,,29,
攀枝花市,仁和,101.7365,26.4986,2026-02-12T0100,22,36,0.6,18,7,46,,36,
攀枝花市,四十中小,101.7222,26.567,2026-02-12T0100,14,32,0.8,26,10,57,,32,
盘锦市,开发区,122.0303,41.1489,2026-02-12T0100,61,,0.5,16,4,54,,83,细颗粒物(PM2.5)
盘锦市,兴隆台,122.0486,41.0883,2026-02-12T0100,64,,0.5,25,5,62,,87,细颗粒物(PM2.5)
盘锦市,新生街道,121.8297,41.1026,2026-02-12T0100,64,,0.6,22,6,56,,87,细颗粒物(PM2.5)
平顶山市,新华旅馆,113.3257,33.7423,2026-02-12T0100,55,119,0.3,17,5,84,,85,颗粒物(PM10)
平顶山市,规划设计院,113.2917,33.737,2026-02-12T0100,59,130,0.4,11,6,76,,90,颗粒物(PM10)
平顶山市,平顶山工学院,113.182,33.7738,2026-02-12T0100,48,117,0.4,12,8,84,,84,颗粒物(PM10)
平顶山市,石龙区,112.8736,33.9068,2026-02-12T0100,46,135,0.7,5,6,95,,93,颗粒物(PM10)
平顶山市,姚电大道23号,113.284,33.7139,2026-02-12T0100,53,134,0.6,19,4,74,,92,颗粒物(PM10)
平凉市,聚贤嘉苑,106.6633,35.5338,2026-02-12T0100,50,109,0.6,20,6,55,,80,颗粒物(PM10)
平凉市,博物馆,106.7021,35.5307,2026-02-12T0100,47,127,1.0,21,12,50,,89,颗粒物(PM10)
萍乡市,中医院,113.8384,27.6436,2026-02-12T0100,97,115,1.0,29,3,1,,128,细颗粒物(PM2.5)
萍乡市,市环保局,113.8677,27.6438,2026-02-12T0100,66,78,0.6,34,10,7,,89,细颗粒物(PM2.5)
萍乡市,安源区政府,113.8663,27.6202,2026-02-12T0100,76,122,1.2,20,8,0,,102,细颗粒物(PM2.5)
萍乡市,联洪村委会,113.8686,27.6668,2026-02-12T0100,49,65,0.4,28,1,6,,68,细颗粒物(PM2.5)
莆田市,荔城区仓后路,119.0142,25.4324,2026-02-12T0100,21,56,/,13,/,69,,53,颗粒物(PM10)
莆田市,莆田市监测站,119.0016,25.4553,2026-02-12T0100,18,34,0.5,7,2,69,,34,
莆田市,涵江区六中,119.112,25.4561,2026-02-12T0100,22,71,0.6,9,/,87,,61,颗粒物(PM10)
莆田市,秀屿区政府,119.1014,25.3215,2026-02-12T0100,21,51,0.7,8,2,77,,51,颗粒物(PM10)
濮阳市,环保局,115.0312,35.7636,2026-02-12T0100,43,115,0.4,17,7,76,,83,颗粒物(PM10)
濮阳市,濮水河管理处,115,35.7667,2026-02-12T0100,44,126,0.5,15,6,74,,88,颗粒物(PM10)
濮阳市,中原东路68号,115.0552,35.7816,2026-02-12T0100,46,144,0.6,20,7,75,,97,颗粒物(PM10)
濮阳市,任丘路479号,115.0923632,35.76857718,2026-02-12T0100,55,138,0.5,20,8,62,,94,颗粒物(PM10)
普洱市,市环保局,100.9801,22.7634,2026-02-12T0100,,,,,,,92,,
普洱市,普洱第二中学,100.9763,22.8237,2026-02-12T0100,34,64,0.8,42,5,11,,57,颗粒物(PM10)
七台河市,中波台,131.0413,45.7795,2026-02-12T0100,32,43,0.6,14,12,70,,46,
七台河市,人民广场,131.0136,45.7688,2026-02-12T0100,31,64,0.6,34,12,54,,57,颗粒物(PM10)
七台河市,新建矿广场,130.8639,45.8144,2026-02-12T0100,34,63,0.4,15,5,61,,57,颗粒物(PM10)
齐齐哈尔市,安居小区,123.9307,47.3641,2026-02-12T0100,43,61,0.6,15,14,54,,60,细颗粒物(PM2.5)
齐齐哈尔市,中心广场,123.9497,47.3389,2026-02-12T0100,46,51,0.8,27,8,45,,64,细颗粒物(PM2.5)
齐齐哈尔市,农牧车辆厂,123.9483,47.3229,2026-02-12T0100,34,46,0.5,23,6,46,,49,
齐齐哈尔市,市环境监测站,123.9442,47.2994,2026-02-12T0100,38,46,0.5,19,5,53,,54,细颗粒物(PM2.5)
齐齐哈尔市,富区青少年活动中心,123.6341,47.2079,2026-02-12T0100,42,72,0.8,26,8,44,,61,颗粒物(PM10)
黔东南苗族侗族自治州,市环境监测站,107.9765,26.5724,2026-02-12T0100,34,39,0.9,8,3,40,,49,
黔东南苗族侗族自治州,凯里学院,107.8909,26.531,2026-02-12T0100,26,36,0.6,11,4,47,,38,
黔南布依族苗族自治州,小围寨,107.5223,26.2371,2026-02-12T0100,15,22,0.8,4,6,36,,22,
黔南布依族苗族自治州,沙坝,107.5175,26.2977,2026-02-12T0100,9,27,0.6,6,4,44,,27,
黔西南布依族苗族自治州,场坝街,104.9022,25.0943,2026-02-12T0100,14,29,0.7,6,6,32,,29,
黔西南布依族苗族自治州,坪东大道,104.8812,25.0994,2026-02-12T0100,11,19,0.9,6,5,35,,19,
钦州市,市环保站,108.6238,21.9667,2026-02-12T0100,15,41,0.6,12,2,30,,41,
钦州市,沙埠小学,108.655,21.9481,2026-02-12T0100,20,37,0.5,13,3,33,,37,
钦州市,港区一小,108.5989,21.7435,2026-02-12T0100,20,27,0.6,25,2,26,,29,
钦州市,北职校,108.5959,21.9634,2026-02-12T0100,27,41,1.3,17,2,25,,41,
秦皇岛市,建设大厦,119.5247,39.9346,2026-02-12T0100,101,158,1.5,48,20,36,,133,细颗粒物(PM2.5)
秦皇岛市,文明里,119.5979,39.938,2026-02-12T0100,90,143,1.3,51,20,42,,119,细颗粒物(PM2.5)
秦皇岛市,南园路157号,119.7458,39.9952,2026-02-12T0100,92,143,1.4,59,18,41,,122,细颗粒物(PM2.5)
秦皇岛市,翠岛大街1号,119.5131,39.8858,2026-02-12T0100,107,136,1.6,62,22,20,,140,细颗粒物(PM2.5)
秦皇岛市,北戴河轮滑馆,119.509013,39.825305,2026-02-12T0100,104,173,1.7,66,19,27,,137,细颗粒物(PM2.5)
青岛市,市南区东部子站,120.404,36.0625,2026-02-12T0100,105,141,0.8,22,9,72,,138,细颗粒物(PM2.5)
青岛市,四方区子站,120.362344,36.10282,2026-02-12T0100,105,127,0.9,22,6,95,,138,细颗粒物(PM2.5)
青岛市,市南区西部子站,120.294373,36.054183,2026-02-12T0100,113,129,0.9,42,7,74,,148,细颗粒物(PM2.5)
青岛市,崂山区子站,120.4581,36.0858,2026-02-12T0100,76,105,0.8,34,10,64,,102,细颗粒物(PM2.5)
青岛市,城阳区子站,120.3945,36.3083,2026-02-12T0100,81,102,0.9,28,10,103,,108,细颗粒物(PM2.5)
青岛市,市北区南部,120.3454,36.0735,2026-02-12T0100,110,120,1.0,23,1,78,,144,细颗粒物(PM2.5)
青岛市,李沧区北部,120.3897,36.18,2026-02-12T0100,84,100,1.0,36,10,87,,112,细颗粒物(PM2.5)
青岛市,盟旺路653号,120.5222,36.4089,2026-02-12T0100,79,100,1.1,24,7,100,,105,细颗粒物(PM2.5)
青岛市,珠江路669号,120.196923,35.954556,2026-02-12T0100,117,136,0.8,20,9,91,,153,细颗粒物(PM2.5)
青岛市,黄岛区人民政府广场,120.0424,35.8656,2026-02-12T0100,124,161,1.0,34,8,69,,163,细颗粒物(PM2.5)
清远市,凤城街办,113.0218,23.7086,2026-02-12T0100,15,18,/,16,/,30,,22,
清远市,技师学院,113.0479,23.6343,2026-02-12T0100,12,16,0.6,15,4,37,,18,
清远市,清新太和,112.9898,23.7403,2026-02-12T0100,11,16,0.7,13,10,33,,16,
清远市,清城东城,113.076,23.72,2026-02-12T0100,13,15,/,14,/,39,,19,
庆阳市,庆阳五中,107.6325,35.7357,2026-02-12T0100,54,138,0.6,14,7,87,,94,颗粒物(PM10)
庆阳市,市环保局,107.6361,35.7067,2026-02-12T0100,50,140,0.8,14,6,86,,95,颗粒物(PM10)
曲靖市,环境监测站,103.7897,25.5036,2026-02-12T0100,13,26,0.2,6,4,81,,26,
曲靖市,烟厂办公区,103.8013,25.5357,2026-02-12T0100,10,23,0.3,8,4,75,,24,
曲靖市,南苑二区,103.7926,25.4651,2026-02-12T0100,14,22,0.3,7,4,76,,24,
曲靖市,曲靖师范学院,103.7442,25.5259,2026-02-12T0100,24,28,0.4,14,5,68,,35,
衢州市,环保大楼,118.8694,28.94,2026-02-12T0100,43,85,/,32,/,32,,68,颗粒物(PM10)
衢州市,衢州学院,118.8622,28.9809,2026-02-12T0100,39,77,0.5,24,5,42,,64,颗粒物(PM10)
衢州市,衢州三中,118.9646,28.9832,2026-02-12T0100,50,94,0.8,56,4,4,,72,颗粒物(PM10)
泉州市,涂山街,118.5818,24.9116,2026-02-12T0100,20,47,0.5,12,4,70,,47,
泉州市,津头埔,118.597,24.8976,2026-02-12T0100,22,66,0.5,14,4,67,,58,颗粒物(PM10)
泉州市,万安,118.6669,24.9422,2026-02-12T0100,,49,0.5,12,4,65,,,
泉州市,霞新路6号,118.6355,24.9148,2026-02-12T0100,21,41,0.6,15,/,68,,41,
日喀则市,日喀则监测站,88.8873,29.2723,2026-02-12T0100,15,29,0.4,5,10,101,,32,
日喀则市,林业技术推广中心,88.8775,29.2425,2026-02-12T0100,9,39,0.2,3,10,103,,39,
日照市,监测站,119.4711,35.421,2026-02-12T0100,155,180,1.8,78,12,14,,205,细颗粒物(PM2.5)
日照市,市政府广场,119.523,35.4216,2026-02-12T0100,141,188,1.5,60,20,50,,188,细颗粒物(PM2.5)
日照市,港务局,119.5511,35.4113,2026-02-12T0100,141,190,1.8,73,16,33,,188,细颗粒物(PM2.5)
日照市,职业技术学院,119.5326,35.4627,2026-02-12T0100,145,183,1.9,55,15,57,,193,细颗粒物(PM2.5)
日照市,岚山环保分局,119.3267,35.1043,2026-02-12T0100,132,180,1.3,61,15,50,,175,细颗粒物(PM2.5)
三门峡市,市政府,111.1922,34.7752,2026-02-12T0100,52,127,0.6,50,15,25,,89,颗粒物(PM10)
三门峡市,开发区,111.1588,34.794,2026-02-12T0100,51,163,0.5,21,12,64,,107,颗粒物(PM10)
三门峡市,三门峡市第一小学,111.1911,34.7829,2026-02-12T0100,49,147,0.5,19,18,65,,99,颗粒物(PM10)
三门峡市,富达温泉假日酒店,111.1031,34.719,2026-02-12T0100,54,133,0.6,18,8,61,,92,颗粒物(PM10)
三明市,三钢,117.621,26.2626,2026-02-12T0100,31,,0.5,15,4,14,,45,
三明市,三明二中,117.6352,26.2714,2026-02-12T0100,18,30,0.5,15,3,16,,30,
三明市,三元区政府,117.6028,26.2377,2026-02-12T0100,19,27,0.6,17,2,3,,28,
三亚市,河西子站,109.4962,18.2682,2026-02-12T0100,11,28,0.3,3,1,81,,28,
三亚市,君悦子站,109.7348,18.3443,2026-02-12T0100,11,26,0.4,4,3,83,,26,
三亚市,城东小学站,109.1714,18.3739,2026-02-12T0100,10,29,/,11,/,41,,29,
山南市,山南监测站,91.7592,29.234,2026-02-12T0100,13,,0.4,1,4,94,,30,
山南市,山南人民医院,91.7701,29.2436,2026-02-12T0100,8,14,0.4,1,8,92,,29,
汕头市,金平子站,116.6795,23.3666,2026-02-12T0100,13,33,0.6,7,5,83,,33,
汕头市,龙湖子站,116.7248,23.3632,2026-02-12T0100,16,33,/,8,10,79,,33,
汕头市,濠江子站,116.7257,23.2774,2026-02-12T0100,13,34,/,12,6,78,,34,
汕头市,澄海子站,116.7518,23.4712,2026-02-12T0100,15,32,0.6,8,7,74,,32,
汕头市,潮阳子站,116.6088,23.2539,2026-02-12T0100,16,32,0.6,8,5,82,,32,
汕头市,潮南峡山,116.4539,23.2684,2026-02-12T0100,11,25,0.6,6,5,84,,27,
汕头市,潮南子站,116.4069,23.2533,2026-02-12T0100,20,38,/,8,6,76,,38,
汕尾市,市环保局,115.3653,22.7751,2026-02-12T0100,16,28,0.7,8,5,95,,30,
汕尾市,新城中学,115.362,22.7926,2026-02-12T0100,21,26,0.6,8,5,93,,30,
商洛市,监测站,109.9155,33.8714,2026-02-12T0100,57,155,0.5,26,6,62,,103,颗粒物(PM10)
商洛市,商州区中学,109.9647,33.8486,2026-02-12T0100,45,137,0.6,17,9,76,,94,颗粒物(PM10)
商丘市,环境监测站,115.6701,34.4283,2026-02-12T0100,61,154,0.4,17,8,81,,102,颗粒物(PM10)
商丘市,粮食局,115.6458,34.4047,2026-02-12T0100,62,135,0.4,17,4,85,,93,颗粒物(PM10)
商丘市,梁园区档案局,115.6069,34.4465,2026-02-12T0100,64,144,0.5,15,5,80,,97,颗粒物(PM10)
商丘市,北海东路185号,115.6701,34.3767,2026-02-12T0100,,,,,,,,,
商丘市,中山大街3号,115.6172,34.3704,2026-02-12T0100,70,177,0.4,32,4,58,,114,颗粒物(PM10)
上海市,普陀,121.401,31.2382,2026-02-12T0100,80,89,0.8,43,6,58,,107,细颗粒物(PM2.5)
上海市,十五厂,121.4774,31.2043,2026-02-12T0100,88,101,0.8,48,7,47,,117,细颗粒物(PM2.5)
上海市,虹口,121.4673,31.3011,2026-02-12T0100,86,97,0.5,60,4,30,,114,细颗粒物(PM2.5)
上海市,静安监测站,121.4253,31.226,2026-02-12T0100,74,90,0.7,41,8,68,,99,细颗粒物(PM2.5)
上海市,浦东川沙,121.7029,31.1905,2026-02-12T0100,101,120,0.8,63,8,31,,133,细颗粒物(PM2.5)
上海市,浦东新区监测站,121.5339,31.229,2026-02-12T0100,96,102,0.8,37,6,58,,127,细颗粒物(PM2.5)
上海市,浦东张江,121.5776,31.2038,2026-02-12T0100,94,109,0.6,60,7,35,,124,细颗粒物(PM2.5)
上海市,宝山庙行,121.4242,31.3303,2026-02-12T0100,92,108,0.8,59,8,40,,122,细颗粒物(PM2.5)
上海市,崇明上实东滩,121.8789,31.4662,2026-02-12T0100,69,85,0.8,8,4,71,,93,细颗粒物(PM2.5)
上海市,嘉定南翔,121.316,31.2839,2026-02-12T0100,85,100,0.8,66,4,33,,113,细颗粒物(PM2.5)
上海市,金山新城,121.3357,30.7455,2026-02-12T0100,89,89,0.9,24,4,74,,118,细颗粒物(PM2.5)
上海市,闵行浦江,121.4996,31.0741,2026-02-12T0100,88,100,0.6,80,6,12,,117,细颗粒物(PM2.5)
上海市,青浦徐泾,121.2886,31.1663,2026-02-12T0100,93,114,0.8,45,5,47,,123,细颗粒物(PM2.5)
上海市,松江图书馆,121.2193,31.0382,2026-02-12T0100,112,135,0.7,44,7,47,,147,细颗粒物(PM2.5)
上海市,长宁仙霞,121.3904,31.206,2026-02-12T0100,77,90,1.1,33,7,69,,103,细颗粒物(PM2.5)
上海市,浦东惠南,121.7964,31.0507,2026-02-12T0100,88,101,0.9,38,5,43,,117,细颗粒物(PM2.5)
上海市,奉贤南桥新城,121.4891,30.925,2026-02-12T0100,89,97,0.6,31,2,75,,118,细颗粒物(PM2.5)
上海市,冠生园路458号,121.417401,31.16637,2026-02-12T0100,87,100,0.6,44,4,46,,115,细颗粒物(PM2.5)
上海市,宁武路151号,121.541914,31.268301,2026-02-12T0100,91,102,0.8,41,5,52,,120,细颗粒物(PM2.5)
上饶市,市监测站,117.9758,28.4439,2026-02-12T0100,26,64,/,17,4,46,,57,颗粒物(PM10)
上饶市,凤凰光学,117.9521,28.4637,2026-02-12T0100,38,80,0.8,45,8,11,,65,颗粒物(PM10)
上饶市,双创科技城,117.897,28.4316,2026-02-12T0100,44,91,0.9,48,6,13,,71,颗粒物(PM10)
上饶市,裕丰大道,118.190438,28.444845,2026-02-12T0100,28,83,0.7,16,12,43,,67,颗粒物(PM10)
韶关市,市八中,113.5821,24.7733,2026-02-12T0100,12,20,0.6,15,7,30,,20,
韶关市,园林处,113.5916,24.7973,2026-02-12T0100,13,14,/,15,7,22,,19,
韶关市,曲江监测站,113.5971,24.6864,2026-02-12T0100,15,20,0.6,17,20,55,,22,
韶关市,大学路288号,113.6668,24.7756,2026-02-12T0100,12,17,/,17,2,31,,18,
韶关市,碧湖山庄,113.5556,24.8082,2026-02-12T0100,12,15,0.7,10,6,28,,18,
邵阳市,市化工厂,111.5277,27.2442,2026-02-12T0100,63,82,1.0,29,4,0,,85,细颗粒物(PM2.5)
邵阳市,市环保局,111.4327,27.2276,2026-02-12T0100,68,70,1.3,23,6,20,,92,细颗粒物(PM2.5)
邵阳市,北塔二期4-26地块,111.446,27.2472,2026-02-12T0100,82,92,1.3,23,6,4,,109,细颗粒物(PM2.5)
邵阳市,邵水西路287号,111.4739,27.2282,2026-02-12T0100,64,,1.1,18,5,17,,87,细颗粒物(PM2.5)
绍兴市,城东开发委,120.6053,29.9927,2026-02-12T0100,59,88,0.7,20,7,52,,80,细颗粒物(PM2.5)
绍兴市,树下王站,120.5482,30.0003,2026-02-12T0100,61,84,0.7,21,6,32,,83,细颗粒物(PM2.5)
绍兴市,绍兴中专,120.5685,29.936,2026-02-12T0100,53,85,0.4,27,7,45,,73,细颗粒物(PM2.5)
绍兴市,柯桥区政府,120.4905,30.086,2026-02-12T0100,60,101,0.7,30,5,48,,82,细颗粒物(PM2.5)
绍兴市,重华小学,120.8751,30.0249,2026-02-12T0100,62,91,0.6,14,6,74,,84,细颗粒物(PM2.5)
绍兴市,上虞中学,120.837,30.0137,2026-02-12T0100,60,98,0.7,20,6,53,,82,细颗粒物(PM2.5)
绍兴市,柯桥妇保,120.4715,30.0414,2026-02-12T0100,60,86,0.6,16,5,54,,82,细颗粒物(PM2.5)
绍兴市,袍江中学,120.6156,30.0762,2026-02-12T0100,76,128,0.7,21,6,52,,102,细颗粒物(PM2.5)
深圳市,通心岭子站,114.0948,22.5506,2026-02-12T0100,24,44,0.3,6,6,108,,44,
深圳市,洪湖,114.1153,22.5713,2026-02-12T0100,23,81,0.5,10,5,108,,66,颗粒物(PM10)
深圳市,华侨城,113.9823,22.5398,2026-02-12T0100,26,39,/,9,/,98,,39,
深圳市,南海子站,113.9181,22.517,2026-02-12T0100,21,38,0.5,8,6,92,,38,
深圳市,盐田,114.2345,22.565,2026-02-12T0100,25,43,0.4,25,6,93,,43,
深圳市,南澳,114.4911,22.5381,2026-02-12T0100,16,33,/,6,/,100,,33,
深圳市,葵涌,114.41,22.6346,2026-02-12T0100,21,35,0.6,8,8,106,,35,
深圳市,梅沙,114.2967,22.5978,2026-02-12T0100,21,52,/,8,/,114,,51,颗粒物(PM10)
深圳市,观澜,114.0563,22.7353,2026-02-12T0100,18,33,0.5,16,7,70,,33,
深圳市,莲花,114.0614,22.556,2026-02-12T0100,30,46,/,11,/,105,,46,
深圳市,民治,114.0144,22.6163,2026-02-12T0100,27,46,/,15,/,84,,46,
深圳市,横岗,114.1756,22.6421,2026-02-12T0100,26,45,/,20,/,103,,45,
深圳市,坪山,114.344,22.7115,2026-02-12T0100,22,39,0.6,9,9,106,,39,
深圳市,西乡,113.8952,22.586,2026-02-12T0100,17,31,0.4,15,6,75,,31,
深圳市,黄阁路,114.214113,22.713717,2026-02-12T0100,23,38,0.7,13,6,93,,38,
沈阳市,浑南东路,123.5058,41.7084,2026-02-12T0100,63,88,1.4,88,22,9,,85,细颗粒物(PM2.5)
沈阳市,新秀街,123.4238,41.6992,2026-02-12T0100,47,68,1.6,50,21,37,,65,细颗粒物(PM2.5)
沈阳市,东陵路,123.5903,41.8412,2026-02-12T0100,60,88,1.2,41,16,41,,82,细颗粒物(PM2.5)
沈阳市,陵东街,123.4267,41.8466,2026-02-12T0100,56,76,1.6,59,45,30,,77,细颗粒物(PM2.5)
沈阳市,文化路,123.4116,41.7654,2026-02-12T0100,,,,,,,81,,
沈阳市,小河沿,123.4673,41.787,2026-02-12T0100,54,67,1.3,54,21,37,,74,细颗粒物(PM2.5)
沈阳市,太原街,123.4019,41.7978,2026-02-12T0100,50,81,1.4,46,24,45,,69,细颗粒物(PM2.5)
沈阳市,京沈街,123.3778,41.9233,2026-02-12T0100,55,71,1.3,41,25,50,,75,细颗粒物(PM2.5)
沈阳市,沈辽西路,123.2429,41.7341,2026-02-12T0100,58,84,1.6,46,24,37,,79,细颗粒物(PM2.5)
沈阳市,裕农路,123.5951,41.9085,2026-02-12T0100,56,76,1.4,45,16,41,,77,细颗粒物(PM2.5)
十堰市,滨河新村,110.78,32.6494,2026-02-12T0100,69,133,1.1,28,/,40,,93,细颗粒物(PM2.5)
十堰市,刘家沟,110.7305,32.6408,2026-02-12T0100,54,132,/,12,/,57,,91,颗粒物(PM10)
十堰市,铁二处,110.8843,32.5712,2026-02-12T0100,53,105,1.2,16,7,43,,78,颗粒物(PM10)
十堰市,郧阳区金沙路,110.8053,32.8401,2026-02-12T0100,57,114,0.8,11,6,64,,82,颗粒物(PM10)
石河子市,艾青诗歌馆,86.0391,44.298,2026-02-12T0100,124,158,1.1,41,9,53,,163,细颗粒物(PM2.5)
石河子市,南区管委会,86.047,44.2331,2026-02-12T0100,126,188,1.2,30,10,70,,166,细颗粒物(PM2.5)
石河子市,世纪广场,86.0791,44.3018,2026-02-12T0100,128,153,1.0,34,7,58,,169,细颗粒物(PM2.5)
石河子市,城南景苑小区,86.0126,44.2349,2026-02-12T0100,131,182,1.1,26,5,72,,173,细颗粒物(PM2.5)
石家庄市,高新区,114.5919,38.0328,2026-02-12T0100,54,137,0.9,25,11,49,,94,颗粒物(PM10)
石家庄市,西南高教,114.4556,38.0136,2026-02-12T0100,58,129,1.0,23,14,48,,90,颗粒物(PM10)
石家庄市,世纪公园,114.533,38.0177,2026-02-12T0100,71,107,0.9,27,9,52,,95,细颗粒物(PM2.5)
石家庄市,人民会堂,114.5105,38.0489,2026-02-12T0100,66,128,1.0,28,5,42,,89,"颗粒物(PM10),细颗粒物(PM2.5)"
石家庄市,鹿泉一中,114.2887,38.0905,2026-02-12T0100,48,113,1.1,22,8,45,,82,颗粒物(PM10)
石家庄市,栾城区星河路,114.6491,37.9014,2026-02-12T0100,98,163,0.8,61,8,30,,129,细颗粒物(PM2.5)
石家庄市,裕华西路63号,114.4563,38.0365,2026-02-12T0100,66,116,1.3,59,10,25,,89,细颗粒物(PM2.5)
石家庄市,和平路363号,114.5586,38.0581,2026-02-12T0100,69,133,0.9,23,6,50,,93,细颗粒物(PM2.5)
石家庄市,廉州西路160号,114.8347,38.0213,2026-02-12T0100,91,154,1.0,55,4,10,,120,细颗粒物(PM2.5)
石家庄市,北城路41号,114.4498,38.0729,2026-02-12T0100,58,138,1.4,49,9,25,,94,颗粒物(PM10)
石家庄市,矿区区委大楼,114.0494,38.059,2026-02-12T0100,51,115,0.9,41,24,28,,83,颗粒物(PM10)
石嘴山市,大武口朝阳西街,106.3668,39.0145,2026-02-12T0100,26,81,0.6,13,8,66,,66,颗粒物(PM10)
石嘴山市,惠农南大街,106.7713,39.2278,2026-02-12T0100,37,94,1.5,28,24,69,,72,颗粒物(PM10)
石嘴山市,红果子镇惠新街,106.7074,39.1332,2026-02-12T0100,66,163,1.2,57,38,21,,107,颗粒物(PM10)
石嘴山市,妇女儿童医院,106.3495,38.9837,2026-02-12T0100,62,100,1.1,46,30,34,,84,细颗粒物(PM2.5)
石嘴山市,石大公路,106.7495,39.2068,2026-02-12T0100,75,160,2.0,72,36,6,,105,颗粒物(PM10)
双鸭山市,双合村,131.1509,46.6936,2026-02-12T0100,48,64,0.5,14,8,81,,67,细颗粒物(PM2.5)
双鸭山市,南小市,131.1651,46.6191,2026-02-12T0100,52,,0.5,18,8,70,,72,细颗粒物(PM2.5)
双鸭山市,环保局,131.1526,46.6554,2026-02-12T0100,52,67,0.5,12,6,87,,72,细颗粒物(PM2.5)
朔州市,平朔,112.4399,39.3521,2026-02-12T0100,37,149,0.5,41,14,17,,100,颗粒物(PM10)
朔州市,朔唯,112.4574,39.362,2026-02-12T0100,42,148,/,54,12,10,,99,颗粒物(PM10)
朔州市,区政府,112.426,39.3199,2026-02-12T0100,41,128,0.5,32,15,26,,89,颗粒物(PM10)
朔州市,市环保局,112.4075,39.3277,2026-02-12T0100,47,127,/,37,15,32,,89,颗粒物(PM10)
朔州市,市二中,112.4273,39.3682,2026-02-12T0100,36,143,/,40,9,21,,97,颗粒物(PM10)
朔州市,一水厂,112.2938,39.5296,2026-02-12T0100,28,113,0.6,68,7,5,,82,颗粒物(PM10)
四平市,境园,124.3744,43.1842,2026-02-12T0100,69,91,,38,10,38,,,
四平市,植物园,124.4029,43.1411,2026-02-12T0100,69,81,0.7,80,14,12,,93,细颗粒物(PM2.5)
四平市,世纪城,124.3286,43.1726,2026-02-12T0100,64,93,,29,9,52,,,
松原市,江南,124.8007,45.1213,2026-02-12T0100,93,111,1.2,62,1,5,,123,细颗粒物(PM2.5)
松原市,江北,124.7967,45.1721,2026-02-12T0100,91,111,0.9,54,1,5,,120,细颗粒物(PM2.5)
苏州市,轧钢厂,120.5974,31.3247,2026-02-12T0100,107,161,0.9,39,6,38,,140,细颗粒物(PM2.5)
苏州市,吴中区,120.6329,31.2741,2026-02-12T0100,120,172,0.9,38,6,46,,158,细颗粒物(PM2.5)
苏州市,苏州新区,120.5566,31.3049,2026-02-12T0100,112,159,0.9,49,8,39,,147,细颗粒物(PM2.5)
苏州市,苏州工业园区,120.668709,31.312523,2026-02-12T0100,125,158,0.9,40,6,48,,165,细颗粒物(PM2.5)
苏州市,相城区,120.6408,31.3707,2026-02-12T0100,115,160,1.0,50,5,35,,150,细颗粒物(PM2.5)
苏州市,方洲路,120.7431,31.3188,2026-02-12T0100,99,149,0.9,38,7,43,,130,细颗粒物(PM2.5)
苏州市,木渎中学,120.4979,31.2777,2026-02-12T0100,94,143,1.5,39,6,27,,124,细颗粒物(PM2.5)
苏州市,越秀幼儿园,120.642,31.1733,2026-02-12T0100,122,148,1.0,45,5,34,,160,细颗粒物(PM2.5)
苏州市,高铁新城,120.6502,31.4117,2026-02-12T0100,,,,,,,72,,
苏州市,学森路9号,120.4282,31.3228,2026-02-12T0100,86,134,1.0,42,5,28,,114,细颗粒物(PM2.5)
宿迁市,宿迁学院,118.2924,33.933,2026-02-12T0100,115,160,0.7,16,4,101,,150,细颗粒物(PM2.5)
宿迁市,宿迁中学,118.2321,33.9572,2026-02-12T0100,109,140,0.8,16,8,92,,143,细颗粒物(PM2.5)
宿迁市,市供电局,118.2781,33.9658,2026-02-12T0100,105,139,0.9,18,5,98,,138,细颗粒物(PM2.5)
宿迁市,宿豫区政府,118.3243,33.95,2026-02-12T0100,105,128,0.9,19,8,108,,138,细颗粒物(PM2.5)
宿迁市,春华路,118.352,33.7886,2026-02-12T0100,148,,0.9,14,7,93,,198,细颗粒物(PM2.5)
宿州市,远航博物馆,116.9508,33.666,2026-02-12T0100,71,150,0.4,26,7,87,,100,颗粒物(PM10)
宿州市,社会福利中心,116.9708,33.5911,2026-02-12T0100,123,179,0.8,42,12,62,,162,细颗粒物(PM2.5)
宿州市,皖北煤电集团,116.9647,33.6252,2026-02-12T0100,68,159,0.6,25,8,,,105,颗粒物(PM10)
宿州市,中兴路,116.9929,33.6412,2026-02-12T0100,94,168,0.7,21,11,71,,124,细颗粒物(PM2.5)
绥化市,人和东街,126.9783,46.6365,2026-02-12T0100,38,57,0.5,18,3,63,,54,"颗粒物(PM10),细颗粒物(PM2.5)"
绥化市,党政办公中心,126.964,46.6527,2026-02-12T0100,39,51,0.5,18,2,64,,55,细颗粒物(PM2.5)
随州市,市委党校,113.3587,31.7275,2026-02-12T0100,70,125,1.0,60,9,16,,94,细颗粒物(PM2.5)
随州市,市林业局,113.3745,31.6926,2026-02-12T0100,73,122,1.0,28,,38,,,
随州市,市立交桥水厂,113.3984,31.7309,2026-02-12T0100,68,113,0.5,56,,23,,,
遂宁市,市监测站,105.5581,30.5231,2026-02-12T0100,52,78,0.7,40,5,,,,
遂宁市,美宁食品公司,105.5917,30.4727,2026-02-12T0100,49,78,0.7,43,6,5,,68,细颗粒物(PM2.5)
遂宁市,环岛商务中心9号楼,105.5911,30.5368,2026-02-12T0100,49,64,0.6,34,10,10,,68,细颗粒物(PM2.5)
塔城地区,东门外小游园,82.9993,46.7432,2026-02-12T0100,11,29,0.5,15,7,65,,29,
塔城地区,文化广场,82.9716,46.7464,2026-02-12T0100,15,22,0.6,7,6,71,,23,
台州市,黄岩环保大楼,121.2727,28.6461,2026-02-12T0100,59,83,/,16,/,61,,80,细颗粒物(PM2.5)
台州市,台州环保大楼,121.4188,28.6545,2026-02-12T0100,73,95,0.7,22,/,60,,98,细颗粒物(PM2.5)
台州市,路桥田洋王,121.3768,28.5772,2026-02-12T0100,71,91,0.6,20,3,74,,95,细颗粒物(PM2.5)
台州市,台州科技职业学院,121.25678,28.66823971,2026-02-12T0100,63,94,0.6,20,5,57,,85,细颗粒物(PM2.5)
太原市,尖草坪,112.5138,37.8916,2026-02-12T0100,48,121,1.0,53,7,15,,86,颗粒物(PM10)
太原市,晋源,112.4691,37.7125,2026-02-12T0100,48,103,1.0,50,8,18,,77,颗粒物(PM10)
太原市,小店,112.5595,37.7391,2026-02-12T0100,96,160,1.8,79,15,1,,127,细颗粒物(PM2.5)
太原市,坞城,112.5705,37.8199,2026-02-12T0100,52,124,1.2,83,12,0,,87,颗粒物(PM10)
太原市,南寨,112.5495,37.9853,2026-02-12T0100,46,102,0.9,51,5,2,,76,颗粒物(PM10)
太原市,金胜,112.4702,37.7821,2026-02-12T0100,38,105,0.8,30,10,49,,78,颗粒物(PM10)
太原市,育英中学,112.5608,37.8807,2026-02-12T0100,43,115,1.2,66,13,2,,83,颗粒物(PM10)
太原市,西矿街336号,112.449,37.8509,2026-02-12T0100,47,129,0.8,54,7,19,,90,颗粒物(PM10)
太原市,迎宾北路9号,112.4792,37.9393,2026-02-12T0100,51,109,1.2,53,9,15,,80,颗粒物(PM10)
太原市,迎泽大街248号,112.551,37.8575,2026-02-12T0100,40,108,1.1,58,13,10,,79,颗粒物(PM10)
泰安市,监测站,117.1436,36.1938,2026-02-12T0100,85,163,0.9,23,4,100,,113,细颗粒物(PM2.5)
泰安市,人口学校,117.0905,36.2002,2026-02-12T0100,73,166,0.8,20,11,114,,108,颗粒物(PM10)
泰安市,电力学校,117.0992,36.1757,2026-02-12T0100,93,163,0.9,30,12,100,,123,细颗粒物(PM2.5)
泰安市,国网新校,117.1812,36.2273,2026-02-12T0100,84,156,0.7,22,11,103,,112,细颗粒物(PM2.5)
泰安市,交通技校,117.0315,36.2017,2026-02-12T0100,77,149,0.7,18,8,108,,103,细颗粒物(PM2.5)
泰安市,山东第一医科大学,117.083,36.13,2026-02-12T0100,106,168,0.7,45,13,66,,139,细颗粒物(PM2.5)
泰州市,公园路,119.9042,32.488,2026-02-12T0100,129,139,1.0,29,5,50,,170,细颗粒物(PM2.5)
泰州市,莲花,119.9189,32.4626,2026-02-12T0100,138,149,1.0,24,9,46,,183,细颗粒物(PM2.5)
泰州市,留学生创业园,119.8877,32.4636,2026-02-12T0100,134,170,1.0,35,10,43,,178,细颗粒物(PM2.5)
泰州市,王营,119.8767,32.3291,2026-02-12T0100,133,163,1.0,72,7,8,,176,细颗粒物(PM2.5)
泰州市,姜堰区政府广场,120.1226,32.515,2026-02-12T0100,107,134,1.0,34,9,55,,140,细颗粒物(PM2.5)
泰州市,周山河街区,119.9186,32.4322,2026-02-12T0100,123,167,0.9,30,10,42,,162,细颗粒物(PM2.5)
唐山市,十二中,118.1707,39.6505,2026-02-12T0100,90,140,1.1,66,3,1,,119,细颗粒物(PM2.5)
唐山市,小山,118.1868,39.6219,2026-02-12T0100,84,117,1.2,70,15,8,,112,细颗粒物(PM2.5)
唐山市,冀东油田职工医院,118.4357,39.277,2026-02-12T0100,62,91,0.6,53,10,29,,84,细颗粒物(PM2.5)
唐山市,正泰大街热力站,118.0927,39.5807,2026-02-12T0100,115,166,1.4,53,1,3,,150,细颗粒物(PM2.5)
唐山市,丰润区政府,118.1561,39.8322,2026-02-12T0100,136,202,1.7,37,3,2,,180,细颗粒物(PM2.5)
唐山市,金山小学,118.436906,39.73802,2026-02-12T0100,103,153,1.3,69,15,4,,135,细颗粒物(PM2.5)
唐山市,政府服务中心,118.2449,39.6693,2026-02-12T0100,95,138,1.5,56,10,0,,125,细颗粒物(PM2.5)
唐山市,消防缸窑路中队,118.2043,39.6703,2026-02-12T0100,82,140,1.3,63,9,4,,109,细颗粒物(PM2.5)
唐山市,路南电大,118.1432,39.6203,2026-02-12T0100,98,130,1.2,45,1,3,,129,细颗粒物(PM2.5)
唐山市,光明北路515号,118.1267,39.6579,2026-02-12T0100,89,147,1.1,79,4,0,,118,细颗粒物(PM2.5)
唐山市,友谊北路34号,118.130859,39.636026,2026-02-12T0100,95,128,1.0,52,1,4,,125,细颗粒物(PM2.5)
天津市,勤俭道,117.1446,39.1659,2026-02-12T0100,53,102,0.8,35,18,50,,76,颗粒物(PM10)
天津市,前进道,117.2016,39.0928,2026-02-12T0100,58,100,0.8,38,9,46,,79,细颗粒物(PM2.5)
天津市,淮河道,117.1837,39.2134,2026-02-12T0100,59,112,0.7,55,9,38,,81,颗粒物(PM10)
天津市,跃进路,117.308261,39.088386,2026-02-12T0100,57,107,0.6,55,9,27,,79,颗粒物(PM10)
天津市,第四大街,117.707,39.0344,2026-02-12T0100,54,110,0.7,102,7,1,,80,颗粒物(PM10)
天津市,永明路,117.4573,38.8395,2026-02-12T0100,51,88,0.6,53,9,27,,70,细颗粒物(PM2.5)
天津市,汉北路,117.7641,39.1588,2026-02-12T0100,75,129,1.0,88,7,1,,100,细颗粒物(PM2.5)
天津市,河西一经路,117.7917,39.2473,2026-02-12T0100,58,109,0.9,94,13,0,,80,颗粒物(PM10)
天津市,津沽路,117.3747,38.9845,2026-02-12T0100,52,89,0.6,66,12,19,,72,细颗粒物(PM2.5)
天津市,宾水西道,117.159,39.0844,2026-02-12T0100,57,82,0.8,45,8,33,,78,细颗粒物(PM2.5)
天津市,大理道,117.194,39.1069,2026-02-12T0100,50,93,0.6,38,10,50,,72,颗粒物(PM10)
天津市,中山北路,117.2096,39.1698,2026-02-12T0100,67,124,0.9,67,6,10,,90,细颗粒物(PM2.5)
天津市,西四道,117.385,39.1483,2026-02-12T0100,66,123,1.3,85,7,2,,89,细颗粒物(PM2.5)
天津市,雍阳西道,117.0362,39.3827,2026-02-12T0100,65,123,0.8,43,10,43,,88,细颗粒物(PM2.5)
天津市,辛老路,117.0291,39.0612,2026-02-12T0100,63,116,0.9,47,10,34,,85,细颗粒物(PM2.5)
天津市,地纬路,116.9638,38.9374,2026-02-12T0100,64,116,0.7,44,14,34,,87,细颗粒物(PM2.5)
天津市,北环路,117.4065,40.0583,2026-02-12T0100,39,78,0.5,17,4,63,,64,颗粒物(PM10)
天津市,建设路,117.3041,39.7167,2026-02-12T0100,175,227,1.2,63,12,20,,225,细颗粒物(PM2.5)
天津市,滨水东路,117.8201,39.3519,2026-02-12T0100,56,111,1.5,87,19,2,,81,颗粒物(PM10)
天津市,光华路,117.24369,39.102911,2026-02-12T0100,58,111,0.9,58,10,26,,81,颗粒物(PM10)
天水市,公园小学,105.72058,34.57859,2026-02-12T0100,54,71,0.9,29,14,49,,74,细颗粒物(PM2.5)
天水市,麦积国土局,105.89428,34.55353,2026-02-12T0100,59,88,1.2,33,16,38,,80,细颗粒物(PM2.5)
铁岭市,水上乐园,123.865,42.292,2026-02-12T0100,44,70,1.2,58,16,37,,62,细颗粒物(PM2.5)
铁岭市,金沙江路北,123.7158,42.2218,2026-02-12T0100,49,68,1.2,50,11,37,,68,细颗粒物(PM2.5)
铁岭市,新华街20号,123.835,42.2853,2026-02-12T0100,47,78,1.0,33,16,48,,65,细颗粒物(PM2.5)
通化市,光明,125.9359,41.7174,2026-02-12T0100,52,72,1.1,34,10,27,,72,细颗粒物(PM2.5)
通化市,铁路,125.9446,41.7323,2026-02-12T0100,61,,1.3,40,8,17,,83,细颗粒物(PM2.5)
通辽市,艺术职业学校,122.253,43.6801,2026-02-12T0100,31,54,0.7,15,12,58,,52,颗粒物(PM10)
通辽市,老干部活动中心,122.2584,43.6333,2026-02-12T0100,22,48,0.7,15,7,45,,48,
通辽市,东方明珠社区,122.2923,43.6189,2026-02-12T0100,27,55,0.7,17,8,52,,53,颗粒物(PM10)
铜川市,王益区政府,109.0696,35.0699,2026-02-12T0100,50,108,0.7,31,3,23,,79,颗粒物(PM10)
铜川市,新区管委会,108.9345,34.9059,2026-02-12T0100,36,96,0.7,21,3,55,,73,颗粒物(PM10)
铜川市,大唐三路,108.949652,34.870529,2026-02-12T0100,27,112,0.5,18,8,63,,81,颗粒物(PM10)
铜陵市,市第四中学,117.8176,30.9412,2026-02-12T0100,61,128,0.8,50,8,15,,89,颗粒物(PM10)
铜陵市,市新民污水厂,117.7806,30.9413,2026-02-12T0100,69,106,1.2,63,7,1,,93,细颗粒物(PM2.5)
铜陵市,车站新区,117.846,30.9414,2026-02-12T0100,53,103,0.6,32,6,36,,77,颗粒物(PM10)
铜陵市,市职教基地,117.8472,30.9699,2026-02-12T0100,79,122,0.8,42,7,17,,105,细颗粒物(PM2.5)
铜仁市,铜仁卫校,109.1839,27.7344,2026-02-12T0100,41,67,1.1,24,2,18,,59,颗粒物(PM10)
铜仁市,铜仁七中,109.1752,27.6945,2026-02-12T0100,35,,0.8,22,3,14,,50,
吐鲁番市,市环保局,89.1905,42.9419,2026-02-12T0100,66,228,1.9,50,3,21,,139,颗粒物(PM10)
吐鲁番市,地区环保局,89.1674,42.9558,2026-02-12T0100,60,236,,32,6,,,143,颗粒物(PM10)
威海市,华夏技校,122.121,37.4231,2026-02-12T0100,58,63,0.5,19,/,86,,79,细颗粒物(PM2.5)
威海市,山大分校,122.0508,37.5236,2026-02-12T0100,56,71,/,20,/,91,,77,细颗粒物(PM2.5)
威海市,市监测站,122.1067,37.5067,2026-02-12T0100,63,76,0.5,18,6,91,,85,细颗粒物(PM2.5)
威海市,文登开发区,122.0693,37.2175,2026-02-12T0100,55,70,/,21,/,76,,75,细颗粒物(PM2.5)
威海市,临港区管委会,122.1379,37.3414,2026-02-12T0100,50,68,0.5,16,6,84,,69,细颗粒物(PM2.5)
潍坊市,环保局,119.1436,36.7022,2026-02-12T0100,89,139,1.1,42,12,40,,118,细颗粒物(PM2.5)
潍坊市,坊子邮政,119.1638,36.6524,2026-02-12T0100,102,161,1.3,42,13,39,,134,细颗粒物(PM2.5)
潍坊市,潍坊七中,119.0587,36.7209,2026-02-12T0100,80,122,1.1,34,15,41,,107,细颗粒物(PM2.5)
潍坊市,高新实验学校,119.1978,36.6871,2026-02-12T0100,103,163,1.1,46,10,39,,135,细颗粒物(PM2.5)
潍坊市,潍坊学院,119.1758,36.7139,2026-02-12T0100,86,146,1.2,44,15,43,,114,细颗粒物(PM2.5)
潍坊市,寒亭区实验一小,119.2046,36.7696,2026-02-12T0100,82,127,1.0,43,14,41,,109,细颗粒物(PM2.5)
渭南市,体育馆,109.4605,34.4927,2026-02-12T0100,58,173,0.5,47,6,41,,112,颗粒物(PM10)
渭南市,高新一小,109.4257,34.5067,2026-02-12T0100,78,178,0.8,48,8,38,,114,颗粒物(PM10)
渭南市,渭花路4号,109.505065,34.492137,2026-02-12T0100,68,163,0.6,47,6,26,,107,颗粒物(PM10)
温州市,瓯海,120.6342,28.0088,2026-02-12T0100,54,82,0.6,18,7,79,,74,细颗粒物(PM2.5)
温州市,南浦,120.6747,27.9881,2026-02-12T0100,58,79,0.6,16,6,91,,79,细颗粒物(PM2.5)
温州市,龙湾,120.76,27.9745,2026-02-12T0100,55,94,0.5,15,7,88,,75,细颗粒物(PM2.5)
温州市,茶山,120.6985,27.9252,2026-02-12T0100,48,71,/,14,/,87,,67,细颗粒物(PM2.5)
温州市,鹿城惠民路,120.6935,28.0114,2026-02-12T0100,54,82,0.6,17,/,88,,74,细颗粒物(PM2.5)
文山壮族苗族自治州,州水务局,104.2533,23.3595,2026-02-12T0100,11,21,0.4,1,6,59,,21,
文山壮族苗族自治州,市便民服务中心,104.2319,23.3892,2026-02-12T0100,15,23,0.6,5,4,53,,23,
乌海市,市林业局,106.8172,39.6972,2026-02-12T0100,30,88,0.6,19,11,68,,69,颗粒物(PM10)
乌海市,中海勃湾学校,106.7907,39.6666,2026-02-12T0100,30,86,0.5,26,10,73,,68,颗粒物(PM10)
乌海市,海北新区,106.8129,39.7274,2026-02-12T0100,25,101,0.5,83,17,2,,76,颗粒物(PM10)
乌海市,海拉北路,106.8212,39.6741,2026-02-12T0100,41,96,0.9,47,13,22,,73,颗粒物(PM10)
乌兰察布市,集宁新区,113.1306,40.9924,2026-02-12T0100,35,69,0.5,33,7,40,,60,颗粒物(PM10)
乌兰察布市,光明街小学,113.1076,41.0385,2026-02-12T0100,29,65,0.7,32,9,55,,58,颗粒物(PM10)
乌兰察布市,北京八中,113.1383,40.9513,2026-02-12T0100,46,86,1.0,43,14,29,,68,颗粒物(PM10)
乌兰察布市,市委党校,113.1776,40.9779,2026-02-12T0100,33,71,0.7,29,18,39,,61,颗粒物(PM10)
乌鲁木齐市,监测站,87.5796,43.8299,2026-02-12T0100,83,121,1.3,64,2,33,,110,细颗粒物(PM2.5)
乌鲁木齐市,收费所,87.6044,43.7679,2026-02-12T0100,94,123,1.3,79,5,17,,124,细颗粒物(PM2.5)
乌鲁木齐市,铁路局,87.5529,43.8704,2026-02-12T0100,72,126,1.3,84,2,22,,97,细颗粒物(PM2.5)
乌鲁木齐市,三十一中学,87.6408,43.8258,2026-02-12T0100,92,140,1.1,72,2,22,,122,细颗粒物(PM2.5)
乌鲁木齐市,米东区环保局,87.7218,44.1747,2026-02-12T0100,105,136,1.1,42,9,48,,138,细颗粒物(PM2.5)
乌鲁木齐市,培训基地,87.4652,43.4569,2026-02-12T0100,22,63,0.6,22,5,61,,57,颗粒物(PM10)
乌鲁木齐市,达坂城区环保局,88.3088,43.3637,2026-02-12T0100,46,164,0.5,13,10,72,,107,颗粒物(PM10)
乌鲁木齐市,红光山片区,87.6132,43.8791,2026-02-12T0100,106,113,1.0,92,6,14,,139,细颗粒物(PM2.5)
乌鲁木齐市,新师大温泉校区,87.7008,43.8003,2026-02-12T0100,92,145,0.9,40,5,60,,122,细颗粒物(PM2.5)
乌鲁木齐市,大绿谷,87.4892,43.84,2026-02-12T0100,72,124,1.0,53,1,46,,97,细颗粒物(PM2.5)
无锡市,雪浪,120.2693,31.4864,2026-02-12T0100,76,97,1.1,11,7,77,,102,细颗粒物(PM2.5)
无锡市,黄巷,120.2761,31.621,2026-02-12T0100,115,148,1.6,94,6,1,,150,细颗粒物(PM2.5)
无锡市,漆塘,120.2422,31.5037,2026-02-12T0100,75,102,1.0,14,8,53,,100,细颗粒物(PM2.5)
无锡市,东亭,120.3489,31.5865,2026-02-12T0100,118,151,2.0,96,9,3,,155,细颗粒物(PM2.5)
无锡市,旺庄,120.3538,31.5474,2026-02-12T0100,98,157,1.8,93,5,0,,129,细颗粒物(PM2.5)
无锡市,荣巷,120.2447,31.5633,2026-02-12T0100,84,100,1.2,23,7,64,,112,细颗粒物(PM2.5)
无锡市,堰桥,120.2986,31.6816,2026-02-12T0100,118,136,1.2,92,5,10,,155,细颗粒物(PM2.5)
无锡市,清舒道1号,120.3138,31.4927,2026-02-12T0100,94,132,1.1,32,8,57,,124,细颗粒物(PM2.5)
无锡市,健康路105号,120.2925,31.5685,2026-02-12T0100,91,146,1.5,87,6,4,,120,细颗粒物(PM2.5)
吴忠市,教育园区,106.1535,37.9648,2026-02-12T0100,54,113,0.6,33,35,53,,82,颗粒物(PM10)
吴忠市,新区二泵站,106.1851,37.9957,2026-02-12T0100,38,117,0.4,13,7,66,,84,颗粒物(PM10)
吴忠市,文卫南街,106.2176,37.9832,2026-02-12T0100,45,142,0.6,15,11,76,,96,颗粒物(PM10)
芜湖市,监测站,118.3603,31.3515,2026-02-12T0100,71,139,1.1,91,7,13,,95,"颗粒物(PM10),细颗粒物(PM2.5)"
芜湖市,科创中心,118.3716,31.4135,2026-02-12T0100,104,196,1.2,102,9,1,,137,细颗粒物(PM2.5)
芜湖市,四水厂,118.3671,31.3132,2026-02-12T0100,96,160,1.2,84,5,20,,127,细颗粒物(PM2.5)
芜湖市,市气象局,118.4209,31.3704,2026-02-12T0100,80,135,1.0,99,9,8,,107,细颗粒物(PM2.5)
芜湖市,清苑社区,118.4783,31.3226,2026-02-12T0100,105,180,1.4,62,8,1,,138,细颗粒物(PM2.5)
芜湖市,扬子职业技术学院,118.2746,31.2326,2026-02-12T0100,63,128,0.7,28,7,51,,89,颗粒物(PM10)
芜湖市,湾沚区人民法院,118.5726,31.1371,2026-02-12T0100,76,126,1.1,57,8,36,,102,细颗粒物(PM2.5)
梧州市,市十一中,111.3126,23.4772,2026-02-12T0100,11,14,0.4,3,7,30,,16,
梧州市,龙新,111.26,23.4794,2026-02-12T0100,8,14,0.1,6,4,7,,14,
梧州市,政贤路18号,111.2416,23.4155,2026-02-12T0100,12,13,0.4,19,5,13,,18,
五家渠市,农水大厦,87.5352,44.1606,2026-02-12T0100,76,120,1.0,16,5,59,,102,细颗粒物(PM2.5)
五家渠市,经开区管委会,87.5461,44.1909,2026-02-12T0100,76,141,0.9,13,4,65,,102,细颗粒物(PM2.5)
五家渠市,建设西街760号,87.055284,43.999117,2026-02-12T0100,156,171,1.3,18,3,79,,206,细颗粒物(PM2.5)
武汉市,东湖梨园,114.3676,30.5584,2026-02-12T0100,111,114,2.2,87,7,4,,145,细颗粒物(PM2.5)
武汉市,汉阳月湖,114.2527,30.5578,2026-02-12T0100,109,115,1.6,52,4,8,,143,细颗粒物(PM2.5)
武汉市,汉口花桥,114.2819,30.6189,2026-02-12T0100,105,117,1.6,80,5,11,,138,细颗粒物(PM2.5)
武汉市,武昌紫阳,114.3024,30.5332,2026-02-12T0100,113,142,2.0,71,9,8,,148,细颗粒物(PM2.5)
武汉市,青山钢花,114.3646,30.6217,2026-02-12T0100,100,148,1.7,72,7,18,,132,细颗粒物(PM2.5)
武汉市,沌口新区,114.156697,30.482592,2026-02-12T0100,108,136,1.7,101,11,0,,142,细颗粒物(PM2.5)
武汉市,汉口江滩,114.3013,30.5944,2026-02-12T0100,101,126,1.6,60,7,27,,133,细颗粒物(PM2.5)
武汉市,吴家山,114.1285,30.6339,2026-02-12T0100,127,133,1.7,90,4,6,,168,细颗粒物(PM2.5)
武汉市,民族大道182号,114.3876,30.4908,2026-02-12T0100,119,150,1.5,65,7,,,156,细颗粒物(PM2.5)
武威市,监测站,102.6203,37.925,2026-02-12T0100,24,84,0.5,11,10,49,,67,颗粒物(PM10)
武威市,钟楼街149号,102.6447,37.9293,2026-02-12T0100,38,74,0.4,9,9,54,,62,颗粒物(PM10)
西安市,兴庆小区,108.9931,34.2629,2026-02-12T0100,88,206,1.0,73,7,13,,128,颗粒物(PM10)
西安市,纺织城,109.0595,34.2569,2026-02-12T0100,88,342,0.5,81,5,1,,196,颗粒物(PM10)
西安市,小寨,108.9377,34.2178,2026-02-12T0100,86,248,0.5,39,4,49,,149,颗粒物(PM10)
西安市,市人民体育场,108.9522,34.2739,2026-02-12T0100,81,245,1.0,42,6,48,,148,颗粒物(PM10)
西安市,高新西区,108.8923,34.2322,2026-02-12T0100,100,244,0.8,30,6,45,,147,颗粒物(PM10)
西安市,经开区,108.9386,34.3446,2026-02-12T0100,91,221,0.7,38,5,57,,136,颗粒物(PM10)
西安市,长安区,108.894,34.1557,2026-02-12T0100,112,258,0.9,,6,4,,154,颗粒物(PM10)
西安市,临潼区,109.213,34.3748,2026-02-12T0100,62,197,0.6,23,8,70,,124,颗粒物(PM10)
西安市,广运潭,109.0508,34.321,2026-02-12T0100,72,211,0.8,52,4,17,,131,颗粒物(PM10)
西安市,无线电监控中心,109.1019,34.5302,2026-02-12T0100,114,207,1.0,100,7,6,,149,细颗粒物(PM2.5)
西安市,行知小学,108.8869,34.2662,2026-02-12T0100,119,262,0.9,50,7,33,,156,"颗粒物(PM10),细颗粒物(PM2.5)"
西安市,西苑北路977号,108.596239,34.118792,2026-02-12T0100,81,207,0.6,43,6,25,,129,颗粒物(PM10)
西安市,曲江池东路988号,108.9817,34.2035,2026-02-12T0100,92,203,,,4,50,,127,颗粒物(PM10)
西宁市,城北区政府,101.7775,36.643,2026-02-12T0100,43,75,1.1,24,19,66,,63,颗粒物(PM10)
西宁市,世纪职校,101.8304,36.5785,2026-02-12T0100,43,61,1.0,16,18,54,,60,细颗粒物(PM2.5)
西宁市,海晏路105号,101.6769,36.6535,2026-02-12T0100,79,109,1.5,47,10,7,,105,细颗粒物(PM2.5)
西双版纳傣族自治州,景洪市江南,100.8018,21.9995,2026-02-12T0100,51,77,1.2,22,5,24,,70,细颗粒物(PM2.5)
西双版纳傣族自治州,景洪市江北,100.7995,22.0238,2026-02-12T0100,19,48,0.8,7,6,42,,48,
锡林郭勒盟,市环保监测站,116.1048,43.9318,2026-02-12T0100,7,54,0.4,22,9,40,,52,颗粒物(PM10)
锡林郭勒盟,市政府,116.0778,43.9312,2026-02-12T0100,11,37,0.4,26,10,40,,37,
厦门市,洪文,118.1519,24.4768,2026-02-12T0100,29,38,0.5,14,3,68,,42,
厦门市,鼓浪屿,118.0671,24.4447,2026-02-12T0100,17,34,/,12,2,67,,34,
厦门市,湖里中学,118.0937,24.5054,2026-02-12T0100,20,35,0.5,14,2,63,,35,
厦门市,集美中学,118.0961,24.5689,2026-02-12T0100,19,32,0.6,16,2,57,,32,
厦门市,同安二实小,118.1502,24.7246,2026-02-12T0100,17,24,0.5,11,2,58,,25,
咸宁市,长江产业园,114.3379,29.8683,2026-02-12T0100,61,94,0.6,24,5,37,,83,细颗粒物(PM2.5)
咸宁市,双鹤路18号,114.3182,29.8447,2026-02-12T0100,84,104,1.0,33,4,14,,112,细颗粒物(PM2.5)
咸宁市,碧桂路,114.284,29.8595,2026-02-12T0100,70,94,1.0,29,4,30,,94,细颗粒物(PM2.5)
咸阳市,实验中学,108.6726,34.315,2026-02-12T0100,120,241,1.0,49,6,26,,158,细颗粒物(PM2.5)
咸阳市,师范学院,108.7226,34.3622,2026-02-12T0100,72,217,0.7,27,6,62,,134,颗粒物(PM10)
咸阳市,奥体中心,108.6394,34.408,2026-02-12T0100,75,204,0.7,27,5,53,,127,颗粒物(PM10)
咸阳市,五陵塬路2号,108.6601,34.3767,2026-02-12T0100,107,222,0.8,36,5,47,,140,细颗粒物(PM2.5)
咸阳市,胭脂路9号,108.6372,34.3031,2026-02-12T0100,114,282,0.9,53,5,18,,166,颗粒物(PM10)
湘潭市,板塘,112.9508,27.8626,2026-02-12T0100,41,64,0.7,46,5,2,,58,细颗粒物(PM2.5)
湘潭市,市监测站,112.9114,27.8404,2026-02-12T0100,45,61,1.0,35,4,8,,63,细颗粒物(PM2.5)
湘潭市,江麓,112.8935,27.8729,2026-02-12T0100,45,50,0.8,24,7,14,,63,细颗粒物(PM2.5)
湘潭市,岳塘,112.9227,27.8159,2026-02-12T0100,37,53,1.0,25,4,8,,53,细颗粒物(PM2.5)
湘潭市,科大,112.9073,27.9118,2026-02-12T0100,44,51,0.7,32,5,6,,62,细颗粒物(PM2.5)
湘潭市,昭山,113.0048,27.9153,2026-02-12T0100,42,61,0.6,28,2,3,,59,细颗粒物(PM2.5)
湘西土家族苗族自治州,州政府,109.7298,28.3164,2026-02-12T0100,41,52,0.4,19,4,14,,58,细颗粒物(PM2.5)
湘西土家族苗族自治州,吉首市计生局,109.6957,28.2676,2026-02-12T0100,34,56,0.6,26,8,17,,53,颗粒物(PM10)
襄阳市,襄城运动路,112.1555,32.0197,2026-02-12T0100,54,127,0.5,18,12,68,,89,颗粒物(PM10)
襄阳市,高新管委会,112.1829,32.1146,2026-02-12T0100,48,116,0.7,11,8,86,,83,颗粒物(PM10)
襄阳市,襄州航空路,112.2105,32.0903,2026-02-12T0100,45,111,0.8,18,8,,,,
襄阳市,襄城隆中路,112.0764,32.0089,2026-02-12T0100,45,138,0.5,15,13,,,,
襄阳市,高新台子湾,112.1154,32.103,2026-02-12T0100,55,125,0.6,20,6,80,,88,颗粒物(PM10)
襄阳市,铁院东路4号,112.1433,32.0581,2026-02-12T0100,52,122,0.5,16,12,80,,86,颗粒物(PM10)
孝感市,东城区,113.9062,30.9378,2026-02-12T0100,85,142,1.1,38,4,49,,113,细颗粒物(PM2.5)
孝感市,天仙南路1号,113.946,30.8999,2026-02-12T0100,83,149,0.8,42,2,28,,110,细颗粒物(PM2.5)
忻州市,开发区,112.7313,38.457,2026-02-12T0100,82,120,1.2,37,10,25,,109,细颗粒物(PM2.5)
忻州市,会展中心,112.7023,38.4932,2026-02-12T0100,115,167,1.1,44,6,6,,150,细颗粒物(PM2.5)
忻州市,市政府,112.7279,38.4157,2026-02-12T0100,70,120,1.2,53,8,14,,94,细颗粒物(PM2.5)
新乡市,环保西院,113.836,35.3104,2026-02-12T0100,68,155,0.8,,9,,,103,颗粒物(PM10)
新乡市,开发区,113.8847,35.2724,2026-02-12T0100,74,138,0.6,34,8,54,,99,细颗粒物(PM2.5)
新乡市,环保东院,113.8836,35.3028,2026-02-12T0100,71,136,0.6,31,6,53,,95,细颗粒物(PM2.5)
新乡市,市委党校,113.9194,35.2847,2026-02-12T0100,62,118,0.5,30,8,54,,84,"颗粒物(PM10),细颗粒物(PM2.5)"
新乡市,市政府,113.9189,35.3042,2026-02-12T0100,57,141,0.4,28,12,60,,96,颗粒物(PM10)
新乡市,行政服务中心,113.9002,35.372,2026-02-12T0100,96,158,1.1,57,15,27,,127,细颗粒物(PM2.5)
新乡市,建设东路46号,113.916569,35.331547,2026-02-12T0100,63,134,0.8,30,11,50,,92,颗粒物(PM10)
新余市,飞宇,114.9887,27.8433,2026-02-12T0100,39,65,0.5,30,9,4,,58,颗粒物(PM10)
新余市,第二水厂,114.9234,27.8248,2026-02-12T0100,41,66,0.6,44,8,0,,58,"颗粒物(PM10),细颗粒物(PM2.5)"
新余市,市气象局,114.931,27.8037,2026-02-12T0100,60,72,1.8,30,8,2,,82,细颗粒物(PM2.5)
新余市,新钢沁园村,114.9148,27.8069,2026-02-12T0100,48,78,0.6,31,8,0,,67,细颗粒物(PM2.5)
信阳市,平桥分局,114.1096,32.1059,2026-02-12T0100,51,97,0.6,15,6,76,,74,颗粒物(PM10)
信阳市,南湾水厂,113.9956,32.1272,2026-02-12T0100,56,110,0.6,12,3,93,,80,颗粒物(PM10)
信阳市,市酿酒公司,114.078,32.1194,2026-02-12T0100,48,108,0.5,22,6,70,,79,颗粒物(PM10)
信阳市,审计局,114.0712,32.1393,2026-02-12T0100,53,95,0.5,16,7,87,,73,"颗粒物(PM10),细颗粒物(PM2.5)"
兴安盟,洮儿河南路,122.0921,46.065,2026-02-12T0100,135,176,2.0,43,8,16,,179,细颗粒物(PM2.5)
兴安盟,科尔沁北路63号,122.0383,46.0691,2026-02-12T0100,246,285,2.3,52,8,35,,296,细颗粒物(PM2.5)
邢台市,达活泉,114.4687,37.0883,2026-02-12T0100,64,158,1.6,31,18,45,,104,颗粒物(PM10)
邢台市,邢师高专,114.4954,37.0309,2026-02-12T0100,64,142,1.4,33,14,43,,96,颗粒物(PM10)
邢台市,路桥公司,114.5281,37.0857,2026-02-12T0100,71,135,1.2,23,16,38,,95,细颗粒物(PM2.5)
邢台市,市环保局,114.4721,37.0713,2026-02-12T0100,77,171,1.7,33,20,41,,111,颗粒物(PM10)
邢台市,襄都区政府南院,114.5558,37.0578,2026-02-12T0100,72,139,0.9,37,13,44,,97,细颗粒物(PM2.5)
雄安新区,容城县环境保护局,115.8845,39.034,2026-02-12T0100,92,154,0.9,65,10,23,,122,细颗粒物(PM2.5)
雄安新区,河北容城中学,115.8644,39.0594,2026-02-12T0100,80,140,0.9,80,12,14,,107,细颗粒物(PM2.5)
雄安新区,安新县民政局,115.9234,38.9403,2026-02-12T0100,82,162,0.8,40,10,47,,109,细颗粒物(PM2.5)
雄安新区,安新县电力局,115.9341,38.9332,2026-02-12T0100,87,148,0.9,54,14,28,,115,细颗粒物(PM2.5)
雄安新区,雄县环境保护局,116.0897,38.9816,2026-02-12T0100,90,166,1.2,46,15,28,,119,细颗粒物(PM2.5)
雄安新区,雄县国土资源局,116.1106,39.0048,2026-02-12T0100,94,167,1.1,33,15,34,,124,细颗粒物(PM2.5)
徐州市,新城区,117.257,34.2161,2026-02-12T0100,111,183,0.9,35,12,78,,145,细颗粒物(PM2.5)
徐州市,农科院,117.2933,34.2796,2026-02-12T0100,108,146,0.8,32,13,85,,142,细颗粒物(PM2.5)
徐州市,鼓楼区政府,117.1812,34.29,2026-02-12T0100,94,134,0.6,22,20,82,,124,细颗粒物(PM2.5)
徐州市,铜山区招生办,117.1693,34.1781,2026-02-12T0100,94,171,0.6,40,11,79,,124,细颗粒物(PM2.5)
徐州市,大泉街道,117.4619,34.4368,2026-02-12T0100,114,176,0.8,33,10,61,,149,细颗粒物(PM2.5)
徐州市,纺织东路16号,117.1553,34.2567,2026-02-12T0100,86,155,0.6,26,12,89,,114,细颗粒物(PM2.5)
