area,positionname,longitude,latitude,timepoint,pm2_5,pm10,co,no2,so2,o3,o3_8h,aqi,primarypollutant
阿坝藏族羌族自治州,马师校,102.2503,31.8896,2026-03-22T0000,10,28,0.3,18,5,41,89,28,
阿坝藏族羌族自治州,马尔康中学西区,102.2174,31.9016,2026-03-22T0000,8,15,0.4,20,2,49,89,16,
阿克苏地区,电视台,80.2899,41.1684,2026-03-22T0000,76,182,1.0,50,3,41,94,124,颗粒物(PM10)
阿克苏地区,艺术中心,80.2592,41.1541,2026-03-22T0000,74,200,0.7,69,3,17,100,131,颗粒物(PM10)
阿拉善盟,蒙二幼,105.699,38.8409,2026-03-22T0000,50,137,0.5,5,6,89,102,107,颗粒物(PM10)
阿拉善盟,环保局新楼,105.7198,38.8508,2026-03-22T0000,27,96,0.3,4,6,93,98,83,颗粒物(PM10)
阿勒泰地区,市站,88.1266,47.8515,2026-03-22T0000,3,18,0.3,14,5,66,84,21,
阿勒泰地区,阿勒泰路33号,88.1198,47.7931,2026-03-22T0000,3,24,0.2,9,6,78,92,25,
阿里地区,阿里监测站,80.1171,32.4999,2026-03-22T0000,3,9,0.3,3,13,119,122,38,
阿里地区,阿里藏医院,80.0906,32.5029,2026-03-22T0000,3,6,0.1,1,5,127,127,40,
安康市,汉滨区检察院,109.0088,32.6974,2026-03-22T0000,36,89,0.6,44,4,5,62,78,颗粒物(PM10)
安康市,市邮政管理局,109.0324,32.6913,2026-03-22T0000,34,88,0.7,42,5,11,64,78,颗粒物(PM10)
安庆市,环科院,117.0806,30.5181,2026-03-22T0000,40,45,1.0,79,7,8,82,60,细颗粒物(PM2.5)
安庆市,马山宾馆,117.0331,30.5118,2026-03-22T0000,54,NA,0.8,63,5,19,83,88,细颗粒物(PM2.5)
安庆市,安庆大学,116.9897,30.6146,2026-03-22T0000,43,60,0.7,49,4,14,90,66,细颗粒物(PM2.5)
安庆市,市人大,117.0598,30.5351,2026-03-22T0000,36,43,0.8,54,6,32,88,52,细颗粒物(PM2.5)
安顺市,凤凰山,105.9408,26.2431,2026-03-22T0000,25,42,0.7,15,11,32,69,42,
安顺市,金钟山,105.9443,26.2567,2026-03-22T0000,26,28,0.7,8,9,37,63,38,
安顺市,娄家坡,105.8983,26.248,2026-03-22T0000,33,34,0.8,12,10,31,65,48,
安阳市,红庙街,114.3552,36.1017,2026-03-22T0000,55,96,0.4,16,2,81,124,90,细颗粒物(PM2.5)
安阳市,银杏小区,114.361,36.0681,2026-03-22T0000,62,97,0.2,15,2,80,127,102,细颗粒物(PM2.5)
安阳市,信访局,114.3921,36.0879,2026-03-22T0000,64,92,0.2,17,2,83,132,104,细颗粒物(PM2.5)
安阳市,左辅环卫站,114.4706,36.0634,2026-03-22T0000,59,112,0.5,15,3,80,127,98,细颗粒物(PM2.5)
安阳市,钢三路198号,114.2918,36.0769,2026-03-22T0000,50,107,0.5,19,4,75,116,91,颗粒物(PM10)
鞍山市,深沟寺,123.0441,41.1201,2026-03-22T0000,56,84,0.7,11,9,128,126,92,细颗粒物(PM2.5)
鞍山市,太阳城,123.011,41.0931,2026-03-22T0000,61,84,0.7,11,8,129,124,101,细颗粒物(PM2.5)
鞍山市,太平,123.0483,41.1445,2026-03-22T0000,58,90,0.7,10,10,128,124,96,细颗粒物(PM2.5)
鞍山市,铁西三道街,122.964,41.0968,2026-03-22T0000,58,97,0.7,17,11,130,125,96,细颗粒物(PM2.5)
鞍山市,明达新区,123.0219,41.0822,2026-03-22T0000,60,85,0.6,12,12,124,124,100,细颗粒物(PM2.5)
鞍山市,兴盛南路290号,122.944647,41.082639,2026-03-22T0000,60,97,1.2,18,10,122,120,100,细颗粒物(PM2.5)
巴彦淖尔市,附二中,107.4206,40.7609,2026-03-22T0000,21,83,0.3,11,7,69,97,74,颗粒物(PM10)
巴彦淖尔市,市环保大楼,107.37,40.7372,2026-03-22T0000,10,73,0.4,7,5,82,100,67,颗粒物(PM10)
巴音郭楞蒙古自治州,孔雀公园,86.1476,41.7529,2026-03-22T0000,78,255,0.4,20,9,54,97,153,颗粒物(PM10)
巴音郭楞蒙古自治州,棉纺厂,86.1971,41.7166,2026-03-22T0000,63,255,/,7,/,74,99,153,颗粒物(PM10)
巴音郭楞蒙古自治州,经济开发区,86.236,41.7172,2026-03-22T0000,49,200,0.3,5,6,81,88,131,颗粒物(PM10)
巴中市,市五中,106.776805,31.852614,2026-03-22T0000,18,28,0.7,22,7,30,65,28,
巴中市,圣泉水务公司,106.7419,31.8654,2026-03-22T0000,13,22,0.7,16,9,37,64,22,
巴中市,市中心医院,106.7617,31.8343,2026-03-22T0000,20,33,0.8,24,10,20,62,33,
白城市,洮北区环保局,122.7909,45.608,2026-03-22T0000,231,341,1.2,30,10,95,123,281,细颗粒物(PM2.5)
白城市,市环保局,122.8741,45.5725,2026-03-22T0000,255,364,1.4,28,11,90,100,305,细颗粒物(PM2.5)
白山市,喜丰,126.4219,41.9172,2026-03-22T0000,54,86,0.9,11,14,124,129,88,细颗粒物(PM2.5)
白山市,环保局,126.4082,41.9416,2026-03-22T0000,55,65,0.7,9,12,132,129,90,细颗粒物(PM2.5)
白银市,第三小学,104.1727,36.5448,2026-03-22T0000,76,178,0.2,25,34,72,99,123,颗粒物(PM10)
白银市,动力公司,104.1467,36.5482,2026-03-22T0000,67,180,0.5,24,4,57,93,124,颗粒物(PM10)
百色市,市监测站,106.6102,23.901,2026-03-22T0000,25,42,0.8,16,18,26,57,42,
百色市,市中心血站,106.6524,23.8842,2026-03-22T0000,39,42,0.8,14,13,27,56,58,细颗粒物(PM2.5)
百色市,龙景西路,106.6273,23.8798,2026-03-22T0000,39,55,0.8,18,24,17,57,58,细颗粒物(PM2.5)
蚌埠市,工人疗养院,117.396,32.9389,2026-03-22T0000,82,130,0.6,47,6,80,146,120,细颗粒物(PM2.5)
蚌埠市,百货大楼,117.3606,32.9428,2026-03-22T0000,77,113,0.6,41,6,88,144,116,细颗粒物(PM2.5)
蚌埠市,蚌埠学院,117.4183,32.8909,2026-03-22T0000,71,100,0.6,28,4,103,149,110,细颗粒物(PM2.5)
蚌埠市,淮上区政府,117.3534,32.9672,2026-03-22T0000,89,127,0.6,55,8,76,150,127,细颗粒物(PM2.5)
蚌埠市,高新区,117.3143,32.8977,2026-03-22T0000,69,110,0.6,29,7,101,139,109,细颗粒物(PM2.5)
蚌埠市,蚌埠田家炳中学,117.3091,32.9314,2026-03-22T0000,79,117,0.5,28,5,110,148,118,细颗粒物(PM2.5)
包头市,市环境监测站,109.8761,40.6533,2026-03-22T0000,17,120,0.3,14,5,78,101,100,颗粒物(PM10)
包头市,包头八中,109.9992,40.5843,2026-03-22T0000,40,130,0.4,23,7,60,97,104,颗粒物(PM10)
包头市,惠龙物流,109.8641,40.6288,2026-03-22T0000,24,118,0.3,18,4,69,96,99,颗粒物(PM10)
包头市,东河鸿龙湾,110.0376,40.5546,2026-03-22T0000,52,146,0.9,97,11,9,103,110,颗粒物(PM10)
包头市,滨河大厦,109.9154,40.5684,2026-03-22T0000,56,164,1.3,60,25,20,102,117,颗粒物(PM10)
包头市,包头市委党校,109.9449,40.6259,2026-03-22T0000,29,108,0.4,21,7,64,95,92,颗粒物(PM10)
包头市,昆区政府,109.8332,40.6577,2026-03-22T0000,33,110,0.4,22,4,70,97,93,颗粒物(PM10)
宝鸡市,竹园沟,107.0802,34.3129,2026-03-22T0000,14,24,0.4,18,6,22,78,24,
宝鸡市,监测站,107.1429,34.3549,2026-03-22T0000,52,78,0.4,34,6,12,62,84,细颗粒物(PM2.5)
宝鸡市,技工学校,107.1172,34.3759,2026-03-22T0000,45,78,0.6,29,4,21,75,70,"颗粒物(PM10),细颗粒物(PM2.5)"
宝鸡市,文理学院,107.2025,34.3518,2026-03-22T0000,62,107,0.7,28,4,24,70,102,细颗粒物(PM2.5)
宝鸡市,三迪小学,107.2396,34.3626,2026-03-22T0000,64,124,0.7,38,4,19,77,104,细颗粒物(PM2.5)
宝鸡市,滨河北路,107.1721,34.3558,2026-03-22T0000,86,148,0.8,28,5,22,67,124,细颗粒物(PM2.5)
宝鸡市,陈仓区北开路21号,107.3898,34.3601,2026-03-22T0000,71,140,0.9,44,34,16,84,110,细颗粒物(PM2.5)
保定市,游泳馆,115.4803,38.8568,2026-03-22T0000,136,168,0.8,44,13,51,107,180,细颗粒物(PM2.5)
保定市,华电二区,115.509,38.8895,2026-03-22T0000,125,139,0.9,37,1,46,105,165,细颗粒物(PM2.5)
保定市,接待中心,115.4588,38.9037,2026-03-22T0000,132,162,0.7,49,5,44,104,175,细颗粒物(PM2.5)
保定市,地表水厂,115.4484,38.8344,2026-03-22T0000,140,182,0.8,52,7,46,107,186,细颗粒物(PM2.5)
保定市,满城区生态环境分局,115.3136,38.9511,2026-03-22T0000,125,180,0.7,49,8,48,108,165,细颗粒物(PM2.5)
保定市,清苑区第二中学,115.4709,38.7628,2026-03-22T0000,135,184,0.7,61,9,32,107,179,细颗粒物(PM2.5)
保定市,徐水物探局,115.6231,39.0223,2026-03-22T0000,116,166,0.6,48,3,39,98,152,细颗粒物(PM2.5)
保定市,双鹰农机,115.4199,38.8665,2026-03-22T0000,172,248,0.9,61,6,36,108,222,细颗粒物(PM2.5)
保定市,植保所站,115.515,38.8589,2026-03-22T0000,142,173,0.7,43,7,56,110,189,细颗粒物(PM2.5)
保山市,市环境监测站,99.1589,25.1137,2026-03-22T0000,27,32,0.3,6,5,71,108,39,
保山市,市环保局,99.1616,25.1381,2026-03-22T0000,25,41,0.3,3,5,82,110,41,
北海市,海滩公园,109.1435,21.4085,2026-03-22T0000,8,19,0.4,7,7,47,76,19,
北海市,新市环保局,109.0983,21.466,2026-03-22T0000,11,16,0.5,7,7,46,69,16,
北海市,北海工业园,109.1775,21.5232,2026-03-22T0000,19,26,0.4,7,6,40,64,28,
北海市,龙潭自来水厂,109.1844,21.4396,2026-03-22T0000,8,19,0.6,4,4,42,77,19,
北京市,万寿西宫,116.3611,39.8786,2026-03-22T0000,100,161,0.9,47,5,55,98,137,细颗粒物(PM2.5)
北京市,东四,116.4174,39.9289,2026-03-22T0000,104,162,0.8,44,8,59,99,140,细颗粒物(PM2.5)
北京市,天坛,116.4073,39.8858,2026-03-22T0000,105,153,0.9,35,4,48,86,141,细颗粒物(PM2.5)
北京市,农展馆,116.4622,39.9364,2026-03-22T0000,108,161,0.8,32,6,64,100,144,细颗粒物(PM2.5)
北京市,官园,116.3399,39.9293,2026-03-22T0000,87,136,0.7,50,5,45,88,125,细颗粒物(PM2.5)
北京市,海淀万柳,116.2879,39.9613,2026-03-22T0000,75,125,0.6,61,4,18,72,114,细颗粒物(PM2.5)
北京市,顺义新城,116.6635,40.1349,2026-03-22T0000,115,177,0.6,35,6,45,94,150,细颗粒物(PM2.5)
北京市,怀柔镇,116.6275,40.327,2026-03-22T0000,73,114,1.0,25,7,61,86,112,细颗粒物(PM2.5)
北京市,昌平镇,116.2295,40.217,2026-03-22T0000,73,110,0.9,22,5,67,85,112,细颗粒物(PM2.5)
北京市,奥体中心,116.3968,39.982,2026-03-22T0000,88,140,0.8,72,6,25,83,126,细颗粒物(PM2.5)
北京市,密云新城,116.8336,40.4095,2026-03-22T0000,94,167,0.9,54,3,22,94,131,细颗粒物(PM2.5)
北京市,门头沟三家店,116.0879,39.9725,2026-03-22T0000,82,151,0.7,44,6,38,74,120,细颗粒物(PM2.5)
北京市,丰台云岗,116.1507,39.8246,2026-03-22T0000,79,141,0.8,42,5,45,85,118,细颗粒物(PM2.5)
北京市,房山燕山,115.9578,39.7602,2026-03-22T0000,79,130,0.7,32,7,51,76,118,细颗粒物(PM2.5)
北京市,大兴旧宫,116.4669,39.7734,2026-03-22T0000,116,187,0.8,38,6,62,96,152,细颗粒物(PM2.5)
北京市,延庆石河营,115.9859,40.4562,2026-03-22T0000,74,116,0.9,37,4,50,86,113,细颗粒物(PM2.5)
北京市,怀柔新城,116.6151,40.3052,2026-03-22T0000,76,106,0.8,18,6,66,88,115,细颗粒物(PM2.5)
北京市,丰台小屯,116.2542,39.8764,2026-03-22T0000,83,149,0.6,67,6,31,80,121,细颗粒物(PM2.5)
北京市,密云镇,116.8399,40.3843,2026-03-22T0000,104,165,0.9,85,5,10,96,140,细颗粒物(PM2.5)
北京市,延庆百泉,115.9423,40.4431,2026-03-22T0000,70,115,0.9,26,1,63,71,110,细颗粒物(PM2.5)
北京市,通州新华,116.6598,39.9164,2026-03-22T0000,132,215,0.8,55,7,42,90,175,细颗粒物(PM2.5)
北京市,石景山八角,116.1942,39.9158,2026-03-22T0000,83,158,0.7,41,6,38,78,121,细颗粒物(PM2.5)
北京市,平谷新城,117.078628,40.151726,2026-03-22T0000,127,186,1.0,23,3,81,106,168,细颗粒物(PM2.5)
本溪市,大峪,123.8274146,41.31234549,2026-03-22T0000,63,93,0.7,12,11,133,124,103,细颗粒物(PM2.5)
本溪市,彩屯,123.7169,41.3094,2026-03-22T0000,71,103,2.2,29,18,111,117,110,细颗粒物(PM2.5)
本溪市,东明,123.7672166,41.28649327,2026-03-22T0000,58,68,0.6,13,10,127,123,96,细颗粒物(PM2.5)
本溪市,新立屯,123.799345,41.266614,2026-03-22T0000,53,67,0.5,12,9,131,126,86,细颗粒物(PM2.5)
本溪市,威宁,123.829144,41.336777,2026-03-22T0000,56,111,0.6,14,11,125,126,94,颗粒物(PM10)
毕节市,八中,105.287,27.3133,2026-03-22T0000,16,NA,0.6,6,9,59,84,23,
毕节市,师专,105.3079,27.2987,2026-03-22T0000,14,16,0.6,8,8,52,75,20,
毕节市,工业大道,105.3688,27.3598,2026-03-22T0000,15,NA,/,7,10,67,82,22,
滨州市,第二水厂,117.9961,37.3604,2026-03-22T0000,95,132,0.8,23,13,117,143,132,细颗粒物(PM2.5)
滨州市,北中新校,117.9789,37.3931,2026-03-22T0000,107,132,0.5,21,7,129,151,143,细颗粒物(PM2.5)
滨州市,中海酒店,117.9379,37.3959,2026-03-22T0000,104,134,0.7,23,10,134,144,140,细颗粒物(PM2.5)
滨州市,开发区一中,117.9381509,37.35547456,2026-03-22T0000,99,139,0.8,18,17,109,129,136,细颗粒物(PM2.5)
滨州市,金海六路,118.0914,37.6938,2026-03-22T0000,101,129,0.9,33,9,110,141,138,细颗粒物(PM2.5)
滨州市,滨州市西街道办事处,117.9955,37.3752,2026-03-22T0000,94,136,0.8,25,12,114,144,131,细颗粒物(PM2.5)
亳州市,污水处理厂,115.8071,33.8399,2026-03-22T0000,76,115,0.3,23,7,101,132,115,细颗粒物(PM2.5)
亳州市,三国揽胜宫,115.7789,33.8519,2026-03-22T0000,77,124,0.3,16,6,109,122,116,细颗粒物(PM2.5)
亳州市,亳州学院,115.7631,33.803,2026-03-22T0000,71,115,0.3,19,7,101,125,110,细颗粒物(PM2.5)
博尔塔拉蒙古自治州,市党校,82.0482,44.8553,2026-03-22T0000,21,53,0.2,9,2,58,106,53,颗粒物(PM10)
博尔塔拉蒙古自治州,市环保局,82.0805,44.8966,2026-03-22T0000,30,55,0.5,36,4,65,95,54,颗粒物(PM10)
沧州市,沧县城建局,116.8733,38.2922,2026-03-22T0000,90,113,0.8,20,5,100,129,128,细颗粒物(PM2.5)
沧州市,电视转播站,116.8462,38.3189,2026-03-22T0000,87,106,0.6,19,2,108,132,125,细颗粒物(PM2.5)
沧州市,市环保局,116.8588,38.3161,2026-03-22T0000,77,122,0.5,19,10,96,130,116,细颗粒物(PM2.5)
沧州市,河北水利电力学院,116.8011,38.294,2026-03-22T0000,88,112,0.6,21,10,90,115,126,细颗粒物(PM2.5)
昌都市,昌都监测站,97.1813,31.1289,2026-03-22T0000,3,NA,0.5,3,4,106,115,34,
昌都市,昌都会议中心,97.1707,31.1428,2026-03-22T0000,3,6,0.3,3,6,124,124,39,
昌吉回族自治州,新区政务中心,87.2722,44.0298,2026-03-22T0000,29,68,0.7,75,6,8,95,63,颗粒物(PM10)
昌吉回族自治州,亚心广场,87.3069,44.0093,2026-03-22T0000,22,66,0.8,65,11,29,101,62,颗粒物(PM10)
昌吉回族自治州,财政所,87.2057,43.9289,2026-03-22T0000,17,37,0.4,5,7,42,95,37,
长春市,客车厂,125.2874,43.9024,2026-03-22T0000,100,128,0.8,29,12,83,133,137,细颗粒物(PM2.5)
长春市,邮电学院,125.2943,43.8508,2026-03-22T0000,97,139,0.8,24,11,95,138,134,细颗粒物(PM2.5)
长春市,劳动公园,125.3648,43.8745,2026-03-22T0000,96,138,0.9,18,11,95,137,133,细颗粒物(PM2.5)
长春市,园林处,125.3233,43.8781,2026-03-22T0000,99,136,0.8,20,10,96,132,136,细颗粒物(PM2.5)
长春市,净月潭,125.4604,43.7904,2026-03-22T0000,107,145,0.8,20,9,91,144,143,细颗粒物(PM2.5)
长春市,经开区环卫处,125.38,43.8422,2026-03-22T0000,108,159,0.9,19,9,89,137,144,细颗粒物(PM2.5)
长春市,高新区管委会,125.234,43.7761,2026-03-22T0000,101,153,0.9,34,10,64,136,138,细颗粒物(PM2.5)
长春市,岱山公园,125.1695,43.83,2026-03-22T0000,NA,137,0.7,48,9,66,138,107,颗粒物(PM10)
长春市,北亚泰大街1068号,125.334645,43.916281,2026-03-22T0000,104,153,0.7,30,13,78,124,140,细颗粒物(PM2.5)
长沙市,经开区环保局,113.082,28.2421,2026-03-22T0000,30,51,0.9,58,3,4,59,51,颗粒物(PM10)
长沙市,高开区环保局,112.8873,28.2202,2026-03-22T0000,33,49,1.3,42,4,19,67,49,
长沙市,马坡岭,113.0785,28.2012,2026-03-22T0000,30,46,1.0,56,4,2,70,46,
长沙市,湖南师范大学,112.9448,28.1894,2026-03-22T0000,26,42,1.2,25,4,25,70,42,
长沙市,雨花区环保局,113.0177,28.1322,2026-03-22T0000,39,45,1.2,40,4,25,61,58,细颗粒物(PM2.5)
长沙市,伍家岭,112.9795,28.2593,2026-03-22T0000,36,82,0.9,59,3,3,65,73,颗粒物(PM10)
长沙市,火车新站,113.002,28.1944,2026-03-22T0000,39,49,1.0,49,4,23,61,58,细颗粒物(PM2.5)
长沙市,天心区环保局,112.9846,28.1177,2026-03-22T0000,36,41,1.1,41,5,29,66,52,细颗粒物(PM2.5)
长沙市,湖南中医药大学,112.8906,28.1307,2026-03-22T0000,28,45,1.1,47,6,2,75,45,
长治市,清华站,113.1146,36.1547,2026-03-22T0000,53,81,0.8,17,11,98,122,86,细颗粒物(PM2.5)
长治市,审计局,113.0887,36.2126,2026-03-22T0000,64,82,0.7,16,10,103,123,104,细颗粒物(PM2.5)
长治市,长治八中,113.0845,36.1856,2026-03-22T0000,64,100,0.8,12,11,102,121,104,细颗粒物(PM2.5)
长治市,德盛苑,113.1561,36.1912,2026-03-22T0000,60,89,0.9,17,13,107,128,100,细颗粒物(PM2.5)
长治市,向阳小学,113.0603,36.0464,2026-03-22T0000,55,118,0.9,27,16,103,132,99,颗粒物(PM10)
长治市,屯留一中,112.8788,36.315,2026-03-22T0000,57,75,0.7,20,10,94,124,94,细颗粒物(PM2.5)
长治市,英华南巷50号,113.113092,36.199482,2026-03-22T0000,62,88,1.0,18,10,109,126,102,细颗粒物(PM2.5)
长治市,学府街1号,113.23666,36.33435,2026-03-22T0000,57,86,0.8,16,6,104,118,94,细颗粒物(PM2.5)
常德市,市二中,111.696,28.9725,2026-03-22T0000,44,50,1.1,15,8,51,68,68,细颗粒物(PM2.5)
常德市,武陵区永安,111.7152,29.0288,2026-03-22T0000,58,NA,1.0,33,6,36,77,96,细颗粒物(PM2.5)
常德市,鼎城区玉霞,111.6891,28.9881,2026-03-22T0000,47,55,1.1,31,10,25,73,74,细颗粒物(PM2.5)
常德市,武陵区长庚,111.6651,29.0526,2026-03-22T0000,62,NA,1.2,36,8,22,76,102,细颗粒物(PM2.5)
常州市,市监测站,119.9524,31.7586,2026-03-22T0000,41,72,0.5,34,8,72,105,66,颗粒物(PM10)
常州市,武进监测站,119.9351,31.703,2026-03-22T0000,37,63,0.3,21,6,81,111,60,颗粒物(PM10)
常州市,行政中心,119.9701,31.813,2026-03-22T0000,48,72,0.3,31,5,NA,94,NA,NA
常州市,经开区,120.0434,31.7726,2026-03-22T0000,47,89,0.7,28,8,75,109,78,颗粒物(PM10)
常州市,钟楼,119.8919,31.7892,2026-03-22T0000,35,62,0.1,24,7,100,123,59,颗粒物(PM10)
常州市,武进经发区,119.8595,31.706,2026-03-22T0000,46,61,0.6,23,8,90,117,72,细颗粒物(PM2.5)
常州市,金坛城区,119.5812,31.7256,2026-03-22T0000,51,58,0.4,13,8,99,126,82,细颗粒物(PM2.5)
常州市,崇义南街5-H号,119.9551,31.863,2026-03-22T0000,46,68,0.5,42,5,47,99,72,细颗粒物(PM2.5)
朝阳市,西梁,120.4318,41.588,2026-03-22T0000,143,164,1.8,28,17,96,131,190,细颗粒物(PM2.5)
朝阳市,河畔小区,120.452,41.565,2026-03-22T0000,123,NA,1.0,21,12,110,136,162,细颗粒物(PM2.5)
朝阳市,八里堡,120.4176,41.5648,2026-03-22T0000,141,NA,1.5,25,17,98,128,188,细颗粒物(PM2.5)
潮州市,市政府,116.6179,23.6608,2026-03-22T0000,22,33,0.5,18,5,77,120,33,
潮州市,金山,116.646,23.676,2026-03-22T0000,22,32,0.4,18,5,86,126,32,
郴州市,市职中,113.0116,25.8228,2026-03-22T0000,44,51,1.1,29,4,3,49,68,细颗粒物(PM2.5)
郴州市,市审计局,113.0381,25.8074,2026-03-22T0000,54,59,/,24,9,4,39,88,细颗粒物(PM2.5)
郴州市,市环保局,113.0348,25.7757,2026-03-22T0000,62,78,0.6,35,8,5,42,102,细颗粒物(PM2.5)
郴州市,好美居路49号,113.0138,25.8011,2026-03-22T0000,54,57,/,29,9,7,47,88,细颗粒物(PM2.5)
成都市,金泉两河,103.9727,30.7242,2026-03-22T0000,35,39,0.4,21,1,51,107,50,
成都市,十里店,104.1423,30.6765,2026-03-22T0000,34,54,0.4,21,4,53,107,53,颗粒物(PM10)
成都市,三瓦窑,104.0594,30.5765,2026-03-22T0000,35,50,0.7,20,2,55,110,50,
成都市,沙河铺,104.1122,30.6306,2026-03-22T0000,33,43,0.5,37,5,48,101,48,
成都市,大石西路,104.0219,30.6561,2026-03-22T0000,37,NA,0.7,21,7,55,107,54,细颗粒物(PM2.5)
成都市,龙泉驿区区政府,104.2724,30.559,2026-03-22T0000,28,36,0.6,18,7,53,102,40,
成都市,金博路,104.0028,30.6891,2026-03-22T0000,34,36,0.7,30,5,51,110,49,
成都市,华阳,104.056,30.5228,2026-03-22T0000,26,44,0.5,30,3,54,110,44,
成都市,青石路225号,104.387954,30.746684,2026-03-22T0000,41,56,0.7,29,5,38,104,62,细颗粒物(PM2.5)
成都市,科学城,104.0788,30.4054,2026-03-22T0000,23,41,0.8,22,7,51,109,41,
成都市,光华大道三段,103.8505,30.6946,2026-03-22T0000,33,47,0.6,22,3,64,107,48,
成都市,八角井街185号,104.3257,30.6406,2026-03-22T0000,NA,NA,NA,NA,NA,NA,87,NA,NA
成都市,鲸龙路1057号,104.2433276,30.53529463,2026-03-22T0000,29,48,0.5,26,5,54,105,48,
承德市,铁路,117.9531,40.908,2026-03-22T0000,85,132,0.9,58,6,45,117,123,细颗粒物(PM2.5)
承德市,中国银行,117.9397,40.9763,2026-03-22T0000,72,123,0.9,27,3,59,116,111,细颗粒物(PM2.5)
承德市,杏林街1号,117.9462,40.95,2026-03-22T0000,79,135,0.9,27,5,79,130,118,细颗粒物(PM2.5)
承德市,滨河大街98号,117.7994,40.9605,2026-03-22T0000,72,100,0.7,30,6,65,119,111,细颗粒物(PM2.5)
池州市,池州学院,117.4698,30.6617,2026-03-22T0000,22,29,0.7,26,3,54,102,32,
池州市,展览馆,117.4918,30.6617,2026-03-22T0000,26,33,0.8,25,2,51,96,38,
池州市,第八中学,117.5626,30.695,2026-03-22T0000,22,33,0.8,29,3,58,88,33,
池州市,第十二中学,117.5037,30.6242,2026-03-22T0000,16,22,0.7,22,4,54,91,23,
赤峰市,松山一中,118.9229,42.2816,2026-03-22T0000,54,82,0.6,15,6,106,96,88,细颗粒物(PM2.5)
赤峰市,哈达街,118.9588,42.2733,2026-03-22T0000,51,91,0.7,20,11,88,91,82,细颗粒物(PM2.5)
赤峰市,天义路,118.8792,42.2551,2026-03-22T0000,60,75,0.6,15,6,111,108,100,细颗粒物(PM2.5)
赤峰市,银河街,119.2656,42.0356,2026-03-22T0000,89,126,0.8,18,14,113,122,127,细颗粒物(PM2.5)
赤峰市,桥北物流园区,118.9359,42.3146,2026-03-22T0000,48,87,0.7,7,4,111,107,77,颗粒物(PM10)
崇左市,市环保局江州分局,107.3473,22.4137,2026-03-22T0000,64,95,0.9,24,10,22,48,104,细颗粒物(PM2.5)
崇左市,石景林东路7号,107.375,22.3736,2026-03-22T0000,78,97,1.1,31,6,21,52,117,细颗粒物(PM2.5)
滁州市,市政府原办公楼,118.31131,32.3033,2026-03-22T0000,48,65,0.4,32,4,74,136,76,细颗粒物(PM2.5)
滁州市,图书馆,118.3268,32.2633,2026-03-22T0000,36,64,0.4,30,8,80,134,60,颗粒物(PM10)
滁州市,银山路666号,118.3196,32.3335,2026-03-22T0000,40,65,0.6,22,8,97,144,61,颗粒物(PM10)
滁州市,黄山路555号,118.3426,32.2979,2026-03-22T0000,41,82,0.7,31,6,94,148,73,颗粒物(PM10)
楚雄彝族自治州,市经济开发区,101.5379,25.0492,2026-03-22T0000,42,60,0.6,16,4,85,118,64,细颗粒物(PM2.5)
楚雄彝族自治州,团结路562号,101.5536,25.0343,2026-03-22T0000,28,29,0.4,5,2,109,126,40,
达州市,市环境监测站,107.5087,31.2186,2026-03-22T0000,13,36,0.3,41,5,2,49,36,
达州市,凤凰小区,107.4988,31.2132,2026-03-22T0000,17,44,0.4,45,5,2,52,44,
达州市,达县机关宾馆,107.5081,31.1987,2026-03-22T0000,25,51,0.5,42,6,2,56,51,颗粒物(PM10)
达州市,市政中心,107.4644,31.2124,2026-03-22T0000,16,51,0.8,50,5,5,56,51,颗粒物(PM10)
大理白族自治州,大理市环境监测站,100.2168,25.5818,2026-03-22T0000,31,38,0.5,16,7,82,103,45,
大理白族自治州,大理古城,100.1542,25.7055,2026-03-22T0000,24,33,0.6,12,9,84,105,35,
大连市,甘井子,121.6119,38.974,2026-03-22T0000,72,106,0.6,17,7,104,122,111,细颗粒物(PM2.5)
大连市,周水子,121.565,38.9509,2026-03-22T0000,78,113,0.8,16,11,99,113,117,细颗粒物(PM2.5)
大连市,星海三站,121.5637,38.8849,2026-03-22T0000,69,89,0.8,15,4,93,107,109,细颗粒物(PM2.5)
大连市,青泥洼桥,121.6301,38.9117,2026-03-22T0000,70,101,0.7,11,4,105,130,110,细颗粒物(PM2.5)
大连市,傅家庄,121.6248,38.8643,2026-03-22T0000,65,108,0.7,18,6,97,107,105,细颗粒物(PM2.5)
大连市,七贤岭,121.5117,38.8636,2026-03-22T0000,62,95,0.7,15,6,104,104,102,细颗粒物(PM2.5)
大连市,金州,121.7507,39.1339,2026-03-22T0000,72,96,0.7,17,5,100,126,111,细颗粒物(PM2.5)
大连市,开发区,121.7811,39.0495,2026-03-22T0000,71,93,0.7,18,7,97,113,110,细颗粒物(PM2.5)
大连市,双D港,121.9762,39.0631,2026-03-22T0000,74,98,0.7,18,5,106,98,113,细颗粒物(PM2.5)
大连市,旅顺,121.2548,38.8188,2026-03-22T0000,64,89,0.5,15,6,95,101,104,细颗粒物(PM2.5)
大庆市,大同区,124.8085,46.0381,2026-03-22T0000,113,160,0.8,44,14,75,134,149,细颗粒物(PM2.5)
大庆市,龙凤区,125.1166,46.5255,2026-03-22T0000,162,215,1.1,65,10,57,127,212,细颗粒物(PM2.5)
大庆市,红岗区,124.8894,46.4007,2026-03-22T0000,100,134,0.8,24,11,102,138,137,细颗粒物(PM2.5)
大庆市,萨尔图区,125.1391,46.578,2026-03-22T0000,178,264,1.4,77,10,56,136,228,细颗粒物(PM2.5)
大庆市,让胡路区,124.9026,46.6217,2026-03-22T0000,147,165,1.0,25,9,84,128,196,细颗粒物(PM2.5)
大庆市,萨区政府监测点,125.127,46.6277,2026-03-22T0000,173,221,1.3,56,12,56,131,223,细颗粒物(PM2.5)
大同市,云冈宾馆,113.2926,40.0759,2026-03-22T0000,32,136,0.6,22,8,70,109,107,颗粒物(PM10)
大同市,大同大学,113.3437,40.0921,2026-03-22T0000,32,147,0.5,51,6,47,129,111,颗粒物(PM10)
大同市,安家小村,113.2637,40.129,2026-03-22T0000,38,148,0.5,25,14,63,113,111,颗粒物(PM10)
大同市,大同市卫生学校,113.3399,40.0586,2026-03-22T0000,34,154,0.4,21,5,71,125,114,颗粒物(PM10)
大同市,云冈站,113.1371,40.1122,2026-03-22T0000,32,134,0.5,48,9,24,99,106,颗粒物(PM10)
大同市,图书馆,113.1186,40.2556,2026-03-22T0000,40,140,0.8,11,7,57,97,108,颗粒物(PM10)
大同市,区一中,113.5931,40.0459,2026-03-22T0000,31,135,0.7,20,12,72,129,106,颗粒物(PM10)
大同市,魏都大道141号,113.2798248,40.09972476,2026-03-22T0000,30,159,0.6,20,10,70,116,115,颗粒物(PM10)
大兴安岭地区,科技局,124.1068,50.4091,2026-03-22T0000,16,29,0.5,9,7,68,87,29,
大兴安岭地区,红旗社区,124.117,50.4279,2026-03-22T0000,21,22,0.6,20,11,NA,90,NA,NA
丹东市,江湾东路,124.33,40.0625,2026-03-22T0000,44,61,0.8,12,7,105,117,68,细颗粒物(PM2.5)
丹东市,临江后街,124.4242,40.1513,2026-03-22T0000,54,86,1.0,14,15,97,111,88,细颗粒物(PM2.5)
丹东市,元宝山,124.3935,40.1461,2026-03-22T0000,51,73,1.0,15,13,101,107,82,细颗粒物(PM2.5)
丹东市,民主桥,124.3634,40.1093,2026-03-22T0000,49,82,0.6,13,6,97,116,78,细颗粒物(PM2.5)
儋州市,第一中学子站,109.5726195,19.51688767,2026-03-22T0000,21,32,0.4,7,6,50,71,32,
儋州市,东坡学校子站,109.5567,19.5187,2026-03-22T0000,16,25,0.4,6,7,56,79,25,
德宏傣族景颇族自治州,德宏州监测站,98.5611,24.4273,2026-03-22T0000,52,53,1.1,20,6,24,65,84,细颗粒物(PM2.5)
德宏傣族景颇族自治州,芒市人民政府综合楼,98.5887,24.4366,2026-03-22T0000,42,66,0.8,14,2,38,58,64,细颗粒物(PM2.5)
德阳市,东山公园,104.424,31.1209,2026-03-22T0000,47,52,0.8,48,3,17,87,74,细颗粒物(PM2.5)
德阳市,西小区,104.3827,31.1318,2026-03-22T0000,54,72,0.8,38,7,23,86,88,细颗粒物(PM2.5)
德阳市,耐火材料厂,104.3553,31.1091,2026-03-22T0000,60,74,0.6,28,3,31,91,100,细颗粒物(PM2.5)
德阳市,市林业局,104.4144,31.1495,2026-03-22T0000,42,55,0.8,44,5,1,86,64,细颗粒物(PM2.5)
德州市,儿童乐园,116.3034,37.4675,2026-03-22T0000,81,127,0.8,18,12,114,139,120,细颗粒物(PM2.5)
德州市,监理站,116.2992,37.4449,2026-03-22T0000,78,127,0.8,24,3,120,144,117,细颗粒物(PM2.5)
德州市,九衢泉纯净水厂,116.2722,37.438,2026-03-22T0000,79,122,0.6,28,3,106,137,118,细颗粒物(PM2.5)
德州市,开发区人民医院,116.3693,37.44,2026-03-22T0000,82,124,0.7,21,8,113,138,120,细颗粒物(PM2.5)
德州市,陵城艺术中心,116.5687,37.3331,2026-03-22T0000,95,122,0.9,15,7,106,130,132,细颗粒物(PM2.5)
德州市,新河东路,116.352738,37.420875,2026-03-22T0000,76,127,0.7,19,10,110,136,115,细颗粒物(PM2.5)
迪庆藏族自治州,迪庆州站,99.7054,27.8319,2026-03-22T0000,6,15,0.6,6,8,100,100,32,
迪庆藏族自治州,质量技术监督局,99.7122,27.8129,2026-03-22T0000,10,14,0.4,4,6,112,108,35,
定西市,将台街,104.6092,35.5962,2026-03-22T0000,67,179,0.3,6,7,97,105,123,颗粒物(PM10)
定西市,正龙路62号,104.6159,35.5701,2026-03-22T0000,54,180,0.3,7,3,88,100,124,颗粒物(PM10)
定州市,交通局,114.9883,38.5232,2026-03-22T0000,73,112,0.8,26,14,78,114,112,细颗粒物(PM2.5)
定州市,第五中学,115.0045,38.5136,2026-03-22T0000,67,131,0.8,22,10,83,115,107,细颗粒物(PM2.5)
东莞市,东城石井,113.7943,23.0132,2026-03-22T0000,26,41,0.6,40,3,48,79,41,
东莞市,南城西平,113.7384,22.9659,2026-03-22T0000,28,40,0.7,35,5,31,61,40,
东莞市,万江金泰,113.7283,23.041,2026-03-22T0000,27,43,0.8,29,5,52,79,43,
东莞市,裕兴路,113.8666,23.1062,2026-03-22T0000,20,40,0.7,25,8,63,96,40,
东莞市,教育路1号,114.0076,22.9739,2026-03-22T0000,24,42,0.7,20,5,77,75,42,
东莞市,长怡路1号,113.7981,22.8124,2026-03-22T0000,23,41,0.7,31,4,56,62,41,
东营市,市环保局,118.6612,37.4313,2026-03-22T0000,116,144,0.7,30,20,88,149,152,细颗粒物(PM2.5)
东营市,开发区管委会,118.6903,37.4337,2026-03-22T0000,105,135,0.9,39,24,95,155,141,细颗粒物(PM2.5)
东营市,垦利区民丰路,118.5721,37.5654,2026-03-22T0000,106,134,0.9,29,4,114,167,142,细颗粒物(PM2.5)
东营市,河口城区,118.5063,37.8606,2026-03-22T0000,112,153,0.8,32,14,96,170,148,细颗粒物(PM2.5)
东营市,胜利站,118.4979,37.4623,2026-03-22T0000,112,150,1.1,NA,11,91,140,148,细颗粒物(PM2.5)
东营市,理想之城,118.5753,37.4405,2026-03-22T0000,106,151,0.9,32,7,113,155,142,细颗粒物(PM2.5)
鄂尔多斯市,综合楼,110.0024,39.8127,2026-03-22T0000,43,175,0.2,11,4,81,94,122,颗粒物(PM10)
鄂尔多斯市,巴音孟克林场办事处,109.9485,39.8259,2026-03-22T0000,44,166,0.2,11,3,80,99,118,颗粒物(PM10)
鄂尔多斯市,康泽苑,109.7734,39.5987,2026-03-22T0000,52,215,0.3,9,7,88,107,137,颗粒物(PM10)
鄂尔多斯市,华泰汽车城,109.8121,39.5987,2026-03-22T0000,45,200,0.3,10,5,88,109,131,颗粒物(PM10)
鄂尔多斯市,奥林花园,109.9734,39.7884,2026-03-22T0000,45,173,0.3,12,4,86,98,121,颗粒物(PM10)
鄂州市,市政府,114.894,30.3989,2026-03-22T0000,26,50,0.7,23,9,69,102,50,
鄂州市,赵家坝,114.8986,30.3714,2026-03-22T0000,21,56,0.9,16,8,72,111,55,颗粒物(PM10)
鄂州市,精准医疗中心,114.8093,30.4091,2026-03-22T0000,47,63,1.0,25,48,65,104,74,细颗粒物(PM2.5)
恩施土家族苗族自治州,湖北民院,109.4978,30.2979,2026-03-22T0000,23,52,0.7,20,7,11,46,52,颗粒物(PM10)
恩施土家族苗族自治州,龙凤新区,109.5061,30.3771,2026-03-22T0000,22,46,0.4,10,7,6,36,46,
防城港市,沙万,108.3411,21.6159,2026-03-22T0000,47,52,1.0,35,6,9,49,74,细颗粒物(PM2.5)
防城港市,防城档案局,108.3515,21.7733,2026-03-22T0000,42,57,0.7,17,5,19,41,64,细颗粒物(PM2.5)
防城港市,大海花园,108.3506,21.6414,2026-03-22T0000,54,63,0.9,25,7,9,51,88,细颗粒物(PM2.5)
佛山市,湾梁,113.1293,23.0065,2026-03-22T0000,43,NA,/,32,/,27,25,66,细颗粒物(PM2.5)
佛山市,华材职中,113.1082,23.0477,2026-03-22T0000,46,NA,0.5,37,7,23,32,72,细颗粒物(PM2.5)
佛山市,南海气象局,113.1439,23.045,2026-03-22T0000,36,40,/,23,/,40,24,52,细颗粒物(PM2.5)
佛山市,顺德苏岗,113.2879,22.8094,2026-03-22T0000,37,48,0.6,30,/,29,41,54,细颗粒物(PM2.5)
佛山市,高明孔堂,112.8384,22.8678,2026-03-22T0000,27,30,/,29,/,34,32,39,
佛山市,三水监测站,112.8835,23.1584,2026-03-22T0000,53,NA,1.0,59,5,2,28,86,细颗粒物(PM2.5)
佛山市,三水云东海,112.8668,23.185,2026-03-22T0000,43,69,/,38,/,0,28,66,细颗粒物(PM2.5)
佛山市,容桂街道办,113.2568,22.7629,2026-03-22T0000,38,NA,/,29,/,37,40,56,细颗粒物(PM2.5)
福州市,师大,119.2681,26.0506,2026-03-22T0000,25,36,0.4,26,4,60,94,36,
福州市,五四北路,119.2983,26.1028,2026-03-22T0000,40,42,0.6,31,4,51,92,60,细颗粒物(PM2.5)
福州市,杨桥西路,119.2648,26.0769,2026-03-22T0000,29,36,/,26,4,60,91,42,
福州市,九龙,119.5799,26.0937,2026-03-22T0000,13,16,0.4,18,4,59,98,19,
福州市,吴航,119.5188,25.9666,2026-03-22T0000,18,25,0.6,15,6,71,107,26,
福州市,路通桥巷6号,119.3106,26.0648,2026-03-22T0000,33,40,/,23,/,54,88,48,
抚顺市,望花区,123.7974,41.8494,2026-03-22T0000,66,121,1.1,15,22,122,132,106,细颗粒物(PM2.5)
抚顺市,顺城区,123.9161,41.8827,2026-03-22T0000,66,75,0.8,15,14,114,130,106,细颗粒物(PM2.5)
抚顺市,东洲区,124.0437,41.8615,2026-03-22T0000,58,101,0.6,12,11,126,130,96,细颗粒物(PM2.5)
抚顺市,新抚区,123.9246,41.8638,2026-03-22T0000,64,119,0.8,18,13,111,138,104,细颗粒物(PM2.5)
抚顺市,大伙房水库,124.0972,41.8961,2026-03-22T0000,57,82,0.6,9,12,133,135,94,细颗粒物(PM2.5)
抚顺市,沈抚新城,123.708,41.8386,2026-03-22T0000,67,99,0.8,17,13,116,131,107,细颗粒物(PM2.5)
抚州市,市站,116.3544,27.9833,2026-03-22T0000,43,49,1.0,18,6,35,69,66,细颗粒物(PM2.5)
抚州市,血防站,116.3562,27.9631,2026-03-22T0000,40,53,0.9,23,4,31,65,60,细颗粒物(PM2.5)
抚州市,采茶剧团,116.3561,28.0007,2026-03-22T0000,44,57,0.8,25,3,30,66,68,细颗粒物(PM2.5)
抚州市,医学分院,116.3854,27.9648,2026-03-22T0000,30,56,1.2,27,5,29,73,55,颗粒物(PM10)
阜新市,工业园区,121.6095,41.9978,2026-03-22T0000,118,132,1.0,22,17,105,124,155,细颗粒物(PM2.5)
阜新市,长青街,121.6567,42.0188,2026-03-22T0000,103,105,0.8,19,14,119,124,140,细颗粒物(PM2.5)
阜新市,农业园区,121.6672,42.07,2026-03-22T0000,114,163,0.9,22,11,117,128,150,细颗粒物(PM2.5)
阜新市,玉龙新城,121.6343,42.0455,2026-03-22T0000,127,151,1.1,23,16,104,124,168,细颗粒物(PM2.5)
阜阳市,市监测站,115.8276,32.8929,2026-03-22T0000,73,133,0.7,35,5,79,141,112,细颗粒物(PM2.5)
阜阳市,开发区,115.8551,32.8606,2026-03-22T0000,73,146,0.7,25,6,108,142,112,细颗粒物(PM2.5)
阜阳市,阜阳职业技术学院,115.783962,32.889217,2026-03-22T0000,49,83,0.8,18,8,126,148,78,细颗粒物(PM2.5)
阜阳市,市规划展馆,115.79,32.8614,2026-03-22T0000,60,112,0.6,20,10,125,151,100,细颗粒物(PM2.5)
阜阳市,枣园社区,115.835101,32.918568,2026-03-22T0000,71,124,0.6,22,7,99,139,110,细颗粒物(PM2.5)
甘南藏族自治州,州政府,102.9097,34.9841,2026-03-22T0000,26,94,0.3,2,4,81,100,82,颗粒物(PM10)
甘南藏族自治州,甘肃民族师范学院,102.8915,34.9618,2026-03-22T0000,26,132,0.4,8,3,91,112,105,颗粒物(PM10)
甘孜藏族自治州,水桥子,101.96,30.048,2026-03-22T0000,12,NA,0.3,4,6,69,74,22,
甘孜藏族自治州,州环保局,101.9534,29.9976,2026-03-22T0000,14,NA,0.7,10,6,86,82,27,
赣州市,地委,114.9368,25.8663,2026-03-22T0000,9,29,1.2,23,4,23,67,29,
赣州市,气象台,114.946,25.8483,2026-03-22T0000,16,32,0.7,30,5,35,76,32,
赣州市,市图书馆,114.932,25.8332,2026-03-22T0000,11,21,0.9,26,3,40,71,21,
赣州市,华坚鞋城,114.8905,25.8472,2026-03-22T0000,8,39,0.5,26,5,38,74,39,
赣州市,赣县区卫计委,115.0094,25.8614,2026-03-22T0000,6,29,0.8,38,2,4,62,29,
固原市,监测站,106.2753,36.0057,2026-03-22T0000,74,243,0.7,42,10,36,89,148,颗粒物(PM10)
固原市,新区,106.2384,36.0189,2026-03-22T0000,71,235,0.6,56,7,23,90,145,颗粒物(PM10)
广安市,市委,106.6307,30.4577,2026-03-22T0000,22,36,0.7,17,6,56,81,36,
广安市,友谊中学,106.6266,30.4662,2026-03-22T0000,15,31,0.8,12,5,63,87,31,
广安市,广电花园,106.6386,30.4551,2026-03-22T0000,22,46,0.8,21,5,48,82,46,
广安市,北辰小学,106.6347,30.4868,2026-03-22T0000,21,33,0.8,12,8,57,79,33,
广元市,老城,105.8211,32.4444,2026-03-22T0000,11,38,0.7,33,8,37,57,38,
广元市,监测站,105.8629,32.429,2026-03-22T0000,9,26,0.6,28,4,42,53,26,
广元市,经开区,105.8047,32.4167,2026-03-22T0000,13,25,0.6,24,4,44,57,25,
广州市,广雅中学,113.2346,23.1423,2026-03-22T0000,32,52,0.7,35,2,35,34,52,颗粒物(PM10)
广州市,市五中,113.2611,23.105,2026-03-22T0000,35,46,/,37,6,36,40,50,
广州市,广东商学院,113.3477,23.0916,2026-03-22T0000,32,49,0.8,49,5,14,30,49,
广州市,市八十六中,113.4332,23.105,2026-03-22T0000,31,45,/,52,5,14,23,45,
广州市,番禺中学,113.3506,22.9488,2026-03-22T0000,28,35,0.9,28,3,43,43,40,
广州市,花都师范,113.2147,23.3918,2026-03-22T0000,38,60,1.2,55,5,1,34,58,颗粒物(PM10)
广州市,市监测站,113.2599,23.1329,2026-03-22T0000,29,44,/,26,1,40,33,44,
广州市,九龙镇镇龙,113.5618,23.3119,2026-03-22T0000,24,40,0.6,17,6,26,33,40,
广州市,麓湖,113.2764,23.1544,2026-03-22T0000,31,43,0.8,39,2,13,26,45,
广州市,体育西,113.3209,23.1323,2026-03-22T0000,28,47,0.8,40,6,32,29,47,
广州市,从化街口,113.5718,23.5493,2026-03-22T0000,37,56,1.0,41,6,0,37,55,颗粒物(PM10)
广州市,白云竹料,113.3463,23.369,2026-03-22T0000,37,58,1.0,40,3,1,34,56,颗粒物(PM10)
广州市,白云嘉禾,113.2981,23.2365,2026-03-22T0000,52,83,/,63,7,0,27,84,细颗粒物(PM2.5)
广州市,黄埔科学城,113.4256,23.1716,2026-03-22T0000,48,58,0.9,46,7,8,42,76,细颗粒物(PM2.5)
广州市,番禺大学城,113.3942,23.0485,2026-03-22T0000,45,65,0.7,41,7,34,40,70,细颗粒物(PM2.5)
广州市,南沙黄阁,113.4923,22.8169,2026-03-22T0000,22,31,/,42,6,39,70,32,
广州市,南沙街,113.534,22.7893,2026-03-22T0000,22,34,0.6,25,7,47,68,34,
广州市,花都梯面,113.2905,23.5541,2026-03-22T0000,30,39,/,18,8,9,35,43,
广州市,从化良口,113.786,23.7479,2026-03-22T0000,16,23,/,16,4,25,32,23,
广州市,增城荔城,113.805,23.2614,2026-03-22T0000,26,41,0.6,20,5,24,81,41,
贵港市,江南子站,109.604387,23.066791,2026-03-22T0000,48,188,1.3,55,8,6,62,127,颗粒物(PM10)
贵港市,荷城子站,109.5669,23.1065,2026-03-22T0000,58,83,1.1,54,7,4,53,96,细颗粒物(PM2.5)
贵港市,新世纪学校,109.5886,23.1172,2026-03-22T0000,44,70,1.0,34,/,28,55,68,细颗粒物(PM2.5)
贵港市,中山路155-3号,109.5933,23.095,2026-03-22T0000,49,83,1.1,28,/,27,57,78,细颗粒物(PM2.5)
贵阳市,马鞍山,106.6863,26.6035,2026-03-22T0000,17,17,/,14,5,12,44,25,
贵阳市,鉴湖路,106.6241,26.6266,2026-03-22T0000,10,22,0.5,23,4,15,47,22,
贵阳市,燕子冲,106.7468,26.6344,2026-03-22T0000,18,NA,1.2,13,7,21,43,26,
贵阳市,碧云窝,106.6556,26.4362,2026-03-22T0000,18,29,/,24,10,18,53,29,
贵阳市,红边门,106.6963,26.6063,2026-03-22T0000,11,12,/,15,9,20,45,16,
贵阳市,新华路,106.7162383,26.56964667,2026-03-22T0000,13,19,0.4,14,5,26,46,19,
贵阳市,太慈桥,106.6742,26.542,2026-03-22T0000,20,NA,/,20,3,21,47,29,
贵阳市,花果园大街66号,106.688212,26.56952,2026-03-22T0000,17,NA,/,17,2,18,41,25,
贵阳市,漓江路57号,106.687268,26.516892,2026-03-22T0000,18,NA,0.9,22,7,15,46,26,
桂林市,龙隐路小学,110.3091,25.2705,2026-03-22T0000,33,38,0.9,26,4,23,58,48,
桂林市,八中,110.2849361,25.22909545,2026-03-22T0000,20,37,1.0,30,3,18,50,37,
桂林市,旅游学院,110.296,25.1254,2026-03-22T0000,29,43,1.0,27,5,19,57,43,
桂林市,环湖路276号,110.1835,25.2444,2026-03-22T0000,22,34,1.0,28,8,25,59,34,
桂林市,信义路13号,110.2803,25.2773,2026-03-22T0000,30,31,1.3,31,6,21,58,43,
果洛藏族自治州,玛沁县大武镇,100.2262,34.4854,2026-03-22T0000,18,39,0.3,1,8,79,100,39,
哈尔滨市,松北商大,126.5557,45.8109,2026-03-22T0000,128,146,1.1,31,13,55,151,169,细颗粒物(PM2.5)
哈尔滨市,南岗学府路,126.6162,45.719,2026-03-22T0000,152,190,0.5,36,14,50,146,202,细颗粒物(PM2.5)
哈尔滨市,太平宏伟公园,126.6894,45.7733,2026-03-22T0000,138,164,NA,40,6,53,148,183,细颗粒物(PM2.5)
哈尔滨市,道外承德广场,126.6361,45.7672,2026-03-22T0000,153,213,1.0,43,14,58,151,203,细颗粒物(PM2.5)
哈尔滨市,动力和平路,126.644,45.7261,2026-03-22T0000,135,163,1.6,53,23,40,146,179,细颗粒物(PM2.5)
哈尔滨市,道里建国路,126.5933,45.7479,2026-03-22T0000,153,175,0.7,48,16,50,140,203,细颗粒物(PM2.5)
哈尔滨市,平房东轻厂,126.6127,45.6119,2026-03-22T0000,152,218,0.9,74,56,40,100,202,细颗粒物(PM2.5)
哈尔滨市,呼兰师专,126.5875,45.9827,2026-03-22T0000,123,140,0.8,40,15,66,134,162,细颗粒物(PM2.5)
哈尔滨市,省农科院,126.6299,45.6799,2026-03-22T0000,168,200,1.0,44,16,44,115,218,细颗粒物(PM2.5)
哈尔滨市,华山路1号,126.6769,45.7379,2026-03-22T0000,134,210,1.2,43,8,53,143,178,细颗粒物(PM2.5)
哈尔滨市,解放大街52号,126.9717,45.5356,2026-03-22T0000,90,190,0.1,21,10,85,147,128,细颗粒物(PM2.5)
哈密市,地区监测站,93.5124,42.8176,2026-03-22T0000,21,47,0.3,17,6,72,98,47,
哈密市,哈密师范学校,93.5014,42.8312,2026-03-22T0000,NA,70,0.7,74,8,19,100,NA,NA
海北藏族自治州,海晏县西海镇,100.9016,36.9464,2026-03-22T0000,35,157,0.5,4,8,96,107,115,颗粒物(PM10)
海东市,平安区公安局北苑,102.074,36.5056,2026-03-22T0000,68,214,0.7,9,14,99,118,137,颗粒物(PM10)
海东市,滨河路,102.0984,36.5119,2026-03-22T0000,64,227,0.7,27,12,70,90,142,颗粒物(PM10)
海口市,海南大学,110.3189,20.0596,2026-03-22T0000,20,31,0.3,8,5,46,60,31,
海口市,秀英海南医院,110.2827,20.0051,2026-03-22T0000,26,NA,0.3,9,8,40,55,38,
海口市,海南师范大学,110.3391,19.9979,2026-03-22T0000,20,32,0.4,9,6,45,60,32,
海口市,龙华路环保局宿舍,110.3303,20.0359,2026-03-22T0000,21,30,0.5,8,/,50,62,30,
海口市,桂林洋子站,110.5111,19.9737,2026-03-22T0000,28,44,/,8,/,39,60,44,
海口市,长滨二路9号,110.1952,20.0451,2026-03-22T0000,26,NA,/,4,/,49,56,38,
海南藏族自治州,共和县恰卜恰镇,100.6158,36.2985,2026-03-22T0000,38,88,0.3,9,11,101,113,78,颗粒物(PM10)
海西蒙古族藏族自治州,德令哈市,97.373,37.376,2026-03-22T0000,7,14,0.3,1,17,115,144,36,
邯郸市,矿院,114.492,36.5712,2026-03-22T0000,50,86,0.5,14,10,86,134,80,细颗粒物(PM2.5)
邯郸市,丛台公园,114.4839,36.6136,2026-03-22T0000,54,89,0.4,12,6,88,131,88,细颗粒物(PM2.5)
邯郸市,香泉濮院小区,114.7893,36.5592,2026-03-22T0000,29,109,0.4,12,1,96,136,93,颗粒物(PM10)
邯郸市,峰峰矿区临水派出所,114.1998,36.4439,2026-03-22T0000,48,79,0.4,9,5,94,137,76,细颗粒物(PM2.5)
邯郸市,建安街268号,114.5209,36.7697,2026-03-22T0000,53,83,0.4,14,2,96,134,86,细颗粒物(PM2.5)
邯郸市,丛台东路558号,114.5488,36.6177,2026-03-22T0000,67,81,0.5,18,1,80,131,107,细颗粒物(PM2.5)
汉中市,市监测站,107.0155,33.0707,2026-03-22T0000,48,73,0.8,33,7,15,40,76,细颗粒物(PM2.5)
汉中市,鑫源开发区,107.0083,33.114,2026-03-22T0000,52,95,1.3,50,10,12,43,84,细颗粒物(PM2.5)
汉中市,南郑大河坎水厂,107.0072,33.0323,2026-03-22T0000,56,91,0.8,41,4,2,40,92,细颗粒物(PM2.5)
杭州市,滨江,120.2073,30.2111,2026-03-22T0000,39,63,0.8,34,8,51,118,60,颗粒物(PM10)
杭州市,西溪,120.0625,30.2737,2026-03-22T0000,38,73,0.7,26,9,57,127,67,颗粒物(PM10)
杭州市,下沙,120.3417,30.315,2026-03-22T0000,34,68,0.6,34,10,47,126,63,颗粒物(PM10)
杭州市,卧龙桥,120.1252,30.2465,2026-03-22T0000,38,62,0.3,30,9,53,129,59,颗粒物(PM10)
杭州市,浙江农大,120.1902,30.2691,2026-03-22T0000,33,56,0.6,41,8,52,128,55,颗粒物(PM10)
杭州市,和睦小学,120.1195,30.3121,2026-03-22T0000,41,69,0.6,24,9,63,125,64,颗粒物(PM10)
杭州市,临平镇,120.3076,30.4146,2026-03-22T0000,31,54,0.6,23,7,70,137,53,颗粒物(PM10)
杭州市,城厢镇,120.2753,30.1839,2026-03-22T0000,39,67,0.6,27,12,43,111,63,颗粒物(PM10)
杭州市,云栖,120.0883,30.1808,2026-03-22T0000,33,68,0.6,39,6,46,128,63,颗粒物(PM10)
杭州市,镇二中,119.9463,30.0496,2026-03-22T0000,48,48,0.5,31,6,51,118,76,细颗粒物(PM2.5)
杭州市,市府大楼,119.7184,30.2367,2026-03-22T0000,37,58,0.3,26,6,65,106,56,颗粒物(PM10)
杭州市,消防大队,120.1554,30.2863,2026-03-22T0000,41,63,0.7,32,8,52,121,62,细颗粒物(PM2.5)
合肥市,明珠广场,117.1957,31.7845,2026-03-22T0000,44,78,0.7,26,6,88,139,70,颗粒物(PM10)
合肥市,三里街,117.307,31.8765,2026-03-22T0000,46,85,0.8,38,6,75,124,75,颗粒物(PM10)
合肥市,琥珀山庄,117.2587,31.8703,2026-03-22T0000,44,83,0.6,48,7,79,138,74,颗粒物(PM10)
合肥市,庐阳区,117.2593,31.9376,2026-03-22T0000,49,102,0.9,65,6,59,131,88,颗粒物(PM10)
合肥市,瑶海区,117.345251,31.861615,2026-03-22T0000,45,105,0.7,70,7,54,129,90,颗粒物(PM10)
合肥市,包河区,117.3033,31.7967,2026-03-22T0000,39,100,0.9,141,10,6,132,86,颗粒物(PM10)
合肥市,滨湖新区,117.278,31.7392,2026-03-22T0000,39,92,0.7,14,4,101,132,80,颗粒物(PM10)
合肥市,高新区,117.1324,31.8395,2026-03-22T0000,44,78,0.8,38,5,88,135,70,颗粒物(PM10)
合肥市,高教基地,117.3802,31.9148,2026-03-22T0000,40,80,0.6,42,8,66,137,72,颗粒物(PM10)
合肥市,中国科学技术大学,117.2518,31.8404,2026-03-22T0000,42,83,0.8,39,6,80,144,74,颗粒物(PM10)
和田地区,地区环保局,79.9241,37.0878,2026-03-22T0000,78,293,0.5,16,1,66,95,172,颗粒物(PM10)
和田地区,市环保局,79.9132,37.1137,2026-03-22T0000,75,134,0.7,20,3,66,91,114,细颗粒物(PM2.5)
河池市,市环保站,108.0496,24.6957,2026-03-22T0000,24,27,0.7,9,4,24,42,35,
河池市,上任中路54号,108.0901,24.6945,2026-03-22T0000,19,24,0.7,10,6,20,36,28,
河源市,东埔,114.6962,23.7538,2026-03-22T0000,16,21,0.9,26,5,18,59,23,
河源市,老城,114.6895,23.7232,2026-03-22T0000,13,18,0.9,22,6,14,60,19,
菏泽市,定陶老年大学,115.5562,35.089,2026-03-22T0000,85,119,0.5,17,5,108,142,123,细颗粒物(PM2.5)
菏泽市,黄河路600号,115.4239,35.2593,2026-03-22T0000,82,149,0.6,17,3,96,136,120,细颗粒物(PM2.5)
菏泽市,菏泽市人社局,115.5025,35.2727,2026-03-22T0000,75,116,0.5,16,4,112,132,114,细颗粒物(PM2.5)
菏泽市,永昌路1号,115.479691,35.244011,2026-03-22T0000,80,128,0.5,18,3,122,148,119,细颗粒物(PM2.5)
菏泽市,长城路999号,115.471542,35.280012,2026-03-22T0000,76,124,0.5,14,6,115,141,115,细颗粒物(PM2.5)
贺州市,环保小区,111.5264,24.4178,2026-03-22T0000,30,44,0.9,25,5,20,46,44,
贺州市,政协大楼,111.561,24.4074,2026-03-22T0000,30,51,1.1,31,4,0,21,51,颗粒物(PM10)
贺州市,西湾,111.4744,24.455,2026-03-22T0000,26,54,0.9,20,7,21,38,53,颗粒物(PM10)
鹤壁市,市监测站,114.17,35.9019,2026-03-22T0000,48,84,0.8,17,5,93,125,76,细颗粒物(PM2.5)
鹤壁市,市交警支队,114.2953,35.7512,2026-03-22T0000,48,96,0.5,28,8,65,116,83,颗粒物(PM10)
鹤壁市,迎宾馆,114.2877,35.7302,2026-03-22T0000,51,105,0.5,25,8,64,120,90,颗粒物(PM10)
鹤壁市,大新区,114.2616,35.6824,2026-03-22T0000,51,92,0.7,37,6,50,117,82,细颗粒物(PM2.5)
鹤壁市,南山宾馆,114.1573,35.9607,2026-03-22T0000,48,99,0.5,13,8,88,123,85,颗粒物(PM10)
鹤岗市,哈啤分公司,130.2537,47.3416,2026-03-22T0000,67,NA,0.5,12,11,77,99,107,细颗粒物(PM2.5)
鹤岗市,斯达机电,130.2683,47.3087,2026-03-22T0000,73,80,0.7,12,10,96,106,112,细颗粒物(PM2.5)
鹤岗市,东山纸板厂,130.3114,47.3388,2026-03-22T0000,114,147,2.4,43,14,24,96,150,细颗粒物(PM2.5)
黑河市,交通局,127.4832,50.2524,2026-03-22T0000,32,53,0.5,24,8,55,90,53,颗粒物(PM10)
黑河市,环保局,127.5146,50.2339,2026-03-22T0000,51,64,0.8,46,10,33,104,82,细颗粒物(PM2.5)
衡水市,电机北厂,115.6839,37.754,2026-03-22T0000,66,110,0.4,30,2,101,136,106,细颗粒物(PM2.5)
衡水市,市监测站,115.6303,37.7318,2026-03-22T0000,53,108,0.6,17,7,106,132,92,颗粒物(PM10)
衡水市,市城管局,115.6684,37.7216,2026-03-22T0000,66,116,0.6,20,7,104,134,106,细颗粒物(PM2.5)
衡水市,地表水厂,115.599,37.5491,2026-03-22T0000,68,118,0.5,18,5,106,132,108,细颗粒物(PM2.5)
衡阳市,衡阳化工总厂,112.6209,26.9268,2026-03-22T0000,20,27,1.0,11,4,36,66,29,
衡阳市,珠晖区环保局,112.621,26.8957,2026-03-22T0000,21,25,1.0,22,5,24,60,30,
衡阳市,市委党校,112.628,26.8654,2026-03-22T0000,23,31,1.1,20,6,24,64,33,
衡阳市,市监测站,112.6007,26.8977,2026-03-22T0000,20,34,0.9,18,6,36,64,34,
衡阳市,真空机电公司,112.5658,26.9013,2026-03-22T0000,25,34,1.2,29,7,24,62,36,
衡阳市,师范学院,112.6703,26.8817,2026-03-22T0000,20,34,1.0,16,5,27,63,34,
红河哈尼族彝族自治州,州图书馆,103.3757,23.3679,2026-03-22T0000,14,16,0.4,8,5,86,99,27,
红河哈尼族彝族自治州,蒙自市朝阳路,103.401,23.3561,2026-03-22T0000,9,13,0.3,9,8,87,111,28,
呼和浩特市,呼市一监,111.6506,40.7517,2026-03-22T0000,14,75,0.3,10,6,77,78,68,颗粒物(PM10)
呼和浩特市,如意水处理厂,111.7516,40.8369,2026-03-22T0000,18,58,0.1,6,7,86,86,56,颗粒物(PM10)
呼和浩特市,二十九中,111.727798,40.806187,2026-03-22T0000,13,79,0.3,8,7,76,78,71,颗粒物(PM10)
呼和浩特市,化肥厂生活区,111.717,40.7617,2026-03-22T0000,14,71,0.2,8,4,79,76,65,颗粒物(PM10)
呼和浩特市,海东办,111.6519,40.8389,2026-03-22T0000,13,78,0.2,6,3,78,80,70,颗粒物(PM10)
呼和浩特市,成吉思汗西街8号,111.591512,40.827312,2026-03-22T0000,9,58,0.2,10,1,76,79,56,颗粒物(PM10)
呼和浩特市,公园东路75号,111.6597,40.8077,2026-03-22T0000,15,100,0.3,9,7,74,79,86,颗粒物(PM10)
呼和浩特市,金海路35号,111.5427,40.7846,2026-03-22T0000,10,81,0.2,7,5,78,74,73,颗粒物(PM10)
呼伦贝尔市,国华电力东,119.7511,49.1576,2026-03-22T0000,27,33,0.3,13,5,98,107,39,
呼伦贝尔市,伊敏大街东7号,119.7569,49.2222,2026-03-22T0000,26,28,0.3,19,6,89,106,38,
湖州市,城西水厂,120.075,30.867,2026-03-22T0000,30,46,0.5,17,6,93,139,46,
湖州市,仁皇山新区,120.083,30.8929,2026-03-22T0000,31,55,0.6,24,5,77,134,54,颗粒物(PM10)
湖州市,吴兴区站,120.1846,30.8592,2026-03-22T0000,29,57,0.4,16,5,91,147,55,颗粒物(PM10)
湖州市,南浔区站,120.4146,30.8538,2026-03-22T0000,28,42,0.6,19,6,84,137,42,
葫芦岛市,龙港区,120.904878,40.721091,2026-03-22T0000,89,113,0.8,17,9,125,132,127,细颗粒物(PM2.5)
葫芦岛市,化工街,120.8382,40.7521,2026-03-22T0000,104,141,0.8,32,16,106,109,140,细颗粒物(PM2.5)
葫芦岛市,新区,120.8339,40.7078,2026-03-22T0000,112,NA,0.8,19,9,120,126,148,细颗粒物(PM2.5)
葫芦岛市,东城区,120.8697,40.7679,2026-03-22T0000,100,100,0.9,24,12,115,115,137,细颗粒物(PM2.5)
怀化市,河西地税局,109.9297,27.5383,2026-03-22T0000,7,7,/,8,3,43,56,14,
怀化市,市四医院,109.9783,27.5342,2026-03-22T0000,15,21,0.5,10,6,38,53,22,
怀化市,监测楼,109.9971,27.5579,2026-03-22T0000,15,18,0.4,7,3,40,56,22,
淮安市,钵池山,119.0566,33.5991,2026-03-22T0000,22,41,0.2,26,7,55,127,41,
淮安市,北京南路,119.0083,33.578,2026-03-22T0000,26,41,0.3,19,7,54,121,41,
淮安市,市监测站,118.9938,33.6083,2026-03-22T0000,28,34,0.2,19,5,63,126,40,
淮安市,楚州区监测站,119.135,33.5038,2026-03-22T0000,28,37,0.5,24,6,44,121,40,
淮安市,新华书店,118.8757,33.2897,2026-03-22T0000,33,59,0.3,25,7,44,122,57,颗粒物(PM10)
淮安市,枚皋中路89号,119.119691,33.550006,2026-03-22T0000,28,42,0.6,19,9,56,124,42,
淮安市,承德北路606号,119.028838,33.631911,2026-03-22T0000,24,48,0.2,20,8,56,123,48,
淮北市,监测站,116.8005,33.9749,2026-03-22T0000,80,122,0.7,20,7,140,154,119,细颗粒物(PM2.5)
淮北市,烈山区政府,116.8094,33.9008,2026-03-22T0000,78,114,0.5,18,6,134,148,117,细颗粒物(PM2.5)
淮北市,市博物馆,116.7926,33.9534,2026-03-22T0000,83,119,0.7,18,4,133,144,121,细颗粒物(PM2.5)
淮北市,杜集区第一实验学校,116.8322,33.9884,2026-03-22T0000,81,128,0.6,16,6,130,140,120,细颗粒物(PM2.5)
淮南市,潘集区政府,116.8304,32.7726,2026-03-22T0000,59,126,0.8,38,7,66,133,103,颗粒物(PM10)
淮南市,谢家集区政府,116.8569,32.5949,2026-03-22T0000,53,93,0.7,35,11,92,134,86,细颗粒物(PM2.5)
淮南市,八公山区政府,116.8279,32.6333,2026-03-22T0000,55,100,0.6,21,11,101,135,90,细颗粒物(PM2.5)
淮南市,经济技术开发区消防队,117.0561,32.6536,2026-03-22T0000,59,92,0.6,35,9,87,128,98,细颗粒物(PM2.5)
淮南市,山南新区,117.011,32.5891,2026-03-22T0000,50,98,0.6,22,7,117,138,85,颗粒物(PM10)
淮南市,国庆中路369号,117.003137,32.644456,2026-03-22T0000,51,84,0.7,17,10,102,121,82,细颗粒物(PM2.5)
黄冈市,职工中心,114.9021,30.474,2026-03-22T0000,36,58,0.9,16,6,73,115,56,颗粒物(PM10)
黄冈市,红卫路,114.8858,30.4519,2026-03-22T0000,26,52,0.4,14,4,79,112,52,颗粒物(PM10)
黄冈市,市林业局,114.9134,30.4446,2026-03-22T0000,23,61,0.6,15,4,83,114,58,颗粒物(PM10)
黄南藏族自治州,同仁县隆务镇,102.02,35.5101,2026-03-22T0000,41,143,0.3,3,12,100,113,109,颗粒物(PM10)
黄山市,延安路89号,118.2905,29.6965,2026-03-22T0000,22,32,0.5,19,4,12,74,32,
黄山市,黄山区政府5号楼,118.1369,30.2755,2026-03-22T0000,6,21,0.6,13,3,39,70,21,
黄山市,滨江东路7-2号,118.335445,29.720283,2026-03-22T0000,18,41,/,17,/,20,74,41,
黄石市,沈家营,115.0547,30.2332,2026-03-22T0000,33,66,1.1,26,8,64,94,62,颗粒物(PM10)
黄石市,铁山,114.899,30.211,2026-03-22T0000,49,NA,1.1,14,7,70,110,78,细颗粒物(PM2.5)
黄石市,团城山,115.0259,30.2108,2026-03-22T0000,28,50,1.0,20,16,75,110,50,
黄石市,笔架山北路,115.0174,30.1591,2026-03-22T0000,51,99,1.3,18,12,69,116,85,颗粒物(PM10)
黄石市,磁湖东路29号,115.078022,30.21118,2026-03-22T0000,36,74,1.5,47,8,43,104,68,颗粒物(PM10)
惠州市,河南岸金山湖子站,114.4181,23.0528,2026-03-22T0000,18,30,0.6,8,8,98,96,31,
惠州市,下埔横江三路子站,114.4055,23.0824,2026-03-22T0000,21,40,0.7,8,5,98,100,40,
惠州市,惠阳区承修路船湖子站,114.4645,22.7832,2026-03-22T0000,15,29,0.5,6,6,102,110,32,
惠州市,大亚湾管委会子站,114.5316,22.7423,2026-03-22T0000,15,28,0.5,6,3,94,110,30,
惠州市,惠阳秋长,114.4334,22.8134,2026-03-22T0000,14,22,/,6,/,107,112,34,
惠州市,大亚湾霞涌,114.6521,22.7755,2026-03-22T0000,13,22,/,7,/,104,126,33,
惠州市,文华一路1号,114.4089,23.1147,2026-03-22T0000,21,34,/,10,/,99,100,34,
鸡西市,环保局,130.9618,45.2926,2026-03-22T0000,98,171,1.0,54,14,15,110,135,细颗粒物(PM2.5)
鸡西市,第一中学,130.9294,45.2959,2026-03-22T0000,97,136,0.9,57,15,27,109,134,细颗粒物(PM2.5)
鸡西市,欧美日汽修厂,131.0069,45.2988,2026-03-22T0000,119,302,1.9,65,34,5,106,176,颗粒物(PM10)
吉安市,红声器材厂,114.9753,27.0803,2026-03-22T0000,27,46,0.9,26,6,32,65,46,
吉安市,市环境监测站,114.9903,27.1313,2026-03-22T0000,22,38,/,17,8,38,69,38,
吉安市,青原区法院,115.009527,27.096792,2026-03-22T0000,3,44,0.6,33,3,16,60,44,
吉林市,哈达湾,126.54,43.8622,2026-03-22T0000,84,107,0.7,13,9,107,118,122,细颗粒物(PM2.5)
吉林市,东局子,126.5843,43.8358,2026-03-22T0000,97,115,0.7,12,7,111,115,134,细颗粒物(PM2.5)
吉林市,电力学院,126.5051,43.8243,2026-03-22T0000,79,101,0.8,16,8,111,128,118,细颗粒物(PM2.5)
吉林市,江北,126.6133,43.8971,2026-03-22T0000,78,111,0.6,16,8,109,119,117,细颗粒物(PM2.5)
吉林市,江南公园,126.5549,43.8304,2026-03-22T0000,80,109,0.7,12,9,112,117,119,细颗粒物(PM2.5)
吉林市,九站,126.4737,43.953,2026-03-22T0000,86,122,0.8,19,8,108,120,124,细颗粒物(PM2.5)
济南市,科干所,116.9866,36.6118,2026-03-22T0000,90,129,0.8,16,6,140,151,128,细颗粒物(PM2.5)
济南市,农科所,116.9379,36.6652,2026-03-22T0000,98,132,0.7,18,6,132,145,135,细颗粒物(PM2.5)
济南市,开发区,117.1265,36.6736,2026-03-22T0000,84,112,0.8,14,4,149,156,122,细颗粒物(PM2.5)
济南市,省种子仓库,117.0616,36.6865,2026-03-22T0000,87,144,0.7,15,4,140,148,125,细颗粒物(PM2.5)
济南市,机床二厂,116.9495185,36.644937,2026-03-22T0000,94,132,0.7,16,6,135,148,131,细颗粒物(PM2.5)
济南市,市监测站,117.0496,36.6629,2026-03-22T0000,87,137,0.7,15,4,142,151,125,细颗粒物(PM2.5)
济南市,长清党校,116.7674,36.5458,2026-03-22T0000,92,134,0.7,26,5,129,146,130,细颗粒物(PM2.5)
济南市,东山小学,117.5323,36.6865,2026-03-22T0000,94,156,0.8,21,4,140,156,131,细颗粒物(PM2.5)
济南市,泰兴公司,117.7181,36.205,2026-03-22T0000,98,153,0.9,22,189,128,147,135,细颗粒物(PM2.5)
济南市,莱芜战役纪念馆,117.6861,36.2172,2026-03-22T0000,91,139,0.8,20,25,143,158,129,细颗粒物(PM2.5)
济南市,济阳区政府,117.1673,36.9782,2026-03-22T0000,95,134,0.6,18,8,126,130,132,细颗粒物(PM2.5)
济南市,锦屏中学,117.1168,36.6299,2026-03-22T0000,94,125,0.8,16,8,139,146,131,细颗粒物(PM2.5)
济南市,山财大街5号,117.7107,36.2385,2026-03-22T0000,94,136,0.7,27,94,129,147,131,细颗粒物(PM2.5)
济南市,无影山路12号,116.9744,36.6889,2026-03-22T0000,90,114,0.8,16,4,129,140,128,细颗粒物(PM2.5)
济宁市,火炬城,116.6229,35.4288,2026-03-22T0000,84,92,0.8,18,3,103,143,122,细颗粒物(PM2.5)
济宁市,北湖一中,116.5808,35.3703,2026-03-22T0000,83,NA,0.6,13,6,118,150,121,细颗粒物(PM2.5)
济宁市,服务中心,116.8251,35.5592,2026-03-22T0000,91,142,0.8,16,3,115,149,129,细颗粒物(PM2.5)
济宁市,市第七中学,116.5907,35.4054,2026-03-22T0000,85,NA,0.8,15,5,124,156,123,细颗粒物(PM2.5)
济宁市,任和路,116.6075,35.4566,2026-03-22T0000,84,134,0.8,16,6,119,153,122,细颗粒物(PM2.5)
济宁市,文体南路1号,116.5648,35.3921,2026-03-22T0000,82,123,0.7,15,4,127,145,120,细颗粒物(PM2.5)
济源市,市委党校,112.6071,35.1015,2026-03-22T0000,71,160,0.8,31,10,69,131,116,颗粒物(PM10)
济源市,沁园中路1号,112.596,35.0702,2026-03-22T0000,65,124,0.9,29,11,76,129,105,细颗粒物(PM2.5)
佳木斯市,佳纺,130.2749,46.8028,2026-03-22T0000,75,95,0.9,82,6,14,110,114,细颗粒物(PM2.5)
佳木斯市,环保局,130.3258,46.7975,2026-03-22T0000,77,87,1.1,79,4,12,111,116,细颗粒物(PM2.5)
佳木斯市,顺和街,130.363,46.806,2026-03-22T0000,87,89,0.8,51,5,48,102,125,细颗粒物(PM2.5)
佳木斯市,长安路196号,130.3952,46.8268,2026-03-22T0000,86,89,0.5,30,6,63,105,124,细颗粒物(PM2.5)
嘉兴市,清河小学,120.7439,30.778,2026-03-22T0000,13,37,0.4,21,6,83,120,37,
嘉兴市,嘉兴学院,120.7261,30.7477,2026-03-22T0000,15,34,0.5,21,6,91,129,34,
嘉兴市,南湖区残联,120.7845,30.7524,2026-03-22T0000,16,22,0.6,16,5,93,121,30,
嘉兴市,秀洲住建,120.6915,30.7741,2026-03-22T0000,15,38,0.4,19,9,95,133,38,
嘉峪关市,气象局,98.291,39.7705,2026-03-22T0000,29,88,0.4,20,8,72,110,78,颗粒物(PM10)
嘉峪关市,酒钢宾馆,98.2672,39.7978,2026-03-22T0000,26,75,0.6,14,15,86,108,68,颗粒物(PM10)
嘉峪关市,雄关区,98.2644,39.7723,2026-03-22T0000,NA,NA,0.3,13,7,79,107,NA,NA
江门市,北街,113.1063,22.6058,2026-03-22T0000,22,NA,/,14,/,49,41,32,
江门市,西区,113.073,22.5835,2026-03-22T0000,22,NA,/,14,/,68,58,32,
江门市,圭峰西,113.0218,22.531,2026-03-22T0000,20,30,/,11,/,63,72,30,
江门市,东湖,113.0826,22.5947,2026-03-22T0000,26,29,0.5,13,6,63,51,38,
江门市,江海富民,113.1077,22.5647,2026-03-22T0000,21,49,0.4,13,/,71,59,49,
江门市,新会银湖,113.0496,22.4669,2026-03-22T0000,17,29,0.4,17,6,57,67,29,
焦作市,马村街道办,113.3137,35.2643,2026-03-22T0000,68,128,0.8,29,8,66,117,108,细颗粒物(PM2.5)
焦作市,焦作技师学院,113.2464,35.2374,2026-03-22T0000,61,136,0.9,25,9,65,120,107,颗粒物(PM10)
焦作市,中站许衡医院,113.1656,35.2536,2026-03-22T0000,62,126,0.7,20,10,86,125,103,颗粒物(PM10)
焦作市,原李万街道办,113.2456,35.18,2026-03-22T0000,50,102,0.6,17,11,70,114,88,颗粒物(PM10)
焦作市,新安路1731号,113.234,35.219,2026-03-22T0000,68,144,0.8,29,10,69,126,110,颗粒物(PM10)
焦作市,人民路3066号,113.2722,35.2121,2026-03-22T0000,61,129,0.4,37,8,71,125,104,颗粒物(PM10)
揭阳市,新兴,116.3701,23.5345,2026-03-22T0000,23,33,0.7,20,9,81,128,33,
揭阳市,西马,116.3261,23.5442,2026-03-22T0000,25,38,0.7,17,8,80,129,38,
揭阳市,东兴,116.361,23.5627,2026-03-22T0000,24,34,/,19,9,80,134,35,
揭阳市,渔湖,116.4151,23.5295,2026-03-22T0000,22,29,/,NA,4,93,155,NA,NA
揭阳市,曲溪,116.4028,23.5699,2026-03-22T0000,19,31,0.5,14,5,92,141,31,
金昌市,天庆家园,102.1691,38.5166,2026-03-22T0000,28,66,0.7,12,9,90,110,62,颗粒物(PM10)
金昌市,金川区人防中心,102.1648,38.5369,2026-03-22T0000,26,83,0.6,11,110,92,106,74,颗粒物(PM10)
金昌市,长春路96号,102.193042,38.531887,2026-03-22T0000,27,77,0.7,7,36,91,103,70,颗粒物(PM10)
金华市,十五中,119.6478,29.0773,2026-03-22T0000,8,15,0.5,13,3,61,89,20,
金华市,监测站,119.6859,29.1032,2026-03-22T0000,6,9,0.5,18,3,52,76,17,
金华市,气象局,119.656,29.1132,2026-03-22T0000,7,13,0.6,14,2,35,68,13,
锦州市,南山,121.1114,41.0879,2026-03-22T0000,109,NA,0.9,22,11,119,111,145,细颗粒物(PM2.5)
锦州市,开发区,121.060361,40.842794,2026-03-22T0000,98,123,0.9,24,28,116,120,135,细颗粒物(PM2.5)
锦州市,百股街道,121.1836,41.1118,2026-03-22T0000,108,NA,1.0,19,9,127,118,144,细颗粒物(PM2.5)
锦州市,天安街道,121.1176,41.1224,2026-03-22T0000,109,113,1.2,22,9,119,108,145,细颗粒物(PM2.5)
锦州市,北湖公园,121.1303,41.1385,2026-03-22T0000,104,115,0.9,21,10,123,112,140,细颗粒物(PM2.5)
晋城市,自来水公司,112.8496,35.5051,2026-03-22T0000,47,117,0.4,15,5,112,134,98,颗粒物(PM10)
晋城市,市环保局,112.8509,35.4886,2026-03-22T0000,54,107,0.5,10,6,105,131,91,颗粒物(PM10)
晋城市,泽州一中,112.8258,35.4804,2026-03-22T0000,66,116,0.8,13,5,108,135,106,细颗粒物(PM2.5)
晋城市,前书院路,112.8246,35.5152,2026-03-22T0000,49,114,0.8,17,5,91,124,96,颗粒物(PM10)
晋城市,祥云街666号,112.8864,35.4773,2026-03-22T0000,64,89,0.4,12,7,108,130,104,细颗粒物(PM2.5)
晋中市,榆次区政府,112.6992,37.6984,2026-03-22T0000,17,41,0.7,16,8,69,134,41,
晋中市,榆次三中,112.7195,37.683,2026-03-22T0000,44,NA,0.4,17,8,70,136,68,细颗粒物(PM2.5)
晋中市,广安街188号,112.7375,37.7215,2026-03-22T0000,18,38,0.3,14,9,80,133,38,
晋中市,迎宾街26号,112.7478,37.6954,2026-03-22T0000,21,36,0.4,20,7,74,140,36,
荆门市,竹园小学,112.2012,31.048,2026-03-22T0000,30,72,1.1,21,1,73,117,66,颗粒物(PM10)
荆门市,掇刀,112.1968,30.9892,2026-03-22T0000,35,65,0.8,17,5,83,123,61,颗粒物(PM10)
荆门市,西山林语,112.1849,31.0361,2026-03-22T0000,40,70,0.9,16,4,67,113,65,颗粒物(PM10)
荆门市,龙泉中学南校,112.1631,31.0134,2026-03-22T0000,56,87,0.6,19,4,71,122,92,细颗粒物(PM2.5)
荆门市,新台西路6号,112.2213,31.0654,2026-03-22T0000,42,55,0.7,26,6,69,108,64,细颗粒物(PM2.5)
荆州市,市图书馆,112.2493,30.3198,2026-03-22T0000,30,49,0.7,28,7,50,102,49,
荆州市,市委党校,112.2009,30.3543,2026-03-22T0000,44,54,0.9,43,7,24,89,68,细颗粒物(PM2.5)
荆州市,管委会,112.2749,30.3124,2026-03-22T0000,51,NA,0.8,27,11,50,97,82,细颗粒物(PM2.5)
荆州市,学苑路85号,112.1722,30.3366,2026-03-22T0000,25,45,1.1,18,1,46,108,45,
景德镇市,老干部活动中心,117.2114,29.2931,2026-03-22T0000,30,39,0.9,12,6,24,65,43,
景德镇市,兽医站,117.1893,29.2789,2026-03-22T0000,25,45,0.9,16,4,34,74,45,
景德镇市,陶研所,117.246,29.2958,2026-03-22T0000,23,32,1.1,20,4,18,68,33,
景德镇市,青少年活动中心,117.154766,29.256967,2026-03-22T0000,26,39,/,23,13,21,61,39,
九江市,十里,115.9873,29.6816,2026-03-22T0000,62,95,1.4,82,9,4,87,102,细颗粒物(PM2.5)
九江市,茅山头,115.9583,29.7047,2026-03-22T0000,64,76,0.9,69,3,10,96,104,细颗粒物(PM2.5)
九江市,西园,115.9877,29.7295,2026-03-22T0000,56,68,1.0,111,5,8,97,92,细颗粒物(PM2.5)
九江市,综合工业园,115.9112,29.6038,2026-03-22T0000,49,77,0.9,61,8,7,81,78,细颗粒物(PM2.5)
九江市,外国语学校,116.0254,29.6995,2026-03-22T0000,26,38,0.9,28,4,48,84,38,
九江市,莲花大道8号,116.010205,29.659402,2026-03-22T0000,26,48,0.7,19,4,43,86,48,
酒泉市,玉门东路5号,98.495752,39.733935,2026-03-22T0000,26,73,0.4,17,9,69,96,67,颗粒物(PM10)
酒泉市,北大街108号,98.5099,39.7506,2026-03-22T0000,28,61,0.3,9,8,73,92,58,颗粒物(PM10)
喀什地区,巡警大队,76.0071,39.466,2026-03-22T0000,78,215,1.6,72,7,16,95,137,颗粒物(PM10)
喀什地区,吾办,75.9756,39.4693,2026-03-22T0000,79,234,1.3,62,6,18,91,144,颗粒物(PM10)
喀什地区,老干局,75.9485,39.4688,2026-03-22T0000,74,254,1.4,64,4,20,95,152,颗粒物(PM10)
开封市,肿瘤医院,114.3389,34.778,2026-03-22T0000,62,95,0.8,24,8,93,123,102,细颗粒物(PM2.5)
开封市,世纪星幼儿园,114.2884,34.7966,2026-03-22T0000,51,85,0.8,17,9,91,119,82,细颗粒物(PM2.5)
开封市,龙亭公园,114.3434,34.8101,2026-03-22T0000,54,94,0.9,21,10,94,126,88,细颗粒物(PM2.5)
开封市,汴京公园,114.3645,34.7955,2026-03-22T0000,56,98,0.6,21,5,97,128,92,细颗粒物(PM2.5)
开封市,技师学院,114.2485,34.8306,2026-03-22T0000,52,70,1.0,14,6,100,123,84,细颗粒物(PM2.5)
开封市,祥符区生态环境局,114.4518,34.7503,2026-03-22T0000,66,141,0.7,28,5,84,124,109,颗粒物(PM10)
克拉玛依市,长征新村,84.886,45.6029,2026-03-22T0000,10,38,0.5,28,6,50,94,38,
克拉玛依市,南林小区,84.8894,45.5827,2026-03-22T0000,54,75,1.0,57,6,8,99,88,细颗粒物(PM2.5)
克拉玛依市,独山子区,84.896,44.3328,2026-03-22T0000,42,73,0.8,19,5,64,85,67,颗粒物(PM10)
克拉玛依市,乌尔禾区商贸楼,85.6888,46.0909,2026-03-22T0000,3,44,0.2,6,1,76,91,44,
克拉玛依市,白碱滩区新站,85.1045,45.6895,2026-03-22T0000,6,26,0.5,18,4,61,102,26,
克孜勒苏柯尔克孜自治州,市人民政府,76.1457,39.7143,2026-03-22T0000,56,180,0.2,21,3,52,93,124,颗粒物(PM10)
克孜勒苏柯尔克孜自治州,克州文化中心,76.1654,39.7157,2026-03-22T0000,66,165,0.2,13,6,65,91,118,颗粒物(PM10)
昆明市,呈贡新区,102.8203,24.889,2026-03-22T0000,50,66,1.0,31,14,86,135,80,细颗粒物(PM2.5)
昆明市,龙泉镇,102.7253,25.0904,2026-03-22T0000,44,59,0.6,12,4,97,116,68,细颗粒物(PM2.5)
昆明市,东风东路,102.7267,25.0378,2026-03-22T0000,52,68,0.6,11,2,109,122,84,细颗粒物(PM2.5)
昆明市,金鼎山,102.6744,25.0671,2026-03-22T0000,53,58,0.6,13,2,103,119,86,细颗粒物(PM2.5)
昆明市,碧鸡广场,102.6643,25.0401,2026-03-22T0000,52,76,0.5,20,4,98,120,84,细颗粒物(PM2.5)
昆明市,官渡区博物馆,102.7491,25.012,2026-03-22T0000,50,63,0.7,19,4,100,119,80,细颗粒物(PM2.5)
昆明市,青年创业园,102.8016,24.8336,2026-03-22T0000,57,74,0.9,34,15,64,133,94,细颗粒物(PM2.5)
昆明市,昆明学院,102.8,24.9787,2026-03-22T0000,52,79,0.9,17,13,99,125,84,细颗粒物(PM2.5)
昆明市,晋宁区生态环境分局,102.5969,24.6738,2026-03-22T0000,58,86,0.7,22,12,104,138,96,细颗粒物(PM2.5)
昆明市,云天化总部,102.6673,24.9861,2026-03-22T0000,48,73,0.6,12,7,115,125,76,细颗粒物(PM2.5)
拉萨市,八廓街,91.132,29.6515,2026-03-22T0000,6,21,0.4,7,5,110,121,35,
拉萨市,市环保局,91.1221,29.6748,2026-03-22T0000,6,18,0.5,8,3,104,115,33,
拉萨市,区监测站,91.0874,29.6476,2026-03-22T0000,6,15,0.5,6,4,110,116,35,
拉萨市,西藏大学,91.1774,29.6541,2026-03-22T0000,6,24,0.4,12,4,102,117,32,
拉萨市,区辐射站,90.9798,29.6586,2026-03-22T0000,10,19,0.4,8,4,107,111,34,
拉萨市,拉萨火车站,91.0831,29.6292,2026-03-22T0000,3,14,0.4,4,4,110,115,35,
来宾市,来宾技工学校,109.2203,23.7252,2026-03-22T0000,68,82,1.3,27,9,20,52,108,细颗粒物(PM2.5)
来宾市,兴宾区政府,109.1781,23.7293,2026-03-22T0000,76,91,1.3,25,10,24,55,115,细颗粒物(PM2.5)
来宾市,中南小学,109.2312,23.7428,2026-03-22T0000,72,89,1.2,28,10,18,54,111,细颗粒物(PM2.5)
兰州市,铁路设计院,103.8309,36.0467,2026-03-22T0000,53,183,0.2,18,2,83,90,125,颗粒物(PM10)
兰州市,百合公园,103.7439,36.0841,2026-03-22T0000,74,172,0.1,8,5,87,90,120,颗粒物(PM10)
兰州市,和平,103.9613,35.9985,2026-03-22T0000,66,222,0.6,19,11,63,100,140,颗粒物(PM10)
兰州市,庄浪东路808号,103.629272,36.093822,2026-03-22T0000,70,176,0.3,24,6,67,97,122,颗粒物(PM10)
兰州市,安宁西路88号,103.7251,36.104344,2026-03-22T0000,68,209,0.3,11,11,88,105,135,颗粒物(PM10)
兰州市,北滨河东路1号,103.846982,36.067567,2026-03-22T0000,72,187,0.5,17,6,81,94,126,颗粒物(PM10)
廊坊市,药材公司,116.6712,39.5109,2026-03-22T0000,161,222,1.2,51,5,53,104,211,细颗粒物(PM2.5)
廊坊市,开发区,116.7215,39.5592,2026-03-22T0000,154,204,0.9,69,3,26,96,204,细颗粒物(PM2.5)
廊坊市,北华航天学院,116.7246,39.5273,2026-03-22T0000,158,224,1.1,57,6,46,111,208,细颗粒物(PM2.5)
廊坊市,河北工业大学,116.7022,39.5454,2026-03-22T0000,158,235,1.1,54,6,42,108,208,细颗粒物(PM2.5)
乐山市,牛耳桥,103.7629,29.5844,2026-03-22T0000,37,64,0.5,23,8,78,103,60,颗粒物(PM10)
乐山市,市第三水厂,103.7501,29.6002,2026-03-22T0000,36,53,0.6,23,5,79,106,53,颗粒物(PM10)
乐山市,市监测站,103.7571,29.5664,2026-03-22T0000,37,60,0.7,20,5,79,106,58,颗粒物(PM10)
乐山市,理工大学,103.7313,29.563,2026-03-22T0000,39,52,0.7,18,8,81,109,58,细颗粒物(PM2.5)
丽江市,丽江古城,100.2497,26.8802,2026-03-22T0000,18,31,0.5,9,9,84,98,31,
丽江市,市中心,100.2203,26.8906,2026-03-22T0000,13,15,0.3,8,10,87,98,28,
丽水市,监测站大楼,119.9141,28.4513,2026-03-22T0000,7,17,0.3,10,4,73,82,23,
丽水市,莲都小学,119.93,28.4589,2026-03-22T0000,6,12,/,13,/,65,79,21,
丽水市,余庄前,119.8794,28.4232,2026-03-22T0000,7,12,0.4,10,4,60,78,19,
连云港市,市环境监测站,119.1759,34.5885,2026-03-22T0000,24,41,0.4,27,8,50,130,41,
连云港市,德源药业,119.3577,34.6971,2026-03-22T0000,24,56,0.7,23,6,61,114,55,颗粒物(PM10)
连云港市,新城一中,119.178,34.8442,2026-03-22T0000,28,66,0.4,30,6,60,110,62,颗粒物(PM10)
连云港市,胡沟管理处,119.3607,34.7519,2026-03-22T0000,19,48,0.7,24,8,79,108,48,
连云港市,矿山设计院,119.1478,34.5913,2026-03-22T0000,22,46,0.6,36,8,49,134,46,
连云港市,工贸学校,119.2414,34.6539,2026-03-22T0000,20,30,0.3,18,9,74,135,30,
连云港市,连云街道,119.4171,34.734,2026-03-22T0000,19,35,0.4,13,5,90,115,35,
凉山彝族自治州,西昌市政府,102.2629,27.8981,2026-03-22T0000,15,25,1.0,9,14,100,111,32,
凉山彝族自治州,凉山州政府,102.2686,27.885,2026-03-22T0000,12,25,0.8,9,13,84,94,27,
凉山彝族自治州,凯乐南路30号,102.2342,27.8859,2026-03-22T0000,9,26,0.3,6,4,98,101,31,
辽阳市,宏伟区,123.1978,41.2036,2026-03-22T0000,66,73,0.6,10,7,102,105,106,细颗粒物(PM2.5)
辽阳市,新华园,123.1684,41.2497,2026-03-22T0000,64,82,0.5,12,10,121,128,104,细颗粒物(PM2.5)
辽阳市,滨河路,123.2355,41.2663,2026-03-22T0000,63,64,0.6,12,7,112,108,103,细颗粒物(PM2.5)
辽阳市,铁西路150号,123.153,41.2874,2026-03-22T0000,63,73,0.6,10,10,116,118,103,细颗粒物(PM2.5)
辽源市,环保局,125.1359,42.8845,2026-03-22T0000,65,78,0.6,13,7,104,128,105,细颗粒物(PM2.5)
辽源市,安宁大街333号,125.0998,42.9134,2026-03-22T0000,69,92,0.6,15,6,109,124,109,细颗粒物(PM2.5)
聊城市,区政府,115.9789,36.4372,2026-03-22T0000,80,122,0.8,14,10,109,129,119,细颗粒物(PM2.5)
聊城市,监控中心,115.9772,36.4986,2026-03-22T0000,85,124,0.9,16,11,122,142,123,细颗粒物(PM2.5)
聊城市,九州社区,116.0443,36.436,2026-03-22T0000,85,114,0.8,18,3,119,144,123,细颗粒物(PM2.5)
聊城市,星美广场,116.0564,36.4609,2026-03-22T0000,88,133,0.9,4,5,113,133,126,细颗粒物(PM2.5)
聊城市,利民路,116.0091,36.4495,2026-03-22T0000,81,116,0.7,18,9,128,146,120,细颗粒物(PM2.5)
林芝市,林芝监测站,94.3683,29.6373,2026-03-22T0000,8,8,0.4,2,2,105,107,33,
林芝市,林芝人民医院,94.3616,29.6634,2026-03-22T0000,6,8,0.4,1,3,109,111,35,
临沧市,市环保局,100.0779,23.8981,2026-03-22T0000,59,NA,0.7,13,7,58,109,98,细颗粒物(PM2.5)
临沧市,市气象局,100.0894,23.882,2026-03-22T0000,54,62,0.9,10,7,70,114,88,细颗粒物(PM2.5)
临汾市,临钢医院,111.5552,36.0791,2026-03-22T0000,31,81,0.6,38,7,42,127,73,颗粒物(PM10)
临汾市,技工学校,111.4984,36.0734,2026-03-22T0000,40,68,0.6,35,7,43,120,63,颗粒物(PM10)
临汾市,市委,111.5017,36.0857,2026-03-22T0000,29,95,0.8,27,5,62,127,83,颗粒物(PM10)
临汾市,唐尧大酒店,111.5048,36.1015,2026-03-22T0000,22,77,0.6,27,8,71,122,70,颗粒物(PM10)
临汾市,启星学校,111.4879,36.053,2026-03-22T0000,31,72,0.5,48,5,45,121,66,颗粒物(PM10)
临夏回族自治州,滨河东路1号,103.2464,35.6123,2026-03-22T0000,66,247,0.4,25,10,65,106,149,颗粒物(PM10)
临夏回族自治州,新华街21号,103.207136,35.599807,2026-03-22T0000,49,243,0.5,4,7,74,91,148,颗粒物(PM10)
临沂市,沂河小区,118.3429,35.0532,2026-03-22T0000,81,119,0.5,20,19,100,138,120,细颗粒物(PM2.5)
临沂市,鲁南制药厂,118.2962,35.0568,2026-03-22T0000,84,132,0.5,27,20,105,138,122,细颗粒物(PM2.5)
临沂市,新光毛纺厂,118.2793,34.9976,2026-03-22T0000,86,117,0.6,35,26,100,144,124,细颗粒物(PM2.5)
临沂市,河东保险公司,118.3955,35.0889,2026-03-22T0000,87,134,0.5,41,14,94,149,125,细颗粒物(PM2.5)
临沂市,十里堡居委,118.3563,35.0215,2026-03-22T0000,81,114,0.6,30,22,98,146,120,细颗粒物(PM2.5)
临沂市,南坊新区,118.359,35.1067,2026-03-22T0000,75,107,0.5,22,22,109,144,114,细颗粒物(PM2.5)
临沂市,皇山花园小区,118.3915,35.0297,2026-03-22T0000,79,110,0.6,26,25,102,150,118,细颗粒物(PM2.5)
柳州市,柳东小学,109.4854,24.3898,2026-03-22T0000,18,37,0.9,11,4,34,44,37,
柳州市,环保监测站,109.4109,24.3304,2026-03-22T0000,22,43,1.0,18,4,25,35,43,
柳州市,河西水厂,109.3886,24.3408,2026-03-22T0000,36,54,0.9,27,9,12,35,53,颗粒物(PM10)
柳州市,市四中,109.4263,24.2951,2026-03-22T0000,29,43,0.8,19,7,22,36,43,
柳州市,市九中,109.396,24.3658,2026-03-22T0000,27,33,1.0,15,8,22,32,39,
柳州市,古亭山,109.4912,24.3164,2026-03-22T0000,24,29,1.0,16,6,23,43,35,
柳州市,市二中,109.5422,24.3994,2026-03-22T0000,19,28,0.9,15,6,30,43,28,
六安市,监测大楼,116.5078,31.7369,2026-03-22T0000,52,70,0.5,21,4,96,123,84,细颗粒物(PM2.5)
六安市,皖西学院,116.4738,31.7642,2026-03-22T0000,54,72,0.5,16,4,102,132,88,细颗粒物(PM2.5)
六安市,朝阳厂,116.4997,31.7904,2026-03-22T0000,48,70,0.4,23,5,104,128,76,细颗粒物(PM2.5)
六安市,开发区,116.5566,31.7885,2026-03-22T0000,48,63,0.4,17,4,107,136,76,细颗粒物(PM2.5)
六盘水市,黄土坡,104.8293,26.592,2026-03-22T0000,47,70,0.6,13,9,61,92,74,细颗粒物(PM2.5)
六盘水市,民中,104.8481,26.5898,2026-03-22T0000,49,65,0.7,12,6,56,88,78,细颗粒物(PM2.5)
六盘水市,双水,104.9541,26.5506,2026-03-22T0000,41,63,0.6,10,6,60,85,62,细颗粒物(PM2.5)
六盘水市,钟山大道中段564号,104.8899,26.5685,2026-03-22T0000,46,81,0.8,10,9,55,89,73,颗粒物(PM10)
龙岩市,龙岩市监测站,117.022,25.1031,2026-03-22T0000,37,NA,0.9,18,14,38,83,54,细颗粒物(PM2.5)
龙岩市,闽西职业技术学院,117.0257,25.0662,2026-03-22T0000,34,NA,0.7,16,13,35,80,49,
龙岩市,龙岩学院,117.0195,25.0306,2026-03-22T0000,19,NA,/,10,4,32,83,28,
陇南市,滨江中学,104.9344,33.3827,2026-03-22T0000,32,68,0.9,21,7,43,75,63,颗粒物(PM10)
陇南市,市总工会,104.9551,33.3709,2026-03-22T0000,26,66,0.8,24,5,40,80,62,颗粒物(PM10)
娄底市,市监测站,111.9984,27.7346,2026-03-22T0000,37,51,0.7,27,17,30,69,54,细颗粒物(PM2.5)
娄底市,市政府,111.9888,27.7035,2026-03-22T0000,51,NA,0.6,22,6,15,69,82,细颗粒物(PM2.5)
娄底市,涟钢职大,111.9812,27.7591,2026-03-22T0000,31,44,0.4,19,6,29,65,45,
娄底市,娄底体校,112.0303,27.7457,2026-03-22T0000,38,58,0.7,14,3,23,62,56,"颗粒物(PM10),细颗粒物(PM2.5)"
泸州市,小市上码头,105.4427,28.9063,2026-03-22T0000,21,27,0.6,16,8,74,95,30,
泸州市,兰田宪桥,105.4241,28.8573,2026-03-22T0000,17,28,0.7,16,6,59,84,28,
泸州市,市环监站,105.4378,28.8833,2026-03-22T0000,16,32,0.6,20,4,72,81,32,
泸州市,纳溪中医医院,105.3689,28.7783,2026-03-22T0000,20,46,0.7,17,7,71,90,46,
吕梁市,环保局,111.1447,37.5212,2026-03-22T0000,28,38,0.2,25,6,21,100,40,
吕梁市,自来水公司,111.1285,37.5338,2026-03-22T0000,23,38,0.5,26,6,42,98,38,
吕梁市,马茂庄小学,111.1225,37.5093,2026-03-22T0000,22,41,0.5,56,4,4,95,41,
洛阳市,市委党校,112.3934,34.6517,2026-03-22T0000,73,120,0.9,49,9,46,126,112,细颗粒物(PM2.5)
洛阳市,河南林校,112.494,34.6883,2026-03-22T0000,87,135,0.8,43,12,63,133,125,细颗粒物(PM2.5)
洛阳市,开发区管委会,112.3843,34.623,2026-03-22T0000,28,71,0.4,24,10,73,128,65,颗粒物(PM10)
洛阳市,市委新办公区,112.4263,34.6249,2026-03-22T0000,50,92,0.6,24,9,69,128,80,"颗粒物(PM10),细颗粒物(PM2.5)"
洛阳市,伊滨,112.6005,34.6323,2026-03-22T0000,88,162,0.8,37,8,65,129,126,细颗粒物(PM2.5)
洛阳市,中移产业园,112.495,34.6338,2026-03-22T0000,84,136,0.7,50,9,55,132,122,细颗粒物(PM2.5)
洛阳市,吉利监测站,112.5736,34.8993,2026-03-22T0000,76,110,0.7,46,10,48,133,115,细颗粒物(PM2.5)
洛阳市,河科大西苑校区,112.3678,34.6623,2026-03-22T0000,80,128,1.0,52,10,53,136,119,细颗粒物(PM2.5)
洛阳市,英才小学,112.4387,34.678,2026-03-22T0000,73,182,1.0,64,12,48,132,124,颗粒物(PM10)
洛阳市,春都路1号院,112.460027,34.694929,2026-03-22T0000,89,138,0.9,41,9,61,130,127,细颗粒物(PM2.5)
漯河市,三五一五工厂,114.051,33.5721,2026-03-22T0000,45,115,0.5,23,5,85,114,97,颗粒物(PM10)
漯河市,漯河大学,114.0055,33.5698,2026-03-22T0000,60,92,0.6,24,6,94,116,100,细颗粒物(PM2.5)
漯河市,市水利局,114.0134,33.5826,2026-03-22T0000,48,92,0.6,20,6,93,112,80,颗粒物(PM10)
漯河市,市广电局,114.0261,33.5697,2026-03-22T0000,47,98,0.6,19,6,90,114,85,颗粒物(PM10)
漯河市,市图书馆,113.9691,33.568,2026-03-22T0000,48,106,0.6,22,6,87,108,90,颗粒物(PM10)
漯河市,韶山路11号,114.089259,33.588274,2026-03-22T0000,52,120,0.4,26,6,72,109,100,颗粒物(PM10)
马鞍山市,湖东路四小,118.5084,31.6838,2026-03-22T0000,62,79,0.5,26,13,104,134,102,细颗粒物(PM2.5)
马鞍山市,开发区,118.5019,31.6449,2026-03-22T0000,64,90,0.5,35,13,89,142,104,细颗粒物(PM2.5)
马鞍山市,雨山,118.4914,31.681,2026-03-22T0000,52,89,0.5,25,14,107,137,84,细颗粒物(PM2.5)
马鞍山市,慈湖高新区,118.527362,31.722269,2026-03-22T0000,49,101,0.4,21,6,112,133,87,颗粒物(PM10)
茂名市,电白南海,111.0285,21.469,2026-03-22T0000,9,27,0.7,9,5,46,59,27,
茂名市,茂石化七小,110.9294,21.6533,2026-03-22T0000,21,29,0.4,18,7,32,53,30,
茂名市,健康路,110.9108,21.6688,2026-03-22T0000,15,17,0.5,13,7,40,57,22,
茂名市,高岭,110.8592,21.6826,2026-03-22T0000,14,34,/,12,8,41,57,34,
茂名市,电白水东,111.0101,21.5165,2026-03-22T0000,13,19,/,11,4,45,53,19,
眉山市,气象局,103.8414,30.0871,2026-03-22T0000,30,64,0.6,17,6,69,113,60,颗粒物(PM10)
眉山市,区人社局,103.829,30.0563,2026-03-22T0000,36,57,0.8,21,8,64,105,55,颗粒物(PM10)
眉山市,眉职院,103.8836,30.0695,2026-03-22T0000,41,82,0.8,22,14,60,106,73,颗粒物(PM10)
梅州市,梅江月梅,116.1248,24.3307,2026-03-22T0000,22,27,/,14,/,32,54,32,
梅州市,梅县新城,116.0798,24.2719,2026-03-22T0000,33,37,0.7,28,8,23,56,48,
梅州市,梅龙,116.1234,24.2994,2026-03-22T0000,33,41,0.8,16,6,31,58,48,
绵阳市,富乐山,104.7775,31.4741,2026-03-22T0000,24,37,0.8,19,6,31,82,37,
绵阳市,高新区自来水公司,104.6698,31.4668,2026-03-22T0000,25,46,0.7,54,8,3,85,46,
绵阳市,西科大附属小学,104.6899,31.5324,2026-03-22T0000,34,55,0.8,49,8,13,82,54,颗粒物(PM10)
绵阳市,安州区旅游局,104.5647,31.5343,2026-03-22T0000,37,67,0.7,25,5,18,81,63,颗粒物(PM10)
绵阳市,科技城新区公安局,104.7092,31.4972,2026-03-22T0000,34,52,0.8,30,7,31,76,52,颗粒物(PM10)
绵阳市,绵阳市气象局,104.765114,31.453094,2026-03-22T0000,28,46,0.7,40,8,21,74,46,
牡丹江市,环保大楼,129.61,44.561,2026-03-22T0000,93,131,1.3,67,8,13,113,130,细颗粒物(PM2.5)
牡丹江市,机车工厂,129.6364,44.6075,2026-03-22T0000,110,149,1.0,67,12,9,104,146,细颗粒物(PM2.5)
牡丹江市,第一中学,129.6386,44.5462,2026-03-22T0000,63,NA,0.6,43,5,29,109,103,细颗粒物(PM2.5)
牡丹江市,东晓云街98号,129.5992,44.5964,2026-03-22T0000,93,105,1.0,26,10,50,107,130,细颗粒物(PM2.5)
内江市,市监测站,105.0703,29.61,2026-03-22T0000,25,34,0.5,15,7,69,102,36,
内江市,内江二中,105.0657,29.5807,2026-03-22T0000,23,37,0.5,21,9,74,102,37,
内江市,内江日报社,105.0407,29.5828,2026-03-22T0000,24,40,0.6,17,14,74,107,40,
内江市,玉峰路西段888号,105.0433,29.6105,2026-03-22T0000,25,38,0.5,15,8,79,108,38,
那曲市,那曲监测站,92.0653,31.4846,2026-03-22T0000,22,22,0.6,8,9,110,115,35,
那曲市,那曲市委宣传部,92.0515,31.4787,2026-03-22T0000,13,18,0.5,2,7,117,125,37,
南昌市,省林业公司,115.8887,28.7006,2026-03-22T0000,32,46,0.3,37,3,34,92,46,
南昌市,林科所,115.813,28.7443,2026-03-22T0000,34,56,0.5,70,8,3,99,55,颗粒物(PM10)
南昌市,建工学校,115.8518,28.687,2026-03-22T0000,32,70,0.8,38,8,46,96,65,颗粒物(PM10)
南昌市,象湖,115.8926,28.6425,2026-03-22T0000,33,51,0.9,56,7,11,90,51,颗粒物(PM10)
南昌市,机电学校,115.9084,28.6062,2026-03-22T0000,37,61,0.8,38,4,21,94,58,颗粒物(PM10)
南昌市,外国语学校,115.9718,28.7032,2026-03-22T0000,31,40,0.7,23,7,54,97,45,
南昌市,工业二路,115.7923,28.6873,2026-03-22T0000,36,78,0.9,61,4,11,96,70,颗粒物(PM10)
南昌市,南京东路235号,115.931587,28.686774,2026-03-22T0000,34,57,0.8,26,5,41,98,55,颗粒物(PM10)
南充市,南充市委,106.0791,30.8022,2026-03-22T0000,20,30,0.6,20,7,43,80,30,
南充市,南充炼油厂,106.1038,30.8215,2026-03-22T0000,24,46,0.5,18,5,45,72,46,
南充市,梨树横街98号,106.108336,30.788436,2026-03-22T0000,27,42,0.4,31,6,37,84,42,
南充市,清泉寺北路188号,106.1172,30.843,2026-03-22T0000,18,40,0.5,20,6,44,89,40,
南充市,同庆路1号,106.067,30.7616,2026-03-22T0000,13,38,0.6,17,7,50,81,38,
南京市,迈皋桥,118.8033,32.1085,2026-03-22T0000,42,64,0.2,19,5,115,154,64,细颗粒物(PM2.5)
南京市,草场门,118.7487,32.057,2026-03-22T0000,32,63,0.3,32,8,109,139,60,颗粒物(PM10)
南京市,中华门,118.770105,32.004342,2026-03-22T0000,40,66,0.6,14,5,103,140,62,颗粒物(PM10)
南京市,瑞金路,118.8059,32.0329,2026-03-22T0000,46,66,0.7,30,4,94,132,72,细颗粒物(PM2.5)
南京市,玄武湖,118.7946,32.0774,2026-03-22T0000,38,60,0.5,7,7,108,139,58,颗粒物(PM10)
南京市,浦口,118.6415,32.0964,2026-03-22T0000,47,86,0.4,28,5,96,130,76,颗粒物(PM10)
南京市,奥体中心,118.730129,32.000956,2026-03-22T0000,38,69,0.2,24,5,105,140,64,颗粒物(PM10)
南京市,仙林大学城,118.9072,32.1047,2026-03-22T0000,35,61,0.5,21,7,105,135,58,颗粒物(PM10)
南京市,江宁彩虹桥,118.8443,31.919,2026-03-22T0000,42,71,0.5,24,3,105,138,65,颗粒物(PM10)
南京市,六合雄州,118.8497,32.3599,2026-03-22T0000,39,68,0.5,33,4,89,133,63,颗粒物(PM10)
南京市,新模范马路66号,118.7641,32.0841,2026-03-22T0000,35,58,0.8,17,5,113,150,56,颗粒物(PM10)
南京市,汶溪路181号,118.8707617,31.34017673,2026-03-22T0000,48,64,0.4,26,6,95,134,76,细颗粒物(PM2.5)
南京市,中山西路1号,119.019,31.6512,2026-03-22T0000,40,58,0.5,15,4,80,118,60,细颗粒物(PM2.5)
南宁市,二十一中,108.3098,22.788,2026-03-22T0000,41,46,0.9,27,6,22,31,62,细颗粒物(PM2.5)
南宁市,北湖,108.3135,22.8529,2026-03-22T0000,45,55,0.9,23,4,25,23,70,细颗粒物(PM2.5)
南宁市,市监测站,108.3205,22.8222,2026-03-22T0000,41,48,0.9,30,2,11,25,62,细颗粒物(PM2.5)
南宁市,大自然花园,108.3828,22.8038,2026-03-22T0000,45,77,0.7,23,6,26,40,70,"颗粒物(PM10),细颗粒物(PM2.5)"
南宁市,区农职院,108.2397,22.8462,2026-03-22T0000,42,77,0.6,36,10,0,24,70,颗粒物(PM10)
南宁市,英华嘉园,108.3285,22.7356,2026-03-22T0000,38,54,0.9,30,4,18,37,56,细颗粒物(PM2.5)
南宁市,红星社区,108.4829,22.762,2026-03-22T0000,30,49,0.8,24,5,18,47,49,
南宁市,起凤路9号,108.2927,23.1477,2026-03-22T0000,55,67,0.7,19,3,10,34,90,细颗粒物(PM2.5)
南宁市,乐贤路16号,108.2177,22.7774,2026-03-22T0000,43,68,0.9,36,6,0,27,66,细颗粒物(PM2.5)
南平市,南平市监测站,118.1682,26.6371,2026-03-22T0000,11,19,0.5,14,4,43,77,19,
南平市,南平七中,118.1757,26.6276,2026-03-22T0000,8,13,0.6,10,3,61,78,20,
南通市,狼山街道,120.9056,31.9669,2026-03-22T0000,24,38,0.3,17,4,89,105,38,
南通市,城中,120.8635,32.0231,2026-03-22T0000,32,42,0.5,14,3,86,104,46,
南通市,星湖花园,120.9376,31.9301,2026-03-22T0000,23,37,0.4,16,4,83,105,37,
南通市,紫琅学院,120.8053,32.046,2026-03-22T0000,28,43,0.7,18,4,90,107,43,
南通市,通州监测站,121.0631,32.0644,2026-03-22T0000,42,NA,0.4,15,2,89,107,64,细颗粒物(PM2.5)
南通市,环境教育馆,120.9348,31.9874,2026-03-22T0000,20,39,0.4,15,3,82,107,39,
南通市,洪江路,120.8692,31.9885,2026-03-22T0000,22,38,0.5,15,3,87,103,38,
南阳市,瓦房庄,112.5338,33.0086,2026-03-22T0000,34,67,0.7,16,6,75,107,63,颗粒物(PM10)
南阳市,汉画馆,112.5002,32.9734,2026-03-22T0000,54,73,0.7,22,7,69,109,88,细颗粒物(PM2.5)
南阳市,气象站,112.5778,33.0144,2026-03-22T0000,45,72,0.7,16,7,90,110,70,细颗粒物(PM2.5)
南阳市,理工学院,112.548,32.9687,2026-03-22T0000,41,66,0.7,17,8,76,105,62,"颗粒物(PM10),细颗粒物(PM2.5)"
南阳市,卧龙区政府,112.5233,32.9921,2026-03-22T0000,48,106,0.7,19,8,69,101,90,颗粒物(PM10)
宁波市,区环保大楼,121.8352,29.9111,2026-03-22T0000,21,52,0.4,37,6,57,84,52,颗粒物(PM10)
宁波市,万里学院,121.5595,29.8208,2026-03-22T0000,8,25,0.4,10,4,94,100,30,
宁波市,龙赛医院,121.713,29.9564,2026-03-22T0000,19,43,0.3,23,5,69,89,43,
宁波市,太古小学,121.5855,29.8635,2026-03-22T0000,11,32,0.4,18,4,91,98,32,
宁波市,市环境监测中心,121.5239,29.8673,2026-03-22T0000,11,31,0.5,15,6,95,96,31,
宁波市,万里国际学校,121.6156,29.9015,2026-03-22T0000,13,35,0.4,15,4,93,95,35,
宁波市,白沙活动中心,121.5593,29.8976,2026-03-22T0000,15,32,0.3,15,4,90,94,32,
宁波市,中科路88号,121.8962,29.7529,2026-03-22T0000,9,25,0.4,13,5,98,113,31,
宁德市,宁德市监测站,119.5387,26.6611,2026-03-22T0000,26,NA,0.7,21,4,59,98,38,
宁德市,宁德一中,119.5231,26.6562,2026-03-22T0000,32,NA,0.6,18,5,47,98,46,
怒江傈僳族自治州,州监测站,98.859,25.8541,2026-03-22T0000,32,52,0.6,15,7,57,73,52,颗粒物(PM10)
怒江傈僳族自治州,泸水一中,98.8607,25.8168,2026-03-22T0000,43,46,0.7,26,5,28,59,66,细颗粒物(PM2.5)
攀枝花市,弄弄坪,101.6891,26.571,2026-03-22T0000,19,32,0.6,13,3,87,99,32,
攀枝花市,河门口,101.577,26.5914,2026-03-22T0000,22,51,0.6,9,7,96,110,51,颗粒物(PM10)
攀枝花市,仁和,101.7365,26.4986,2026-03-22T0000,24,42,0.6,8,9,87,104,42,
攀枝花市,四十中小,101.7222,26.567,2026-03-22T0000,23,30,0.5,11,4,101,110,33,
盘锦市,开发区,122.0303,41.1489,2026-03-22T0000,61,84,0.6,22,7,102,135,101,细颗粒物(PM2.5)
盘锦市,兴隆台,122.0486,41.0883,2026-03-22T0000,58,69,0.5,21,8,101,131,96,细颗粒物(PM2.5)
盘锦市,新生街道,121.8297,41.1026,2026-03-22T0000,93,NA,0.7,35,8,69,122,130,细颗粒物(PM2.5)
平顶山市,新华旅馆,113.3257,33.7423,2026-03-22T0000,39,93,0.4,23,4,72,111,81,颗粒物(PM10)
平顶山市,规划设计院,113.2917,33.737,2026-03-22T0000,47,103,0.6,30,7,61,106,88,颗粒物(PM10)
平顶山市,平顶山工学院,113.182,33.7738,2026-03-22T0000,47,100,0.5,17,5,81,113,86,颗粒物(PM10)
平顶山市,石龙区,112.8736,33.9068,2026-03-22T0000,32,93,0.3,33,8,80,116,81,颗粒物(PM10)
平顶山市,姚电大道23号,113.284,33.7139,2026-03-22T0000,42,113,0.8,31,6,61,110,95,颗粒物(PM10)
平凉市,聚贤嘉苑,106.6633,35.5338,2026-03-22T0000,58,218,0.4,34,6,54,88,138,颗粒物(PM10)
平凉市,博物馆,106.7021,35.5307,2026-03-22T0000,69,209,0.4,32,10,52,88,135,颗粒物(PM10)
萍乡市,中医院,113.8384,27.6436,2026-03-22T0000,33,35,0.8,10,4,48,72,48,
萍乡市,市环保局,113.8677,27.6438,2026-03-22T0000,32,40,0.8,8,5,50,79,46,
萍乡市,安源区政府,113.8663,27.6202,2026-03-22T0000,27,39,1.3,20,6,24,58,39,
萍乡市,联洪村委会,113.8686,27.6668,2026-03-22T0000,21,38,0.6,7,2,38,72,38,
莆田市,荔城区仓后路,119.0142,25.4324,2026-03-22T0000,20,26,/,22,/,65,96,29,
莆田市,莆田市监测站,119.0016,25.4553,2026-03-22T0000,16,30,0.4,17,3,69,95,30,
莆田市,涵江区六中,119.112,25.4561,2026-03-22T0000,21,23,0.5,26,/,61,102,30,
莆田市,秀屿区政府,119.1014,25.3215,2026-03-22T0000,12,14,0.3,11,5,84,111,27,
濮阳市,环保局,115.0312,35.7636,2026-03-22T0000,63,105,0.6,22,8,97,133,103,细颗粒物(PM2.5)
濮阳市,濮水河管理处,115,35.7667,2026-03-22T0000,70,123,0.5,21,11,104,140,110,细颗粒物(PM2.5)
濮阳市,中原东路68号,115.0552,35.7816,2026-03-22T0000,72,125,0.7,19,8,97,137,111,细颗粒物(PM2.5)
濮阳市,任丘路479号,115.0923632,35.76857718,2026-03-22T0000,77,119,0.6,22,8,101,140,116,细颗粒物(PM2.5)
普洱市,市环保局,100.9801,22.7634,2026-03-22T0000,37,60,0.6,7,6,77,134,58,颗粒物(PM10)
普洱市,普洱第二中学,100.9763,22.8237,2026-03-22T0000,38,59,0.7,19,6,80,136,57,颗粒物(PM10)
七台河市,中波台,131.0413,45.7795,2026-03-22T0000,159,162,0.8,46,18,42,115,209,细颗粒物(PM2.5)
七台河市,人民广场,131.0136,45.7688,2026-03-22T0000,164,179,1.2,58,22,33,103,214,细颗粒物(PM2.5)
七台河市,新建矿广场,130.8639,45.8144,2026-03-22T0000,83,107,0.6,45,13,40,106,121,细颗粒物(PM2.5)
齐齐哈尔市,安居小区,123.9307,47.3641,2026-03-22T0000,60,65,0.7,16,6,68,102,100,细颗粒物(PM2.5)
齐齐哈尔市,中心广场,123.9497,47.3389,2026-03-22T0000,53,82,0.6,14,10,77,98,86,细颗粒物(PM2.5)
齐齐哈尔市,农牧车辆厂,123.9483,47.3229,2026-03-22T0000,58,NA,0.3,14,8,75,107,NA,NA
齐齐哈尔市,市环境监测站,123.9442,47.2994,2026-03-22T0000,61,72,0.6,22,3,66,101,101,细颗粒物(PM2.5)
齐齐哈尔市,富区青少年活动中心,123.6341,47.2079,2026-03-22T0000,51,68,0.7,12,6,60,106,82,细颗粒物(PM2.5)
黔东南苗族侗族自治州,市环境监测站,107.9765,26.5724,2026-03-22T0000,12,NA,0.7,7,2,30,55,18,
黔东南苗族侗族自治州,凯里学院,107.8909,26.531,2026-03-22T0000,14,14,0.9,8,4,32,52,20,
黔南布依族苗族自治州,小围寨,107.5223,26.2371,2026-03-22T0000,15,NA,0.7,11,4,17,48,22,
黔南布依族苗族自治州,沙坝,107.5175,26.2977,2026-03-22T0000,12,14,1.0,9,4,15,44,18,
黔西南布依族苗族自治州,场坝街,104.9022,25.0943,2026-03-22T0000,37,48,0.6,5,4,56,61,54,细颗粒物(PM2.5)
黔西南布依族苗族自治州,坪东大道,104.8812,25.0994,2026-03-22T0000,34,46,0.7,8,5,52,58,49,
钦州市,市环保站,108.6238,21.9667,2026-03-22T0000,46,80,1.3,18,4,25,56,72,"颗粒物(PM10),细颗粒物(PM2.5)"
钦州市,沙埠小学,108.655,21.9481,2026-03-22T0000,44,67,1.4,28,4,17,55,68,细颗粒物(PM2.5)
钦州市,港区一小,108.5989,21.7435,2026-03-22T0000,47,62,0.8,12,2,26,57,74,细颗粒物(PM2.5)
钦州市,北职校,108.5959,21.9634,2026-03-22T0000,48,53,0.8,14,4,29,55,76,细颗粒物(PM2.5)
秦皇岛市,建设大厦,119.5247,39.9346,2026-03-22T0000,92,130,0.7,6,6,112,123,130,细颗粒物(PM2.5)
秦皇岛市,文明里,119.5979,39.938,2026-03-22T0000,87,133,0.6,20,9,101,118,125,细颗粒物(PM2.5)
秦皇岛市,南园路157号,119.7458,39.9952,2026-03-22T0000,104,130,0.6,29,8,95,115,140,细颗粒物(PM2.5)
秦皇岛市,翠岛大街1号,119.5131,39.8858,2026-03-22T0000,98,112,0.6,16,8,106,119,135,细颗粒物(PM2.5)
秦皇岛市,北戴河轮滑馆,119.509013,39.825305,2026-03-22T0000,87,135,0.7,22,7,103,117,125,细颗粒物(PM2.5)
青岛市,市南区东部子站,120.404,36.0625,2026-03-22T0000,54,78,0.5,11,9,114,101,88,细颗粒物(PM2.5)
青岛市,四方区子站,120.362344,36.10282,2026-03-22T0000,58,73,0.7,12,5,118,112,96,细颗粒物(PM2.5)
青岛市,市南区西部子站,120.294373,36.054183,2026-03-22T0000,51,66,0.6,21,3,101,97,82,细颗粒物(PM2.5)
青岛市,崂山区子站,120.4581,36.0858,2026-03-22T0000,49,78,0.5,18,7,121,108,78,细颗粒物(PM2.5)
青岛市,城阳区子站,120.3945,36.3083,2026-03-22T0000,42,66,0.6,18,5,112,122,64,细颗粒物(PM2.5)
青岛市,市北区南部,120.3454,36.0735,2026-03-22T0000,50,72,0.8,8,2,115,108,80,细颗粒物(PM2.5)
青岛市,李沧区北部,120.3897,36.18,2026-03-22T0000,53,75,0.6,16,7,110,106,86,细颗粒物(PM2.5)
青岛市,盟旺路653号,120.5222,36.4089,2026-03-22T0000,22,60,0.5,6,2,110,131,58,颗粒物(PM10)
青岛市,珠江路669号,120.196923,35.954556,2026-03-22T0000,54,66,0.5,11,4,122,119,88,细颗粒物(PM2.5)
青岛市,黄岛区人民政府广场,120.0424,35.8656,2026-03-22T0000,45,66,0.6,14,7,103,110,70,细颗粒物(PM2.5)
清远市,凤城街办,113.0218,23.7086,2026-03-22T0000,31,34,/,16,/,32,43,45,
清远市,技师学院,113.0479,23.6343,2026-03-22T0000,23,33,0.9,18,5,26,43,33,
清远市,清新太和,112.9898,23.7403,2026-03-22T0000,19,30,0.9,26,6,17,45,30,
清远市,清城东城,113.076,23.72,2026-03-22T0000,24,36,/,14,/,32,47,36,
庆阳市,庆阳五中,107.6325,35.7357,2026-03-22T0000,49,169,0.2,7,4,89,90,119,颗粒物(PM10)
庆阳市,市环保局,107.6361,35.7067,2026-03-22T0000,48,163,0.2,11,5,89,96,117,颗粒物(PM10)
曲靖市,环境监测站,103.7897,25.5036,2026-03-22T0000,52,67,0.6,12,7,112,124,84,细颗粒物(PM2.5)
曲靖市,烟厂办公区,103.8013,25.5357,2026-03-22T0000,43,64,0.6,8,5,105,114,66,细颗粒物(PM2.5)
曲靖市,南苑二区,103.7926,25.4651,2026-03-22T0000,47,68,0.5,11,3,104,114,74,细颗粒物(PM2.5)
曲靖市,曲靖师范学院,103.7442,25.5259,2026-03-22T0000,45,59,0.4,9,2,111,116,70,细颗粒物(PM2.5)
衢州市,环保大楼,118.8694,28.94,2026-03-22T0000,24,34,/,29,/,35,85,35,
衢州市,衢州学院,118.8622,28.9809,2026-03-22T0000,20,27,0.6,28,4,43,94,29,
衢州市,衢州三中,118.9646,28.9832,2026-03-22T0000,22,32,0.6,31,6,32,84,32,
泉州市,涂山街,118.5818,24.9116,2026-03-22T0000,19,30,0.7,19,7,59,93,30,
泉州市,津头埔,118.597,24.8976,2026-03-22T0000,19,25,0.6,19,8,62,100,28,
泉州市,万安,118.6669,24.9422,2026-03-22T0000,18,25,0.6,18,9,58,90,26,
泉州市,霞新路6号,118.6355,24.9148,2026-03-22T0000,17,27,0.6,19,/,58,92,27,
日喀则市,日喀则监测站,88.8873,29.2723,2026-03-22T0000,12,44,0.6,5,8,123,128,44,
日喀则市,林业技术推广中心,88.8775,29.2425,2026-03-22T0000,3,63,0.5,7,9,116,129,60,颗粒物(PM10)
日照市,监测站,119.4711,35.421,2026-03-22T0000,28,48,0.6,29,8,78,110,48,
日照市,市政府广场,119.523,35.4216,2026-03-22T0000,27,51,0.5,24,6,84,120,51,颗粒物(PM10)
日照市,港务局,119.5511,35.4113,2026-03-22T0000,27,51,0.5,24,4,88,112,51,颗粒物(PM10)
日照市,职业技术学院,119.5326,35.4627,2026-03-22T0000,29,NA,0.6,20,7,93,119,NA,NA
日照市,岚山环保分局,119.3267,35.1043,2026-03-22T0000,25,58,0.9,29,11,65,114,56,颗粒物(PM10)
三门峡市,市政府,111.1922,34.7752,2026-03-22T0000,71,102,1.0,59,12,29,112,110,细颗粒物(PM2.5)
三门峡市,开发区,111.1588,34.794,2026-03-22T0000,66,127,0.5,17,12,69,112,106,细颗粒物(PM2.5)
三门峡市,三门峡市第一小学,111.1911,34.7829,2026-03-22T0000,76,114,0.8,41,16,57,115,115,细颗粒物(PM2.5)
三门峡市,富达温泉假日酒店,111.1031,34.719,2026-03-22T0000,66,150,0.9,54,17,33,107,112,颗粒物(PM10)
三明市,三钢,117.621,26.2626,2026-03-22T0000,23,NA,0.6,16,9,34,69,33,
三明市,三明二中,117.6352,26.2714,2026-03-22T0000,18,NA,0.6,14,6,33,63,26,
三明市,三元区政府,117.6028,26.2377,2026-03-22T0000,26,26,0.9,14,11,34,61,38,
三亚市,河西子站,109.4962,18.2682,2026-03-22T0000,14,14,0.3,5,4,40,61,20,
三亚市,君悦子站,109.7348,18.3443,2026-03-22T0000,9,21,0.4,4,4,51,62,21,
三亚市,城东小学站,109.1714,18.3739,2026-03-22T0000,12,22,/,8,/,46,68,22,
山南市,山南监测站,91.7592,29.234,2026-03-22T0000,3,6,0.3,1,4,101,111,32,
山南市,山南人民医院,91.7701,29.2436,2026-03-22T0000,3,8,0.3,1,6,104,114,33,
汕头市,金平子站,116.6795,23.3666,2026-03-22T0000,16,18,0.6,13,5,106,124,34,
汕头市,龙湖子站,116.7248,23.3632,2026-03-22T0000,16,30,/,12,5,103,120,33,
汕头市,濠江子站,116.7257,23.2774,2026-03-22T0000,11,15,/,11,7,100,113,32,
汕头市,澄海子站,116.7518,23.4712,2026-03-22T0000,12,22,0.6,10,7,102,120,32,
汕头市,潮阳子站,116.6088,23.2539,2026-03-22T0000,12,18,0.5,6,6,105,122,33,
汕头市,潮南峡山,116.4539,23.2684,2026-03-22T0000,16,28,0.6,12,6,104,130,33,
汕头市,潮南子站,116.4069,23.2533,2026-03-22T0000,17,31,/,6,5,95,117,31,
汕尾市,市环保局,115.3653,22.7751,2026-03-22T0000,13,20,0.6,6,6,110,118,35,
汕尾市,新城中学,115.362,22.7926,2026-03-22T0000,12,12,0.6,5,6,112,126,35,
商洛市,监测站,109.9155,33.8714,2026-03-22T0000,34,71,0.5,54,6,24,103,65,颗粒物(PM10)
商洛市,商州区中学,109.9647,33.8486,2026-03-22T0000,31,74,0.6,61,11,47,95,68,颗粒物(PM10)
商丘市,环境监测站,115.6701,34.4283,2026-03-22T0000,75,102,0.5,17,3,127,138,114,细颗粒物(PM2.5)
商丘市,粮食局,115.6458,34.4047,2026-03-22T0000,91,92,0.6,19,2,123,134,129,细颗粒物(PM2.5)
商丘市,梁园区档案局,115.6069,34.4465,2026-03-22T0000,62,88,0.6,14,2,132,138,102,细颗粒物(PM2.5)
商丘市,北海东路185号,115.6701,34.3767,2026-03-22T0000,83,122,0.6,18,4,120,138,121,细颗粒物(PM2.5)
商丘市,中山大街3号,115.6172,34.3704,2026-03-22T0000,NA,162,NA,18,5,113,136,117,颗粒物(PM10)
上海市,普陀,121.401,31.2382,2026-03-22T0000,31,45,0.4,23,5,93,102,45,
上海市,十五厂,121.4774,31.2043,2026-03-22T0000,33,52,0.5,26,6,89,105,52,颗粒物(PM10)
上海市,虹口,121.4673,31.3011,2026-03-22T0000,28,51,0.4,28,6,79,101,51,颗粒物(PM10)
上海市,静安监测站,121.4253,31.226,2026-03-22T0000,25,41,0.4,24,8,95,106,41,
上海市,浦东川沙,121.7029,31.1905,2026-03-22T0000,25,42,0.5,37,6,77,106,42,
上海市,浦东新区监测站,121.5339,31.229,2026-03-22T0000,25,44,0.4,22,5,81,98,44,
上海市,浦东张江,121.5776,31.2038,2026-03-22T0000,22,40,0.2,20,6,94,109,40,
上海市,宝山庙行,121.4242,31.3303,2026-03-22T0000,33,56,0.3,27,5,78,98,55,颗粒物(PM10)
上海市,崇明上实东滩,121.8789,31.4662,2026-03-22T0000,22,33,0.3,16,8,95,121,33,
上海市,嘉定南翔,121.316,31.2839,2026-03-22T0000,23,38,0.5,23,4,87,99,38,
上海市,金山新城,121.3357,30.7455,2026-03-22T0000,15,26,0.5,10,5,102,111,32,
上海市,闵行浦江,121.4996,31.0741,2026-03-22T0000,34,51,0.4,20,6,81,103,51,颗粒物(PM10)
上海市,青浦徐泾,121.2886,31.1663,2026-03-22T0000,34,54,0.5,24,5,86,106,53,颗粒物(PM10)
上海市,松江图书馆,121.2193,31.0382,2026-03-22T0000,42,56,0.5,36,6,64,111,64,细颗粒物(PM2.5)
上海市,长宁仙霞,121.3904,31.206,2026-03-22T0000,27,48,0.3,24,8,88,101,48,
上海市,浦东惠南,121.7964,31.0507,2026-03-22T0000,22,32,0.4,25,6,72,114,32,
上海市,奉贤南桥新城,121.4891,30.925,2026-03-22T0000,34,48,0.5,25,4,83,117,49,
上海市,冠生园路458号,121.417401,31.16637,2026-03-22T0000,32,52,0.4,28,6,74,96,52,颗粒物(PM10)
上海市,宁武路151号,121.541914,31.268301,2026-03-22T0000,33,54,0.4,33,6,70,93,53,颗粒物(PM10)
上饶市,市监测站,117.9758,28.4439,2026-03-22T0000,39,58,/,18,6,69,89,58,细颗粒物(PM2.5)
上饶市,凤凰光学,117.9521,28.4637,2026-03-22T0000,40,61,1.1,32,15,49,79,60,细颗粒物(PM2.5)
上饶市,双创科技城,117.897,28.4316,2026-03-22T0000,45,58,1.0,22,10,72,92,70,细颗粒物(PM2.5)
上饶市,裕丰大道,118.190438,28.444845,2026-03-22T0000,39,58,0.9,19,8,60,86,58,细颗粒物(PM2.5)
韶关市,市八中,113.5821,24.7733,2026-03-22T0000,18,23,0.8,16,5,42,68,26,
韶关市,园林处,113.5916,24.7973,2026-03-22T0000,18,27,/,23,5,37,72,27,
韶关市,曲江监测站,113.5971,24.6864,2026-03-22T0000,21,31,1.1,18,15,55,48,31,
韶关市,大学路288号,113.6668,24.7756,2026-03-22T0000,17,20,/,10,8,39,61,25,
韶关市,碧湖山庄,113.5556,24.8082,2026-03-22T0000,23,34,0.8,14,11,39,68,34,
邵阳市,市化工厂,111.5277,27.2442,2026-03-22T0000,40,52,0.9,19,19,34,74,60,细颗粒物(PM2.5)
邵阳市,市环保局,111.4327,27.2276,2026-03-22T0000,44,NA,1.0,17,13,37,80,68,细颗粒物(PM2.5)
邵阳市,北塔二期4-26地块,111.446,27.2472,2026-03-22T0000,39,NA,0.9,12,10,42,76,58,细颗粒物(PM2.5)
邵阳市,邵水西路287号,111.4739,27.2282,2026-03-22T0000,38,46,1.0,20,13,39,78,56,细颗粒物(PM2.5)
绍兴市,城东开发委,120.6053,29.9927,2026-03-22T0000,30,46,0.4,33,8,42,96,46,
绍兴市,树下王站,120.5482,30.0003,2026-03-22T0000,32,53,0.4,31,8,46,109,53,颗粒物(PM10)
绍兴市,绍兴中专,120.5685,29.936,2026-03-22T0000,16,28,0.3,18,8,68,104,28,
绍兴市,柯桥区政府,120.4905,30.086,2026-03-22T0000,35,56,0.4,33,8,47,118,55,颗粒物(PM10)
绍兴市,重华小学,120.8751,30.0249,2026-03-22T0000,15,26,0.4,19,8,62,96,26,
绍兴市,上虞中学,120.837,30.0137,2026-03-22T0000,14,22,0.4,17,7,73,97,23,
绍兴市,柯桥妇保,120.4715,30.0414,2026-03-22T0000,29,55,0.4,28,6,44,105,54,颗粒物(PM10)
绍兴市,袍江中学,120.6156,30.0762,2026-03-22T0000,33,59,0.3,39,10,37,110,57,颗粒物(PM10)
深圳市,通心岭子站,114.0948,22.5506,2026-03-22T0000,13,24,0.4,7,4,108,107,34,
深圳市,洪湖,114.1153,22.5713,2026-03-22T0000,17,29,0.3,9,5,109,103,35,
深圳市,华侨城,113.9823,22.5398,2026-03-22T0000,16,25,/,6,/,99,96,31,
深圳市,南海子站,113.9181,22.517,2026-03-22T0000,21,30,0.5,6,2,98,101,31,
深圳市,盐田,114.2345,22.565,2026-03-22T0000,15,27,0.4,20,8,90,101,29,
深圳市,南澳,114.4911,22.5381,2026-03-22T0000,10,22,/,4,/,98,108,31,
深圳市,葵涌,114.41,22.6346,2026-03-22T0000,13,28,0.6,6,7,99,98,31,
深圳市,梅沙,114.2967,22.5978,2026-03-22T0000,12,25,/,5,/,102,107,32,
深圳市,观澜,114.0563,22.7353,2026-03-22T0000,22,41,0.7,20,5,80,84,41,
深圳市,莲花,114.0614,22.556,2026-03-22T0000,16,24,/,6,/,104,100,33,
深圳市,民治,114.0144,22.6163,2026-03-22T0000,18,31,/,4,/,96,91,31,
深圳市,横岗,114.1756,22.6421,2026-03-22T0000,19,29,/,8,/,105,95,33,
深圳市,坪山,114.344,22.7115,2026-03-22T0000,17,29,0.6,7,4,105,105,33,
深圳市,西乡,113.8952,22.586,2026-03-22T0000,16,32,0.5,9,2,91,84,32,
深圳市,黄阁路,114.214113,22.713717,2026-03-22T0000,15,30,0.7,10,8,97,100,31,
沈阳市,浑南东路,123.5058,41.7084,2026-03-22T0000,70,103,0.7,18,13,115,129,110,细颗粒物(PM2.5)
沈阳市,新秀街,123.4238,41.6992,2026-03-22T0000,71,92,0.7,18,12,115,129,110,细颗粒物(PM2.5)
沈阳市,东陵路,123.5903,41.8412,2026-03-22T0000,86,86,1.2,19,11,106,129,124,细颗粒物(PM2.5)
沈阳市,陵东街,123.4267,41.8466,2026-03-22T0000,68,107,0.7,16,13,122,132,108,细颗粒物(PM2.5)
沈阳市,文化路,123.4116,41.7654,2026-03-22T0000,66,119,0.8,17,8,122,134,106,细颗粒物(PM2.5)
沈阳市,小河沿,123.4673,41.787,2026-03-22T0000,71,107,0.8,15,7,123,128,110,细颗粒物(PM2.5)
沈阳市,太原街,123.4019,41.7978,2026-03-22T0000,69,111,0.5,15,8,124,134,109,细颗粒物(PM2.5)
沈阳市,京沈街,123.3778,41.9233,2026-03-22T0000,69,73,0.8,18,12,118,132,109,细颗粒物(PM2.5)
沈阳市,沈辽西路,123.2429,41.7341,2026-03-22T0000,76,128,0.7,19,12,104,124,115,细颗粒物(PM2.5)
沈阳市,裕农路,123.5951,41.9085,2026-03-22T0000,66,98,1.1,20,13,110,134,106,细颗粒物(PM2.5)
十堰市,滨河新村,110.78,32.6494,2026-03-22T0000,60,98,1.0,47,/,34,103,100,细颗粒物(PM2.5)
十堰市,刘家沟,110.7305,32.6408,2026-03-22T0000,55,78,/,12,/,60,103,90,细颗粒物(PM2.5)
十堰市,铁二处,110.8843,32.5712,2026-03-22T0000,49,83,1.0,16,5,50,95,78,细颗粒物(PM2.5)
十堰市,郧阳区金沙路,110.8053,32.8401,2026-03-22T0000,48,74,0.7,8,6,65,89,76,细颗粒物(PM2.5)
石河子市,艾青诗歌馆,86.0391,44.298,2026-03-22T0000,40,60,0.7,31,12,51,82,60,细颗粒物(PM2.5)
石河子市,南区管委会,86.047,44.2331,2026-03-22T0000,16,37,0.4,15,9,63,89,37,
石河子市,世纪广场,86.0791,44.3018,2026-03-22T0000,44,55,0.7,44,10,29,79,68,细颗粒物(PM2.5)
石河子市,城南景苑小区,86.0126,44.2349,2026-03-22T0000,22,33,0.4,15,7,59,85,33,
石家庄市,高新区,114.5919,38.0328,2026-03-22T0000,61,135,0.6,21,7,89,122,106,颗粒物(PM10)
石家庄市,西南高教,114.4556,38.0136,2026-03-22T0000,108,NA,0.5,12,1,101,120,144,细颗粒物(PM2.5)
石家庄市,世纪公园,114.533,38.0177,2026-03-22T0000,76,151,0.6,11,3,89,114,115,细颗粒物(PM2.5)
石家庄市,人民会堂,114.5105,38.0489,2026-03-22T0000,77,115,0.5,10,3,81,108,116,细颗粒物(PM2.5)
石家庄市,鹿泉一中,114.2887,38.0905,2026-03-22T0000,153,NA,0.4,4,2,94,120,203,细颗粒物(PM2.5)
石家庄市,栾城区星河路,114.6491,37.9014,2026-03-22T0000,99,134,0.7,21,7,90,117,136,细颗粒物(PM2.5)
石家庄市,裕华西路63号,114.4563,38.0365,2026-03-22T0000,71,94,0.5,14,3,92,116,110,细颗粒物(PM2.5)
石家庄市,和平路363号,114.5586,38.0581,2026-03-22T0000,79,125,0.6,15,2,89,120,118,细颗粒物(PM2.5)
石家庄市,廉州西路160号,114.8347,38.0213,2026-03-22T0000,100,118,0.7,20,1,76,120,137,细颗粒物(PM2.5)
石家庄市,北城路41号,114.4498,38.0729,2026-03-22T0000,69,101,0.4,15,1,100,127,109,细颗粒物(PM2.5)
石家庄市,矿区区委大楼,114.0494,38.059,2026-03-22T0000,41,62,0.8,20,13,79,114,62,细颗粒物(PM2.5)
石嘴山市,大武口朝阳西街,106.3668,39.0145,2026-03-22T0000,29,103,0.1,14,6,73,98,88,颗粒物(PM10)
石嘴山市,惠农南大街,106.7713,39.2278,2026-03-22T0000,40,122,0.6,64,12,13,94,101,颗粒物(PM10)
石嘴山市,红果子镇惠新街,106.7074,39.1332,2026-03-22T0000,29,78,0.5,19,26,62,98,70,颗粒物(PM10)
石嘴山市,妇女儿童医院,106.3495,38.9837,2026-03-22T0000,37,118,0.3,11,6,82,100,99,颗粒物(PM10)
石嘴山市,石大公路,106.7495,39.2068,2026-03-22T0000,40,111,1.0,78,10,5,93,94,颗粒物(PM10)
双鸭山市,双合村,131.1509,46.6936,2026-03-22T0000,68,87,0.6,19,10,76,104,108,细颗粒物(PM2.5)
双鸭山市,南小市,131.1651,46.6191,2026-03-22T0000,59,66,0.4,16,5,70,102,98,细颗粒物(PM2.5)
双鸭山市,环保局,131.1526,46.6554,2026-03-22T0000,65,80,0.5,43,6,47,100,105,细颗粒物(PM2.5)
朔州市,平朔,112.4399,39.3521,2026-03-22T0000,33,91,0.4,25,6,43,102,80,颗粒物(PM10)
朔州市,朔唯,112.4574,39.362,2026-03-22T0000,38,103,/,38,9,27,101,88,颗粒物(PM10)
朔州市,区政府,112.426,39.3199,2026-03-22T0000,25,95,0.1,12,4,67,106,83,颗粒物(PM10)
朔州市,市环保局,112.4075,39.3277,2026-03-22T0000,36,90,/,19,4,59,95,79,颗粒物(PM10)
朔州市,市二中,112.4273,39.3682,2026-03-22T0000,32,96,/,15,6,50,116,83,颗粒物(PM10)
朔州市,一水厂,112.2938,39.5296,2026-03-22T0000,24,93,0.4,3,1,75,99,81,颗粒物(PM10)
四平市,境园,124.3744,43.1842,2026-03-22T0000,84,97,0.7,20,8,101,133,122,细颗粒物(PM2.5)
四平市,植物园,124.4029,43.1411,2026-03-22T0000,82,128,0.5,14,8,111,129,120,细颗粒物(PM2.5)
四平市,世纪城,124.3286,43.1726,2026-03-22T0000,82,107,0.5,20,6,91,130,120,细颗粒物(PM2.5)
松原市,江南,124.8007,45.1213,2026-03-22T0000,118,266,0.5,42,1,47,120,158,颗粒物(PM10)
松原市,江北,124.7967,45.1721,2026-03-22T0000,114,254,0.7,60,1,43,128,152,颗粒物(PM10)
苏州市,轧钢厂,120.5974,31.3247,2026-03-22T0000,24,44,0.6,21,4,90,119,44,
苏州市,吴中区,120.6329,31.2741,2026-03-22T0000,24,45,0.4,25,6,80,114,45,
苏州市,苏州新区,120.5566,31.3049,2026-03-22T0000,25,38,0.5,22,7,90,123,38,
苏州市,苏州工业园区,120.668709,31.312523,2026-03-22T0000,19,42,0.6,23,6,83,125,42,
苏州市,相城区,120.6408,31.3707,2026-03-22T0000,24,49,0.6,27,5,81,119,49,
苏州市,方洲路,120.7431,31.3188,2026-03-22T0000,24,48,0.6,26,6,78,116,48,
苏州市,木渎中学,120.4979,31.2777,2026-03-22T0000,32,52,0.7,23,7,79,116,52,颗粒物(PM10)
苏州市,越秀幼儿园,120.642,31.1733,2026-03-22T0000,27,47,0.6,16,5,93,126,47,
苏州市,高铁新城,120.6502,31.4117,2026-03-22T0000,36,53,0.5,34,5,61,101,53,颗粒物(PM10)
苏州市,学森路9号,120.4282,31.3228,2026-03-22T0000,24,38,0.6,25,6,76,120,38,
宿迁市,宿迁学院,118.2924,33.933,2026-03-22T0000,68,103,0.5,44,7,67,154,108,细颗粒物(PM2.5)
宿迁市,宿迁中学,118.2321,33.9572,2026-03-22T0000,61,90,0.4,25,5,80,146,101,细颗粒物(PM2.5)
宿迁市,市供电局,118.2781,33.9658,2026-03-22T0000,60,89,0.5,29,7,79,151,100,细颗粒物(PM2.5)
宿迁市,宿豫区政府,118.3243,33.95,2026-03-22T0000,67,97,0.5,42,8,61,142,107,细颗粒物(PM2.5)
宿迁市,春华路,118.352,33.7886,2026-03-22T0000,47,76,0.5,35,7,58,135,74,细颗粒物(PM2.5)
宿州市,远航博物馆,116.9508,33.666,2026-03-22T0000,73,126,0.5,24,4,113,148,112,细颗粒物(PM2.5)
宿州市,社会福利中心,116.9708,33.5911,2026-03-22T0000,50,125,0.5,33,6,87,141,102,颗粒物(PM10)
宿州市,皖北煤电集团,116.9647,33.6252,2026-03-22T0000,80,124,0.7,27,7,115,148,119,细颗粒物(PM2.5)
宿州市,中兴路,116.9929,33.6412,2026-03-22T0000,82,123,0.5,25,6,108,146,120,细颗粒物(PM2.5)
绥化市,人和东街,126.9783,46.6365,2026-03-22T0000,68,82,0.6,15,5,91,146,108,细颗粒物(PM2.5)
绥化市,党政办公中心,126.964,46.6527,2026-03-22T0000,74,93,0.5,16,4,94,144,113,细颗粒物(PM2.5)
随州市,市委党校,113.3587,31.7275,2026-03-22T0000,38,70,1.0,19,5,92,103,65,颗粒物(PM10)
随州市,市林业局,113.3745,31.6926,2026-03-22T0000,41,75,0.8,10,5,106,112,68,颗粒物(PM10)
随州市,市立交桥水厂,113.3984,31.7309,2026-03-22T0000,48,89,0.7,42,3,67,118,78,颗粒物(PM10)
遂宁市,市监测站,105.5581,30.5231,2026-03-22T0000,14,30,0.9,14,7,60,94,30,
遂宁市,美宁食品公司,105.5917,30.4727,2026-03-22T0000,23,36,0.7,15,6,56,86,36,
遂宁市,环岛商务中心9号楼,105.5911,30.5368,2026-03-22T0000,13,30,0.7,20,4,52,88,30,
塔城地区,东门外小游园,82.9993,46.7432,2026-03-22T0000,14,43,0.3,7,5,59,90,43,
塔城地区,文化广场,82.9716,46.7464,2026-03-22T0000,11,27,0.6,7,2,69,87,27,
台州市,黄岩环保大楼,121.2727,28.6461,2026-03-22T0000,20,36,/,12,/,56,77,36,
台州市,台州环保大楼,121.4188,28.6545,2026-03-22T0000,31,56,0.5,31,/,43,92,55,颗粒物(PM10)
台州市,路桥田洋王,121.3768,28.5772,2026-03-22T0000,31,61,0.4,32,4,33,88,58,颗粒物(PM10)
台州市,台州科技职业学院,121.25678,28.66823971,2026-03-22T0000,23,43,0.5,17,6,52,75,43,
太原市,尖草坪,112.5138,37.8916,2026-03-22T0000,14,34,0.4,11,3,81,128,34,
太原市,晋源,112.4691,37.7125,2026-03-22T0000,19,55,0.4,12,3,86,131,54,颗粒物(PM10)
太原市,小店,112.5595,37.7391,2026-03-22T0000,17,48,0.4,11,4,86,132,48,
太原市,坞城,112.5705,37.8199,2026-03-22T0000,12,37,0.5,11,4,85,131,37,
太原市,南寨,112.5495,37.9853,2026-03-22T0000,10,35,0.4,9,5,70,122,35,
太原市,金胜,112.4702,37.7821,2026-03-22T0000,22,54,0.3,10,3,84,127,53,颗粒物(PM10)
太原市,育英中学,112.5608,37.8807,2026-03-22T0000,14,47,0.5,11,6,82,136,47,
太原市,西矿街336号,112.449,37.8509,2026-03-22T0000,21,49,0.3,9,3,82,124,49,
太原市,迎宾北路9号,112.4792,37.9393,2026-03-22T0000,19,36,0.5,9,6,84,125,36,
太原市,迎泽大街248号,112.551,37.8575,2026-03-22T0000,21,42,0.2,10,1,75,121,42,
泰安市,监测站,117.1436,36.1938,2026-03-22T0000,108,144,0.6,17,5,127,151,144,细颗粒物(PM2.5)
泰安市,人口学校,117.0905,36.2002,2026-03-22T0000,113,153,0.8,23,8,124,154,149,细颗粒物(PM2.5)
泰安市,电力学校,117.0992,36.1757,2026-03-22T0000,111,149,0.4,26,7,113,149,147,细颗粒物(PM2.5)
泰安市,国网新校,117.1812,36.2273,2026-03-22T0000,94,120,0.8,21,6,131,158,131,细颗粒物(PM2.5)
泰安市,交通技校,117.0315,36.2017,2026-03-22T0000,113,125,0.7,30,3,126,159,149,细颗粒物(PM2.5)
泰安市,山东第一医科大学,117.083,36.13,2026-03-22T0000,108,139,0.5,29,6,115,154,144,细颗粒物(PM2.5)
泰州市,公园路,119.9042,32.488,2026-03-22T0000,45,66,0.6,26,7,52,106,70,细颗粒物(PM2.5)
泰州市,莲花,119.9189,32.4626,2026-03-22T0000,46,61,0.6,28,9,52,107,72,细颗粒物(PM2.5)
泰州市,留学生创业园,119.8877,32.4636,2026-03-22T0000,NA,NA,NA,NA,NA,NA,NA,NA,NA
泰州市,王营,119.8767,32.3291,2026-03-22T0000,40,87,1.0,51,12,26,110,77,颗粒物(PM10)
泰州市,姜堰区政府广场,120.1226,32.515,2026-03-22T0000,40,57,0.5,15,8,74,114,60,细颗粒物(PM2.5)
泰州市,周山河街区,119.9186,32.4322,2026-03-22T0000,47,80,0.5,25,9,40,98,74,细颗粒物(PM2.5)
唐山市,十二中,118.1707,39.6505,2026-03-22T0000,78,162,1.1,44,2,21,86,117,"颗粒物(PM10),细颗粒物(PM2.5)"
唐山市,小山,118.1868,39.6219,2026-03-22T0000,104,172,0.9,47,1,11,88,140,细颗粒物(PM2.5)
唐山市,冀东油田职工医院,118.4357,39.277,2026-03-22T0000,73,109,0.5,26,7,99,103,112,细颗粒物(PM2.5)
唐山市,正泰大街热力站,118.0927,39.5807,2026-03-22T0000,77,146,1.0,23,3,30,82,116,细颗粒物(PM2.5)
唐山市,丰润区政府,118.1561,39.8322,2026-03-22T0000,121,206,1.1,47,5,18,92,159,细颗粒物(PM2.5)
唐山市,金山小学,118.436906,39.73802,2026-03-22T0000,118,169,1.1,38,6,36,98,155,细颗粒物(PM2.5)
唐山市,政府服务中心,118.2449,39.6693,2026-03-22T0000,107,168,1.0,50,8,16,80,143,细颗粒物(PM2.5)
唐山市,消防缸窑路中队,118.2043,39.6703,2026-03-22T0000,102,198,1.0,49,16,20,96,139,细颗粒物(PM2.5)
唐山市,路南电大,118.1432,39.6203,2026-03-22T0000,87,155,1.1,17,3,12,70,125,细颗粒物(PM2.5)
唐山市,光明北路515号,118.1267,39.6579,2026-03-22T0000,79,138,0.8,40,8,73,86,118,细颗粒物(PM2.5)
唐山市,友谊北路34号,118.130859,39.636026,2026-03-22T0000,87,140,1.1,21,3,46,80,125,细颗粒物(PM2.5)
天津市,勤俭道,117.1446,39.1659,2026-03-22T0000,89,149,0.8,30,7,73,112,127,细颗粒物(PM2.5)
天津市,前进道,117.2016,39.0928,2026-03-22T0000,95,159,0.9,30,8,84,122,132,细颗粒物(PM2.5)
天津市,淮河道,117.1837,39.2134,2026-03-22T0000,88,161,0.8,29,9,76,110,126,细颗粒物(PM2.5)
天津市,跃进路,117.308261,39.088386,2026-03-22T0000,91,159,0.7,20,6,108,126,129,细颗粒物(PM2.5)
天津市,第四大街,117.707,39.0344,2026-03-22T0000,81,143,0.9,22,4,109,113,120,细颗粒物(PM2.5)
天津市,永明路,117.4573,38.8395,2026-03-22T0000,83,129,0.7,25,6,92,127,121,细颗粒物(PM2.5)
天津市,汉北路,117.7641,39.1588,2026-03-22T0000,85,145,0.6,20,8,109,77,123,细颗粒物(PM2.5)
天津市,河西一经路,117.7917,39.2473,2026-03-22T0000,87,151,1.2,22,10,103,77,125,细颗粒物(PM2.5)
天津市,津沽路,117.3747,38.9845,2026-03-22T0000,84,141,0.8,24,8,101,125,122,细颗粒物(PM2.5)
天津市,宾水西道,117.159,39.0844,2026-03-22T0000,108,175,0.8,36,8,63,111,144,细颗粒物(PM2.5)
天津市,大理道,117.194,39.1069,2026-03-22T0000,100,166,0.8,36,9,80,129,137,细颗粒物(PM2.5)
天津市,中山北路,117.2096,39.1698,2026-03-22T0000,95,170,0.8,31,8,79,96,132,细颗粒物(PM2.5)
天津市,西四道,117.385,39.1483,2026-03-22T0000,85,149,0.8,25,6,93,117,123,细颗粒物(PM2.5)
天津市,雍阳西道,117.0362,39.3827,2026-03-22T0000,166,270,1.3,82,11,20,112,216,细颗粒物(PM2.5)
天津市,辛老路,117.0291,39.0612,2026-03-22T0000,93,165,0.7,28,9,73,114,130,细颗粒物(PM2.5)
天津市,地纬路,116.9638,38.9374,2026-03-22T0000,95,165,0.5,32,6,72,114,132,细颗粒物(PM2.5)
天津市,北环路,117.4065,40.0583,2026-03-22T0000,120,180,1.0,22,6,81,110,158,细颗粒物(PM2.5)
天津市,建设路,117.3041,39.7167,2026-03-22T0000,156,220,1.4,64,10,29,96,206,细颗粒物(PM2.5)
天津市,滨水东路,117.8201,39.3519,2026-03-22T0000,84,146,0.8,29,8,93,62,122,细颗粒物(PM2.5)
天津市,光华路,117.24369,39.102911,2026-03-22T0000,95,161,0.7,29,6,83,116,132,细颗粒物(PM2.5)
天水市,公园小学,105.72058,34.57859,2026-03-22T0000,44,70,1.1,53,10,14,74,68,细颗粒物(PM2.5)
天水市,麦积国土局,105.89428,34.55353,2026-03-22T0000,39,75,0.9,37,11,19,75,68,颗粒物(PM10)
铁岭市,水上乐园,123.865,42.292,2026-03-22T0000,68,76,0.7,18,11,109,132,108,细颗粒物(PM2.5)
铁岭市,金沙江路北,123.7158,42.2218,2026-03-22T0000,76,89,0.6,19,9,110,128,115,细颗粒物(PM2.5)
铁岭市,新华街20号,123.835,42.2853,2026-03-22T0000,56,107,0.6,20,13,119,135,92,细颗粒物(PM2.5)
通化市,光明,125.9359,41.7174,2026-03-22T0000,48,73,0.3,11,12,133,137,76,细颗粒物(PM2.5)
通化市,铁路,125.9446,41.7323,2026-03-22T0000,48,66,0.5,13,6,126,130,76,细颗粒物(PM2.5)
通辽市,艺术职业学校,122.253,43.6801,2026-03-22T0000,111,190,1.0,26,12,89,121,147,细颗粒物(PM2.5)
通辽市,老干部活动中心,122.2584,43.6333,2026-03-22T0000,131,162,1.1,21,8,95,126,173,细颗粒物(PM2.5)
通辽市,东方明珠社区,122.2923,43.6189,2026-03-22T0000,137,180,1.2,29,10,86,122,182,细颗粒物(PM2.5)
铜川市,王益区政府,109.0696,35.0699,2026-03-22T0000,38,66,0.6,40,3,8,90,62,颗粒物(PM10)
铜川市,新区管委会,108.9345,34.9059,2026-03-22T0000,28,77,0.7,23,6,39,100,70,颗粒物(PM10)
铜川市,大唐三路,108.949652,34.870529,2026-03-22T0000,35,78,0.7,20,7,48,104,70,颗粒物(PM10)
铜陵市,市第四中学,117.8176,30.9412,2026-03-22T0000,17,43,0.6,42,6,26,119,43,
铜陵市,市新民污水厂,117.7806,30.9413,2026-03-22T0000,20,39,0.6,86,8,1,110,43,
铜陵市,车站新区,117.846,30.9414,2026-03-22T0000,16,41,0.6,44,6,26,112,41,
铜陵市,市职教基地,117.8472,30.9699,2026-03-22T0000,17,51,0.5,32,7,37,117,51,颗粒物(PM10)
铜仁市,铜仁卫校,109.1839,27.7344,2026-03-22T0000,NA,31,0.5,18,2,NA,65,NA,NA
铜仁市,铜仁七中,109.1752,27.6945,2026-03-22T0000,16,26,0.7,14,5,56,70,26,
吐鲁番市,市环保局,89.1905,42.9419,2026-03-22T0000,44,187,0.5,27,1,66,100,126,颗粒物(PM10)
吐鲁番市,地区环保局,89.1674,42.9558,2026-03-22T0000,53,167,0.6,25,4,57,101,119,颗粒物(PM10)
威海市,华夏技校,122.121,37.4231,2026-03-22T0000,46,NA,0.5,16,/,126,133,72,细颗粒物(PM2.5)
威海市,山大分校,122.0508,37.5236,2026-03-22T0000,36,NA,/,8,/,127,132,52,细颗粒物(PM2.5)
威海市,市监测站,122.1067,37.5067,2026-03-22T0000,9,32,0.4,9,2,114,133,36,
威海市,文登开发区,122.0693,37.2175,2026-03-22T0000,56,58,/,10,/,122,134,92,细颗粒物(PM2.5)
威海市,临港区管委会,122.1379,37.3414,2026-03-22T0000,48,58,0.5,12,5,122,135,76,细颗粒物(PM2.5)
潍坊市,环保局,119.1436,36.7022,2026-03-22T0000,76,110,0.6,20,5,103,146,115,细颗粒物(PM2.5)
潍坊市,坊子邮政,119.1638,36.6524,2026-03-22T0000,80,117,0.4,20,4,99,140,119,细颗粒物(PM2.5)
潍坊市,潍坊七中,119.0587,36.7209,2026-03-22T0000,74,112,0.6,20,6,102,148,113,细颗粒物(PM2.5)
潍坊市,高新实验学校,119.1978,36.6871,2026-03-22T0000,77,107,0.5,12,4,104,143,116,细颗粒物(PM2.5)
潍坊市,潍坊学院,119.1758,36.7139,2026-03-22T0000,74,114,0.5,18,3,103,142,113,细颗粒物(PM2.5)
潍坊市,寒亭区实验一小,119.2046,36.7696,2026-03-22T0000,74,105,0.3,26,7,96,142,113,细颗粒物(PM2.5)
渭南市,体育馆,109.4605,34.4927,2026-03-22T0000,59,122,0.6,30,7,69,94,101,颗粒物(PM10)
渭南市,高新一小,109.4257,34.5067,2026-03-22T0000,67,112,0.7,50,7,43,94,107,细颗粒物(PM2.5)
渭南市,桢州大街,110.4531,35.4578,2026-03-22T0000,28,60,0.5,23,2,56,127,58,颗粒物(PM10)
渭南市,太史大街,110.4368,35.4773,2026-03-22T0000,33,84,0.5,30,4,48,128,75,颗粒物(PM10)
渭南市,渭花路4号,109.5051,34.4921,2026-03-22T0000,65,117,0.6,41,7,53,94,105,细颗粒物(PM2.5)
温州市,瓯海,120.6342,28.0088,2026-03-22T0000,28,NA,0.5,42,7,22,69,40,
温州市,南浦,120.6747,27.9881,2026-03-22T0000,30,42,0.5,33,5,36,82,43,
温州市,龙湾,120.76,27.9745,2026-03-22T0000,30,50,0.4,40,5,37,70,50,
温州市,茶山,120.6985,27.9252,2026-03-22T0000,18,29,/,15,/,63,80,29,
温州市,鹿城惠民路,120.6935,28.0114,2026-03-22T0000,18,34,0.5,43,/,23,77,34,
文山壮族苗族自治州,州水务局,104.2533,23.3595,2026-03-22T0000,16,23,0.6,9,5,98,112,31,
文山壮族苗族自治州,市便民服务中心,104.2319,23.3892,2026-03-22T0000,13,NA,0.4,8,4,101,111,32,
乌海市,市林业局,106.8172,39.6972,2026-03-22T0000,32,87,0.7,38,8,34,96,77,颗粒物(PM10)
乌海市,中海勃湾学校,106.7907,39.6666,2026-03-22T0000,28,69,0.6,34,8,45,106,64,颗粒物(PM10)
乌海市,海北新区,106.8129,39.7274,2026-03-22T0000,24,110,0.8,73,17,3,95,93,颗粒物(PM10)
乌海市,海拉北路,106.8212,39.6741,2026-03-22T0000,35,88,0.8,49,15,17,97,78,颗粒物(PM10)
乌兰察布市,集宁新区,113.1306,40.9924,2026-03-22T0000,25,50,0.1,4,4,98,115,50,
乌兰察布市,光明街小学,113.1076,41.0385,2026-03-22T0000,13,54,0.4,8,5,79,99,53,颗粒物(PM10)
乌兰察布市,北京八中,113.1383,40.9513,2026-03-22T0000,14,72,0.0,10,5,76,98,66,颗粒物(PM10)
乌兰察布市,市委党校,113.1776,40.9779,2026-03-22T0000,17,59,0.3,4,5,93,108,57,颗粒物(PM10)
乌鲁木齐市,监测站,87.5796,43.8299,2026-03-22T0000,22,34,0.5,43,5,56,96,34,
乌鲁木齐市,收费所,87.6044,43.7679,2026-03-22T0000,30,58,0.7,50,5,2,87,56,颗粒物(PM10)
乌鲁木齐市,铁路局,87.5529,43.8704,2026-03-22T0000,19,43,0.4,33,5,48,94,43,
乌鲁木齐市,三十一中学,87.6408,43.8258,2026-03-22T0000,27,45,0.4,24,5,74,96,45,
乌鲁木齐市,米东区环保局,87.7218,44.1747,2026-03-22T0000,31,77,0.5,68,10,42,96,70,颗粒物(PM10)
乌鲁木齐市,培训基地,87.4652,43.4569,2026-03-22T0000,23,39,0.6,15,5,76,99,39,
乌鲁木齐市,达坂城区环保局,88.3088,43.3637,2026-03-22T0000,18,49,0.5,40,6,50,108,49,
乌鲁木齐市,红光山片区,87.6132,43.8791,2026-03-22T0000,20,45,0.3,28,17,74,95,45,
乌鲁木齐市,新师大温泉校区,87.7008,43.8003,2026-03-22T0000,27,56,0.3,23,6,70,100,55,颗粒物(PM10)
乌鲁木齐市,大绿谷,87.4892,43.84,2026-03-22T0000,28,57,0.8,77,4,18,92,55,颗粒物(PM10)
无锡市,雪浪,120.2693,31.4864,2026-03-22T0000,24,41,0.5,23,7,83,119,41,
无锡市,黄巷,120.2761,31.621,2026-03-22T0000,35,53,0.6,31,5,66,97,53,颗粒物(PM10)
无锡市,漆塘,120.2422,31.5037,2026-03-22T0000,23,56,0.4,22,6,84,115,55,颗粒物(PM10)
无锡市,东亭,120.3489,31.5865,2026-03-22T0000,23,39,0.6,42,7,64,99,39,
无锡市,旺庄,120.3538,31.5474,2026-03-22T0000,20,41,0.6,27,4,78,108,41,
无锡市,荣巷,120.2447,31.5633,2026-03-22T0000,24,41,0.5,40,5,71,118,41,
无锡市,堰桥,120.2986,31.6816,2026-03-22T0000,33,56,0.4,27,4,81,96,55,颗粒物(PM10)
无锡市,清舒道1号,120.3138,31.4927,2026-03-22T0000,26,52,0.6,28,6,78,114,52,颗粒物(PM10)
无锡市,健康路105号,120.2925,31.5685,2026-03-22T0000,23,34,0.3,23,4,82,104,34,
吴忠市,教育园区,106.1535,37.9648,2026-03-22T0000,68,197,0.5,41,11,35,101,130,颗粒物(PM10)
吴忠市,新区二泵站,106.1851,37.9957,2026-03-22T0000,66,222,0.5,28,35,56,93,140,颗粒物(PM10)
吴忠市,文卫南街,106.2176,37.9832,2026-03-22T0000,73,213,0.5,33,32,53,100,136,颗粒物(PM10)
芜湖市,监测站,118.3603,31.3515,2026-03-22T0000,58,73,0.7,30,6,86,127,96,细颗粒物(PM2.5)
芜湖市,科创中心,118.3716,31.4135,2026-03-22T0000,68,99,0.5,56,7,65,121,108,细颗粒物(PM2.5)
芜湖市,四水厂,118.3671,31.3132,2026-03-22T0000,44,55,0.5,28,6,95,132,68,细颗粒物(PM2.5)
芜湖市,市气象局,118.4209,31.3704,2026-03-22T0000,53,76,0.5,25,6,95,135,86,细颗粒物(PM2.5)
芜湖市,清苑社区,118.4783,31.3226,2026-03-22T0000,46,59,0.4,90,7,36,125,72,细颗粒物(PM2.5)
芜湖市,扬子职业技术学院,118.2746,31.2326,2026-03-22T0000,50,61,0.5,26,7,89,130,80,细颗粒物(PM2.5)
芜湖市,湾沚区人民法院,118.5726,31.1371,2026-03-22T0000,58,70,0.6,28,8,80,122,96,细颗粒物(PM2.5)
梧州市,市十一中,111.3126,23.4772,2026-03-22T0000,29,65,0.8,44,13,22,95,61,颗粒物(PM10)
梧州市,龙新,111.26,23.4794,2026-03-22T0000,38,54,0.6,20,33,37,92,56,细颗粒物(PM2.5)
梧州市,政贤路18号,111.2416,23.4155,2026-03-22T0000,50,53,0.9,40,17,17,94,80,细颗粒物(PM2.5)
五家渠市,农水大厦,87.5352,44.1606,2026-03-22T0000,22,38,0.5,10,7,63,88,38,
五家渠市,经开区管委会,87.5461,44.1909,2026-03-22T0000,19,25,0.6,8,10,80,91,28,
五家渠市,建设西街760号,87.055284,43.999117,2026-03-22T0000,21,42,0.7,9,6,43,101,42,
武汉市,东湖梨园,114.3676,30.5584,2026-03-22T0000,58,79,0.9,29,6,60,120,96,细颗粒物(PM2.5)
武汉市,汉阳月湖,114.2527,30.5578,2026-03-22T0000,72,106,1.3,55,6,22,100,111,细颗粒物(PM2.5)
武汉市,汉口花桥,114.2819,30.6189,2026-03-22T0000,83,105,1.2,75,3,16,113,121,细颗粒物(PM2.5)
武汉市,武昌紫阳,114.3024,30.5332,2026-03-22T0000,77,110,1.1,76,10,28,119,116,细颗粒物(PM2.5)
武汉市,青山钢花,114.3646,30.6217,2026-03-22T0000,89,146,1.2,95,8,9,98,127,细颗粒物(PM2.5)
武汉市,沌口新区,114.156697,30.482592,2026-03-22T0000,34,50,0.7,19,10,72,107,50,
武汉市,汉口江滩,114.3013,30.5944,2026-03-22T0000,64,98,0.8,120,6,0,114,104,细颗粒物(PM2.5)
武汉市,吴家山,114.1285,30.6339,2026-03-22T0000,61,95,0.6,77,6,14,103,101,细颗粒物(PM2.5)
武汉市,民族大道182号,114.3876,30.4908,2026-03-22T0000,71,102,1.1,76,8,54,121,110,细颗粒物(PM2.5)
武威市,监测站,102.6203,37.925,2026-03-22T0000,57,122,0.5,21,9,57,97,101,颗粒物(PM10)
武威市,钟楼街149号,102.6447,37.9293,2026-03-22T0000,54,129,0.9,35,9,45,100,104,颗粒物(PM10)
西安市,兴庆小区,108.9931,34.2629,2026-03-22T0000,70,150,0.8,89,7,8,95,112,颗粒物(PM10)
西安市,纺织城,109.0595,34.2569,2026-03-22T0000,72,178,0.7,83,5,2,77,123,颗粒物(PM10)
西安市,小寨,108.9377,34.2178,2026-03-22T0000,69,164,0.9,62,7,37,81,117,颗粒物(PM10)
西安市,市人民体育场,108.9522,34.2739,2026-03-22T0000,68,135,1.0,48,7,52,99,108,细颗粒物(PM2.5)
西安市,高新西区,108.8923,34.2322,2026-03-22T0000,66,150,0.8,51,6,40,83,112,颗粒物(PM10)
西安市,经开区,108.9386,34.3446,2026-03-22T0000,65,150,0.6,46,6,47,97,112,颗粒物(PM10)
西安市,长安区,108.894,34.1557,2026-03-22T0000,68,145,0.8,38,6,43,79,110,颗粒物(PM10)
西安市,临潼区,109.213,34.3748,2026-03-22T0000,28,74,0.4,11,6,84,95,68,颗粒物(PM10)
西安市,广运潭,109.0508,34.321,2026-03-22T0000,71,167,1.1,78,4,8,86,119,颗粒物(PM10)
西安市,无线电监控中心,109.1019,34.5302,2026-03-22T0000,68,145,0.6,41,6,46,103,110,颗粒物(PM10)
西安市,行知小学,108.8869,34.2662,2026-03-22T0000,65,152,0.9,83,7,13,85,113,颗粒物(PM10)
西安市,西苑北路977号,108.596239,34.118792,2026-03-22T0000,79,164,1.0,39,8,37,90,118,细颗粒物(PM2.5)
西安市,曲江池东路988号,108.9817,34.2035,2026-03-22T0000,75,154,0.9,82,6,18,88,114,"颗粒物(PM10),细颗粒物(PM2.5)"
西宁市,城北区政府,101.7775,36.643,2026-03-22T0000,53,236,0.2,14,8,90,107,145,颗粒物(PM10)
西宁市,世纪职校,101.8304,36.5785,2026-03-22T0000,68,193,0.6,10,13,78,98,129,颗粒物(PM10)
西宁市,海晏路105号,101.6769,36.6535,2026-03-22T0000,55,218,0.3,9,11,78,86,138,颗粒物(PM10)
西双版纳傣族自治州,景洪市江南,100.8018,21.9995,2026-03-22T0000,33,48,0.7,8,7,82,105,48,
西双版纳傣族自治州,景洪市江北,100.7995,22.0238,2026-03-22T0000,26,52,0.6,6,7,85,113,52,颗粒物(PM10)
锡林郭勒盟,市环保监测站,116.1048,43.9318,2026-03-22T0000,3,14,0.2,5,5,63,82,20,
锡林郭勒盟,市政府,116.0778,43.9312,2026-03-22T0000,12,31,0.2,6,5,70,92,31,
厦门市,洪文,118.1519,24.4768,2026-03-22T0000,13,32,0.5,13,4,83,123,32,
厦门市,鼓浪屿,118.0671,24.4447,2026-03-22T0000,14,24,/,14,2,86,129,27,
厦门市,湖里中学,118.0937,24.5054,2026-03-22T0000,17,30,0.4,16,2,76,122,30,
厦门市,集美中学,118.0961,24.5689,2026-03-22T0000,16,30,0.5,20,2,74,125,30,
厦门市,同安二实小,118.1502,24.7246,2026-03-22T0000,30,46,0.5,29,12,59,112,46,
咸宁市,长江产业园,114.3379,29.8683,2026-03-22T0000,34,62,0.7,16,6,64,104,59,颗粒物(PM10)
咸宁市,双鹤路18号,114.3182,29.8447,2026-03-22T0000,14,47,0.6,13,4,63,102,47,
咸宁市,碧桂路,114.284,29.8595,2026-03-22T0000,22,49,0.4,20,6,57,103,49,
咸阳市,实验中学,108.6726,34.315,2026-03-22T0000,67,125,0.8,42,9,39,98,107,细颗粒物(PM2.5)
咸阳市,师范学院,108.7226,34.3622,2026-03-22T0000,73,145,0.7,36,5,40,106,112,细颗粒物(PM2.5)
咸阳市,奥体中心,108.6394,34.408,2026-03-22T0000,74,147,0.6,29,6,37,103,113,细颗粒物(PM2.5)
咸阳市,五陵塬路2号,108.6601,34.3767,2026-03-22T0000,76,162,0.6,38,7,37,101,117,颗粒物(PM10)
咸阳市,胭脂路9号,108.6372,34.3031,2026-03-22T0000,75,188,0.8,72,5,3,92,127,颗粒物(PM10)
咸阳市,杨扶路,108.0371,34.3035,2026-03-22T0000,68,117,0.7,46,6,20,99,108,细颗粒物(PM2.5)
咸阳市,新桥路,108.0895,34.2623,2026-03-22T0000,76,148,0.7,62,6,18,98,115,细颗粒物(PM2.5)
湘潭市,板塘,112.9508,27.8626,2026-03-22T0000,24,35,1.0,57,3,8,71,35,
湘潭市,市监测站,112.9114,27.8404,2026-03-22T0000,17,34,1.0,49,4,2,75,34,
湘潭市,江麓,112.8935,27.8729,2026-03-22T0000,31,51,1.0,30,4,14,68,51,颗粒物(PM10)
湘潭市,岳塘,112.9227,27.8159,2026-03-22T0000,24,33,0.9,36,3,12,75,35,
湘潭市,科大,112.9073,27.9118,2026-03-22T0000,26,43,1.0,45,2,1,75,43,
湘潭市,昭山,113.0048,27.9153,2026-03-22T0000,20,44,1.1,33,3,2,74,44,
湘西土家族苗族自治州,州政府,109.7298,28.3164,2026-03-22T0000,20,30,0.5,11,5,30,70,30,
湘西土家族苗族自治州,吉首市计生局,109.6957,28.2676,2026-03-22T0000,18,31,0.4,12,4,54,64,31,
