area,positionname,longitude,latitude,timepoint,pm2_5,pm10,co,no2,so2,o3,o3_8h,aqi,primarypollutant
阿坝藏族羌族自治州,马师校,102.2503,31.8896,2026-01-17T1900,25,48,0.7,31,4,37,57,48,
阿坝藏族羌族自治州,马尔康中学西区,102.2174,31.9016,2026-01-17T1900,11,24,0.7,27,6,48,62,24,
阿克苏地区,电视台,80.2899,41.1684,2026-01-17T1900,33,276,0.8,13,4,71,67,163,颗粒物(PM10)
阿克苏地区,艺术中心,80.2592,41.1541,2026-01-17T1900,44,251,0.6,12,4,80,74,151,颗粒物(PM10)
阿拉善盟,蒙二幼,105.699,38.8409,2026-01-17T1900,31,107,0.7,16,13,60,77,79,颗粒物(PM10)
阿拉善盟,环保局新楼,105.7198,38.8508,2026-01-17T1900,37,85,0.7,15,12,59,79,68,颗粒物(PM10)
阿勒泰地区,市站,88.1266,47.8515,2026-01-17T1900,19,26,0.8,25,6,45,59,28,
阿勒泰地区,阿勒泰路33号,88.1198,47.7931,2026-01-17T1900,17,22,0.5,18,5,56,58,25,
阿里地区,阿里监测站,80.1171,32.4999,2026-01-17T1900,37,,0.4,1,5,,59,,
阿里地区,阿里藏医院,80.0906,32.5029,2026-01-17T1900,3,15,0.4,2,10,93,91,30,
安康市,汉滨区检察院,109.0088,32.6974,2026-01-17T1900,79,142,1.1,52,7,52,62,105,细颗粒物(PM2.5)
安康市,市邮政管理局,109.0324,32.6913,2026-01-17T1900,83,154,1.3,68,7,26,55,110,细颗粒物(PM2.5)
安庆市,环科院,117.0806,30.5181,2026-01-17T1900,167,203,1.2,25,5,68,77,217,细颗粒物(PM2.5)
安庆市,马山宾馆,117.0331,30.5118,2026-01-17T1900,154,196,1.3,25,4,78,83,204,细颗粒物(PM2.5)
安庆市,安庆大学,116.9897,30.6146,2026-01-17T1900,134,164,1.0,16,3,104,84,178,细颗粒物(PM2.5)
安庆市,市人大,117.0598,30.5351,2026-01-17T1900,159,210,1.1,30,5,73,80,209,细颗粒物(PM2.5)
安顺市,凤凰山,105.9408,26.2431,2026-01-17T1900,56,70,0.6,20,20,98,100,77,细颗粒物(PM2.5)
安顺市,金钟山,105.9443,26.2567,2026-01-17T1900,61,71,0.6,18,28,90,94,83,细颗粒物(PM2.5)
安顺市,娄家坡,105.8983,26.248,2026-01-17T1900,59,68,0.7,13,12,100,97,80,细颗粒物(PM2.5)
安阳市,红庙街,114.3552,36.1017,2026-01-17T1900,53,90,0.6,21,3,,46,,
安阳市,银杏小区,114.361,36.0681,2026-01-17T1900,59,86,0.4,22,2,37,43,80,细颗粒物(PM2.5)
安阳市,信访局,114.3921,36.0879,2026-01-17T1900,55,82,0.7,21,2,44,48,75,细颗粒物(PM2.5)
安阳市,左辅环卫站,114.4706,36.0634,2026-01-17T1900,59,100,0.5,31,2,45,48,80,细颗粒物(PM2.5)
安阳市,钢三路198号,114.2918,36.0769,2026-01-17T1900,66,91,0.6,23,1,40,48,89,细颗粒物(PM2.5)
鞍山市,深沟寺,123.0441,41.1201,2026-01-17T1900,26,37,0.9,38,9,31,58,38,
鞍山市,太阳城,123.011,41.0931,2026-01-17T1900,23,31,0.9,37,15,39,68,33,
鞍山市,太平,123.0483,41.1445,2026-01-17T1900,38,54,0.9,32,13,42,52,54,细颗粒物(PM2.5)
鞍山市,铁西三道街,122.964,41.0968,2026-01-17T1900,24,46,0.7,44,25,34,57,46,
鞍山市,明达新区,123.0219,41.0822,2026-01-17T1900,22,33,0.6,35,19,29,60,33,
鞍山市,兴盛南路290号,122.944647,41.082639,2026-01-17T1900,29,58,0.6,48,20,28,53,54,颗粒物(PM10)
巴彦淖尔市,附二中,107.4206,40.7609,2026-01-17T1900,46,285,0.5,15,3,38,51,168,颗粒物(PM10)
巴彦淖尔市,市环保大楼,107.37,40.7372,2026-01-17T1900,31,221,0.5,14,5,44,56,136,颗粒物(PM10)
巴音郭楞蒙古自治州,孔雀公园,86.1476,41.7529,2026-01-17T1900,35,71,0.4,18,9,63,77,61,颗粒物(PM10)
巴音郭楞蒙古自治州,棉纺厂,86.1971,41.7166,2026-01-17T1900,17,74,/,10,/,68,68,62,颗粒物(PM10)
巴音郭楞蒙古自治州,经济开发区,86.236,41.7172,2026-01-17T1900,14,42,0.4,10,6,69,68,42,
巴中市,市五中,106.776805,31.852614,2026-01-17T1900,116,154,1.0,27,6,58,51,152,细颗粒物(PM2.5)
巴中市,圣泉水务公司,106.7419,31.8654,2026-01-17T1900,115,134,1.6,74,6,15,51,150,细颗粒物(PM2.5)
巴中市,市中心医院,106.7617,31.8343,2026-01-17T1900,112,136,1.3,48,8,37,53,147,细颗粒物(PM2.5)
白城市,洮北区环保局,122.7909,45.608,2026-01-17T1900,31,38,0.4,18,7,52,62,45,
白城市,市环保局,122.8741,45.5725,2026-01-17T1900,29,53,0.4,17,9,47,65,52,颗粒物(PM10)
白山市,喜丰,126.4219,41.9172,2026-01-17T1900,30,52,0.8,39,19,34,50,51,颗粒物(PM10)
白山市,环保局,126.4082,41.9416,2026-01-17T1900,47,52,0.8,34,15,32,43,65,细颗粒物(PM2.5)
白银市,第三小学,104.1727,36.5448,2026-01-17T1900,57,205,0.5,24,8,66,67,128,颗粒物(PM10)
白银市,动力公司,104.1467,36.5482,2026-01-17T1900,59,272,0.6,18,5,66,80,161,颗粒物(PM10)
百色市,市监测站,106.6102,23.901,2026-01-17T1900,43,65,0.8,20,8,65,74,60,细颗粒物(PM2.5)
百色市,市中心血站,106.6524,23.8842,2026-01-17T1900,64,90,,31,17,68,75,,
百色市,龙景西路,106.6273,23.8798,2026-01-17T1900,66,,0.7,20,10,86,84,89,细颗粒物(PM2.5)
蚌埠市,工人疗养院,117.396,32.9389,2026-01-17T1900,38,92,0.4,18,4,49,55,71,颗粒物(PM10)
蚌埠市,百货大楼,117.3606,32.9428,2026-01-17T1900,32,97,0.5,23,4,44,54,74,颗粒物(PM10)
蚌埠市,蚌埠学院,117.4183,32.8909,2026-01-17T1900,40,95,0.4,33,4,36,51,73,颗粒物(PM10)
蚌埠市,淮上区政府,117.3534,32.9672,2026-01-17T1900,39,92,0.4,22,1,47,52,71,颗粒物(PM10)
蚌埠市,高新区,117.3143,32.8977,2026-01-17T1900,41,95,0.2,19,6,47,54,73,颗粒物(PM10)
蚌埠市,蚌埠田家炳中学,117.3091,32.9314,2026-01-17T1900,38,105,0.5,22,4,47,54,78,颗粒物(PM10)
包头市,市环境监测站,109.8761,40.6533,2026-01-17T1900,28,122,0.5,25,8,39,46,86,颗粒物(PM10)
包头市,包头八中,109.9992,40.5843,2026-01-17T1900,43,120,0.9,52,11,21,47,85,颗粒物(PM10)
包头市,惠龙物流,109.8641,40.6288,2026-01-17T1900,27,106,0.7,26,12,39,52,78,颗粒物(PM10)
包头市,东河鸿龙湾,110.0376,40.5546,2026-01-17T1900,41,102,1.0,74,13,15,52,76,颗粒物(PM10)
包头市,滨河大厦,109.9154,40.5684,2026-01-17T1900,37,88,1.0,35,13,32,52,69,颗粒物(PM10)
包头市,包头市委党校,109.9449,40.6259,2026-01-17T1900,49,97,0.9,30,11,33,45,74,颗粒物(PM10)
包头市,昆区政府,109.8332,40.6577,2026-01-17T1900,25,116,0.7,26,9,38,44,83,颗粒物(PM10)
宝鸡市,竹园沟,107.0802,34.3129,2026-01-17T1900,128,158,0.8,34,7,52,72,169,细颗粒物(PM2.5)
宝鸡市,监测站,107.1429,34.3549,2026-01-17T1900,102,157,1.0,46,8,60,69,134,细颗粒物(PM2.5)
宝鸡市,技工学校,107.1172,34.3759,2026-01-17T1900,,,,,,,75,,
宝鸡市,文理学院,107.2025,34.3518,2026-01-17T1900,103,142,0.9,43,7,68,77,135,细颗粒物(PM2.5)
宝鸡市,三迪小学,107.2396,34.3626,2026-01-17T1900,99,159,0.9,44,7,70,74,130,细颗粒物(PM2.5)
宝鸡市,滨河北路,107.1721,34.3558,2026-01-17T1900,76,163,0.9,39,8,66,71,107,颗粒物(PM10)
宝鸡市,陈仓区北开路21号,107.3898,34.3601,2026-01-17T1900,118,177,0.7,55,12,57,70,155,细颗粒物(PM2.5)
保定市,游泳馆,115.4803,38.8568,2026-01-17T1900,19,46,0.5,28,2,36,38,46,
保定市,华电二区,115.509,38.8895,2026-01-17T1900,30,37,0.6,24,4,38,42,43,
保定市,接待中心,115.4588,38.9037,2026-01-17T1900,24,39,0.4,26,3,32,35,39,
保定市,地表水厂,115.4484,38.8344,2026-01-17T1900,18,47,0.5,30,4,36,36,47,
保定市,满城区生态环境分局,115.3136,38.9511,2026-01-17T1900,34,58,0.7,41,2,32,35,54,颗粒物(PM10)
保定市,清苑区第二中学,115.4709,38.7628,2026-01-17T1900,24,42,0.6,27,3,36,35,42,
保定市,徐水物探局,115.6231,39.0223,2026-01-17T1900,26,39,0.7,29,2,31,40,39,
保定市,双鹰农机,115.4199,38.8665,2026-01-17T1900,31,51,0.5,24,4,43,42,51,颗粒物(PM10)
保定市,植保所站,115.515,38.8589,2026-01-17T1900,35,47,0.7,27,3,33,34,50,
保山市,市环境监测站,99.1589,25.1137,2026-01-17T1900,17,30,0.3,9,9,63,85,30,
保山市,市环保局,99.1616,25.1381,2026-01-17T1900,,,,3,4,78,91,,
北海市,海滩公园,109.1435,21.4085,2026-01-17T1900,34,48,1.0,22,13,119,101,49,
北海市,新市环保局,109.0983,21.466,2026-01-17T1900,70,82,1.2,36,15,117,97,94,细颗粒物(PM2.5)
北海市,北海工业园,109.1775,21.5232,2026-01-17T1900,54,75,1.1,30,14,111,96,74,细颗粒物(PM2.5)
北海市,龙潭自来水厂,109.1844,21.4396,2026-01-17T1900,59,71,1.0,32,20,87,89,80,细颗粒物(PM2.5)
北京市,万寿西宫,116.3611,39.8786,2026-01-17T1900,16,43,0.5,22,1,43,53,43,
北京市,东四,116.4174,39.9289,2026-01-17T1900,16,44,0.5,19,5,49,53,44,
北京市,天坛,116.4073,39.8858,2026-01-17T1900,14,38,0.4,20,2,47,55,38,
北京市,农展馆,116.4622,39.9364,2026-01-17T1900,18,42,0.6,16,4,49,59,42,
北京市,官园,116.3399,39.9293,2026-01-17T1900,17,49,0.5,19,5,43,52,49,
北京市,海淀万柳,116.2879,39.9613,2026-01-17T1900,15,46,0.5,25,2,40,49,46,
北京市,顺义新城,116.6635,40.1349,2026-01-17T1900,14,37,0.4,15,6,56,64,37,
北京市,怀柔镇,116.6275,40.327,2026-01-17T1900,19,40,0.6,28,7,42,57,40,
北京市,昌平镇,116.2295,40.217,2026-01-17T1900,15,42,0.5,23,4,44,51,42,
北京市,奥体中心,116.3968,39.982,2026-01-17T1900,18,44,0.8,29,4,43,55,44,
北京市,密云新城,116.8336,40.4095,2026-01-17T1900,16,36,0.7,21,9,48,63,36,
北京市,门头沟三家店,116.0879,39.9725,2026-01-17T1900,16,36,0.6,30,3,35,50,36,
北京市,丰台云岗,116.1507,39.8246,2026-01-17T1900,21,42,0.4,19,2,47,58,42,
北京市,房山燕山,115.9578,39.7602,2026-01-17T1900,16,35,0.5,29,4,34,46,35,
北京市,大兴旧宫,116.4669,39.7734,2026-01-17T1900,11,39,0.4,15,3,53,56,39,
北京市,延庆石河营,115.9859,40.4562,2026-01-17T1900,17,36,0.7,24,4,45,58,36,
北京市,怀柔新城,116.6151,40.3052,2026-01-17T1900,21,41,0.6,23,6,43,60,41,
北京市,丰台小屯,116.2542,39.8764,2026-01-17T1900,14,38,0.4,24,2,41,48,38,
北京市,密云镇,116.8399,40.3843,2026-01-17T1900,17,36,0.7,20,5,51,62,36,
北京市,延庆百泉,115.9423,40.4431,2026-01-17T1900,15,38,0.5,22,2,39,53,38,
北京市,通州新华,116.6598,39.9164,2026-01-17T1900,17,39,0.6,16,3,48,49,39,
北京市,石景山八角,116.1942,39.9158,2026-01-17T1900,17,42,0.3,17,3,38,47,42,
北京市,平谷新城,117.078628,40.151726,2026-01-17T1900,20,41,0.4,15,4,45,53,41,
本溪市,大峪,123.8274146,41.31234549,2026-01-17T1900,28,43,0.8,24,8,49,60,43,
本溪市,彩屯,123.7169,41.3094,2026-01-17T1900,61,61,1.2,48,9,31,59,83,细颗粒物(PM2.5)
本溪市,东明,123.7672166,41.28649327,2026-01-17T1900,31,43,1.0,28,7,47,59,45,
本溪市,新立屯,123.799345,41.266614,2026-01-17T1900,18,26,0.7,12,9,58,58,26,
本溪市,威宁,123.829144,41.336777,2026-01-17T1900,45,63,1.0,67,6,8,48,63,细颗粒物(PM2.5)
毕节市,八中,105.287,27.3133,2026-01-17T1900,81,129,2.3,72,27,38,85,108,细颗粒物(PM2.5)
毕节市,师专,105.3079,27.2987,2026-01-17T1900,54,66,0.8,29,12,89,92,74,细颗粒物(PM2.5)
毕节市,工业大道,105.3688,27.3598,2026-01-17T1900,63,91,/,27,12,95,100,85,细颗粒物(PM2.5)
滨州市,第二水厂,117.9961,37.3604,2026-01-17T1900,11,14,0.4,12,9,52,58,17,
滨州市,北中新校,117.9789,37.3931,2026-01-17T1900,7,41,0.3,20,6,52,59,41,
滨州市,中海酒店,117.9379,37.3959,2026-01-17T1900,12,14,0.3,13,8,,58,,
滨州市,开发区一中,117.9381509,37.35547456,2026-01-17T1900,7,22,0.3,10,13,60,65,22,
滨州市,金海六路,118.0914,37.6938,2026-01-17T1900,3,19,0.2,8,3,66,72,21,
滨州市,滨州市西街道办事处,117.9955,37.3752,2026-01-17T1900,17,17,0.4,14,9,60,67,25,
亳州市,污水处理厂,115.8071,33.8399,2026-01-17T1900,43,94,0.3,27,5,35,40,72,颗粒物(PM10)
亳州市,三国揽胜宫,115.7789,33.8519,2026-01-17T1900,48,91,0.5,28,3,30,38,71,颗粒物(PM10)
亳州市,亳州学院,115.7631,33.803,2026-01-17T1900,43,95,0.6,25,4,34,39,73,颗粒物(PM10)
博尔塔拉蒙古自治州,市党校,82.0482,44.8553,2026-01-17T1900,17,42,1.3,16,4,63,74,42,
博尔塔拉蒙古自治州,市环保局,82.0805,44.8966,2026-01-17T1900,15,58,1.2,12,6,58,62,54,颗粒物(PM10)
沧州市,沧县城建局,116.8733,38.2922,2026-01-17T1900,25,45,0.2,15,5,59,67,45,
沧州市,电视转播站,116.8462,38.3189,2026-01-17T1900,12,37,0.3,16,1,63,66,37,
沧州市,市环保局,116.8588,38.3161,2026-01-17T1900,31,39,0.3,13,4,57,62,45,
沧州市,河北水利电力学院,116.8011,38.294,2026-01-17T1900,19,24,0.2,14,2,57,61,28,
昌都市,昌都监测站,97.1813,31.1289,2026-01-17T1900,,,,,,,72,,
昌都市,昌都会议中心,97.1707,31.1428,2026-01-17T1900,6,11,0.3,1,1,80,64,25,
昌吉回族自治州,新区政务中心,87.2722,44.0298,2026-01-17T1900,12,22,0.5,15,18,63,66,22,
昌吉回族自治州,亚心广场,87.3069,44.0093,2026-01-17T1900,14,24,0.6,9,12,64,68,24,
昌吉回族自治州,财政所,87.2057,43.9289,2026-01-17T1900,28,34,0.4,12,5,62,58,40,
长春市,客车厂,125.2874,43.9024,2026-01-17T1900,34,,0.5,34,14,39,52,49,
长春市,邮电学院,125.2943,43.8508,2026-01-17T1900,35,38,0.7,27,12,47,55,50,
长春市,劳动公园,125.3648,43.8745,2026-01-17T1900,27,40,0.6,34,14,40,54,40,
长春市,园林处,125.3233,43.8781,2026-01-17T1900,41,,0.6,29,14,42,53,58,细颗粒物(PM2.5)
长春市,净月潭,125.4604,43.7904,2026-01-17T1900,38,47,0.6,19,8,50,55,54,细颗粒物(PM2.5)
长春市,经开区环卫处,125.38,43.8422,2026-01-17T1900,24,33,0.5,25,7,51,55,35,
长春市,高新区管委会,125.234,43.7761,2026-01-17T1900,43,,0.5,41,8,,60,,
长春市,岱山公园,125.1695,43.83,2026-01-17T1900,36,39,0.5,45,7,32,65,52,细颗粒物(PM2.5)
长春市,北亚泰大街1068号,125.334645,43.916281,2026-01-17T1900,36,,0.4,39,9,35,53,52,细颗粒物(PM2.5)
长沙市,经开区环保局,113.082,28.2421,2026-01-17T1900,152,198,0.9,48,4,14,37,202,细颗粒物(PM2.5)
长沙市,高开区环保局,112.8873,28.2202,2026-01-17T1900,152,182,0.9,24,5,62,59,202,细颗粒物(PM2.5)
长沙市,马坡岭,113.0785,28.2012,2026-01-17T1900,173,207,0.9,50,5,23,44,223,细颗粒物(PM2.5)
长沙市,湖南师范大学,112.9448,28.1894,2026-01-17T1900,122,182,1.0,36,4,42,61,160,细颗粒物(PM2.5)
长沙市,雨花区环保局,113.0177,28.1322,2026-01-17T1900,142,189,1.1,52,9,39,56,189,细颗粒物(PM2.5)
长沙市,伍家岭,112.9795,28.2593,2026-01-17T1900,124,208,0.9,41,5,46,50,163,细颗粒物(PM2.5)
长沙市,火车新站,113.002,28.1944,2026-01-17T1900,136,214,1.1,39,5,51,60,180,细颗粒物(PM2.5)
长沙市,天心区环保局,112.9846,28.1177,2026-01-17T1900,134,206,1.0,42,6,60,62,178,细颗粒物(PM2.5)
长沙市,湖南中医药大学,112.8906,28.1307,2026-01-17T1900,140,214,1.1,70,6,27,60,186,细颗粒物(PM2.5)
长治市,清华站,113.1146,36.1547,2026-01-17T1900,41,62,0.8,24,11,58,73,58,细颗粒物(PM2.5)
长治市,审计局,113.0887,36.2126,2026-01-17T1900,46,63,0.8,24,8,55,70,64,细颗粒物(PM2.5)
长治市,长治八中,113.0845,36.1856,2026-01-17T1900,53,89,0.9,22,9,62,72,73,细颗粒物(PM2.5)
长治市,德盛苑,113.1561,36.1912,2026-01-17T1900,46,64,0.8,19,8,62,77,64,细颗粒物(PM2.5)
长治市,向阳小学,113.0603,36.0464,2026-01-17T1900,64,118,1.3,40,12,58,74,87,细颗粒物(PM2.5)
长治市,屯留一中,112.8788,36.315,2026-01-17T1900,46,72,0.8,37,10,52,66,64,细颗粒物(PM2.5)
长治市,英华南巷50号,113.113092,36.199482,2026-01-17T1900,46,71,0.7,,8,60,71,,
长治市,学府街1号,113.23666,36.33435,2026-01-17T1900,43,50,0.8,23,9,54,67,60,细颗粒物(PM2.5)
常德市,市二中,111.696,28.9725,2026-01-17T1900,149,220,1.0,30,7,72,86,199,细颗粒物(PM2.5)
常德市,武陵区永安,111.7152,29.0288,2026-01-17T1900,148,222,1.0,22,5,65,72,198,细颗粒物(PM2.5)
常德市,鼎城区玉霞,111.6891,28.9881,2026-01-17T1900,145,208,0.9,23,9,84,93,193,细颗粒物(PM2.5)
常德市,武陵区长庚,111.6651,29.0526,2026-01-17T1900,141,200,0.9,19,7,93,90,188,细颗粒物(PM2.5)
常州市,市监测站,119.9524,31.7586,2026-01-17T1900,66,112,1.2,28,6,67,113,89,细颗粒物(PM2.5)
常州市,武进监测站,119.9351,31.703,2026-01-17T1900,70,108,0.9,37,12,60,114,94,细颗粒物(PM2.5)
常州市,行政中心,119.9701,31.813,2026-01-17T1900,66,130,0.9,39,5,60,119,90,颗粒物(PM10)
常州市,经开区,120.0434,31.7726,2026-01-17T1900,63,110,1.1,29,6,67,118,85,细颗粒物(PM2.5)
常州市,钟楼,119.8919,31.7892,2026-01-17T1900,64,114,0.8,32,6,65,113,87,细颗粒物(PM2.5)
常州市,武进经发区,119.8595,31.706,2026-01-17T1900,73,116,1.2,36,2,69,120,98,细颗粒物(PM2.5)
常州市,金坛城区,119.5812,31.7256,2026-01-17T1900,88,145,1.0,32,6,77,114,117,细颗粒物(PM2.5)
常州市,崇义南街5-H号,119.9551,31.863,2026-01-17T1900,57,120,1.0,73,6,23,119,85,颗粒物(PM10)
朝阳市,西梁,120.4318,41.588,2026-01-17T1900,23,26,0.5,15,10,54,62,33,
朝阳市,河畔小区,120.452,41.565,2026-01-17T1900,12,14,0.4,9,9,63,66,20,
朝阳市,八里堡,120.4176,41.5648,2026-01-17T1900,15,30,0.5,14,10,58,61,30,
潮州市,市政府,116.6179,23.6608,2026-01-17T1900,53,74,0.5,28,5,132,151,73,细颗粒物(PM2.5)
潮州市,金山,116.646,23.676,2026-01-17T1900,68,84,,31,7,141,158,,
郴州市,市职中,113.0116,25.8228,2026-01-17T1900,95,112,1.0,34,5,37,62,125,细颗粒物(PM2.5)
郴州市,市审计局,113.0381,25.8074,2026-01-17T1900,92,104,/,20,1,62,69,122,细颗粒物(PM2.5)
郴州市,市环保局,113.0348,25.7757,2026-01-17T1900,88,112,0.6,25,4,57,68,117,细颗粒物(PM2.5)
郴州市,好美居路49号,113.0138,25.8011,2026-01-17T1900,84,94,/,34,5,67,76,112,细颗粒物(PM2.5)
成都市,金泉两河,103.9727,30.7242,2026-01-17T1900,144,144,1.3,66,4,84,100,192,细颗粒物(PM2.5)
成都市,十里店,104.1423,30.6765,2026-01-17T1900,141,172,1.0,37,6,125,104,188,细颗粒物(PM2.5)
成都市,三瓦窑,104.0594,30.5765,2026-01-17T1900,138,168,1.0,43,5,119,108,183,细颗粒物(PM2.5)
成都市,沙河铺,104.1122,30.6306,2026-01-17T1900,135,141,1.2,55,3,84,79,179,细颗粒物(PM2.5)
成都市,大石西路,104.0219,30.6561,2026-01-17T1900,110,168,0.9,43,5,78,98,144,细颗粒物(PM2.5)
成都市,龙泉驿区区政府,104.2724,30.559,2026-01-17T1900,100,124,1.0,21,8,125,121,132,细颗粒物(PM2.5)
成都市,金博路,104.0028,30.6891,2026-01-17T1900,123,161,1.4,62,7,82,96,162,细颗粒物(PM2.5)
成都市,华阳,104.056,30.5228,2026-01-17T1900,114,144,1.0,63,4,86,108,149,细颗粒物(PM2.5)
成都市,青石路225号,104.387954,30.746684,2026-01-17T1900,148,184,1.1,46,6,100,112,198,细颗粒物(PM2.5)
成都市,科学城,104.0788,30.4054,2026-01-17T1900,119,137,0.7,26,8,115,111,156,细颗粒物(PM2.5)
成都市,光华大道三段,103.8505,30.6946,2026-01-17T1900,142,194,1.1,72,4,88,123,189,细颗粒物(PM2.5)
成都市,八角井街185号,104.3257,30.6406,2026-01-17T1900,116,183,0.9,28,5,107,111,152,细颗粒物(PM2.5)
成都市,鲸龙路1057号,104.2433276,30.53529463,2026-01-17T1900,97,118,0.8,21,6,126,118,128,细颗粒物(PM2.5)
承德市,铁路,117.9531,40.908,2026-01-17T1900,14,42,0.4,23,8,42,55,42,
承德市,中国银行,117.9397,40.9763,2026-01-17T1900,15,25,0.4,8,6,57,60,25,
承德市,杏林街1号,117.9462,40.95,2026-01-17T1900,18,25,0.4,9,7,56,60,26,
承德市,滨河大街98号,117.7994,40.9605,2026-01-17T1900,21,,0.3,8,4,58,59,30,
池州市,池州学院,117.4698,30.6617,2026-01-17T1900,137,162,1.1,30,3,76,70,182,细颗粒物(PM2.5)
池州市,展览馆,117.4918,30.6617,2026-01-17T1900,142,175,1.2,28,1,78,74,189,细颗粒物(PM2.5)
池州市,第八中学,117.5626,30.695,2026-01-17T1900,113,145,1.3,26,3,77,72,148,细颗粒物(PM2.5)
池州市,第十二中学,117.5037,30.6242,2026-01-17T1900,128,155,1.2,30,2,74,71,169,细颗粒物(PM2.5)
赤峰市,松山一中,118.9229,42.2816,2026-01-17T1900,14,32,0.8,23,8,44,38,32,
赤峰市,哈达街,118.9588,42.2733,2026-01-17T1900,12,44,0.7,23,8,51,37,44,
赤峰市,天义路,118.8792,42.2551,2026-01-17T1900,25,29,0.9,24,13,48,50,36,
赤峰市,银河街,119.2656,42.0356,2026-01-17T1900,22,41,0.7,13,15,51,58,41,
赤峰市,桥北物流园区,118.9359,42.3146,2026-01-17T1900,22,36,0.6,22,8,53,56,36,
崇左市,市环保局江州分局,107.3473,22.4137,2026-01-17T1900,52,75,1.0,15,7,94,100,72,细颗粒物(PM2.5)
崇左市,石景林东路7号,107.375,22.3736,2026-01-17T1900,52,56,0.7,15,7,91,98,72,细颗粒物(PM2.5)
滁州市,市政府原办公楼,118.31131,32.3033,2026-01-17T1900,58,112,0.5,26,4,51,77,81,颗粒物(PM10)
滁州市,图书馆,118.3268,32.2633,2026-01-17T1900,50,114,0.6,24,8,50,73,82,颗粒物(PM10)
滁州市,银山路666号,118.3196,32.3335,2026-01-17T1900,60,99,0.5,22,3,48,74,82,细颗粒物(PM2.5)
滁州市,黄山路555号,118.3426,32.2979,2026-01-17T1900,64,123,0.8,30,15,49,75,87,"颗粒物(PM10),细颗粒物(PM2.5)"
楚雄彝族自治州,市经济开发区,101.5379,25.0492,2026-01-17T1900,13,24,0.6,9,2,65,72,24,
楚雄彝族自治州,团结路562号,101.5536,25.0343,2026-01-17T1900,14,25,0.4,5,4,67,71,25,
达州市,市环境监测站,107.5087,31.2186,2026-01-17T1900,136,182,1.3,66,7,16,36,180,细颗粒物(PM2.5)
达州市,凤凰小区,107.4988,31.2132,2026-01-17T1900,166,232,2.6,77,8,5,26,216,细颗粒物(PM2.5)
达州市,达县机关宾馆,107.5081,31.1987,2026-01-17T1900,151,241,2.9,74,7,4,27,201,细颗粒物(PM2.5)
达州市,市政中心,107.4644,31.2124,2026-01-17T1900,151,230,2.0,99,8,6,28,201,细颗粒物(PM2.5)
大理白族自治州,大理市环境监测站,100.2168,25.5818,2026-01-17T1900,19,20,0.5,9,6,77,73,28,
大理白族自治州,大理古城,100.1542,25.7055,2026-01-17T1900,30,43,0.9,39,9,52,82,43,
大连市,甘井子,121.6119,38.974,2026-01-17T1900,27,36,0.5,39,11,32,58,39,
大连市,周水子,121.565,38.9509,2026-01-17T1900,22,36,0.6,50,11,16,54,36,
大连市,星海三站,121.5637,38.8849,2026-01-17T1900,26,29,0.7,38,18,19,52,38,
大连市,青泥洼桥,121.6301,38.9117,2026-01-17T1900,22,40,0.6,34,13,34,52,40,
大连市,傅家庄,121.6248,38.8643,2026-01-17T1900,16,33,0.5,34,10,31,47,33,
大连市,七贤岭,121.5117,38.8636,2026-01-17T1900,22,33,0.6,22,8,43,54,33,
大连市,金州,121.7507,39.1339,2026-01-17T1900,32,63,0.7,42,20,36,64,57,颗粒物(PM10)
大连市,开发区,121.7811,39.0495,2026-01-17T1900,16,29,0.3,15,5,56,61,29,
大连市,双D港,121.9762,39.0631,2026-01-17T1900,26,44,0.4,20,12,51,67,44,
大连市,旅顺,121.2548,38.8188,2026-01-17T1900,16,31,0.7,16,9,47,62,31,
大庆市,大同区,124.8085,46.0381,2026-01-17T1900,63,92,1.2,30,13,48,59,85,细颗粒物(PM2.5)
大庆市,龙凤区,125.1166,46.5255,2026-01-17T1900,31,51,0.6,48,14,29,54,51,颗粒物(PM10)
大庆市,红岗区,124.8894,46.4007,2026-01-17T1900,34,53,0.6,42,8,24,53,52,颗粒物(PM10)
大庆市,萨尔图区,125.1391,46.578,2026-01-17T1900,17,46,0.6,39,11,28,57,46,
大庆市,让胡路区,124.9026,46.6217,2026-01-17T1900,28,35,0.7,26,8,48,67,40,
大庆市,萨区政府监测点,125.127,46.6277,2026-01-17T1900,22,30,1.1,33,10,34,59,32,
大同市,云冈宾馆,113.2926,40.0759,2026-01-17T1900,46,85,0.9,27,5,51,51,68,颗粒物(PM10)
大同市,大同大学,113.3437,40.0921,2026-01-17T1900,44,83,0.7,18,1,62,62,67,颗粒物(PM10)
大同市,安家小村,113.2637,40.129,2026-01-17T1900,55,102,0.7,23,7,56,57,76,颗粒物(PM10)
大同市,大同市卫生学校,113.3399,40.0586,2026-01-17T1900,47,86,0.7,19,3,61,57,68,颗粒物(PM10)
大同市,云冈站,113.1371,40.1122,2026-01-17T1900,53,87,0.9,20,4,56,51,73,细颗粒物(PM2.5)
大同市,图书馆,113.1186,40.2556,2026-01-17T1900,66,97,0.8,31,8,47,54,89,细颗粒物(PM2.5)
大同市,区一中,113.5931,40.0459,2026-01-17T1900,39,92,0.6,15,3,71,69,71,颗粒物(PM10)
大同市,魏都大道141号,113.2798248,40.09972476,2026-01-17T1900,44,96,0.8,26,4,53,54,73,颗粒物(PM10)
大兴安岭地区,科技局,124.1068,50.4091,2026-01-17T1900,,,,,,,54,,
大兴安岭地区,红旗社区,124.117,50.4279,2026-01-17T1900,3,7,0.3,3,5,51,52,16,
丹东市,江湾东路,124.33,40.0625,2026-01-17T1900,23,29,0.6,19,10,54,61,33,
丹东市,临江后街,124.4242,40.1513,2026-01-17T1900,24,38,0.7,16,8,58,66,38,
丹东市,元宝山,124.3935,40.1461,2026-01-17T1900,18,25,0.5,9,10,64,65,26,
丹东市,民主桥,124.3634,40.1093,2026-01-17T1900,21,36,0.5,16,11,57,60,36,
儋州市,第一中学子站,109.5726195,19.51688767,2026-01-17T1900,29,49,0.6,7,4,102,91,49,
儋州市,东坡学校子站,109.5567,19.5187,2026-01-17T1900,33,33,0.6,7,6,112,100,48,
德宏傣族景颇族自治州,德宏州监测站,98.5611,24.4273,2026-01-17T1900,25,43,0.6,19,13,86,79,43,
德宏傣族景颇族自治州,芒市人民政府综合楼,98.5887,24.4366,2026-01-17T1900,16,63,0.6,17,7,73,73,57,颗粒物(PM10)
德阳市,东山公园,104.424,31.1209,2026-01-17T1900,123,123,0.9,17,7,124,102,162,细颗粒物(PM2.5)
德阳市,西小区,104.3827,31.1318,2026-01-17T1900,128,145,1.3,36,5,93,94,169,细颗粒物(PM2.5)
德阳市,耐火材料厂,104.3553,31.1091,2026-01-17T1900,129,,1.0,29,4,101,86,170,细颗粒物(PM2.5)
德阳市,市林业局,104.4144,31.1495,2026-01-17T1900,127,149,0.8,44,4,89,91,168,细颗粒物(PM2.5)
德州市,儿童乐园,116.3034,37.4675,2026-01-17T1900,24,51,0.7,21,11,58,63,51,颗粒物(PM10)
德州市,监理站,116.2992,37.4449,2026-01-17T1900,12,36,0.6,22,10,66,54,36,
德州市,九衢泉纯净水厂,116.2722,37.438,2026-01-17T1900,19,41,0.6,19,6,62,65,41,
德州市,开发区人民医院,116.3693,37.44,2026-01-17T1900,17,39,0.5,28,12,60,66,39,
德州市,陵城艺术中心,116.5687,37.3331,2026-01-17T1900,27,46,0.4,24,14,53,63,46,
德州市,新河东路,116.352738,37.420875,2026-01-17T1900,22,46,0.8,24,12,57,63,46,
迪庆藏族自治州,迪庆州站,99.7054,27.8319,2026-01-17T1900,13,30,0.3,8,4,75,79,30,
迪庆藏族自治州,质量技术监督局,99.7122,27.8129,2026-01-17T1900,18,30,0.4,9,4,78,86,30,
定西市,将台街,104.6092,35.5962,2026-01-17T1900,42,85,0.7,17,16,83,88,68,颗粒物(PM10)
定西市,正龙路62号,104.6159,35.5701,2026-01-17T1900,42,79,1.0,9,16,79,79,65,颗粒物(PM10)
东莞市,东城石井,113.7943,23.0132,2026-01-17T1900,46,80,0.6,34,7,211,226,106,臭氧1小时(O3_1h)
东莞市,南城西平,113.7384,22.9659,2026-01-17T1900,80,111,0.9,62,11,211,226,107,细颗粒物(PM2.5)
东莞市,万江金泰,113.7283,23.041,2026-01-17T1900,77,130,1.4,54,8,203,235,103,细颗粒物(PM2.5)
东莞市,裕兴路,113.8666,23.1062,2026-01-17T1900,41,94,0.9,45,6,197,239,97,臭氧1小时(O3_1h)
东莞市,教育路1号,114.0076,22.9739,2026-01-17T1900,63,132,1.0,84,6,187,234,91,颗粒物(PM10)
东莞市,长怡路1号,113.7981,22.8124,2026-01-17T1900,74,140,1.0,105,9,161,190,99,细颗粒物(PM2.5)
东营市,市环保局,118.6612,37.4313,2026-01-17T1900,7,19,0.5,24,7,62,70,20,
东营市,开发区管委会,118.6903,37.4337,2026-01-17T1900,12,34,0.2,14,8,,69,,
东营市,垦利区民丰路,118.5721,37.5654,2026-01-17T1900,9,22,0.1,19,6,58,71,22,
东营市,河口城区,118.5063,37.8606,2026-01-17T1900,10,22,0.7,17,4,64,70,22,
东营市,胜利站,118.4979,37.4623,2026-01-17T1900,3,23,0.3,21,11,59,65,23,
东营市,理想之城,118.5753,37.4405,2026-01-17T1900,14,19,0.5,24,4,50,61,20,
鄂尔多斯市,综合楼,110.0024,39.8127,2026-01-17T1900,39,163,0.6,58,18,13,60,107,颗粒物(PM10)
鄂尔多斯市,巴音孟克林场办事处,109.9485,39.8259,2026-01-17T1900,36,134,0.6,51,14,17,64,92,颗粒物(PM10)
鄂尔多斯市,康泽苑,109.7734,39.5987,2026-01-17T1900,34,127,0.8,54,8,43,85,89,颗粒物(PM10)
鄂尔多斯市,华泰汽车城,109.8121,39.5987,2026-01-17T1900,44,132,0.7,65,8,26,76,91,颗粒物(PM10)
鄂尔多斯市,奥林花园,109.9734,39.7884,2026-01-17T1900,34,146,0.8,56,11,15,61,98,颗粒物(PM10)
鄂州市,市政府,114.894,30.3989,2026-01-17T1900,133,158,0.6,44,6,38,45,176,细颗粒物(PM2.5)
鄂州市,赵家坝,114.8986,30.3714,2026-01-17T1900,127,176,1.0,44,8,31,45,168,细颗粒物(PM2.5)
鄂州市,精准医疗中心,114.8093,30.4091,2026-01-17T1900,133,158,0.9,46,4,29,55,176,细颗粒物(PM2.5)
恩施土家族苗族自治州,湖北民院,109.4978,30.2979,2026-01-17T1900,108,,1.6,43,7,31,48,142,细颗粒物(PM2.5)
恩施土家族苗族自治州,龙凤新区,109.5061,30.3771,2026-01-17T1900,97,112,0.9,18,6,36,42,128,细颗粒物(PM2.5)
防城港市,沙万,108.3411,21.6159,2026-01-17T1900,54,85,0.8,52,8,62,61,74,细颗粒物(PM2.5)
防城港市,防城档案局,108.3515,21.7733,2026-01-17T1900,41,77,0.8,42,11,54,70,64,颗粒物(PM10)
防城港市,大海花园,108.3506,21.6414,2026-01-17T1900,44,94,0.7,55,14,56,65,72,颗粒物(PM10)
佛山市,湾梁,113.1293,23.0065,2026-01-17T1900,52,117,/,51,/,182,178,84,颗粒物(PM10)
佛山市,华材职中,113.1082,23.0477,2026-01-17T1900,101,163,0.8,59,7,186,180,133,细颗粒物(PM2.5)
佛山市,南海气象局,113.1439,23.045,2026-01-17T1900,61,95,/,56,/,204,171,102,臭氧1小时(O3_1h)
佛山市,顺德苏岗,113.2879,22.8094,2026-01-17T1900,63,100,1.0,50,/,170,164,85,细颗粒物(PM2.5)
佛山市,高明孔堂,112.8384,22.8678,2026-01-17T1900,,,/,42,/,219,214,,
佛山市,三水监测站,112.8835,23.1584,2026-01-17T1900,152,273,1.3,244,8,58,187,202,细颗粒物(PM2.5)
佛山市,三水云东海,112.8668,23.185,2026-01-17T1900,124,181,/,58,/,190,173,163,细颗粒物(PM2.5)
佛山市,容桂街道办,113.2568,22.7629,2026-01-17T1900,97,156,/,64,/,210,192,128,细颗粒物(PM2.5)
福州市,师大,119.2681,26.0506,2026-01-17T1900,26,60,0.5,28,4,104,121,55,颗粒物(PM10)
福州市,五四北路,119.2983,26.1028,2026-01-17T1900,33,56,0.6,29,6,112,117,53,颗粒物(PM10)
福州市,杨桥西路,119.2648,26.0769,2026-01-17T1900,31,51,/,20,5,105,119,51,颗粒物(PM10)
福州市,九龙,119.5799,26.0937,2026-01-17T1900,29,38,0.6,14,4,121,134,42,
福州市,吴航,119.5188,25.9666,2026-01-17T1900,23,38,0.5,14,4,120,126,38,
福州市,路通桥巷6号,119.3106,26.0648,2026-01-17T1900,33,52,/,22,/,99,114,51,颗粒物(PM10)
抚顺市,望花区,123.7974,41.8494,2026-01-17T1900,26,31,0.7,22,2,52,60,38,
抚顺市,顺城区,123.9161,41.8827,2026-01-17T1900,30,30,0.8,39,10,39,60,43,
抚顺市,东洲区,124.0437,41.8615,2026-01-17T1900,28,30,0.7,14,10,56,57,40,
抚顺市,新抚区,123.9246,41.8638,2026-01-17T1900,,,0.7,38,8,44,59,,
抚顺市,大伙房水库,124.0972,41.8961,2026-01-17T1900,26,35,0.7,10,10,60,62,38,
抚顺市,沈抚新城,123.708,41.8386,2026-01-17T1900,46,55,,49,9,24,51,,
抚州市,市站,116.3544,27.9833,2026-01-17T1900,68,90,1.1,19,8,87,101,92,细颗粒物(PM2.5)
抚州市,血防站,116.3562,27.9631,2026-01-17T1900,64,86,1.6,21,6,87,99,87,细颗粒物(PM2.5)
抚州市,采茶剧团,116.3561,28.0007,2026-01-17T1900,71,93,1.4,17,5,81,97,95,细颗粒物(PM2.5)
抚州市,医学分院,116.3854,27.9648,2026-01-17T1900,47,123,1.0,12,11,81,95,87,颗粒物(PM10)
阜新市,工业园区,121.6095,41.9978,2026-01-17T1900,16,37,0.4,12,12,57,63,37,
阜新市,长青街,121.6567,42.0188,2026-01-17T1900,18,20,0.3,13,10,55,65,26,
阜新市,农业园区,121.6672,42.07,2026-01-17T1900,21,25,0.4,15,15,53,62,30,
阜新市,玉龙新城,121.6343,42.0455,2026-01-17T1900,16,31,0.5,17,9,52,60,31,
阜阳市,市监测站,115.8276,32.8929,2026-01-17T1900,65,137,0.6,28,4,35,34,94,颗粒物(PM10)
阜阳市,开发区,115.8551,32.8606,2026-01-17T1900,69,150,0.5,26,4,37,34,100,颗粒物(PM10)
阜阳市,阜阳职业技术学院,115.783962,32.889217,2026-01-17T1900,68,139,0.6,17,6,42,38,95,颗粒物(PM10)
阜阳市,市规划展馆,115.79,32.8614,2026-01-17T1900,74,160,0.7,22,5,41,38,105,颗粒物(PM10)
阜阳市,枣园社区,115.835101,32.918568,2026-01-17T1900,64,142,0.7,24,4,38,34,96,颗粒物(PM10)
甘南藏族自治州,州政府,102.9097,34.9841,2026-01-17T1900,12,34,0.3,3,8,92,84,34,
甘南藏族自治州,甘肃民族师范学院,102.8915,34.9618,2026-01-17T1900,7,49,0,8,7,78,78,49,
甘孜藏族自治州,水桥子,101.96,30.048,2026-01-17T1900,11,31,0.4,21,7,66,66,31,
甘孜藏族自治州,州环保局,101.9534,29.9976,2026-01-17T1900,8,52,0.3,30,6,,84,,
赣州市,地委,114.9368,25.8663,2026-01-17T1900,53,64,1.2,46,11,75,124,73,细颗粒物(PM2.5)
赣州市,气象台,114.946,25.8483,2026-01-17T1900,44,85,0.7,97,6,49,116,68,颗粒物(PM10)
赣州市,市图书馆,114.932,25.8332,2026-01-17T1900,42,75,1.1,44,6,76,98,63,颗粒物(PM10)
赣州市,华坚鞋城,114.8905,25.8472,2026-01-17T1900,49,85,0.9,80,10,50,92,68,"颗粒物(PM10),细颗粒物(PM2.5)"
赣州市,赣县区卫计委,115.0094,25.8614,2026-01-17T1900,49,73,0.8,51,7,50,105,68,细颗粒物(PM2.5)
固原市,监测站,106.2753,36.0057,2026-01-17T1900,46,98,0.5,21,6,,89,,
固原市,新区,106.2384,36.0189,2026-01-17T1900,38,50,0.4,16,3,85,95,54,细颗粒物(PM2.5)
广安市,市委,106.6307,30.4577,2026-01-17T1900,151,162,1.1,24,10,91,83,201,细颗粒物(PM2.5)
广安市,友谊中学,106.6266,30.4662,2026-01-17T1900,145,153,1.4,20,7,92,81,193,细颗粒物(PM2.5)
广安市,广电花园,106.6386,30.4551,2026-01-17T1900,151,,1.0,25,9,81,73,201,细颗粒物(PM2.5)
广安市,北辰小学,106.6347,30.4868,2026-01-17T1900,157,,1.2,19,9,88,74,207,细颗粒物(PM2.5)
广元市,老城,105.8211,32.4444,2026-01-17T1900,89,108,1.0,35,1,71,59,118,细颗粒物(PM2.5)
广元市,监测站,105.8629,32.429,2026-01-17T1900,84,96,1.0,28,8,72,58,112,细颗粒物(PM2.5)
广元市,经开区,105.8047,32.4167,2026-01-17T1900,,,0.8,28,4,,52,,
广州市,广雅中学,113.2346,23.1423,2026-01-17T1900,108,188,1.1,126,5,113,130,142,细颗粒物(PM2.5)
广州市,市五中,113.2611,23.105,2026-01-17T1900,63,105,/,94,7,100,147,85,细颗粒物(PM2.5)
广州市,广东商学院,113.3477,23.0916,2026-01-17T1900,70,107,0.9,85,7,132,133,94,细颗粒物(PM2.5)
广州市,市八十六中,113.4332,23.105,2026-01-17T1900,86,113,/,127,10,122,142,114,细颗粒物(PM2.5)
广州市,番禺中学,113.3506,22.9488,2026-01-17T1900,68,128,1.1,83,5,157,174,92,细颗粒物(PM2.5)
广州市,花都师范,113.2147,23.3918,2026-01-17T1900,66,127,0.9,79,8,146,147,89,"颗粒物(PM10),细颗粒物(PM2.5)"
广州市,市监测站,113.2599,23.1329,2026-01-17T1900,89,170,/,114,4,138,135,118,细颗粒物(PM2.5)
广州市,九龙镇镇龙,113.5618,23.3119,2026-01-17T1900,57,110,0.7,103,6,81,149,80,颗粒物(PM10)
广州市,麓湖,113.2764,23.1544,2026-01-17T1900,58,94,0.6,73,9,151,127,79,细颗粒物(PM2.5)
广州市,体育西,113.3209,23.1323,2026-01-17T1900,77,133,1.3,107,7,90,114,103,细颗粒物(PM2.5)
广州市,从化街口,113.5718,23.5493,2026-01-17T1900,78,122,1.0,56,12,143,164,104,细颗粒物(PM2.5)
广州市,白云竹料,113.3463,23.369,2026-01-17T1900,105,162,1.0,46,6,198,165,138,细颗粒物(PM2.5)
广州市,白云嘉禾,113.2981,23.2365,2026-01-17T1900,85,147,/,120,7,110,146,113,细颗粒物(PM2.5)
广州市,黄埔科学城,113.4256,23.1716,2026-01-17T1900,40,74,0.8,65,5,133,155,62,颗粒物(PM10)
广州市,番禺大学城,113.3942,23.0485,2026-01-17T1900,59,128,0.7,48,12,230,182,115,臭氧1小时(O3_1h)
广州市,南沙黄阁,113.4923,22.8169,2026-01-17T1900,39,82,/,70,6,138,208,66,颗粒物(PM10)
广州市,南沙街,113.534,22.7893,2026-01-17T1900,36,82,0.6,42,5,186,198,83,臭氧1小时(O3_1h)
广州市,花都梯面,113.2905,23.5541,2026-01-17T1900,70,141,/,110,5,33,128,96,颗粒物(PM10)
广州市,从化良口,113.786,23.7479,2026-01-17T1900,47,54,/,20,8,102,111,65,细颗粒物(PM2.5)
广州市,增城荔城,113.805,23.2614,2026-01-17T1900,45,71,0.7,46,6,128,184,63,细颗粒物(PM2.5)
贵港市,江南子站,109.604387,23.066791,2026-01-17T1900,79,146,1.0,27,10,93,103,105,细颗粒物(PM2.5)
贵港市,荷城子站,109.5669,23.1065,2026-01-17T1900,90,124,1.2,32,10,90,84,119,细颗粒物(PM2.5)
贵港市,新世纪学校,109.5886,23.1172,2026-01-17T1900,101,149,1.0,33,/,93,93,133,细颗粒物(PM2.5)
贵港市,中山路155-3号,109.5933,23.095,2026-01-17T1900,76,123,1.0,30,/,100,96,102,细颗粒物(PM2.5)
贵阳市,马鞍山,106.6863,26.6035,2026-01-17T1900,56,63,/,17,11,80,84,77,细颗粒物(PM2.5)
贵阳市,鉴湖路,106.6241,26.6266,2026-01-17T1900,53,75,0.6,19,11,83,87,73,细颗粒物(PM2.5)
贵阳市,燕子冲,106.7468,26.6344,2026-01-17T1900,58,73,0.6,26,8,80,76,79,细颗粒物(PM2.5)
贵阳市,碧云窝,106.6556,26.4362,2026-01-17T1900,56,83,/,17,6,63,69,77,细颗粒物(PM2.5)
贵阳市,红边门,106.6963,26.6063,2026-01-17T1900,61,80,/,31,12,69,79,83,细颗粒物(PM2.5)
贵阳市,新华路,106.7162383,26.56964667,2026-01-17T1900,58,78,0.6,29,17,68,75,79,细颗粒物(PM2.5)
贵阳市,太慈桥,106.6742,26.542,2026-01-17T1900,56,78,/,24,8,68,69,77,细颗粒物(PM2.5)
贵阳市,花果园大街66号,106.688212,26.56952,2026-01-17T1900,62,63,/,30,8,66,69,84,细颗粒物(PM2.5)
贵阳市,漓江路57号,106.687268,26.516892,2026-01-17T1900,58,80,0.6,27,25,68,75,79,细颗粒物(PM2.5)
桂林市,龙隐路小学,110.3091,25.2705,2026-01-17T1900,78,83,0.6,17,7,82,89,104,细颗粒物(PM2.5)
桂林市,八中,110.2849361,25.22909545,2026-01-17T1900,82,90,0.9,29,8,70,75,109,细颗粒物(PM2.5)
桂林市,旅游学院,110.296,25.1254,2026-01-17T1900,53,58,0.4,21,5,93,84,73,细颗粒物(PM2.5)
桂林市,环湖路276号,110.1835,25.2444,2026-01-17T1900,85,110,0.9,26,7,77,76,113,细颗粒物(PM2.5)
桂林市,信义路13号,110.2803,25.2773,2026-01-17T1900,58,83,1.3,24,5,83,92,79,细颗粒物(PM2.5)
果洛藏族自治州,玛沁县大武镇,100.2262,34.4854,2026-01-17T1900,33,206,0.3,1,10,95,89,128,颗粒物(PM10)
哈尔滨市,松北商大,126.5557,45.8109,2026-01-17T1900,30,36,0.6,40,8,26,53,43,
哈尔滨市,南岗学府路,126.6162,45.719,2026-01-17T1900,41,49,0.6,34,13,33,55,58,细颗粒物(PM2.5)
哈尔滨市,太平宏伟公园,126.6894,45.7733,2026-01-17T1900,28,34,0.7,25,13,47,63,40,
哈尔滨市,道外承德广场,126.6361,45.7672,2026-01-17T1900,26,57,1.0,42,16,33,58,54,颗粒物(PM10)
哈尔滨市,动力和平路,126.644,45.7261,2026-01-17T1900,40,49,0.6,33,17,34,54,57,细颗粒物(PM2.5)
哈尔滨市,道里建国路,126.5933,45.7479,2026-01-17T1900,45,54,0.8,38,12,33,53,63,细颗粒物(PM2.5)
哈尔滨市,平房东轻厂,126.6127,45.6119,2026-01-17T1900,42,55,0.8,29,,42,54,,
哈尔滨市,呼兰师专,126.5875,45.9827,2026-01-17T1900,30,32,0.5,35,12,31,52,43,
哈尔滨市,省农科院,126.6299,45.6799,2026-01-17T1900,40,43,0.6,56,14,18,48,57,细颗粒物(PM2.5)
哈尔滨市,华山路1号,126.6769,45.7379,2026-01-17T1900,38,63,0.7,40,16,29,53,57,颗粒物(PM10)
哈尔滨市,解放大街52号,126.9717,45.5356,2026-01-17T1900,92,97,1.4,34,13,38,53,122,细颗粒物(PM2.5)
哈密市,地区监测站,93.5124,42.8176,2026-01-17T1900,25,61,0.0,13,2,57,55,56,颗粒物(PM10)
哈密市,哈密师范学校,93.5014,42.8312,2026-01-17T1900,20,77,0.2,17,1,59,56,64,颗粒物(PM10)
海北藏族自治州,海晏县西海镇,100.9016,36.9464,2026-01-17T1900,15,33,0.4,2,6,73,78,33,
海东市,平安区公安局北苑,102.074,36.5056,2026-01-17T1900,31,77,0.9,26,15,40,56,64,颗粒物(PM10)
海东市,滨河路,102.0984,36.5119,2026-01-17T1900,29,79,1.2,79,15,13,66,65,颗粒物(PM10)
海口市,海南大学,110.3189,20.0596,2026-01-17T1900,23,34,0.3,9,6,135,136,43,
海口市,秀英海南医院,110.2827,20.0051,2026-01-17T1900,22,37,0.4,11,8,128,130,40,
海口市,海南师范大学,110.3391,19.9979,2026-01-17T1900,28,34,0.7,13,6,132,136,42,
海口市,龙华路环保局宿舍,110.3303,20.0359,2026-01-17T1900,26,40,0.8,10,/,132,134,42,
海口市,桂林洋子站,110.5111,19.9737,2026-01-17T1900,25,37,/,16,/,,126,,
海口市,长滨二路9号,110.1952,20.0451,2026-01-17T1900,21,31,/,8,/,129,130,41,
海南藏族自治州,共和县恰卜恰镇,100.6158,36.2985,2026-01-17T1900,21,38,0.5,8,9,64,72,38,
海西蒙古族藏族自治州,德令哈市,97.373,37.376,2026-01-17T1900,12,61,0.8,26,17,69,85,56,颗粒物(PM10)
邯郸市,矿院,114.492,36.5712,2026-01-17T1900,58,68,0.5,22,1,42,53,79,细颗粒物(PM2.5)
邯郸市,丛台公园,114.4839,36.6136,2026-01-17T1900,58,70,0.5,23,4,44,52,79,细颗粒物(PM2.5)
邯郸市,香泉濮院小区,114.7893,36.5592,2026-01-17T1900,56,76,0.4,23,2,38,47,77,细颗粒物(PM2.5)
邯郸市,峰峰矿区临水派出所,114.1998,36.4439,2026-01-17T1900,68,,0.5,23,5,42,56,92,细颗粒物(PM2.5)
邯郸市,建安街268号,114.5209,36.7697,2026-01-17T1900,59,74,0.3,25,2,32,47,80,细颗粒物(PM2.5)
邯郸市,丛台东路558号,114.5488,36.6177,2026-01-17T1900,42,62,0.4,13,3,47,52,59,细颗粒物(PM2.5)
汉中市,市监测站,107.0155,33.0707,2026-01-17T1900,73,102,1.1,49,7,38,48,98,细颗粒物(PM2.5)
汉中市,鑫源开发区,107.0083,33.114,2026-01-17T1900,64,85,0.6,30,6,60,61,87,细颗粒物(PM2.5)
汉中市,南郑大河坎水厂,107.0072,33.0323,2026-01-17T1900,81,121,1.3,59,7,28,46,108,细颗粒物(PM2.5)
杭州市,滨江,120.2073,30.2111,2026-01-17T1900,37,66,0.4,24,6,95,93,58,颗粒物(PM10)
杭州市,西溪,120.0625,30.2737,2026-01-17T1900,66,127,1.1,46,8,20,62,89,"颗粒物(PM10),细颗粒物(PM2.5)"
杭州市,下沙,120.3417,30.315,2026-01-17T1900,41,79,0.8,27,7,89,103,65,颗粒物(PM10)
杭州市,卧龙桥,120.1252,30.2465,2026-01-17T1900,42,70,0.4,27,8,64,89,60,颗粒物(PM10)
杭州市,浙江农大,120.1902,30.2691,2026-01-17T1900,30,50,0.6,26,5,96,98,50,
杭州市,和睦小学,120.1195,30.3121,2026-01-17T1900,75,156,1.1,74,4,18,82,103,颗粒物(PM10)
杭州市,临平镇,120.3076,30.4146,2026-01-17T1900,48,87,0.7,27,6,90,108,69,颗粒物(PM10)
杭州市,城厢镇,120.2753,30.1839,2026-01-17T1900,49,98,0.5,25,8,94,92,74,颗粒物(PM10)
杭州市,云栖,120.0883,30.1808,2026-01-17T1900,49,83,0.7,32,3,53,92,68,细颗粒物(PM2.5)
杭州市,镇二中,119.9463,30.0496,2026-01-17T1900,81,116,1.0,50,5,48,80,108,细颗粒物(PM2.5)
杭州市,市府大楼,119.7184,30.2367,2026-01-17T1900,88,161,1.3,49,10,35,65,117,细颗粒物(PM2.5)
杭州市,消防大队,120.1554,30.2863,2026-01-17T1900,90,129,1.0,59,6,38,85,119,细颗粒物(PM2.5)
合肥市,明珠广场,117.1957,31.7845,2026-01-17T1900,119,183,1.2,44,5,53,58,156,细颗粒物(PM2.5)
合肥市,三里街,117.307,31.8765,2026-01-17T1900,97,173,1.1,41,5,42,59,128,细颗粒物(PM2.5)
合肥市,琥珀山庄,117.2587,31.8703,2026-01-17T1900,105,175,1.0,38,6,50,64,138,细颗粒物(PM2.5)
合肥市,庐阳区,117.2593,31.9376,2026-01-17T1900,95,200,1.1,47,5,45,64,125,"颗粒物(PM10),细颗粒物(PM2.5)"
合肥市,瑶海区,117.345251,31.861615,2026-01-17T1900,105,183,1.0,54,5,37,61,138,细颗粒物(PM2.5)
合肥市,包河区,117.3033,31.7967,2026-01-17T1900,112,175,1.2,77,8,18,51,147,细颗粒物(PM2.5)
合肥市,滨湖新区,117.278,31.7392,2026-01-17T1900,127,185,1.0,38,4,62,67,168,细颗粒物(PM2.5)
合肥市,高新区,117.1324,31.8395,2026-01-17T1900,110,168,1.1,36,4,67,62,144,细颗粒物(PM2.5)
合肥市,高教基地,117.3802,31.9148,2026-01-17T1900,101,175,0.9,32,8,49,68,133,细颗粒物(PM2.5)
合肥市,中国科学技术大学,117.2518,31.8404,2026-01-17T1900,99,178,1.1,42,7,50,68,130,细颗粒物(PM2.5)
和田地区,地区环保局,79.9241,37.0878,2026-01-17T1900,39,200,0.1,17,3,78,70,125,颗粒物(PM10)
和田地区,市环保局,79.9132,37.1137,2026-01-17T1900,33,144,0.3,14,2,34,23,97,颗粒物(PM10)
河池市,市环保站,108.0496,24.6957,2026-01-17T1900,54,74,0.8,16,2,59,63,74,细颗粒物(PM2.5)
河池市,上任中路54号,108.0901,24.6945,2026-01-17T1900,72,83,0.9,32,5,43,60,97,细颗粒物(PM2.5)
河源市,东埔,114.6962,23.7538,2026-01-17T1900,56,84,1.4,48,6,94,132,77,细颗粒物(PM2.5)
河源市,老城,114.6895,23.7232,2026-01-17T1900,46,61,0.6,20,7,119,139,64,细颗粒物(PM2.5)
菏泽市,定陶老年大学,115.5562,35.089,2026-01-17T1900,41,83,0.4,19,2,42,42,67,颗粒物(PM10)
菏泽市,黄河路600号,115.4239,35.2593,2026-01-17T1900,42,99,0.5,26,2,48,44,75,颗粒物(PM10)
菏泽市,菏泽市人社局,115.5025,35.2727,2026-01-17T1900,41,92,0.2,15,3,38,34,71,颗粒物(PM10)
菏泽市,永昌路1号,115.479691,35.244011,2026-01-17T1900,45,99,0.1,22,4,44,40,75,颗粒物(PM10)
菏泽市,长城路999号,115.471542,35.280012,2026-01-17T1900,44,96,0.6,21,4,46,41,73,颗粒物(PM10)
贺州市,环保小区,111.5264,24.4178,2026-01-17T1900,40,73,0.8,31,8,78,99,62,颗粒物(PM10)
贺州市,政协大楼,111.561,24.4074,2026-01-17T1900,46,61,0.8,25,10,78,101,64,细颗粒物(PM2.5)
贺州市,西湾,111.4744,24.455,2026-01-17T1900,45,68,0.7,36,8,62,88,63,细颗粒物(PM2.5)
鹤壁市,市监测站,114.17,35.9019,2026-01-17T1900,57,90,0.6,23,2,36,43,78,细颗粒物(PM2.5)
鹤壁市,市交警支队,114.2953,35.7512,2026-01-17T1900,54,94,0.6,24,3,33,41,74,细颗粒物(PM2.5)
鹤壁市,迎宾馆,114.2877,35.7302,2026-01-17T1900,59,90,0.7,26,3,37,45,80,细颗粒物(PM2.5)
鹤壁市,大新区,114.2616,35.6824,2026-01-17T1900,55,87,0.7,24,4,38,48,75,细颗粒物(PM2.5)
鹤壁市,南山宾馆,114.1573,35.9607,2026-01-17T1900,64,82,0.5,20,4,41,51,87,细颗粒物(PM2.5)
鹤岗市,哈啤分公司,130.2537,47.3416,2026-01-17T1900,31,39,0.6,10,7,64,68,45,
鹤岗市,斯达机电,130.2683,47.3087,2026-01-17T1900,33,41,0.5,10,7,59,63,48,
鹤岗市,东山纸板厂,130.3114,47.3388,2026-01-17T1900,32,40,0.6,11,6,59,66,46,
黑河市,交通局,127.4832,50.2524,2026-01-17T1900,18,24,0.2,12,6,52,58,26,
黑河市,环保局,127.5146,50.2339,2026-01-17T1900,18,,0.4,21,7,45,58,26,
衡水市,电机北厂,115.6839,37.754,2026-01-17T1900,33,47,0.3,22,6,44,59,48,
衡水市,市监测站,115.6303,37.7318,2026-01-17T1900,27,40,0.3,19,7,52,60,40,
衡水市,市城管局,115.6684,37.7216,2026-01-17T1900,26,50,0.4,21,7,47,60,50,
衡水市,地表水厂,115.599,37.5491,2026-01-17T1900,31,58,0.3,24,6,43,62,54,颗粒物(PM10)
衡阳市,衡阳化工总厂,112.6209,26.9268,2026-01-17T1900,115,133,1.1,20,13,64,83,150,细颗粒物(PM2.5)
衡阳市,珠晖区环保局,112.621,26.8957,2026-01-17T1900,99,122,1.1,25,10,63,79,130,细颗粒物(PM2.5)
衡阳市,市委党校,112.628,26.8654,2026-01-17T1900,91,101,1.2,18,11,71,85,120,细颗粒物(PM2.5)
衡阳市,市监测站,112.6007,26.8977,2026-01-17T1900,92,152,1.1,21,11,70,84,122,细颗粒物(PM2.5)
衡阳市,真空机电公司,112.5658,26.9013,2026-01-17T1900,101,118,1.4,24,9,67,78,133,细颗粒物(PM2.5)
衡阳市,师范学院,112.6703,26.8817,2026-01-17T1900,96,116,1.1,21,10,77,90,127,细颗粒物(PM2.5)
红河哈尼族彝族自治州,州图书馆,103.3757,23.3679,2026-01-17T1900,28,31,0.5,6,6,74,81,40,
红河哈尼族彝族自治州,蒙自市朝阳路,103.401,23.3561,2026-01-17T1900,27,29,0.5,4,7,75,81,39,
呼和浩特市,呼市一监,111.6506,40.7517,2026-01-17T1900,32,110,0.7,39,10,37,60,80,颗粒物(PM10)
呼和浩特市,如意水处理厂,111.7516,40.8369,2026-01-17T1900,38,84,0.7,53,11,22,56,67,颗粒物(PM10)
呼和浩特市,二十九中,111.727798,40.806187,2026-01-17T1900,38,88,0.7,43,15,32,55,69,颗粒物(PM10)
呼和浩特市,化肥厂生活区,111.717,40.7617,2026-01-17T1900,60,130,0.8,53,10,27,55,90,颗粒物(PM10)
呼和浩特市,海东办,111.6519,40.8389,2026-01-17T1900,23,88,0.6,28,6,37,52,69,颗粒物(PM10)
呼和浩特市,成吉思汗西街8号,111.591512,40.827312,2026-01-17T1900,21,105,0.6,29,8,30,41,78,颗粒物(PM10)
呼和浩特市,公园东路75号,111.6597,40.8077,2026-01-17T1900,26,100,0.5,36,8,37,52,75,颗粒物(PM10)
呼和浩特市,金海路35号,111.5427,40.7846,2026-01-17T1900,36,118,0.8,60,13,11,43,84,颗粒物(PM10)
呼伦贝尔市,国华电力东,119.7511,49.1576,2026-01-17T1900,23,29,0.4,19,6,52,60,33,
呼伦贝尔市,伊敏大街东7号,119.7569,49.2222,2026-01-17T1900,20,29,0.2,12,6,52,58,29,
湖州市,城西水厂,120.075,30.867,2026-01-17T1900,110,128,0.7,38,5,85,102,144,细颗粒物(PM2.5)
湖州市,仁皇山新区,120.083,30.8929,2026-01-17T1900,96,129,1.0,37,5,94,108,127,细颗粒物(PM2.5)
湖州市,吴兴区站,120.1846,30.8592,2026-01-17T1900,85,129,0.8,40,5,92,102,113,细颗粒物(PM2.5)
湖州市,南浔区站,120.4146,30.8538,2026-01-17T1900,77,124,1.0,42,6,68,89,103,细颗粒物(PM2.5)
葫芦岛市,龙港区,120.904878,40.721091,2026-01-17T1900,27,38,0.5,21,72,55,57,39,
葫芦岛市,化工街,120.8382,40.7521,2026-01-17T1900,17,31,0.5,27,13,40,54,31,
葫芦岛市,新区,120.8339,40.7078,2026-01-17T1900,19,23,0.5,25,19,46,55,28,
葫芦岛市,东城区,120.8697,40.7679,2026-01-17T1900,27,30,0.6,30,14,42,59,39,
怀化市,河西地税局,109.9297,27.5383,2026-01-17T1900,85,134,/,57,3,53,96,113,细颗粒物(PM2.5)
怀化市,市四医院,109.9783,27.5342,2026-01-17T1900,94,156,1.2,38,8,72,96,124,细颗粒物(PM2.5)
怀化市,监测楼,109.9971,27.5579,2026-01-17T1900,103,121,0.6,37,5,78,106,135,细颗粒物(PM2.5)
淮安市,钵池山,119.0566,33.5991,2026-01-17T1900,32,46,0.2,14,6,60,61,46,
淮安市,北京南路,119.0083,33.578,2026-01-17T1900,25,53,0.4,13,6,57,57,52,颗粒物(PM10)
淮安市,市监测站,118.9938,33.6083,2026-01-17T1900,17,36,,,,,58,,
淮安市,楚州区监测站,119.135,33.5038,2026-01-17T1900,15,44,0.5,11,8,58,59,44,
淮安市,新华书店,118.8757,33.2897,2026-01-17T1900,18,55,0.4,10,7,53,53,53,颗粒物(PM10)
淮安市,枚皋中路89号,119.119691,33.550006,2026-01-17T1900,14,51,0.2,11,9,66,66,51,颗粒物(PM10)
淮安市,承德北路606号,119.028838,33.631911,2026-01-17T1900,28,48,0.4,13,6,62,62,48,
淮北市,监测站,116.8005,33.9749,2026-01-17T1900,33,84,0.5,24,5,41,50,67,颗粒物(PM10)
淮北市,烈山区政府,116.8094,33.9008,2026-01-17T1900,35,66,0.4,18,5,45,47,58,颗粒物(PM10)
淮北市,市博物馆,116.7926,33.9534,2026-01-17T1900,35,82,0.7,25,4,46,44,66,颗粒物(PM10)
淮北市,杜集区第一实验学校,116.8322,33.9884,2026-01-17T1900,33,83,0.7,19,7,42,49,67,颗粒物(PM10)
淮南市,潘集区政府,116.8304,32.7726,2026-01-17T1900,56,128,0.7,24,5,38,47,89,颗粒物(PM10)
淮南市,谢家集区政府,116.8569,32.5949,2026-01-17T1900,54,156,0.7,31,7,35,50,103,颗粒物(PM10)
淮南市,八公山区政府,116.8279,32.6333,2026-01-17T1900,54,154,0.6,21,5,40,48,102,颗粒物(PM10)
淮南市,经济技术开发区消防队,117.0561,32.6536,2026-01-17T1900,61,137,0.7,31,4,35,47,94,颗粒物(PM10)
淮南市,山南新区,117.011,32.5891,2026-01-17T1900,59,180,0.7,32,2,36,55,115,颗粒物(PM10)
淮南市,国庆中路369号,117.003137,32.644456,2026-01-17T1900,25,144,0.8,27,8,31,42,97,颗粒物(PM10)
黄冈市,职工中心,114.9021,30.474,2026-01-17T1900,108,151,1.1,32,8,40,48,142,细颗粒物(PM2.5)
黄冈市,红卫路,114.8858,30.4519,2026-01-17T1900,111,138,0.7,32,8,38,47,145,细颗粒物(PM2.5)
黄冈市,市林业局,114.9134,30.4446,2026-01-17T1900,110,159,1.1,40,3,42,55,144,细颗粒物(PM2.5)
黄南藏族自治州,同仁县隆务镇,102.02,35.5101,2026-01-17T1900,20,63,0.5,7,15,53,62,57,颗粒物(PM10)
黄山市,延安路89号,118.2905,29.6965,2026-01-17T1900,72,95,0.9,38,6,75,95,97,细颗粒物(PM2.5)
黄山市,黄山区政府5号楼,118.1369,30.2755,2026-01-17T1900,137,197,1.1,24,3,65,76,182,细颗粒物(PM2.5)
黄山市,滨江东路7-2号,118.335445,29.720283,2026-01-17T1900,93,140,/,56,/,36,82,123,细颗粒物(PM2.5)
黄石市,沈家营,115.0547,30.2332,2026-01-17T1900,130,200,1.6,64,6,26,42,172,细颗粒物(PM2.5)
黄石市,铁山,114.899,30.211,2026-01-17T1900,162,166,0.9,46,8,41,50,212,细颗粒物(PM2.5)
黄石市,团城山,115.0259,30.2108,2026-01-17T1900,149,202,1.1,73,6,28,51,199,细颗粒物(PM2.5)
黄石市,笔架山北路,115.0174,30.1591,2026-01-17T1900,205,284,1.7,31,19,66,68,255,细颗粒物(PM2.5)
黄石市,磁湖东路29号,115.078022,30.21118,2026-01-17T1900,193,218,1.6,66,9,46,45,243,细颗粒物(PM2.5)
惠州市,河南岸金山湖子站,114.4181,23.0528,2026-01-17T1900,50,87,0.9,65,4,81,129,69,"颗粒物(PM10),细颗粒物(PM2.5)"
惠州市,下埔横江三路子站,114.4055,23.0824,2026-01-17T1900,47,86,1.1,60,6,73,142,68,颗粒物(PM10)
惠州市,惠阳区承修路船湖子站,114.4645,22.7832,2026-01-17T1900,27,55,0.5,23,8,146,150,53,颗粒物(PM10)
惠州市,大亚湾管委会子站,114.5316,22.7423,2026-01-17T1900,25,59,0.6,28,6,126,142,55,颗粒物(PM10)
惠州市,惠阳秋长,114.4334,22.8134,2026-01-17T1900,26,63,/,24,/,168,178,60,臭氧1小时(O3_1h)
惠州市,大亚湾霞涌,114.6521,22.7755,2026-01-17T1900,30,58,/,38,/,127,163,54,颗粒物(PM10)
惠州市,文华一路1号,114.4089,23.1147,2026-01-17T1900,34,66,/,45,/,130,158,58,颗粒物(PM10)
鸡西市,环保局,130.9618,45.2926,2026-01-17T1900,16,28,0.3,11,7,58,62,28,
鸡西市,第一中学,130.9294,45.2959,2026-01-17T1900,26,34,0.5,10,5,58,63,38,
鸡西市,欧美日汽修厂,131.0069,45.2988,2026-01-17T1900,26,26,0.4,9,7,67,69,38,
吉安市,红声器材厂,114.9753,27.0803,2026-01-17T1900,52,74,0.9,26,12,110,118,72,细颗粒物(PM2.5)
吉安市,市环境监测站,114.9903,27.1313,2026-01-17T1900,47,71,/,24,16,112,123,65,细颗粒物(PM2.5)
吉安市,青原区法院,115.009527,27.096792,2026-01-17T1900,58,78,0.9,41,14,82,110,79,细颗粒物(PM2.5)
吉林市,哈达湾,126.54,43.8622,2026-01-17T1900,20,33,0.6,11,7,68,68,33,
吉林市,东局子,126.5843,43.8358,2026-01-17T1900,19,31,0.9,14,4,58,61,31,
吉林市,电力学院,126.5051,43.8243,2026-01-17T1900,61,84,1.2,34,17,45,63,83,细颗粒物(PM2.5)
吉林市,江北,126.6133,43.8971,2026-01-17T1900,22,28,0.8,14,8,56,58,32,
吉林市,江南公园,126.5549,43.8304,2026-01-17T1900,28,35,0.7,16,7,58,65,40,
吉林市,九站,126.4737,43.953,2026-01-17T1900,39,51,0.9,42,7,36,62,55,细颗粒物(PM2.5)
济南市,科干所,116.9866,36.6118,2026-01-17T1900,37,61,0.6,29,10,45,56,56,颗粒物(PM10)
济南市,农科所,116.9379,36.6652,2026-01-17T1900,39,88,0.7,56,11,18,46,69,颗粒物(PM10)
济南市,开发区,117.1265,36.6736,2026-01-17T1900,37,88,0.8,48,6,25,50,69,颗粒物(PM10)
济南市,省种子仓库,117.0616,36.6865,2026-01-17T1900,39,90,0.8,47,7,26,54,70,颗粒物(PM10)
济南市,机床二厂,116.9495185,36.644937,2026-01-17T1900,37,78,0.5,52,9,22,51,64,颗粒物(PM10)
济南市,市监测站,117.0496,36.6629,2026-01-17T1900,42,85,0.7,49,6,21,53,68,颗粒物(PM10)
济南市,长清党校,116.7674,36.5458,2026-01-17T1900,37,81,0.6,49,12,20,54,66,颗粒物(PM10)
济南市,东山小学,117.5323,36.6865,2026-01-17T1900,42,76,0.3,37,7,41,60,63,颗粒物(PM10)
济南市,泰兴公司,117.7181,36.205,2026-01-17T1900,31,48,0.7,31,6,54,62,48,
济南市,莱芜战役纪念馆,117.6861,36.2172,2026-01-17T1900,32,46,0.6,25,15,58,60,46,
济南市,济阳区政府,117.1673,36.9782,2026-01-17T1900,17,46,0.5,23,8,51,55,46,
济南市,锦屏中学,117.1168,36.6299,2026-01-17T1900,24,44,0.8,20,6,61,57,44,
济南市,山财大街5号,117.7107,36.2385,2026-01-17T1900,24,34,0.5,22,9,62,64,35,
济南市,无影山路12号,116.9744,36.6889,2026-01-17T1900,41,83,0.7,52,11,19,50,67,颗粒物(PM10)
济宁市,火炬城,116.6229,35.4288,2026-01-17T1900,46,81,0.4,20,4,53,60,66,颗粒物(PM10)
济宁市,北湖一中,116.5808,35.3703,2026-01-17T1900,48,65,0.5,24,5,46,56,67,细颗粒物(PM2.5)
济宁市,服务中心,116.8251,35.5592,2026-01-17T1900,41,50,0.7,25,9,42,55,58,细颗粒物(PM2.5)
济宁市,市第七中学,116.5907,35.4054,2026-01-17T1900,39,66,0.5,22,6,52,61,58,颗粒物(PM10)
济宁市,任和路,116.6075,35.4566,2026-01-17T1900,39,79,0.6,22,5,48,59,65,颗粒物(PM10)
济宁市,文体南路1号,116.5648,35.3921,2026-01-17T1900,34,75,0.5,23,3,48,59,63,颗粒物(PM10)
佳木斯市,佳纺,130.2749,46.8028,2026-01-17T1900,35,44,0.5,23,12,42,54,50,
佳木斯市,环保局,130.3258,46.7975,2026-01-17T1900,38,,0.4,20,10,52,59,54,细颗粒物(PM2.5)
佳木斯市,顺和街,130.363,46.806,2026-01-17T1900,32,34,0.4,18,12,44,48,46,
佳木斯市,长安路196号,130.3952,46.8268,2026-01-17T1900,26,40,0.4,19,8,48,55,40,
嘉兴市,清河小学,120.7439,30.778,2026-01-17T1900,58,106,0.6,21,5,,107,,
嘉兴市,嘉兴学院,120.7261,30.7477,2026-01-17T1900,56,107,0.8,32,4,93,114,79,颗粒物(PM10)
嘉兴市,南湖区残联,120.7845,30.7524,2026-01-17T1900,54,87,0.8,26,4,96,118,74,细颗粒物(PM2.5)
嘉兴市,秀洲住建,120.6915,30.7741,2026-01-17T1900,58,101,0.7,29,6,91,109,79,细颗粒物(PM2.5)
嘉峪关市,气象局,98.291,39.7705,2026-01-17T1900,19,56,0.4,6,9,71,81,53,颗粒物(PM10)
嘉峪关市,酒钢宾馆,98.2672,39.7978,2026-01-17T1900,22,51,1.1,14,15,63,78,51,颗粒物(PM10)
嘉峪关市,雄关区,98.2644,39.7723,2026-01-17T1900,,,0.4,7,12,,81,,
江门市,北街,113.1063,22.6058,2026-01-17T1900,64,97,/,46,/,242,230,121,臭氧1小时(O3_1h)
江门市,西区,113.073,22.5835,2026-01-17T1900,58,140,/,57,/,233,218,117,臭氧1小时(O3_1h)
江门市,圭峰西,113.0218,22.531,2026-01-17T1900,53,95,/,42,/,212,192,106,臭氧1小时(O3_1h)
江门市,东湖,113.0826,22.5947,2026-01-17T1900,65,108,0.7,43,13,247,224,124,臭氧1小时(O3_1h)
江门市,江海富民,113.1077,22.5647,2026-01-17T1900,61,124,1.0,70,/,241,237,121,臭氧1小时(O3_1h)
江门市,新会银湖,113.0496,22.4669,2026-01-17T1900,61,95,0.7,50,8,142,200,83,细颗粒物(PM2.5)
焦作市,马村街道办,113.3137,35.2643,2026-01-17T1900,57,103,0.4,22,4,39,54,78,细颗粒物(PM2.5)
焦作市,焦作技师学院,113.2464,35.2374,2026-01-17T1900,61,84,0.7,23,8,37,50,83,细颗粒物(PM2.5)
焦作市,中站许衡医院,113.1656,35.2536,2026-01-17T1900,,,,,5,43,56,,
焦作市,原李万街道办,113.2456,35.18,2026-01-17T1900,53,105,0.4,19,3,,55,,
焦作市,新安路1731号,113.234,35.219,2026-01-17T1900,57,88,0.5,19,6,37,52,78,细颗粒物(PM2.5)
焦作市,人民路3066号,113.2722,35.2121,2026-01-17T1900,53,84,0.7,22,3,35,50,73,细颗粒物(PM2.5)
揭阳市,新兴,116.3701,23.5345,2026-01-17T1900,37,61,0.6,37,10,127,143,56,颗粒物(PM10)
揭阳市,西马,116.3261,23.5442,2026-01-17T1900,42,80,0.5,22,6,124,143,65,颗粒物(PM10)
揭阳市,东兴,116.361,23.5627,2026-01-17T1900,36,65,/,26,10,116,130,58,颗粒物(PM10)
揭阳市,渔湖,116.4151,23.5295,2026-01-17T1900,33,68,/,32,8,130,143,59,颗粒物(PM10)
揭阳市,曲溪,116.4028,23.5699,2026-01-17T1900,36,77,1.9,36,8,127,151,64,颗粒物(PM10)
金昌市,天庆家园,102.1691,38.5166,2026-01-17T1900,20,163,0.5,8,4,64,69,107,颗粒物(PM10)
金昌市,金川区人防中心,102.1648,38.5369,2026-01-17T1900,23,161,0.5,7,3,67,73,106,颗粒物(PM10)
金昌市,长春路96号,102.193042,38.531887,2026-01-17T1900,17,114,0.5,5,5,63,69,82,颗粒物(PM10)
金华市,十五中,119.6478,29.0773,2026-01-17T1900,90,121,0.7,31,4,96,116,119,细颗粒物(PM2.5)
金华市,监测站,119.6859,29.1032,2026-01-17T1900,81,134,0.7,43,3,77,99,108,细颗粒物(PM2.5)
金华市,气象局,119.656,29.1132,2026-01-17T1900,74,128,0.9,52,4,65,98,99,细颗粒物(PM2.5)
锦州市,南山,121.1114,41.0879,2026-01-17T1900,35,37,0.7,21,23,54,65,50,
锦州市,开发区,121.060361,40.842794,2026-01-17T1900,29,35,0.4,15,7,62,58,42,
锦州市,百股街道,121.1836,41.1118,2026-01-17T1900,39,40,0.7,23,9,49,60,55,细颗粒物(PM2.5)
锦州市,天安街道,121.1176,41.1224,2026-01-17T1900,35,45,0.7,27,10,52,71,50,
锦州市,北湖公园,121.1303,41.1385,2026-01-17T1900,54,,0.7,25,10,43,65,74,细颗粒物(PM2.5)
晋城市,自来水公司,112.8496,35.5051,2026-01-17T1900,46,67,0.7,19,5,53,60,64,细颗粒物(PM2.5)
晋城市,市环保局,112.8509,35.4886,2026-01-17T1900,44,101,0.8,18,4,58,65,76,颗粒物(PM10)
晋城市,泽州一中,112.8258,35.4804,2026-01-17T1900,44,79,0.6,21,4,62,68,65,颗粒物(PM10)
晋城市,前书院路,112.8246,35.5152,2026-01-17T1900,41,87,0.5,18,6,56,62,69,颗粒物(PM10)
晋城市,祥云街666号,112.8864,35.4773,2026-01-17T1900,53,64,0.5,12,4,53,58,73,细颗粒物(PM2.5)
晋中市,榆次区政府,112.6992,37.6984,2026-01-17T1900,47,110,0.4,21,7,56,61,80,颗粒物(PM10)
晋中市,榆次三中,112.7195,37.683,2026-01-17T1900,36,119,0.3,16,7,53,56,85,颗粒物(PM10)
晋中市,广安街188号,112.7375,37.7215,2026-01-17T1900,50,95,0.4,17,8,58,64,73,颗粒物(PM10)
晋中市,迎宾街26号,112.7478,37.6954,2026-01-17T1900,44,92,0.5,20,6,56,60,71,颗粒物(PM10)
荆门市,竹园小学,112.2012,31.048,2026-01-17T1900,117,182,1.0,33,1,70,77,153,细颗粒物(PM2.5)
荆门市,掇刀,112.1968,30.9892,2026-01-17T1900,113,174,0.7,32,4,,71,148,细颗粒物(PM2.5)
荆门市,西山林语,112.1849,31.0361,2026-01-17T1900,111,168,0.6,29,6,71,72,145,细颗粒物(PM2.5)
荆门市,龙泉中学南校,112.1631,31.0134,2026-01-17T1900,112,183,0.7,24,5,71,74,147,细颗粒物(PM2.5)
荆门市,新台西路6号,112.2213,31.0654,2026-01-17T1900,138,197,0.9,33,8,54,68,183,细颗粒物(PM2.5)
荆州市,市图书馆,112.2493,30.3198,2026-01-17T1900,128,137,1.1,31,6,59,66,169,细颗粒物(PM2.5)
荆州市,市委党校,112.2009,30.3543,2026-01-17T1900,122,171,1.0,36,3,50,56,160,细颗粒物(PM2.5)
荆州市,管委会,112.2749,30.3124,2026-01-17T1900,120,154,1.0,42,6,42,53,158,细颗粒物(PM2.5)
荆州市,学苑路85号,112.1722,30.3366,2026-01-17T1900,112,161,1.1,23,4,66,71,147,细颗粒物(PM2.5)
景德镇市,老干部活动中心,117.2114,29.2931,2026-01-17T1900,46,63,0.9,43,4,37,58,64,细颗粒物(PM2.5)
景德镇市,兽医站,117.1893,29.2789,2026-01-17T1900,39,69,0.9,45,8,41,64,60,颗粒物(PM10)
景德镇市,陶研所,117.246,29.2958,2026-01-17T1900,54,68,0.6,33,4,42,59,74,细颗粒物(PM2.5)
景德镇市,青少年活动中心,117.154766,29.256967,2026-01-17T1900,41,79,/,46,11,28,47,65,颗粒物(PM10)
九江市,十里,115.9873,29.6816,2026-01-17T1900,160,205,1.5,40,5,81,80,210,细颗粒物(PM2.5)
九江市,茅山头,115.9583,29.7047,2026-01-17T1900,148,225,1.4,27,11,71,69,198,细颗粒物(PM2.5)
九江市,西园,115.9877,29.7295,2026-01-17T1900,152,200,1.3,55,1,74,76,202,细颗粒物(PM2.5)
九江市,综合工业园,115.9112,29.6038,2026-01-17T1900,181,218,0.7,38,3,77,68,231,细颗粒物(PM2.5)
九江市,外国语学校,116.0254,29.6995,2026-01-17T1900,157,206,1.4,40,8,60,59,207,细颗粒物(PM2.5)
九江市,莲花大道8号,116.010205,29.659402,2026-01-17T1900,174,231,1.1,19,4,72,65,224,细颗粒物(PM2.5)
酒泉市,玉门东路5号,98.495752,39.733935,2026-01-17T1900,24,56,0.4,6,9,71,76,53,颗粒物(PM10)
酒泉市,北大街108号,98.5099,39.7506,2026-01-17T1900,25,53,0.4,7,10,65,71,52,颗粒物(PM10)
喀什地区,巡警大队,76.0071,39.466,2026-01-17T1900,71,292,0.7,17,6,72,58,171,颗粒物(PM10)
喀什地区,吾办,75.9756,39.4693,2026-01-17T1900,71,264,0.7,22,10,70,58,157,颗粒物(PM10)
喀什地区,老干局,75.9485,39.4688,2026-01-17T1900,60,312,0.6,18,5,68,58,181,颗粒物(PM10)
开封市,肿瘤医院,114.3389,34.778,2026-01-17T1900,59,106,0.7,35,3,21,46,80,细颗粒物(PM2.5)
开封市,世纪星幼儿园,114.2884,34.7966,2026-01-17T1900,61,112,0.6,31,5,23,49,83,细颗粒物(PM2.5)
开封市,龙亭公园,114.3434,34.8101,2026-01-17T1900,73,115,0.5,22,5,21,46,98,细颗粒物(PM2.5)
开封市,汴京公园,114.3645,34.7955,2026-01-17T1900,65,111,0.9,31,3,21,44,88,细颗粒物(PM2.5)
开封市,技师学院,114.2485,34.8306,2026-01-17T1900,61,105,0.9,30,4,20,47,83,细颗粒物(PM2.5)
开封市,祥符区生态环境局,114.4518,34.7503,2026-01-17T1900,53,116,0.7,34,3,24,36,83,颗粒物(PM10)
克拉玛依市,长征新村,84.886,45.6029,2026-01-17T1900,8,31,0.3,7,6,62,63,31,
克拉玛依市,南林小区,84.8894,45.5827,2026-01-17T1900,3,21,0.5,4,2,64,63,21,
克拉玛依市,独山子区,84.896,44.3328,2026-01-17T1900,28,63,0.4,23,5,58,51,57,颗粒物(PM10)
克拉玛依市,乌尔禾区商贸楼,85.6888,46.0909,2026-01-17T1900,16,25,0.4,15,6,59,63,25,
克拉玛依市,白碱滩区新站,85.1045,45.6895,2026-01-17T1900,3,33,0.1,7,8,69,66,33,
克孜勒苏柯尔克孜自治州,市人民政府,76.1457,39.7143,2026-01-17T1900,73,166,0.3,14,5,79,70,108,颗粒物(PM10)
克孜勒苏柯尔克孜自治州,克州文化中心,76.1654,39.7157,2026-01-17T1900,49,212,0.6,12,6,77,69,131,颗粒物(PM10)
昆明市,呈贡新区,102.8203,24.889,2026-01-17T1900,12,46,0.6,24,5,66,78,46,
昆明市,龙泉镇,102.7253,25.0904,2026-01-17T1900,15,40,0.4,21,6,71,82,40,
昆明市,东风东路,102.7267,25.0378,2026-01-17T1900,19,40,0.3,23,10,83,85,40,
昆明市,金鼎山,102.6744,25.0671,2026-01-17T1900,12,39,0.6,16,8,77,84,39,
昆明市,碧鸡广场,102.6643,25.0401,2026-01-17T1900,22,36,0.6,32,13,67,83,36,
昆明市,官渡区博物馆,102.7491,25.012,2026-01-17T1900,14,37,0.3,18,6,89,89,37,
昆明市,青年创业园,102.8016,24.8336,2026-01-17T1900,17,20,0.5,5,7,89,94,28,
昆明市,昆明学院,102.8,24.9787,2026-01-17T1900,6,24,0.4,15,5,93,92,30,
昆明市,晋宁区生态环境分局,102.5969,24.6738,2026-01-17T1900,14,21,0.5,7,2,56,68,21,
昆明市,云天化总部,102.6673,24.9861,2026-01-17T1900,10,18,0.1,12,8,92,92,29,
拉萨市,八廓街,91.132,29.6515,2026-01-17T1900,9,19,0.3,16,8,82,82,26,
拉萨市,市环保局,91.1221,29.6748,2026-01-17T1900,13,13,0.7,23,8,72,77,23,
拉萨市,区监测站,91.0874,29.6476,2026-01-17T1900,6,15,0.8,25,4,74,75,24,
拉萨市,西藏大学,91.1774,29.6541,2026-01-17T1900,10,23,0.8,30,7,76,81,24,
拉萨市,区辐射站,90.9798,29.6586,2026-01-17T1900,10,18,0.4,18,4,78,71,25,
拉萨市,拉萨火车站,91.0831,29.6292,2026-01-17T1900,8,19,0.7,19,4,76,69,24,
来宾市,来宾技工学校,109.2203,23.7252,2026-01-17T1900,51,78,0.9,17,7,77,93,70,细颗粒物(PM2.5)
来宾市,兴宾区政府,109.1781,23.7293,2026-01-17T1900,81,100,0.8,13,7,101,110,108,细颗粒物(PM2.5)
来宾市,中南小学,109.2312,23.7428,2026-01-17T1900,48,70,0.8,16,5,89,102,67,细颗粒物(PM2.5)
兰州市,铁路设计院,103.8309,36.0467,2026-01-17T1900,,,,,,,,,
兰州市,百合公园,103.7439,36.0841,2026-01-17T1900,96,168,2.8,140,35,0,35,127,细颗粒物(PM2.5)
兰州市,和平,103.9613,35.9985,2026-01-17T1900,85,141,1.2,76,19,19,54,113,细颗粒物(PM2.5)
兰州市,庄浪东路808号,103.629272,36.093822,2026-01-17T1900,51,119,1.3,100,27,15,58,85,颗粒物(PM10)
兰州市,安宁西路88号,103.7251,36.104344,2026-01-17T1900,70,148,1.8,132,34,3,52,99,颗粒物(PM10)
兰州市,北滨河东路1号,103.846982,36.067567,2026-01-17T1900,91,192,2.6,,27,2,32,121,颗粒物(PM10)
廊坊市,药材公司,116.6712,39.5109,2026-01-17T1900,9,34,0.4,18,3,51,51,34,
廊坊市,开发区,116.7215,39.5592,2026-01-17T1900,11,31,0.3,17,3,55,55,31,
廊坊市,北华航天学院,116.7246,39.5273,2026-01-17T1900,12,38,0.3,15,3,52,54,38,
廊坊市,河北工业大学,116.7022,39.5454,2026-01-17T1900,16,31,0.3,14,1,51,52,31,
乐山市,牛耳桥,103.7629,29.5844,2026-01-17T1900,111,136,1.3,66,5,42,72,145,细颗粒物(PM2.5)
乐山市,市第三水厂,103.7501,29.6002,2026-01-17T1900,119,139,1.5,89,7,19,70,156,细颗粒物(PM2.5)
乐山市,市监测站,103.7571,29.5664,2026-01-17T1900,105,119,0.8,16,6,109,76,138,细颗粒物(PM2.5)
乐山市,理工大学,103.7313,29.563,2026-01-17T1900,107,121,0.7,14,6,105,73,140,细颗粒物(PM2.5)
丽江市,丽江古城,100.2497,26.8802,2026-01-17T1900,17,47,0.6,17,12,88,84,47,
丽江市,市中心,100.2203,26.8906,2026-01-17T1900,20,41,0.6,22,9,83,83,41,
丽水市,监测站大楼,119.9141,28.4513,2026-01-17T1900,75,85,0.7,31,6,128,107,100,细颗粒物(PM2.5)
丽水市,莲都小学,119.93,28.4589,2026-01-17T1900,68,108,/,32,/,138,112,92,细颗粒物(PM2.5)
丽水市,余庄前,119.8794,28.4232,2026-01-17T1900,46,81,0.6,36,5,82,108,66,颗粒物(PM10)
连云港市,市环境监测站,119.1759,34.5885,2026-01-17T1900,9,34,0.3,10,10,,69,,
连云港市,德源药业,119.3577,34.6971,2026-01-17T1900,12,29,0.5,12,5,,67,,
连云港市,新城一中,119.178,34.8442,2026-01-17T1900,9,41,0.8,14,8,69,64,41,
连云港市,胡沟管理处,119.3607,34.7519,2026-01-17T1900,7,24,0.3,30,9,54,70,24,
连云港市,矿山设计院,119.1478,34.5913,2026-01-17T1900,12,34,0.5,12,6,72,68,34,
连云港市,工贸学校,119.2414,34.6539,2026-01-17T1900,10,27,0.4,4,9,77,72,27,
连云港市,连云街道,119.4171,34.734,2026-01-17T1900,8,21,0.5,17,3,75,65,24,
凉山彝族自治州,西昌市政府,102.2629,27.8981,2026-01-17T1900,44,57,0.6,15,10,90,86,62,细颗粒物(PM2.5)
凉山彝族自治州,凉山州政府,102.2686,27.885,2026-01-17T1900,41,64,0.8,33,11,73,81,58,细颗粒物(PM2.5)
凉山彝族自治州,凯乐南路30号,102.2342,27.8859,2026-01-17T1900,36,58,0.6,20,13,90,80,54,颗粒物(PM10)
辽阳市,宏伟区,123.1978,41.2036,2026-01-17T1900,25,35,0.5,19,16,51,65,36,
辽阳市,新华园,123.1684,41.2497,2026-01-17T1900,31,37,0.5,26,8,49,58,45,
辽阳市,滨河路,123.2355,41.2663,2026-01-17T1900,40,61,0.9,42,9,26,56,57,细颗粒物(PM2.5)
辽阳市,铁西路150号,123.153,41.2874,2026-01-17T1900,31,34,1.0,30,12,45,60,45,
辽源市,环保局,125.1359,42.8845,2026-01-17T1900,25,33,0.5,16,7,62,65,36,
辽源市,安宁大街333号,125.0998,42.9134,2026-01-17T1900,46,,0.6,27,13,46,63,64,细颗粒物(PM2.5)
聊城市,区政府,115.9789,36.4372,2026-01-17T1900,41,53,0.7,30,15,55,53,58,细颗粒物(PM2.5)
聊城市,监控中心,115.9772,36.4986,2026-01-17T1900,58,91,1.0,45,9,31,48,79,细颗粒物(PM2.5)
聊城市,九州社区,116.0443,36.436,2026-01-17T1900,48,62,0.5,9,7,62,61,67,细颗粒物(PM2.5)
聊城市,星美广场,116.0564,36.4609,2026-01-17T1900,33,64,0.5,20,7,53,49,57,颗粒物(PM10)
聊城市,利民路,116.0091,36.4495,2026-01-17T1900,32,57,0.7,28,12,50,46,54,颗粒物(PM10)
林芝市,林芝监测站,94.3683,29.6373,2026-01-17T1900,9,14,0.4,10,4,75,80,24,
林芝市,林芝人民医院,94.3616,29.6634,2026-01-17T1900,12,30,0.3,17,3,71,76,30,
临沧市,市环保局,100.0779,23.8981,2026-01-17T1900,45,50,0.5,14,6,73,85,63,细颗粒物(PM2.5)
临沧市,市气象局,100.0894,23.882,2026-01-17T1900,23,45,0.6,17,5,69,84,45,
临汾市,临钢医院,111.5552,36.0791,2026-01-17T1900,63,130,0.9,21,6,72,74,90,颗粒物(PM10)
临汾市,技工学校,111.4984,36.0734,2026-01-17T1900,71,123,0.7,32,4,67,70,95,细颗粒物(PM2.5)
临汾市,市委,111.5017,36.0857,2026-01-17T1900,61,129,0.9,23,7,72,78,90,颗粒物(PM10)
临汾市,唐尧大酒店,111.5048,36.1015,2026-01-17T1900,73,132,0.8,32,3,61,75,98,细颗粒物(PM2.5)
临汾市,启星学校,111.4879,36.053,2026-01-17T1900,64,110,0.8,28,8,74,78,87,细颗粒物(PM2.5)
临夏回族自治州,滨河东路1号,103.2464,35.6123,2026-01-17T1900,56,113,1.3,82,14,,50,,
临夏回族自治州,新华街21号,103.207136,35.599807,2026-01-17T1900,52,142,1.7,75,16,25,43,96,颗粒物(PM10)
临沂市,沂河小区,118.3429,35.0532,2026-01-17T1900,35,51,0.8,26,12,50,48,51,颗粒物(PM10)
临沂市,鲁南制药厂,118.2962,35.0568,2026-01-17T1900,32,46,0.9,22,12,49,50,46,
临沂市,新光毛纺厂,118.2793,34.9976,2026-01-17T1900,28,44,0.9,31,11,51,49,44,
临沂市,河东保险公司,118.3955,35.0889,2026-01-17T1900,26,53,0.8,27,10,47,49,52,颗粒物(PM10)
临沂市,十里堡居委,118.3563,35.0215,2026-01-17T1900,14,36,0.8,23,12,57,53,36,
临沂市,南坊新区,118.359,35.1067,2026-01-17T1900,31,51,0.9,28,12,49,52,51,颗粒物(PM10)
临沂市,皇山花园小区,118.3915,35.0297,2026-01-17T1900,28,51,1.0,26,14,53,52,51,颗粒物(PM10)
柳州市,柳东小学,109.4854,24.3898,2026-01-17T1900,63,69,0.7,11,8,120,106,85,细颗粒物(PM2.5)
柳州市,环保监测站,109.4109,24.3304,2026-01-17T1900,56,72,1.1,30,5,84,93,77,细颗粒物(PM2.5)
柳州市,河西水厂,109.3886,24.3408,2026-01-17T1900,57,96,1.2,24,11,100,98,78,细颗粒物(PM2.5)
柳州市,市四中,109.4263,24.2951,2026-01-17T1900,69,100,1.1,53,10,63,96,93,细颗粒物(PM2.5)
柳州市,市九中,109.396,24.3658,2026-01-17T1900,70,95,1.6,59,17,56,88,94,细颗粒物(PM2.5)
柳州市,古亭山,109.4912,24.3164,2026-01-17T1900,,,0.8,33,8,,93,,
柳州市,市二中,109.5422,24.3994,2026-01-17T1900,44,71,0.7,20,11,95,100,62,细颗粒物(PM2.5)
六安市,监测大楼,116.5078,31.7369,2026-01-17T1900,174,232,0.9,50,3,24,30,224,细颗粒物(PM2.5)
六安市,皖西学院,116.4738,31.7642,2026-01-17T1900,169,257,1.0,58,5,8,23,219,细颗粒物(PM2.5)
六安市,朝阳厂,116.4997,31.7904,2026-01-17T1900,165,231,1.1,61,5,5,34,215,细颗粒物(PM2.5)
六安市,开发区,116.5566,31.7885,2026-01-17T1900,134,232,0.9,41,5,34,50,178,细颗粒物(PM2.5)
六盘水市,黄土坡,104.8293,26.592,2026-01-17T1900,66,85,0.9,26,15,96,96,89,细颗粒物(PM2.5)
六盘水市,民中,104.8481,26.5898,2026-01-17T1900,78,87,0.9,24,9,100,93,104,细颗粒物(PM2.5)
六盘水市,双水,104.9541,26.5506,2026-01-17T1900,61,95,0.4,19,7,107,98,83,细颗粒物(PM2.5)
六盘水市,钟山大道中段564号,104.8899,26.5685,2026-01-17T1900,69,107,0.9,18,10,99,94,93,细颗粒物(PM2.5)
龙岩市,龙岩市监测站,117.022,25.1031,2026-01-17T1900,37,57,1.1,45,14,83,108,54,颗粒物(PM10)
龙岩市,闽西职业技术学院,117.0257,25.0662,2026-01-17T1900,42,69,1.2,52,12,63,111,60,颗粒物(PM10)
龙岩市,龙岩学院,117.0195,25.0306,2026-01-17T1900,51,58,/,19,11,96,114,70,细颗粒物(PM2.5)
陇南市,滨江中学,104.9344,33.3827,2026-01-17T1900,115,219,4.4,102,31,6,52,150,细颗粒物(PM2.5)
陇南市,市总工会,104.9551,33.3709,2026-01-17T1900,40,64,0.7,22,10,,67,,
娄底市,市监测站,111.9984,27.7346,2026-01-17T1900,,,,,,,64,,
娄底市,市政府,111.9888,27.7035,2026-01-17T1900,113,156,0.8,33,7,98,100,148,细颗粒物(PM2.5)
娄底市,涟钢职大,111.9812,27.7591,2026-01-17T1900,138,176,0.8,27,10,90,99,183,细颗粒物(PM2.5)
娄底市,娄底体校,112.0303,27.7457,2026-01-17T1900,110,172,0.8,21,3,92,93,144,细颗粒物(PM2.5)
泸州市,小市上码头,105.4427,28.9063,2026-01-17T1900,109,124,1.3,21,7,98,70,143,细颗粒物(PM2.5)
泸州市,兰田宪桥,105.4241,28.8573,2026-01-17T1900,110,154,1.4,16,8,79,66,144,细颗粒物(PM2.5)
泸州市,市环监站,105.4378,28.8833,2026-01-17T1900,93,113,1.1,20,10,105,72,123,细颗粒物(PM2.5)
泸州市,纳溪中医医院,105.3689,28.7783,2026-01-17T1900,155,,1.6,35,8,,42,205,细颗粒物(PM2.5)
吕梁市,环保局,111.1447,37.5212,2026-01-17T1900,70,143,0.6,45,11,60,73,97,颗粒物(PM10)
吕梁市,自来水公司,111.1285,37.5338,2026-01-17T1900,86,145,0.9,37,10,66,76,114,细颗粒物(PM2.5)
吕梁市,马茂庄小学,111.1225,37.5093,2026-01-17T1900,78,141,0.8,48,13,54,67,104,细颗粒物(PM2.5)
洛阳市,市委党校,112.3934,34.6517,2026-01-17T1900,63,104,0.8,40,8,24,61,85,细颗粒物(PM2.5)
洛阳市,河南林校,112.494,34.6883,2026-01-17T1900,68,113,0.7,37,8,22,60,92,细颗粒物(PM2.5)
洛阳市,开发区管委会,112.3843,34.623,2026-01-17T1900,69,115,0.8,39,7,23,60,93,细颗粒物(PM2.5)
洛阳市,市委新办公区,112.4263,34.6249,2026-01-17T1900,67,125,0.6,38,8,25,62,90,细颗粒物(PM2.5)
洛阳市,伊滨,112.6005,34.6323,2026-01-17T1900,76,111,0.6,40,7,24,54,102,细颗粒物(PM2.5)
洛阳市,中移产业园,112.495,34.6338,2026-01-17T1900,72,107,0.7,35,9,16,53,97,细颗粒物(PM2.5)
洛阳市,吉利监测站,112.5736,34.8993,2026-01-17T1900,64,107,0.9,31,8,30,61,87,细颗粒物(PM2.5)
洛阳市,河科大西苑校区,112.3678,34.6623,2026-01-17T1900,60,112,0.8,38,8,28,64,82,细颗粒物(PM2.5)
洛阳市,英才小学,112.4387,34.678,2026-01-17T1900,77,127,0.7,42,,20,58,103,细颗粒物(PM2.5)
洛阳市,春都路1号院,112.460027,34.694929,2026-01-17T1900,64,132,0.9,33,6,23,57,91,颗粒物(PM10)
漯河市,三五一五工厂,114.051,33.5721,2026-01-17T1900,65,,0.8,25,6,,35,,
漯河市,漯河大学,114.0055,33.5698,2026-01-17T1900,61,83,0.7,20,4,15,34,83,细颗粒物(PM2.5)
漯河市,市水利局,114.0134,33.5826,2026-01-17T1900,63,88,0.8,22,4,16,33,85,细颗粒物(PM2.5)
漯河市,市广电局,114.0261,33.5697,2026-01-17T1900,62,88,0.7,22,5,17,34,84,细颗粒物(PM2.5)
漯河市,市图书馆,113.9691,33.568,2026-01-17T1900,73,98,,,,,33,,
漯河市,韶山路11号,114.089259,33.588274,2026-01-17T1900,68,107,0.9,21,5,13,27,92,细颗粒物(PM2.5)
马鞍山市,湖东路四小,118.5084,31.6838,2026-01-17T1900,101,161,1.0,35,4,56,84,133,细颗粒物(PM2.5)
马鞍山市,开发区,118.5019,31.6449,2026-01-17T1900,93,167,0.9,34,4,60,86,123,细颗粒物(PM2.5)
马鞍山市,雨山,118.4914,31.681,2026-01-17T1900,93,165,1.1,37,6,58,87,123,细颗粒物(PM2.5)
马鞍山市,慈湖高新区,118.527362,31.722269,2026-01-17T1900,95,165,0.9,29,4,64,86,125,细颗粒物(PM2.5)
茂名市,电白南海,111.0285,21.469,2026-01-17T1900,,,,,,,141,,
茂名市,茂石化七小,110.9294,21.6533,2026-01-17T1900,41,78,0.5,29,10,135,156,64,颗粒物(PM10)
茂名市,健康路,110.9108,21.6688,2026-01-17T1900,36,68,0.9,29,12,142,171,59,颗粒物(PM10)
茂名市,高岭,110.8592,21.6826,2026-01-17T1900,34,92,/,29,23,137,158,71,颗粒物(PM10)
茂名市,电白水东,111.0101,21.5165,2026-01-17T1900,29,44,/,13,8,142,142,45,
眉山市,气象局,103.8414,30.0871,2026-01-17T1900,110,153,1.0,40,16,108,113,144,细颗粒物(PM2.5)
眉山市,区人社局,103.829,30.0563,2026-01-17T1900,114,138,1.1,76,14,57,83,149,细颗粒物(PM2.5)
眉山市,眉职院,103.8836,30.0695,2026-01-17T1900,85,120,0.9,21,2,97,104,113,细颗粒物(PM2.5)
梅州市,梅江月梅,116.1248,24.3307,2026-01-17T1900,37,53,/,14,/,112,119,53,细颗粒物(PM2.5)
梅州市,梅县新城,116.0798,24.2719,2026-01-17T1900,81,,1.2,63,8,56,108,108,细颗粒物(PM2.5)
梅州市,梅龙,116.1234,24.2994,2026-01-17T1900,44,90,1.2,52,10,53,99,70,颗粒物(PM10)
绵阳市,富乐山,104.7775,31.4741,2026-01-17T1900,96,113,0.6,14,8,93,89,127,细颗粒物(PM2.5)
绵阳市,高新区自来水公司,104.6698,31.4668,2026-01-17T1900,85,112,0.9,38,9,76,78,113,细颗粒物(PM2.5)
绵阳市,西科大附属小学,104.6899,31.5324,2026-01-17T1900,111,138,0.6,40,10,98,94,145,细颗粒物(PM2.5)
绵阳市,安州区旅游局,104.5647,31.5343,2026-01-17T1900,105,122,0.9,55,12,79,87,138,细颗粒物(PM2.5)
绵阳市,科技城新区公安局,104.7092,31.4972,2026-01-17T1900,90,117,0.9,32,9,108,97,119,细颗粒物(PM2.5)
绵阳市,绵阳市气象局,104.765114,31.453094,2026-01-17T1900,96,118,0.7,23,8,100,82,127,细颗粒物(PM2.5)
牡丹江市,环保大楼,129.61,44.561,2026-01-17T1900,38,56,0.4,18,2,56,63,54,细颗粒物(PM2.5)
牡丹江市,机车工厂,129.6364,44.6075,2026-01-17T1900,23,37,0.3,8,2,66,65,37,
牡丹江市,第一中学,129.6386,44.5462,2026-01-17T1900,29,35,0.6,24,6,43,62,42,
牡丹江市,东晓云街98号,129.5992,44.5964,2026-01-17T1900,37,41,0.5,8,4,64,64,53,细颗粒物(PM2.5)
内江市,市监测站,105.0703,29.61,2026-01-17T1900,115,148,1.1,24,8,92,91,150,细颗粒物(PM2.5)
内江市,内江二中,105.0657,29.5807,2026-01-17T1900,107,122,1.1,34,6,86,78,140,细颗粒物(PM2.5)
内江市,内江日报社,105.0407,29.5828,2026-01-17T1900,100,107,1.0,25,4,100,81,132,细颗粒物(PM2.5)
内江市,玉峰路西段888号,105.0433,29.6105,2026-01-17T1900,107,113,1.2,44,4,75,77,140,细颗粒物(PM2.5)
那曲市,那曲监测站,92.0653,31.4846,2026-01-17T1900,26,119,0.8,8,6,70,70,85,颗粒物(PM10)
那曲市,那曲市委宣传部,92.0515,31.4787,2026-01-17T1900,16,74,0.4,1,3,78,72,62,颗粒物(PM10)
南昌市,省林业公司,115.8887,28.7006,2026-01-17T1900,166,215,2.2,40,5,43,62,216,细颗粒物(PM2.5)
南昌市,林科所,115.813,28.7443,2026-01-17T1900,171,251,1.0,49,10,36,90,221,细颗粒物(PM2.5)
南昌市,建工学校,115.8518,28.687,2026-01-17T1900,166,260,1.6,53,13,44,74,216,细颗粒物(PM2.5)
南昌市,象湖,115.8926,28.6425,2026-01-17T1900,158,202,1.2,39,10,54,76,208,细颗粒物(PM2.5)
南昌市,机电学校,115.9084,28.6062,2026-01-17T1900,168,243,1.2,41,6,59,75,218,细颗粒物(PM2.5)
南昌市,外国语学校,115.9718,28.7032,2026-01-17T1900,166,233,1.2,46,14,43,61,216,细颗粒物(PM2.5)
南昌市,工业二路,115.7923,28.6873,2026-01-17T1900,165,222,,42,5,42,71,215,细颗粒物(PM2.5)
南昌市,南京东路235号,115.931587,28.686774,2026-01-17T1900,174,240,1.6,40,6,49,71,224,细颗粒物(PM2.5)
南充市,南充市委,106.0791,30.8022,2026-01-17T1900,125,146,1.4,74,4,37,50,165,细颗粒物(PM2.5)
南充市,南充炼油厂,106.1038,30.8215,2026-01-17T1900,121,146,1.2,30,6,73,59,159,细颗粒物(PM2.5)
南充市,梨树横街98号,106.108336,30.788436,2026-01-17T1900,102,142,0.9,33,7,85,66,134,细颗粒物(PM2.5)
南充市,清泉寺北路188号,106.1172,30.843,2026-01-17T1900,134,,0.8,20,7,99,71,178,细颗粒物(PM2.5)
南充市,同庆路1号,106.067,30.7616,2026-01-17T1900,119,139,1.5,62,8,42,54,156,细颗粒物(PM2.5)
南京市,迈皋桥,118.8033,32.1085,2026-01-17T1900,58,103,0.6,25,4,64,89,79,细颗粒物(PM2.5)
南京市,草场门,118.7487,32.057,2026-01-17T1900,63,122,0.8,39,6,38,60,86,颗粒物(PM10)
南京市,中华门,118.770105,32.004342,2026-01-17T1900,73,129,0.9,32,4,52,79,98,细颗粒物(PM2.5)
南京市,瑞金路,118.8059,32.0329,2026-01-17T1900,78,136,1.1,25,4,51,80,104,细颗粒物(PM2.5)
南京市,玄武湖,118.7946,32.0774,2026-01-17T1900,63,123,1.0,23,5,49,78,87,颗粒物(PM10)
南京市,浦口,118.6415,32.0964,2026-01-17T1900,72,139,1.2,32,8,47,75,97,细颗粒物(PM2.5)
南京市,奥体中心,118.730129,32.000956,2026-01-17T1900,73,140,0.9,37,7,61,91,98,细颗粒物(PM2.5)
南京市,仙林大学城,118.9072,32.1047,2026-01-17T1900,56,119,0.9,30,7,55,82,85,颗粒物(PM10)
南京市,江宁彩虹桥,118.8443,31.919,2026-01-17T1900,73,137,0.8,28,4,71,97,98,细颗粒物(PM2.5)
南京市,六合雄州,118.8497,32.3599,2026-01-17T1900,38,87,0.7,17,3,62,78,69,颗粒物(PM10)
南京市,新模范马路66号,118.7641,32.0841,2026-01-17T1900,58,127,1.1,19,3,73,115,89,颗粒物(PM10)
南京市,汶溪路181号,118.8707617,31.34017673,2026-01-17T1900,108,111,1.3,28,6,92,117,142,细颗粒物(PM2.5)
南京市,中山西路1号,119.019,31.6512,2026-01-17T1900,88,112,0.9,26,3,84,92,117,细颗粒物(PM2.5)
南宁市,二十一中,108.3098,22.788,2026-01-17T1900,58,81,0.7,19,3,75,74,79,细颗粒物(PM2.5)
南宁市,北湖,108.3135,22.8529,2026-01-17T1900,57,69,0.9,39,2,61,75,78,细颗粒物(PM2.5)
南宁市,市监测站,108.3205,22.8222,2026-01-17T1900,57,81,0.8,27,6,75,78,78,细颗粒物(PM2.5)
南宁市,大自然花园,108.3828,22.8038,2026-01-17T1900,53,78,0.9,32,6,59,83,73,细颗粒物(PM2.5)
南宁市,区农职院,108.2397,22.8462,2026-01-17T1900,63,88,0.9,49,7,49,72,85,细颗粒物(PM2.5)
南宁市,英华嘉园,108.3285,22.7356,2026-01-17T1900,59,97,0.9,40,3,43,68,80,细颗粒物(PM2.5)
南宁市,红星社区,108.4829,22.762,2026-01-17T1900,64,105,0.9,30,5,80,89,87,细颗粒物(PM2.5)
南宁市,起凤路9号,108.2927,23.1477,2026-01-17T1900,74,94,0.8,26,2,79,84,99,细颗粒物(PM2.5)
南宁市,乐贤路16号,108.2177,22.7774,2026-01-17T1900,57,88,0.9,44,4,46,62,78,细颗粒物(PM2.5)
南平市,南平市监测站,118.1682,26.6371,2026-01-17T1900,57,73,0.8,40,6,44,90,78,细颗粒物(PM2.5)
南平市,南平七中,118.1757,26.6276,2026-01-17T1900,44,45,0.7,22,5,73,90,62,细颗粒物(PM2.5)
南通市,狼山街道,120.9056,31.9669,2026-01-17T1900,33,67,0.4,14,2,78,120,59,颗粒物(PM10)
南通市,城中,120.8635,32.0231,2026-01-17T1900,31,79,0.7,16,6,75,115,65,颗粒物(PM10)
南通市,星湖花园,120.9376,31.9301,2026-01-17T1900,34,81,0.7,23,5,80,130,66,颗粒物(PM10)
南通市,紫琅学院,120.8053,32.046,2026-01-17T1900,26,79,0.5,19,3,77,125,65,颗粒物(PM10)
南通市,通州监测站,121.0631,32.0644,2026-01-17T1900,24,51,0.7,19,3,82,125,51,颗粒物(PM10)
南通市,环境教育馆,120.9348,31.9874,2026-01-17T1900,34,70,0.5,15,4,78,122,60,颗粒物(PM10)
南通市,洪江路,120.8692,31.9885,2026-01-17T1900,30,71,0.7,,3,73,111,,
南阳市,瓦房庄,112.5338,33.0086,2026-01-17T1900,116,150,1.0,28,5,20,46,152,细颗粒物(PM2.5)
南阳市,汉画馆,112.5002,32.9734,2026-01-17T1900,109,161,1.0,31,6,22,50,143,细颗粒物(PM2.5)
南阳市,气象站,112.5778,33.0144,2026-01-17T1900,112,180,0.8,31,4,17,45,147,细颗粒物(PM2.5)
南阳市,理工学院,112.548,32.9687,2026-01-17T1900,99,150,0.9,33,4,18,42,130,细颗粒物(PM2.5)
南阳市,卧龙区政府,112.5233,32.9921,2026-01-17T1900,107,182,0.8,36,4,20,47,140,细颗粒物(PM2.5)
宁波市,区环保大楼,121.8352,29.9111,2026-01-17T1900,34,105,0.7,81,6,36,85,78,颗粒物(PM10)
宁波市,万里学院,121.5595,29.8208,2026-01-17T1900,45,89,0.6,34,15,78,98,70,颗粒物(PM10)
宁波市,龙赛医院,121.713,29.9564,2026-01-17T1900,35,82,0.7,35,3,73,90,66,颗粒物(PM10)
宁波市,太古小学,121.5855,29.8635,2026-01-17T1900,37,104,0.6,31,16,80,100,77,颗粒物(PM10)
宁波市,市环境监测中心,121.5239,29.8673,2026-01-17T1900,42,89,0.7,34,8,74,97,70,颗粒物(PM10)
宁波市,万里国际学校,121.6156,29.9015,2026-01-17T1900,37,100,0.6,42,23,77,100,75,颗粒物(PM10)
宁波市,白沙活动中心,121.5593,29.8976,2026-01-17T1900,36,98,0.4,37,5,74,99,74,颗粒物(PM10)
宁波市,中科路88号,121.8962,29.7529,2026-01-17T1900,23,73,0.3,25,5,96,97,62,颗粒物(PM10)
宁德市,宁德市监测站,119.5387,26.6611,2026-01-17T1900,36,53,0.6,28,4,108,124,52,"颗粒物(PM10),细颗粒物(PM2.5)"
宁德市,宁德一中,119.5231,26.6562,2026-01-17T1900,43,59,0.5,19,7,114,124,60,细颗粒物(PM2.5)
怒江傈僳族自治州,州监测站,98.859,25.8541,2026-01-17T1900,22,40,0.5,13,5,67,70,40,
怒江傈僳族自治州,泸水一中,98.8607,25.8168,2026-01-17T1900,3,50,0.7,26,6,46,61,50,
攀枝花市,弄弄坪,101.6891,26.571,2026-01-17T1900,62,94,1.2,28,24,113,98,84,细颗粒物(PM2.5)
攀枝花市,河门口,101.577,26.5914,2026-01-17T1900,56,83,1.5,24,32,116,94,77,细颗粒物(PM2.5)
攀枝花市,仁和,101.7365,26.4986,2026-01-17T1900,91,142,1.4,64,17,45,92,120,细颗粒物(PM2.5)
攀枝花市,四十中小,101.7222,26.567,2026-01-17T1900,55,86,2.3,66,21,52,81,75,细颗粒物(PM2.5)
盘锦市,开发区,122.0303,41.1489,2026-01-17T1900,30,50,0.5,16,5,44,61,50,
盘锦市,兴隆台,122.0486,41.0883,2026-01-17T1900,27,34,0.6,30,7,42,57,39,
盘锦市,新生街道,121.8297,41.1026,2026-01-17T1900,35,38,0.6,22,7,,65,,
平顶山市,新华旅馆,113.3257,33.7423,2026-01-17T1900,93,172,0.7,39,5,9,43,123,细颗粒物(PM2.5)
平顶山市,规划设计院,113.2917,33.737,2026-01-17T1900,91,166,0.8,35,5,12,51,120,细颗粒物(PM2.5)
平顶山市,平顶山工学院,113.182,33.7738,2026-01-17T1900,85,144,0.7,34,7,16,55,113,细颗粒物(PM2.5)
平顶山市,石龙区,112.8736,33.9068,2026-01-17T1900,100,172,0.8,28,5,19,46,132,细颗粒物(PM2.5)
平顶山市,姚电大道23号,113.284,33.7139,2026-01-17T1900,107,175,0.9,41,6,9,47,140,细颗粒物(PM2.5)
平凉市,聚贤嘉苑,106.6633,35.5338,2026-01-17T1900,43,94,0.7,48,20,50,78,72,颗粒物(PM10)
平凉市,博物馆,106.7021,35.5307,2026-01-17T1900,45,104,0.7,34,18,,88,,
萍乡市,中医院,113.8384,27.6436,2026-01-17T1900,92,129,1.5,35,6,45,94,122,细颗粒物(PM2.5)
萍乡市,市环保局,113.8677,27.6438,2026-01-17T1900,92,122,1.4,50,20,31,95,122,细颗粒物(PM2.5)
萍乡市,安源区政府,113.8663,27.6202,2026-01-17T1900,109,125,1.6,41,15,30,76,143,细颗粒物(PM2.5)
萍乡市,联洪村委会,113.8686,27.6668,2026-01-17T1900,96,140,1.1,46,5,28,89,127,细颗粒物(PM2.5)
莆田市,荔城区仓后路,119.0142,25.4324,2026-01-17T1900,42,62,/,27,/,100,118,59,细颗粒物(PM2.5)
莆田市,莆田市监测站,119.0016,25.4553,2026-01-17T1900,35,58,0.8,22,3,97,129,54,颗粒物(PM10)
莆田市,涵江区六中,119.112,25.4561,2026-01-17T1900,32,55,0.5,17,/,112,123,53,颗粒物(PM10)
莆田市,秀屿区政府,119.1014,25.3215,2026-01-17T1900,37,51,0.9,18,4,120,130,53,细颗粒物(PM2.5)
濮阳市,环保局,115.0312,35.7636,2026-01-17T1900,48,76,0.7,30,6,35,40,67,细颗粒物(PM2.5)
濮阳市,濮水河管理处,115,35.7667,2026-01-17T1900,47,86,0.9,33,5,36,41,68,颗粒物(PM10)
濮阳市,中原东路68号,115.0552,35.7816,2026-01-17T1900,50,87,0.4,31,5,34,38,69,"颗粒物(PM10),细颗粒物(PM2.5)"
濮阳市,任丘路479号,115.0923632,35.76857718,2026-01-17T1900,58,97,0.6,36,5,26,39,79,细颗粒物(PM2.5)
普洱市,市环保局,100.9801,22.7634,2026-01-17T1900,23,49,0.3,16,5,65,78,49,
普洱市,普洱第二中学,100.9763,22.8237,2026-01-17T1900,19,32,0.2,9,5,72,80,32,
七台河市,中波台,131.0413,45.7795,2026-01-17T1900,32,46,0.5,19,14,55,62,46,
七台河市,人民广场,131.0136,45.7688,2026-01-17T1900,40,56,0.6,22,10,54,61,57,细颗粒物(PM2.5)
七台河市,新建矿广场,130.8639,45.8144,2026-01-17T1900,41,41,0.4,12,5,54,59,58,细颗粒物(PM2.5)
齐齐哈尔市,安居小区,123.9307,47.3641,2026-01-17T1900,20,30,0.7,35,1,33,60,30,
齐齐哈尔市,中心广场,123.9497,47.3389,2026-01-17T1900,17,22,0.8,22,6,43,54,25,
齐齐哈尔市,农牧车辆厂,123.9483,47.3229,2026-01-17T1900,22,31,0.6,28,6,34,56,32,
齐齐哈尔市,市环境监测站,123.9442,47.2994,2026-01-17T1900,51,112,1.5,60,18,16,55,81,颗粒物(PM10)
齐齐哈尔市,富区青少年活动中心,123.6341,47.2079,2026-01-17T1900,39,60,0.8,25,8,46,60,55,"颗粒物(PM10),细颗粒物(PM2.5)"
黔东南苗族侗族自治州,市环境监测站,107.9765,26.5724,2026-01-17T1900,43,50,0.4,14,4,71,70,60,细颗粒物(PM2.5)
黔东南苗族侗族自治州,凯里学院,107.8909,26.531,2026-01-17T1900,45,58,0.5,8,2,85,82,63,细颗粒物(PM2.5)
黔南布依族苗族自治州,小围寨,107.5223,26.2371,2026-01-17T1900,48,58,0.9,6,8,80,73,67,细颗粒物(PM2.5)
黔南布依族苗族自治州,沙坝,107.5175,26.2977,2026-01-17T1900,53,61,0.9,10,5,74,67,73,细颗粒物(PM2.5)
黔西南布依族苗族自治州,场坝街,104.9022,25.0943,2026-01-17T1900,35,58,0.6,9,5,76,78,54,颗粒物(PM10)
黔西南布依族苗族自治州,坪东大道,104.8812,25.0994,2026-01-17T1900,43,43,0.7,13,7,68,80,60,细颗粒物(PM2.5)
钦州市,市环保站,108.6238,21.9667,2026-01-17T1900,39,95,0.6,38,10,78,92,73,颗粒物(PM10)
钦州市,沙埠小学,108.655,21.9481,2026-01-17T1900,45,80,0.4,36,7,78,98,65,颗粒物(PM10)
钦州市,港区一小,108.5989,21.7435,2026-01-17T1900,53,109,1.0,43,5,70,82,80,颗粒物(PM10)
钦州市,北职校,108.5959,21.9634,2026-01-17T1900,34,49,0.8,22,8,81,90,49,
秦皇岛市,建设大厦,119.5247,39.9346,2026-01-17T1900,29,44,0.4,22,10,42,58,44,
秦皇岛市,文明里,119.5979,39.938,2026-01-17T1900,20,40,0.4,33,14,40,58,40,
秦皇岛市,南园路157号,119.7458,39.9952,2026-01-17T1900,23,,0.4,40,11,31,55,,
秦皇岛市,翠岛大街1号,119.5131,39.8858,2026-01-17T1900,10,42,0.4,13,12,47,60,42,
秦皇岛市,北戴河轮滑馆,119.509013,39.825305,2026-01-17T1900,17,20,0.2,7,6,66,68,25,
青岛市,市南区东部子站,120.404,36.0625,2026-01-17T1900,12,22,0.4,10,8,73,66,23,
青岛市,四方区子站,120.362344,36.10282,2026-01-17T1900,14,34,0.5,2,1,71,66,34,
青岛市,市南区西部子站,120.294373,36.054183,2026-01-17T1900,5,,0.8,12,7,76,68,,
青岛市,崂山区子站,120.4581,36.0858,2026-01-17T1900,9,19,0.2,10,10,74,67,24,
青岛市,城阳区子站,120.3945,36.3083,2026-01-17T1900,17,46,0.8,24,7,61,72,46,
青岛市,市北区南部,120.3454,36.0735,2026-01-17T1900,9,41,0.6,10,1,67,60,41,
青岛市,李沧区北部,120.3897,36.18,2026-01-17T1900,19,31,0.8,28,8,54,66,31,
青岛市,盟旺路653号,120.5222,36.4089,2026-01-17T1900,17,34,0.5,24,3,65,72,34,
青岛市,珠江路669号,120.196923,35.954556,2026-01-17T1900,17,24,0.5,10,9,78,65,25,
青岛市,黄岛区人民政府广场,120.0424,35.8656,2026-01-17T1900,7,27,0.6,10,6,83,70,27,
清远市,凤城街办,113.0218,23.7086,2026-01-17T1900,101,146,/,69,/,159,182,133,细颗粒物(PM2.5)
清远市,技师学院,113.0479,23.6343,2026-01-17T1900,66,122,0.8,60,10,146,183,89,细颗粒物(PM2.5)
清远市,清新太和,112.9898,23.7403,2026-01-17T1900,54,83,0.7,39,4,181,196,77,臭氧1小时(O3_1h)
清远市,清城东城,113.076,23.72,2026-01-17T1900,54,85,/,55,/,127,174,74,细颗粒物(PM2.5)
庆阳市,庆阳五中,107.6325,35.7357,2026-01-17T1900,59,102,0.7,21,7,95,95,80,细颗粒物(PM2.5)
庆阳市,市环保局,107.6361,35.7067,2026-01-17T1900,68,91,0.6,18,8,98,98,92,细颗粒物(PM2.5)
曲靖市,环境监测站,103.7897,25.5036,2026-01-17T1900,13,47,0.5,16,5,102,94,47,
曲靖市,烟厂办公区,103.8013,25.5357,2026-01-17T1900,11,40,0.2,11,4,106,91,40,
曲靖市,南苑二区,103.7926,25.4651,2026-01-17T1900,14,24,0.4,9,4,105,97,33,
曲靖市,曲靖师范学院,103.7442,25.5259,2026-01-17T1900,,,,,,,95,,
衢州市,环保大楼,118.8694,28.94,2026-01-17T1900,95,120,/,39,/,92,121,125,细颗粒物(PM2.5)
衢州市,衢州学院,118.8622,28.9809,2026-01-17T1900,92,118,0.6,40,5,92,124,122,细颗粒物(PM2.5)
衢州市,衢州三中,118.9646,28.9832,2026-01-17T1900,94,118,0.9,53,6,73,113,124,细颗粒物(PM2.5)
泉州市,涂山街,118.5818,24.9116,2026-01-17T1900,44,85,,27,4,107,132,,
泉州市,津头埔,118.597,24.8976,2026-01-17T1900,48,84,0.6,30,6,105,134,67,"颗粒物(PM10),细颗粒物(PM2.5)"
泉州市,万安,118.6669,24.9422,2026-01-17T1900,45,90,0.7,24,4,95,127,70,颗粒物(PM10)
泉州市,霞新路6号,118.6355,24.9148,2026-01-17T1900,52,76,0.6,29,/,104,136,72,细颗粒物(PM2.5)
日喀则市,日喀则监测站,88.8873,29.2723,2026-01-17T1900,3,9,0.4,5,12,96,83,30,
日喀则市,林业技术推广中心,88.8775,29.2425,2026-01-17T1900,3,14,0.3,4,10,90,78,29,
日照市,监测站,119.4711,35.421,2026-01-17T1900,11,27,0.5,12,7,72,64,27,
日照市,市政府广场,119.523,35.4216,2026-01-17T1900,16,29,0.3,15,8,75,66,29,
日照市,港务局,119.5511,35.4113,2026-01-17T1900,,,0.4,13,6,,65,,
日照市,职业技术学院,119.5326,35.4627,2026-01-17T1900,9,17,0.6,16,6,74,66,24,
日照市,岚山环保分局,119.3267,35.1043,2026-01-17T1900,14,27,0.5,12,8,72,61,27,
三门峡市,市政府,111.1922,34.7752,2026-01-17T1900,60,106,0.6,24,10,,71,,
三门峡市,开发区,111.1588,34.794,2026-01-17T1900,58,121,0.6,26,7,59,64,86,颗粒物(PM10)
三门峡市,三门峡市第一小学,111.1911,34.7829,2026-01-17T1900,58,96,0.6,25,12,61,66,79,细颗粒物(PM2.5)
三门峡市,富达温泉假日酒店,111.1031,34.719,2026-01-17T1900,78,120,0.6,28,8,62,72,104,细颗粒物(PM2.5)
三明市,三钢,117.621,26.2626,2026-01-17T1900,46,58,1.4,35,6,59,82,64,细颗粒物(PM2.5)
三明市,三明二中,117.6352,26.2714,2026-01-17T1900,60,70,1.1,33,3,54,80,82,细颗粒物(PM2.5)
三明市,三元区政府,117.6028,26.2377,2026-01-17T1900,53,74,1.6,47,7,51,78,73,细颗粒物(PM2.5)
三亚市,河西子站,109.4962,18.2682,2026-01-17T1900,24,34,0.4,9,1,128,119,40,
三亚市,君悦子站,109.7348,18.3443,2026-01-17T1900,18,29,0.3,6,5,122,119,39,
三亚市,城东小学站,109.1714,18.3739,2026-01-17T1900,18,33,/,9,/,113,106,36,
山南市,山南监测站,91.7592,29.234,2026-01-17T1900,6,12,0.4,19,6,74,60,24,
山南市,山南人民医院,91.7701,29.2436,2026-01-17T1900,3,9,0.3,8,8,83,73,26,
汕头市,金平子站,116.6795,23.3666,2026-01-17T1900,34,55,0.8,24,6,156,145,53,颗粒物(PM10)
汕头市,龙湖子站,116.7248,23.3632,2026-01-17T1900,34,56,/,22,11,156,143,53,颗粒物(PM10)
汕头市,濠江子站,116.7257,23.2774,2026-01-17T1900,37,47,/,20,8,160,145,53,细颗粒物(PM2.5)
汕头市,澄海子站,116.7518,23.4712,2026-01-17T1900,33,144,0.7,24,8,154,65,97,颗粒物(PM10)
汕头市,潮阳子站,116.6088,23.2539,2026-01-17T1900,25,46,0.6,12,8,164,144,55,臭氧1小时(O3_1h)
汕头市,潮南峡山,116.4539,23.2684,2026-01-17T1900,32,49,0.5,20,10,141,140,49,
汕头市,潮南子站,116.4069,23.2533,2026-01-17T1900,37,65,/,19,8,129,126,58,颗粒物(PM10)
汕尾市,市环保局,115.3653,22.7751,2026-01-17T1900,27,36,0.6,22,8,122,129,39,
汕尾市,新城中学,115.362,22.7926,2026-01-17T1900,27,39,0.4,15,,125,139,,
商洛市,监测站,109.9155,33.8714,2026-01-17T1900,103,163,,25,6,,96,135,细颗粒物(PM2.5)
商洛市,商州区中学,109.9647,33.8486,2026-01-17T1900,99,154,0.8,26,6,94,95,130,细颗粒物(PM2.5)
商丘市,环境监测站,115.6701,34.4283,2026-01-17T1900,45,86,0.6,28,4,31,43,68,颗粒物(PM10)
商丘市,粮食局,115.6458,34.4047,2026-01-17T1900,44,73,0.7,26,3,28,39,62,"颗粒物(PM10),细颗粒物(PM2.5)"
商丘市,梁园区档案局,115.6069,34.4465,2026-01-17T1900,41,68,0.5,26,5,29,40,59,颗粒物(PM10)
商丘市,北海东路185号,115.6701,34.3767,2026-01-17T1900,51,90,0.6,27,2,25,40,70,"颗粒物(PM10),细颗粒物(PM2.5)"
商丘市,中山大街3号,115.6172,34.3704,2026-01-17T1900,42,92,0.5,29,2,31,43,71,颗粒物(PM10)
上海市,普陀,121.401,31.2382,2026-01-17T1900,60,96,0.8,32,7,83,125,82,细颗粒物(PM2.5)
上海市,十五厂,121.4774,31.2043,2026-01-17T1900,58,101,0.8,32,5,78,123,79,细颗粒物(PM2.5)
上海市,虹口,121.4673,31.3011,2026-01-17T1900,46,95,0.7,33,7,71,110,73,颗粒物(PM10)
上海市,静安监测站,121.4253,31.226,2026-01-17T1900,56,90,0.8,29,6,89,124,77,细颗粒物(PM2.5)
上海市,浦东川沙,121.7029,31.1905,2026-01-17T1900,40,84,0.6,24,6,79,96,67,颗粒物(PM10)
上海市,浦东新区监测站,121.5339,31.229,2026-01-17T1900,54,90,0.7,31,6,78,115,74,细颗粒物(PM2.5)
上海市,浦东张江,121.5776,31.2038,2026-01-17T1900,46,85,0.5,32,6,88,117,68,颗粒物(PM10)
上海市,宝山庙行,121.4242,31.3303,2026-01-17T1900,50,87,0.5,23,6,80,111,69,"颗粒物(PM10),细颗粒物(PM2.5)"
上海市,崇明上实东滩,121.8789,31.4662,2026-01-17T1900,23,53,0.0,13,3,94,118,52,颗粒物(PM10)
上海市,嘉定南翔,121.316,31.2839,2026-01-17T1900,118,,0.6,26,3,81,114,155,细颗粒物(PM2.5)
上海市,金山新城,121.3357,30.7455,2026-01-17T1900,69,100,0.8,27,7,91,116,93,细颗粒物(PM2.5)
上海市,闵行浦江,121.4996,31.0741,2026-01-17T1900,48,90,0.6,24,6,87,116,70,颗粒物(PM10)
上海市,青浦徐泾,121.2886,31.1663,2026-01-17T1900,57,96,0.7,42,5,77,122,78,细颗粒物(PM2.5)
上海市,松江图书馆,121.2193,31.0382,2026-01-17T1900,60,114,0.7,37,5,84,121,82,"颗粒物(PM10),细颗粒物(PM2.5)"
上海市,长宁仙霞,121.3904,31.206,2026-01-17T1900,48,92,,22,6,87,120,,
上海市,浦东惠南,121.7964,31.0507,2026-01-17T1900,42,82,0.7,19,3,93,109,66,颗粒物(PM10)
上海市,奉贤南桥新城,121.4891,30.925,2026-01-17T1900,54,97,0.6,26,1,96,122,74,"颗粒物(PM10),细颗粒物(PM2.5)"
上海市,冠生园路458号,121.417401,31.16637,2026-01-17T1900,59,93,0.7,41,5,74,117,80,细颗粒物(PM2.5)
上海市,宁武路151号,121.541914,31.268301,2026-01-17T1900,54,94,,34,5,,104,,
上饶市,市监测站,117.9758,28.4439,2026-01-17T1900,60,105,/,36,11,114,97,82,细颗粒物(PM2.5)
上饶市,凤凰光学,117.9521,28.4637,2026-01-17T1900,60,108,0.9,46,11,93,90,82,细颗粒物(PM2.5)
上饶市,双创科技城,117.897,28.4316,2026-01-17T1900,64,95,0.9,47,8,109,100,87,细颗粒物(PM2.5)
上饶市,裕丰大道,118.190438,28.444845,2026-01-17T1900,101,158,1.2,58,16,107,108,133,细颗粒物(PM2.5)
韶关市,市八中,113.5821,24.7733,2026-01-17T1900,49,76,1.2,70,8,27,110,68,细颗粒物(PM2.5)
韶关市,园林处,113.5916,24.7973,2026-01-17T1900,49,58,/,63,8,48,114,68,细颗粒物(PM2.5)
韶关市,曲江监测站,113.5971,24.6864,2026-01-17T1900,59,86,1.2,54,13,52,130,80,细颗粒物(PM2.5)
韶关市,大学路288号,113.6668,24.7756,2026-01-17T1900,31,45,/,13,5,79,115,45,
韶关市,碧湖山庄,113.5556,24.8082,2026-01-17T1900,49,69,0.6,19,9,102,122,68,细颗粒物(PM2.5)
邵阳市,市化工厂,111.5277,27.2442,2026-01-17T1900,84,113,0.8,36,9,90,112,112,细颗粒物(PM2.5)
邵阳市,市环保局,111.4327,27.2276,2026-01-17T1900,3,95,1.2,21,5,100,101,73,颗粒物(PM10)
邵阳市,北塔二期4-26地块,111.446,27.2472,2026-01-17T1900,,83,1.2,24,9,83,93,,
邵阳市,邵水西路287号,111.4739,27.2282,2026-01-17T1900,88,96,1.3,29,11,92,106,117,细颗粒物(PM2.5)
绍兴市,城东开发委,120.6053,29.9927,2026-01-17T1900,54,93,0.6,35,7,72,104,74,细颗粒物(PM2.5)
绍兴市,树下王站,120.5482,30.0003,2026-01-17T1900,45,78,0.8,30,6,78,107,64,颗粒物(PM10)
绍兴市,绍兴中专,120.5685,29.936,2026-01-17T1900,50,93,0.6,72,6,29,104,72,颗粒物(PM10)
绍兴市,柯桥区政府,120.4905,30.086,2026-01-17T1900,24,59,0.6,33,5,88,106,55,颗粒物(PM10)
绍兴市,重华小学,120.8751,30.0249,2026-01-17T1900,54,100,0.4,24,6,88,100,75,颗粒物(PM10)
绍兴市,上虞中学,120.837,30.0137,2026-01-17T1900,53,102,0.6,21,6,98,110,76,颗粒物(PM10)
绍兴市,柯桥妇保,120.4715,30.0414,2026-01-17T1900,,,,,,,116,,
绍兴市,袍江中学,120.6156,30.0762,2026-01-17T1900,36,89,1.1,36,2,82,113,70,颗粒物(PM10)
深圳市,通心岭子站,114.0948,22.5506,2026-01-17T1900,26,42,0.5,17,10,138,135,44,
深圳市,洪湖,114.1153,22.5713,2026-01-17T1900,27,55,0.7,24,10,142,133,53,颗粒物(PM10)
深圳市,华侨城,113.9823,22.5398,2026-01-17T1900,43,67,/,92,/,93,128,60,细颗粒物(PM2.5)
深圳市,南海子站,113.9181,22.517,2026-01-17T1900,32,67,0.8,95,12,86,146,59,颗粒物(PM10)
深圳市,盐田,114.2345,22.565,2026-01-17T1900,20,39,0.7,18,10,146,133,46,
深圳市,南澳,114.4911,22.5381,2026-01-17T1900,19,31,/,12,/,117,132,37,
深圳市,葵涌,114.41,22.6346,2026-01-17T1900,28,40,0.7,23,8,136,145,43,
深圳市,梅沙,114.2967,22.5978,2026-01-17T1900,23,43,/,12,/,148,147,47,
深圳市,观澜,114.0563,22.7353,2026-01-17T1900,32,73,0.7,90,8,56,167,62,颗粒物(PM10)
深圳市,莲花,114.0614,22.556,2026-01-17T1900,23,42,/,22,/,129,129,42,
深圳市,民治,114.0144,22.6163,2026-01-17T1900,26,41,/,38,/,99,129,41,
深圳市,横岗,114.1756,22.6421,2026-01-17T1900,29,55,/,34,/,137,136,53,颗粒物(PM10)
深圳市,坪山,114.344,22.7115,2026-01-17T1900,29,58,0.7,20,10,154,158,54,颗粒物(PM10)
深圳市,西乡,113.8952,22.586,2026-01-17T1900,46,85,0.9,127,10,90,186,68,颗粒物(PM10)
深圳市,黄阁路,114.214113,22.713717,2026-01-17T1900,27,52,0.7,49,8,95,158,51,颗粒物(PM10)
沈阳市,浑南东路,123.5058,41.7084,2026-01-17T1900,24,31,0.6,45,10,34,52,35,
沈阳市,新秀街,123.4238,41.6992,2026-01-17T1900,26,47,0.6,57,10,17,48,47,
沈阳市,东陵路,123.5903,41.8412,2026-01-17T1900,27,35,0.5,35,8,37,56,39,
沈阳市,陵东街,123.4267,41.8466,2026-01-17T1900,19,27,0.8,44,11,28,52,28,
沈阳市,文化路,123.4116,41.7654,2026-01-17T1900,18,28,0.5,32,15,43,50,28,
沈阳市,小河沿,123.4673,41.787,2026-01-17T1900,23,34,0.6,40,24,25,47,34,
沈阳市,太原街,123.4019,41.7978,2026-01-17T1900,24,30,0.5,33,14,45,57,35,
沈阳市,京沈街,123.3778,41.9233,2026-01-17T1900,24,,0.4,46,9,33,61,35,
沈阳市,沈辽西路,123.2429,41.7341,2026-01-17T1900,24,39,0.8,65,16,16,45,39,
沈阳市,裕农路,123.5951,41.9085,2026-01-17T1900,32,33,0.5,41,6,35,72,46,
十堰市,滨河新村,110.78,32.6494,2026-01-17T1900,120,149,1.0,25,/,82,92,158,细颗粒物(PM2.5)
十堰市,刘家沟,110.7305,32.6408,2026-01-17T1900,116,180,/,30,/,83,91,152,细颗粒物(PM2.5)
十堰市,铁二处,110.8843,32.5712,2026-01-17T1900,114,155,1.2,36,10,67,83,149,细颗粒物(PM2.5)
十堰市,郧阳区金沙路,110.8053,32.8401,2026-01-17T1900,111,154,1.2,45,7,73,76,145,细颗粒物(PM2.5)
石河子市,艾青诗歌馆,86.0391,44.298,2026-01-17T1900,37,,0.5,28,11,50,58,53,细颗粒物(PM2.5)
石河子市,南区管委会,86.047,44.2331,2026-01-17T1900,29,36,0.7,22,8,55,59,42,
石河子市,世纪广场,86.0791,44.3018,2026-01-17T1900,22,33,0.4,11,15,64,64,33,
石河子市,城南景苑小区,86.0126,44.2349,2026-01-17T1900,27,52,0.5,20,5,58,62,51,颗粒物(PM10)
石家庄市,高新区,114.5919,38.0328,2026-01-17T1900,41,63,0.5,36,3,24,58,58,细颗粒物(PM2.5)
石家庄市,西南高教,114.4556,38.0136,2026-01-17T1900,29,102,0.3,28,1,42,55,76,颗粒物(PM10)
石家庄市,世纪公园,114.533,38.0177,2026-01-17T1900,38,60,0.5,22,4,32,58,55,颗粒物(PM10)
石家庄市,人民会堂,114.5105,38.0489,2026-01-17T1900,44,105,0.4,31,3,27,53,78,颗粒物(PM10)
石家庄市,鹿泉一中,114.2887,38.0905,2026-01-17T1900,47,87,0.6,33,1,28,56,69,颗粒物(PM10)
石家庄市,栾城区星河路,114.6491,37.9014,2026-01-17T1900,25,43,0.3,18,4,51,63,43,
石家庄市,裕华西路63号,114.4563,38.0365,2026-01-17T1900,39,70,0.5,28,3,34,54,60,颗粒物(PM10)
石家庄市,和平路363号,114.5586,38.0581,2026-01-17T1900,48,63,0.5,39,3,21,56,67,细颗粒物(PM2.5)
石家庄市,廉州西路160号,114.8347,38.0213,2026-01-17T1900,38,80,0.5,20,1,31,50,65,颗粒物(PM10)
石家庄市,北城路41号,114.4498,38.0729,2026-01-17T1900,34,86,0.5,33,3,30,64,68,颗粒物(PM10)
石家庄市,矿区区委大楼,114.0494,38.059,2026-01-17T1900,37,77,0.4,22,4,41,56,64,颗粒物(PM10)
石嘴山市,大武口朝阳西街,106.3668,39.0145,2026-01-17T1900,49,85,0.6,25,8,54,47,68,"颗粒物(PM10),细颗粒物(PM2.5)"
石嘴山市,惠农南大街,106.7713,39.2278,2026-01-17T1900,42,107,1.6,30,14,48,40,79,颗粒物(PM10)
石嘴山市,红果子镇惠新街,106.7074,39.1332,2026-01-17T1900,40,188,0.5,22,9,59,48,119,颗粒物(PM10)
石嘴山市,妇女儿童医院,106.3495,38.9837,2026-01-17T1900,38,123,0.6,22,11,68,52,87,颗粒物(PM10)
石嘴山市,石大公路,106.7495,39.2068,2026-01-17T1900,51,162,0.9,30,12,45,37,106,颗粒物(PM10)
双鸭山市,双合村,131.1509,46.6936,2026-01-17T1900,27,28,0.5,10,7,55,59,39,
双鸭山市,南小市,131.1651,46.6191,2026-01-17T1900,23,,0.2,8,6,54,54,33,
双鸭山市,环保局,131.1526,46.6554,2026-01-17T1900,23,59,0.8,26,7,40,56,55,颗粒物(PM10)
朔州市,平朔,112.4399,39.3521,2026-01-17T1900,69,162,1.2,29,4,,61,106,颗粒物(PM10)
朔州市,朔唯,112.4574,39.362,2026-01-17T1900,70,140,/,25,9,54,59,95,颗粒物(PM10)
朔州市,区政府,112.426,39.3199,2026-01-17T1900,65,144,0.6,27,7,55,67,97,颗粒物(PM10)
朔州市,市环保局,112.4075,39.3277,2026-01-17T1900,62,124,/,28,3,58,63,87,颗粒物(PM10)
朔州市,市二中,112.4273,39.3682,2026-01-17T1900,73,155,/,31,8,55,61,103,颗粒物(PM10)
朔州市,一水厂,112.2938,39.5296,2026-01-17T1900,68,169,0.8,38,7,51,60,110,颗粒物(PM10)
四平市,境园,124.3744,43.1842,2026-01-17T1900,32,46,0.3,31,11,39,57,46,
四平市,植物园,124.4029,43.1411,2026-01-17T1900,48,94,0.9,74,4,17,52,72,颗粒物(PM10)
四平市,世纪城,124.3286,43.1726,2026-01-17T1900,48,54,0.3,34,12,41,55,67,细颗粒物(PM2.5)
松原市,江南,124.8007,45.1213,2026-01-17T1900,43,60,0.9,34,16,29,55,60,细颗粒物(PM2.5)
松原市,江北,124.7967,45.1721,2026-01-17T1900,13,36,0.4,27,9,29,58,36,
苏州市,轧钢厂,120.5974,31.3247,2026-01-17T1900,63,118,0.7,37,6,76,108,85,细颗粒物(PM2.5)
苏州市,吴中区,120.6329,31.2741,2026-01-17T1900,60,112,0.8,34,7,77,103,82,细颗粒物(PM2.5)
苏州市,苏州新区,120.5566,31.3049,2026-01-17T1900,70,122,0.9,42,7,71,102,94,细颗粒物(PM2.5)
苏州市,苏州工业园区,120.668709,31.312523,2026-01-17T1900,60,127,0.8,32,6,86,112,89,颗粒物(PM10)
苏州市,相城区,120.6408,31.3707,2026-01-17T1900,57,118,0.9,34,11,96,125,84,颗粒物(PM10)
苏州市,方洲路,120.7431,31.3188,2026-01-17T1900,55,111,0.7,39,7,70,97,81,颗粒物(PM10)
苏州市,木渎中学,120.4979,31.2777,2026-01-17T1900,74,125,1.0,33,5,82,116,99,细颗粒物(PM2.5)
苏州市,越秀幼儿园,120.642,31.1733,2026-01-17T1900,70,126,1.0,42,5,70,112,94,细颗粒物(PM2.5)
苏州市,高铁新城,120.6502,31.4117,2026-01-17T1900,64,113,0.5,24,4,87,114,87,细颗粒物(PM2.5)
苏州市,学森路9号,120.4282,31.3228,2026-01-17T1900,62,149,0.8,42,8,76,116,100,颗粒物(PM10)
宿迁市,宿迁学院,118.2924,33.933,2026-01-17T1900,19,39,,12,3,,56,,
宿迁市,宿迁中学,118.2321,33.9572,2026-01-17T1900,18,47,0.4,15,4,58,54,47,
宿迁市,市供电局,118.2781,33.9658,2026-01-17T1900,19,35,0.4,18,3,58,54,35,
宿迁市,宿豫区政府,118.3243,33.95,2026-01-17T1900,27,46,0.5,14,5,59,57,46,
宿迁市,春华路,118.352,33.7886,2026-01-17T1900,15,48,0.5,12,3,,79,,
宿州市,远航博物馆,116.9508,33.666,2026-01-17T1900,39,70,0.6,28,3,32,44,60,颗粒物(PM10)
宿州市,社会福利中心,116.9708,33.5911,2026-01-17T1900,35,74,0.7,28,7,32,46,62,颗粒物(PM10)
宿州市,皖北煤电集团,116.9647,33.6252,2026-01-17T1900,38,77,0.7,33,6,35,47,64,颗粒物(PM10)
宿州市,中兴路,116.9929,33.6412,2026-01-17T1900,37,73,0.5,34,6,28,42,62,颗粒物(PM10)
绥化市,人和东街,126.9783,46.6365,2026-01-17T1900,33,48,0.6,27,4,45,59,48,
绥化市,党政办公中心,126.964,46.6527,2026-01-17T1900,,38,0.4,28,4,42,52,,
随州市,市委党校,113.3587,31.7275,2026-01-17T1900,126,179,1.1,35,4,26,63,166,细颗粒物(PM2.5)
随州市,市林业局,113.3745,31.6926,2026-01-17T1900,118,174,1.2,29,4,32,54,155,细颗粒物(PM2.5)
随州市,市立交桥水厂,113.3984,31.7309,2026-01-17T1900,158,187,0.9,32,4,19,52,208,细颗粒物(PM2.5)
遂宁市,市监测站,105.5581,30.5231,2026-01-17T1900,113,155,,41,6,,71,148,细颗粒物(PM2.5)
遂宁市,美宁食品公司,105.5917,30.4727,2026-01-17T1900,116,189,0.9,59,8,36,64,152,细颗粒物(PM2.5)
遂宁市,环岛商务中心9号楼,105.5911,30.5368,2026-01-17T1900,119,131,0.9,35,8,63,61,156,细颗粒物(PM2.5)
塔城地区,东门外小游园,82.9993,46.7432,2026-01-17T1900,14,88,0.6,28,6,50,73,69,颗粒物(PM10)
塔城地区,文化广场,82.9716,46.7464,2026-01-17T1900,19,62,0.8,14,7,60,65,56,颗粒物(PM10)
台州市,黄岩环保大楼,121.2727,28.6461,2026-01-17T1900,41,78,/,22,/,88,103,64,颗粒物(PM10)
台州市,台州环保大楼,121.4188,28.6545,2026-01-17T1900,27,59,0.5,22,/,92,105,55,颗粒物(PM10)
台州市,路桥田洋王,121.3768,28.5772,2026-01-17T1900,37,72,0.6,26,5,84,100,61,颗粒物(PM10)
台州市,台州科技职业学院,121.25678,28.66823971,2026-01-17T1900,36,88,0.8,35,5,77,102,69,颗粒物(PM10)
太原市,尖草坪,112.5138,37.8916,2026-01-17T1900,59,100,0.7,29,7,50,66,80,细颗粒物(PM2.5)
太原市,晋源,112.4691,37.7125,2026-01-17T1900,53,114,0.5,33,5,43,62,82,颗粒物(PM10)
太原市,小店,112.5595,37.7391,2026-01-17T1900,55,124,0.6,33,8,39,66,87,颗粒物(PM10)
太原市,坞城,112.5705,37.8199,2026-01-17T1900,56,102,0.6,37,7,,67,,
太原市,南寨,112.5495,37.9853,2026-01-17T1900,52,110,0.6,27,6,52,66,80,颗粒物(PM10)
太原市,金胜,112.4702,37.7821,2026-01-17T1900,50,115,0.5,51,4,28,60,83,颗粒物(PM10)
太原市,育英中学,112.5608,37.8807,2026-01-17T1900,57,100,0.9,38,10,47,65,78,细颗粒物(PM2.5)
太原市,西矿街336号,112.449,37.8509,2026-01-17T1900,65,118,0.6,41,5,41,62,88,细颗粒物(PM2.5)
太原市,迎宾北路9号,112.4792,37.9393,2026-01-17T1900,71,99,0.7,30,4,50,61,95,细颗粒物(PM2.5)
太原市,迎泽大街248号,112.551,37.8575,2026-01-17T1900,52,124,0.7,39,6,38,63,87,颗粒物(PM10)
泰安市,监测站,117.1436,36.1938,2026-01-17T1900,33,63,0.6,24,6,46,51,57,颗粒物(PM10)
泰安市,人口学校,117.0905,36.2002,2026-01-17T1900,25,58,0.7,20,7,60,61,54,颗粒物(PM10)
泰安市,电力学校,117.0992,36.1757,2026-01-17T1900,44,53,0.5,22,6,52,55,62,细颗粒物(PM2.5)
泰安市,国网新校,117.1812,36.2273,2026-01-17T1900,29,44,0.5,22,6,51,56,44,
泰安市,交通技校,117.0315,36.2017,2026-01-17T1900,33,46,0.6,14,4,62,62,48,
泰安市,山东第一医科大学,117.083,36.13,2026-01-17T1900,32,61,0.4,29,5,44,54,56,颗粒物(PM10)
泰州市,公园路,119.9042,32.488,2026-01-17T1900,24,53,0.5,12,5,70,81,52,颗粒物(PM10)
泰州市,莲花,119.9189,32.4626,2026-01-17T1900,22,56,0.5,9,8,81,95,53,颗粒物(PM10)
泰州市,留学生创业园,119.8877,32.4636,2026-01-17T1900,22,55,0.7,14,9,74,87,53,颗粒物(PM10)
泰州市,王营,119.8767,32.3291,2026-01-17T1900,31,76,0.4,14,8,71,93,63,颗粒物(PM10)
泰州市,姜堰区政府广场,120.1226,32.515,2026-01-17T1900,28,54,0.5,14,7,69,82,52,颗粒物(PM10)
泰州市,周山河街区,119.9186,32.4322,2026-01-17T1900,24,41,0.3,12,9,68,80,41,
唐山市,十二中,118.1707,39.6505,2026-01-17T1900,16,24,0.3,11,4,57,61,24,
唐山市,小山,118.1868,39.6219,2026-01-17T1900,12,28,0.2,12,7,53,57,28,
唐山市,冀东油田职工医院,118.4357,39.277,2026-01-17T1900,28,,0.3,5,4,65,68,40,
唐山市,正泰大街热力站,118.0927,39.5807,2026-01-17T1900,16,21,0.3,6,4,57,64,23,
唐山市,丰润区政府,118.1561,39.8322,2026-01-17T1900,22,31,0.4,5,9,47,60,32,
唐山市,金山小学,118.436906,39.73802,2026-01-17T1900,7,29,0.4,14,8,54,62,29,
唐山市,政府服务中心,118.2449,39.6693,2026-01-17T1900,14,25,0.4,17,4,40,55,25,
唐山市,消防缸窑路中队,118.2043,39.6703,2026-01-17T1900,18,36,1.3,11,8,54,64,36,
唐山市,路南电大,118.1432,39.6203,2026-01-17T1900,13,24,0.4,6,4,50,59,24,
唐山市,光明北路515号,118.1267,39.6579,2026-01-17T1900,8,30,0.3,2,2,55,56,30,
唐山市,友谊北路34号,118.130859,39.636026,2026-01-17T1900,11,29,0.4,10,4,60,64,29,
天津市,勤俭道,117.1446,39.1659,2026-01-17T1900,10,37,0.4,20,8,56,55,37,
天津市,前进道,117.2016,39.0928,2026-01-17T1900,12,50,0.5,23,6,52,59,50,
天津市,淮河道,117.1837,39.2134,2026-01-17T1900,10,32,0.5,14,6,56,53,32,
天津市,跃进路,117.308261,39.088386,2026-01-17T1900,11,30,0.3,25,6,52,53,30,
天津市,第四大街,117.707,39.0344,2026-01-17T1900,10,26,0.5,21,8,51,56,26,
天津市,永明路,117.4573,38.8395,2026-01-17T1900,9,25,0.4,17,8,62,67,25,
天津市,汉北路,117.7641,39.1588,2026-01-17T1900,11,24,0.6,12,11,58,62,24,
天津市,河西一经路,117.7917,39.2473,2026-01-17T1900,15,36,0.7,17,8,48,54,36,
天津市,津沽路,117.3747,38.9845,2026-01-17T1900,13,53,0.5,20,8,54,64,52,颗粒物(PM10)
天津市,宾水西道,117.159,39.0844,2026-01-17T1900,11,33,0.5,19,8,48,58,33,
天津市,大理道,117.194,39.1069,2026-01-17T1900,11,22,0.6,20,8,46,54,22,
天津市,中山北路,117.2096,39.1698,2026-01-17T1900,11,24,0.4,17,5,50,50,24,
天津市,西四道,117.385,39.1483,2026-01-17T1900,8,25,0.4,12,8,58,55,25,
天津市,雍阳西道,117.0362,39.3827,2026-01-17T1900,11,28,0.6,14,6,54,56,28,
天津市,辛老路,117.0291,39.0612,2026-01-17T1900,13,45,0.4,24,12,46,60,45,
天津市,地纬路,116.9638,38.9374,2026-01-17T1900,12,24,0.3,17,7,56,60,24,
天津市,北环路,117.4065,40.0583,2026-01-17T1900,16,41,0.6,19,6,52,57,41,
天津市,建设路,117.3041,39.7167,2026-01-17T1900,22,57,0.5,19,8,42,55,54,颗粒物(PM10)
天津市,滨水东路,117.8201,39.3519,2026-01-17T1900,13,21,0.3,11,8,51,56,21,
天津市,光华路,117.24369,39.102911,2026-01-17T1900,11,38,0.5,20,7,54,60,38,
天水市,公园小学,105.72058,34.57859,2026-01-17T1900,47,69,0.6,13,18,107,102,65,细颗粒物(PM2.5)
天水市,麦积国土局,105.89428,34.55353,2026-01-17T1900,38,82,0.6,22,12,100,96,66,颗粒物(PM10)
铁岭市,水上乐园,123.865,42.292,2026-01-17T1900,29,49,0.5,57,12,24,55,49,
铁岭市,金沙江路北,123.7158,42.2218,2026-01-17T1900,26,31,0.8,48,7,29,57,38,
铁岭市,新华街20号,123.835,42.2853,2026-01-17T1900,31,52,0.7,41,15,36,60,51,颗粒物(PM10)
通化市,光明,125.9359,41.7174,2026-01-17T1900,14,24,0.5,29,6,46,50,24,
通化市,铁路,125.9446,41.7323,2026-01-17T1900,14,28,0.5,22,4,41,41,28,
通辽市,艺术职业学校,122.253,43.6801,2026-01-17T1900,14,43,0.5,17,6,60,70,43,
通辽市,老干部活动中心,122.2584,43.6333,2026-01-17T1900,23,28,0.5,26,6,51,70,33,
通辽市,东方明珠社区,122.2923,43.6189,2026-01-17T1900,40,47,0.6,22,6,50,61,57,细颗粒物(PM2.5)
铜川市,王益区政府,109.0696,35.0699,2026-01-17T1900,73,134,0.9,36,6,72,85,98,细颗粒物(PM2.5)
铜川市,新区管委会,108.9345,34.9059,2026-01-17T1900,81,130,0.9,34,10,75,87,108,细颗粒物(PM2.5)
铜川市,大唐三路,108.949652,34.870529,2026-01-17T1900,78,142,0.9,34,6,75,87,104,细颗粒物(PM2.5)
铜陵市,市第四中学,117.8176,30.9412,2026-01-17T1900,103,135,0.9,28,7,83,87,135,细颗粒物(PM2.5)
铜陵市,市新民污水厂,117.7806,30.9413,2026-01-17T1900,74,107,0.9,37,5,75,92,99,细颗粒物(PM2.5)
铜陵市,车站新区,117.846,30.9414,2026-01-17T1900,112,132,0.8,30,6,80,86,147,细颗粒物(PM2.5)
铜陵市,市职教基地,117.8472,30.9699,2026-01-17T1900,63,127,0.8,19,5,90,88,89,颗粒物(PM10)
铜仁市,铜仁卫校,109.1839,27.7344,2026-01-17T1900,93,,,38,3,63,88,123,细颗粒物(PM2.5)
铜仁市,铜仁七中,109.1752,27.6945,2026-01-17T1900,126,131,1.6,61,4,27,80,166,细颗粒物(PM2.5)
吐鲁番市,市环保局,89.1905,42.9419,2026-01-17T1900,76,157,1.1,26,5,55,58,104,颗粒物(PM10)
吐鲁番市,地区环保局,89.1674,42.9558,2026-01-17T1900,79,153,1.2,27,3,52,59,105,细颗粒物(PM2.5)
威海市,华夏技校,122.121,37.4231,2026-01-17T1900,6,12,0.2,9,/,70,70,22,
威海市,山大分校,122.0508,37.5236,2026-01-17T1900,3,6,/,9,/,70,70,22,
威海市,市监测站,122.1067,37.5067,2026-01-17T1900,12,17,0.1,14,4,69,72,22,
威海市,文登开发区,122.0693,37.2175,2026-01-17T1900,12,20,/,11,/,65,70,21,
威海市,临港区管委会,122.1379,37.3414,2026-01-17T1900,11,19,0.5,16,4,64,70,20,
潍坊市,环保局,119.1436,36.7022,2026-01-17T1900,23,44,0.6,25,4,52,62,44,
潍坊市,坊子邮政,119.1638,36.6524,2026-01-17T1900,22,53,0.6,39,8,47,66,52,颗粒物(PM10)
潍坊市,潍坊七中,119.0587,36.7209,2026-01-17T1900,30,46,0.4,33,4,44,64,46,
潍坊市,高新实验学校,119.1978,36.6871,2026-01-17T1900,31,48,0.4,31,3,46,65,48,
潍坊市,潍坊学院,119.1758,36.7139,2026-01-17T1900,26,44,0.5,30,6,52,63,44,
潍坊市,寒亭区实验一小,119.2046,36.7696,2026-01-17T1900,39,63,0.7,44,10,34,64,57,颗粒物(PM10)
渭南市,体育馆,109.4605,34.4927,2026-01-17T1900,63,161,0.8,32,6,61,77,106,颗粒物(PM10)
渭南市,高新一小,109.4257,34.5067,2026-01-17T1900,78,159,0.9,33,7,66,80,105,颗粒物(PM10)
渭南市,渭花路4号,109.505065,34.492137,2026-01-17T1900,78,161,0.7,36,7,51,75,106,颗粒物(PM10)
温州市,瓯海,120.6342,28.0088,2026-01-17T1900,61,82,0.6,31,8,80,112,83,细颗粒物(PM2.5)
温州市,南浦,120.6747,27.9881,2026-01-17T1900,50,92,0.6,32,7,82,112,71,颗粒物(PM10)
温州市,龙湾,120.76,27.9745,2026-01-17T1900,54,104,0.6,34,7,79,96,77,颗粒物(PM10)
温州市,茶山,120.6985,27.9252,2026-01-17T1900,49,82,/,28,/,93,120,68,细颗粒物(PM2.5)
温州市,鹿城惠民路,120.6935,28.0114,2026-01-17T1900,53,110,0.6,31,/,83,113,80,颗粒物(PM10)
文山壮族苗族自治州,州水务局,104.2533,23.3595,2026-01-17T1900,39,47,0.4,12,6,72,75,55,细颗粒物(PM2.5)
文山壮族苗族自治州,市便民服务中心,104.2319,23.3892,2026-01-17T1900,28,42,0.5,9,7,75,78,42,
乌海市,市林业局,106.8172,39.6972,2026-01-17T1900,39,140,0.8,22,9,55,48,95,颗粒物(PM10)
乌海市,中海勃湾学校,106.7907,39.6666,2026-01-17T1900,37,135,0.6,16,10,60,48,93,颗粒物(PM10)
乌海市,海北新区,106.8129,39.7274,2026-01-17T1900,27,108,0.6,24,16,49,41,79,颗粒物(PM10)
乌海市,海拉北路,106.8212,39.6741,2026-01-17T1900,30,109,0.6,23,12,47,35,80,颗粒物(PM10)
乌兰察布市,集宁新区,113.1306,40.9924,2026-01-17T1900,49,83,0.6,48,6,26,61,68,细颗粒物(PM2.5)
乌兰察布市,光明街小学,113.1076,41.0385,2026-01-17T1900,47,107,0.8,36,4,33,53,79,颗粒物(PM10)
乌兰察布市,北京八中,113.1383,40.9513,2026-01-17T1900,45,89,0.7,33,4,35,49,70,颗粒物(PM10)
乌兰察布市,市委党校,113.1776,40.9779,2026-01-17T1900,44,87,0.8,49,5,22,55,69,颗粒物(PM10)
乌鲁木齐市,监测站,87.5796,43.8299,2026-01-17T1900,20,41,0.6,39,2,43,48,41,
乌鲁木齐市,收费所,87.6044,43.7679,2026-01-17T1900,27,29,0.5,40,5,30,44,39,
乌鲁木齐市,铁路局,87.5529,43.8704,2026-01-17T1900,28,37,0.7,47,2,50,58,40,
乌鲁木齐市,三十一中学,87.6408,43.8258,2026-01-17T1900,24,43,0.3,52,6,39,50,43,
乌鲁木齐市,米东区环保局,87.7218,44.1747,2026-01-17T1900,11,19,0.3,13,10,72,70,23,
乌鲁木齐市,培训基地,87.4652,43.4569,2026-01-17T1900,28,29,0.5,14,4,76,75,40,
乌鲁木齐市,达坂城区环保局,88.3088,43.3637,2026-01-17T1900,29,94,0.4,19,7,62,64,72,颗粒物(PM10)
乌鲁木齐市,红光山片区,87.6132,43.8791,2026-01-17T1900,22,22,0.5,28,11,48,48,32,
乌鲁木齐市,新师大温泉校区,87.7008,43.8003,2026-01-17T1900,42,56,0.3,32,4,50,62,59,细颗粒物(PM2.5)
乌鲁木齐市,大绿谷,87.4892,43.84,2026-01-17T1900,52,,0.6,43,3,41,48,,
无锡市,雪浪,120.2693,31.4864,2026-01-17T1900,56,114,0.9,30,5,71,106,82,颗粒物(PM10)
无锡市,黄巷,120.2761,31.621,2026-01-17T1900,56,122,0.9,42,5,49,100,86,颗粒物(PM10)
无锡市,漆塘,120.2422,31.5037,2026-01-17T1900,58,130,0.8,26,8,73,104,90,颗粒物(PM10)
无锡市,东亭,120.3489,31.5865,2026-01-17T1900,53,110,1.1,34,8,67,92,80,颗粒物(PM10)
无锡市,旺庄,120.3538,31.5474,2026-01-17T1900,53,116,0.7,31,4,76,106,83,颗粒物(PM10)
无锡市,荣巷,120.2447,31.5633,2026-01-17T1900,61,117,0.9,28,6,80,108,84,颗粒物(PM10)
无锡市,堰桥,120.2986,31.6816,2026-01-17T1900,46,107,0.8,22,8,66,114,79,颗粒物(PM10)
无锡市,清舒道1号,120.3138,31.4927,2026-01-17T1900,54,76,0.8,31,10,70,103,74,细颗粒物(PM2.5)
无锡市,健康路105号,120.2925,31.5685,2026-01-17T1900,58,113,1.0,31,3,72,100,82,颗粒物(PM10)
吴忠市,教育园区,106.1535,37.9648,2026-01-17T1900,59,212,0.9,26,15,44,51,131,颗粒物(PM10)
吴忠市,新区二泵站,106.1851,37.9957,2026-01-17T1900,50,203,1.1,37,13,37,48,127,颗粒物(PM10)
吴忠市,文卫南街,106.2176,37.9832,2026-01-17T1900,68,213,1.0,42,17,40,51,132,颗粒物(PM10)
芜湖市,监测站,118.3603,31.3515,2026-01-17T1900,91,138,1.0,25,8,99,111,120,细颗粒物(PM2.5)
芜湖市,科创中心,118.3716,31.4135,2026-01-17T1900,104,152,0.9,26,4,94,108,137,细颗粒物(PM2.5)
芜湖市,四水厂,118.3671,31.3132,2026-01-17T1900,108,137,1.1,33,7,99,115,142,细颗粒物(PM2.5)
芜湖市,市气象局,118.4209,31.3704,2026-01-17T1900,106,142,0.9,24,9,98,113,139,细颗粒物(PM2.5)
芜湖市,清苑社区,118.4783,31.3226,2026-01-17T1900,92,137,0.8,40,8,92,113,122,细颗粒物(PM2.5)
芜湖市,扬子职业技术学院,118.2746,31.2326,2026-01-17T1900,106,120,1.0,23,8,90,112,139,细颗粒物(PM2.5)
芜湖市,湾沚区人民法院,118.5726,31.1371,2026-01-17T1900,89,100,1.1,34,7,88,106,118,细颗粒物(PM2.5)
梧州市,市十一中,111.3126,23.4772,2026-01-17T1900,45,64,0.4,25,15,70,98,63,细颗粒物(PM2.5)
梧州市,龙新,111.26,23.4794,2026-01-17T1900,37,80,1.6,90,6,22,86,65,颗粒物(PM10)
梧州市,政贤路18号,111.2416,23.4155,2026-01-17T1900,45,63,1.3,50,7,57,98,63,细颗粒物(PM2.5)
五家渠市,农水大厦,87.5352,44.1606,2026-01-17T1900,10,10,0.3,10,10,60,62,19,
五家渠市,经开区管委会,87.5461,44.1909,2026-01-17T1900,22,25,0.5,12,8,63,63,32,
五家渠市,建设西街760号,87.055284,43.999117,2026-01-17T1900,,,0.5,20,4,61,65,,
武汉市,东湖梨园,114.3676,30.5584,2026-01-17T1900,110,138,1.5,44,6,26,39,144,细颗粒物(PM2.5)
武汉市,汉阳月湖,114.2527,30.5578,2026-01-17T1900,112,148,1.0,32,4,34,35,147,细颗粒物(PM2.5)
武汉市,汉口花桥,114.2819,30.6189,2026-01-17T1900,105,146,1.1,40,8,35,36,138,细颗粒物(PM2.5)
武汉市,武昌紫阳,114.3024,30.5332,2026-01-17T1900,129,175,2.0,55,19,24,44,170,细颗粒物(PM2.5)
武汉市,青山钢花,114.3646,30.6217,2026-01-17T1900,,148,0.9,42,5,40,47,,
武汉市,沌口新区,114.156697,30.482592,2026-01-17T1900,119,162,1.6,77,12,13,40,156,细颗粒物(PM2.5)
武汉市,汉口江滩,114.3013,30.5944,2026-01-17T1900,129,135,0.8,35,6,40,47,170,细颗粒物(PM2.5)
武汉市,吴家山,114.1285,30.6339,2026-01-17T1900,115,142,0.8,50,8,40,51,150,细颗粒物(PM2.5)
武汉市,民族大道182号,114.3876,30.4908,2026-01-17T1900,134,167,1.0,44,9,31,42,178,细颗粒物(PM2.5)
武威市,监测站,102.6203,37.925,2026-01-17T1900,23,154,0.4,7,12,67,64,102,颗粒物(PM10)
武威市,钟楼街149号,102.6447,37.9293,2026-01-17T1900,28,153,0.4,7,9,67,68,102,颗粒物(PM10)
西安市,兴庆小区,108.9931,34.2629,2026-01-17T1900,71,147,0.9,27,4,73,68,99,颗粒物(PM10)
西安市,纺织城,109.0595,34.2569,2026-01-17T1900,74,154,0.6,33,4,67,70,102,颗粒物(PM10)
西安市,小寨,108.9377,34.2178,2026-01-17T1900,74,163,1.0,29,10,77,69,107,颗粒物(PM10)
西安市,市人民体育场,108.9522,34.2739,2026-01-17T1900,74,156,0.8,30,4,71,68,103,颗粒物(PM10)
西安市,高新西区,108.8923,34.2322,2026-01-17T1900,70,163,0.9,26,5,79,70,107,颗粒物(PM10)
西安市,经开区,108.9386,34.3446,2026-01-17T1900,77,162,0.9,25,5,66,67,106,颗粒物(PM10)
西安市,长安区,108.894,34.1557,2026-01-17T1900,80,174,0.8,30,7,71,66,112,颗粒物(PM10)
西安市,临潼区,109.213,34.3748,2026-01-17T1900,76,134,0.8,24,8,76,73,102,细颗粒物(PM2.5)
西安市,广运潭,109.0508,34.321,2026-01-17T1900,78,160,0.8,25,5,75,74,105,颗粒物(PM10)
西安市,无线电监控中心,109.1019,34.5302,2026-01-17T1900,82,139,0.8,30,7,61,77,109,细颗粒物(PM2.5)
西安市,行知小学,108.8869,34.2662,2026-01-17T1900,68,181,0.8,31,7,75,69,116,颗粒物(PM10)
西安市,西苑北路977号,108.596239,34.118792,2026-01-17T1900,116,186,0.9,65,6,39,62,152,细颗粒物(PM2.5)
西安市,曲江池东路988号,108.9817,34.2035,2026-01-17T1900,68,151,0.8,23,4,77,69,101,颗粒物(PM10)
西宁市,城北区政府,101.7775,36.643,2026-01-17T1900,22,52,1.3,58,13,27,66,51,颗粒物(PM10)
西宁市,世纪职校,101.8304,36.5785,2026-01-17T1900,35,40,1.2,74,18,14,53,50,
西宁市,海晏路105号,101.6769,36.6535,2026-01-17T1900,33,78,1.4,75,15,9,47,64,颗粒物(PM10)
西双版纳傣族自治州,景洪市江南,100.8018,21.9995,2026-01-17T1900,24,55,1.0,28,4,68,76,53,颗粒物(PM10)
西双版纳傣族自治州,景洪市江北,100.7995,22.0238,2026-01-17T1900,27,49,0.5,24,4,76,80,49,
锡林郭勒盟,市环保监测站,116.1048,43.9318,2026-01-17T1900,3,19,0.3,8,5,61,57,20,
锡林郭勒盟,市政府,116.0778,43.9312,2026-01-17T1900,11,23,0.3,7,5,67,58,23,
厦门市,洪文,118.1519,24.4768,2026-01-17T1900,39,77,0.6,14,5,137,133,64,颗粒物(PM10)
厦门市,鼓浪屿,118.0671,24.4447,2026-01-17T1900,27,49,/,15,3,134,127,49,
厦门市,湖里中学,118.0937,24.5054,2026-01-17T1900,36,72,0.4,23,4,126,130,61,颗粒物(PM10)
厦门市,集美中学,118.0961,24.5689,2026-01-17T1900,27,55,0.6,30,3,110,126,53,颗粒物(PM10)
厦门市,同安二实小,118.1502,24.7246,2026-01-17T1900,33,57,0.6,24,8,127,137,54,颗粒物(PM10)
咸宁市,长江产业园,114.3379,29.8683,2026-01-17T1900,136,175,0.9,41,6,44,51,180,细颗粒物(PM2.5)
咸宁市,双鹤路18号,114.3182,29.8447,2026-01-17T1900,125,194,1.3,36,3,48,60,165,细颗粒物(PM2.5)
咸宁市,碧桂路,114.284,29.8595,2026-01-17T1900,126,188,1.2,54,6,41,57,166,细颗粒物(PM2.5)
咸阳市,实验中学,108.6726,34.315,2026-01-17T1900,82,157,0.8,28,7,71,77,109,细颗粒物(PM2.5)
咸阳市,师范学院,108.7226,34.3622,2026-01-17T1900,80,156,0.9,30,6,76,80,107,细颗粒物(PM2.5)
咸阳市,奥体中心,108.6394,34.408,2026-01-17T1900,74,157,0.9,46,6,58,80,104,颗粒物(PM10)
咸阳市,五陵塬路2号,108.6601,34.3767,2026-01-17T1900,91,191,1.0,58,5,50,70,121,颗粒物(PM10)
咸阳市,胭脂路9号,108.6372,34.3031,2026-01-17T1900,114,193,0.9,37,6,64,70,149,细颗粒物(PM2.5)
湘潭市,板塘,112.9508,27.8626,2026-01-17T1900,139,192,0.9,39,3,35,46,185,细颗粒物(PM2.5)
湘潭市,市监测站,112.9114,27.8404,2026-01-17T1900,150,188,1.3,46,4,48,59,200,细颗粒物(PM2.5)
湘潭市,江麓,112.8935,27.8729,2026-01-17T1900,151,196,1.2,44,8,55,68,201,细颗粒物(PM2.5)
湘潭市,岳塘,112.9227,27.8159,2026-01-17T1900,145,165,1.3,51,3,52,70,193,细颗粒物(PM2.5)
湘潭市,科大,112.9073,27.9118,2026-01-17T1900,146,177,0.8,43,3,39,47,195,细颗粒物(PM2.5)
湘潭市,昭山,113.0048,27.9153,2026-01-17T1900,140,205,1.5,54,2,22,48,186,细颗粒物(PM2.5)
湘西土家族苗族自治州,州政府,109.7298,28.3164,2026-01-17T1900,,105,0.6,30,5,74,100,,
湘西土家族苗族自治州,吉首市计生局,109.6957,28.2676,2026-01-17T1900,76,119,0.8,43,9,63,109,102,细颗粒物(PM2.5)
襄阳市,襄城运动路,112.1555,32.0197,2026-01-17T1900,119,219,0.6,31,7,44,57,156,细颗粒物(PM2.5)
襄阳市,高新管委会,112.1829,32.1146,2026-01-17T1900,122,215,1.0,29,7,30,54,160,细颗粒物(PM2.5)
襄阳市,襄州航空路,112.2105,32.0903,2026-01-17T1900,131,221,0.9,32,7,30,55,173,细颗粒物(PM2.5)
襄阳市,襄城隆中路,112.0764,32.0089,2026-01-17T1900,104,207,1.0,38,8,30,51,137,细颗粒物(PM2.5)
襄阳市,高新台子湾,112.1154,32.103,2026-01-17T1900,88,219,0.5,33,4,27,50,135,颗粒物(PM10)
襄阳市,铁院东路4号,112.1433,32.0581,2026-01-17T1900,129,216,0.8,36,5,29,53,170,细颗粒物(PM2.5)
孝感市,东城区,113.9062,30.9378,2026-01-17T1900,132,198,1.2,39,4,16,35,175,细颗粒物(PM2.5)
孝感市,天仙南路1号,113.946,30.8999,2026-01-17T1900,122,197,0.8,45,5,16,32,160,细颗粒物(PM2.5)
忻州市,开发区,112.7313,38.457,2026-01-17T1900,62,98,0.7,24,6,43,46,84,细颗粒物(PM2.5)
忻州市,会展中心,112.7023,38.4932,2026-01-17T1900,66,86,0.7,23,4,42,46,89,细颗粒物(PM2.5)
忻州市,市政府,112.7279,38.4157,2026-01-17T1900,54,115,0.7,28,6,45,56,83,颗粒物(PM10)
新乡市,环保西院,113.836,35.3104,2026-01-17T1900,46,93,0.5,22,6,36,50,72,颗粒物(PM10)
新乡市,开发区,113.8847,35.2724,2026-01-17T1900,53,94,0.4,26,4,33,50,73,细颗粒物(PM2.5)
新乡市,环保东院,113.8836,35.3028,2026-01-17T1900,57,92,0.5,22,3,38,51,78,细颗粒物(PM2.5)
新乡市,市委党校,113.9194,35.2847,2026-01-17T1900,57,84,0.3,17,6,36,51,78,细颗粒物(PM2.5)
