area,positionname,longitude,latitude,timepoint,pm2_5,pm10,co,no2,so2,o3,o3_8h,aqi,primarypollutant
阿坝藏族羌族自治州,马师校,102.2503,31.8896,2026-01-09T0300,15,16,0.4,14,,30,,,
阿坝藏族羌族自治州,马尔康中学西区,102.2174,31.9016,2026-01-09T0300,3,11,0.5,13,6,35,,11,
阿克苏地区,电视台,80.2899,41.1684,2026-01-09T0300,77,124,1.5,60,5,10,,103,细颗粒物(PM2.5)
阿克苏地区,艺术中心,80.2592,41.1541,2026-01-09T0300,53,85,0.9,36,4,27,,73,细颗粒物(PM2.5)
阿拉善盟,蒙二幼,105.699,38.8409,2026-01-09T0300,21,100,0.6,5,10,80,,75,颗粒物(PM10)
阿拉善盟,环保局新楼,105.7198,38.8508,2026-01-09T0300,21,96,0.6,4,9,80,,73,颗粒物(PM10)
阿勒泰地区,市站,88.1266,47.8515,2026-01-09T0300,12,26,0.4,52,3,37,,26,
阿勒泰地区,阿勒泰路33号,88.1198,47.7931,2026-01-09T0300,16,29,0.5,18,2,56,,29,
阿里地区,阿里监测站,80.1171,32.4999,2026-01-09T0300,3,6,0.4,2,5,59,,19,
阿里地区,阿里藏医院,80.0906,32.5029,2026-01-09T0300,10,18,0.8,13,13,43,,18,
安康市,汉滨区检察院,109.0088,32.6974,2026-01-09T0300,27,41,0.5,16,4,16,,41,
安康市,市邮政管理局,109.0324,32.6913,2026-01-09T0300,39,49,0.6,29,11,6,,55,细颗粒物(PM2.5)
安庆市,环科院,117.0806,30.5181,2026-01-09T0300,50,76,0.5,67,,0,,,
安庆市,马山宾馆,117.0331,30.5118,2026-01-09T0300,41,72,0.5,64,,3,,,
安庆市,安庆大学,116.9897,30.6146,2026-01-09T0300,43,64,0.6,34,3,8,,60,细颗粒物(PM2.5)
安庆市,市人大,117.0598,30.5351,2026-01-09T0300,56,88,0.8,62,7,3,,77,细颗粒物(PM2.5)
安顺市,凤凰山,105.9408,26.2431,2026-01-09T0300,43,49,0.5,22,23,66,,60,细颗粒物(PM2.5)
安顺市,金钟山,105.9443,26.2567,2026-01-09T0300,38,46,0.8,15,22,71,,54,细颗粒物(PM2.5)
安顺市,娄家坡,105.8983,26.248,2026-01-09T0300,41,48,0.7,11,15,78,,58,细颗粒物(PM2.5)
安阳市,红庙街,114.3552,36.1017,2026-01-09T0300,46,77,0.5,29,3,27,,64,"颗粒物(PM10),细颗粒物(PM2.5)"
安阳市,银杏小区,114.361,36.0681,2026-01-09T0300,49,87,0.4,32,4,27,,69,颗粒物(PM10)
安阳市,信访局,114.3921,36.0879,2026-01-09T0300,39,80,0.6,29,6,31,,65,颗粒物(PM10)
安阳市,左辅环卫站,114.4706,36.0634,2026-01-09T0300,64,111,0.5,42,4,15,,87,细颗粒物(PM2.5)
安阳市,钢三路198号,114.2918,36.0769,2026-01-09T0300,36,69,0.5,26,3,31,,60,颗粒物(PM10)
鞍山市,深沟寺,123.0441,41.1201,2026-01-09T0300,39,62,1.0,22,12,50,,56,颗粒物(PM10)
鞍山市,太阳城,123.011,41.0931,2026-01-09T0300,34,64,1.2,23,15,49,,57,颗粒物(PM10)
鞍山市,太平,123.0483,41.1445,2026-01-09T0300,40,81,1.1,24,15,49,,66,颗粒物(PM10)
鞍山市,铁西三道街,122.964,41.0968,2026-01-09T0300,39,86,1.1,25,16,,,,
鞍山市,明达新区,123.0219,41.0822,2026-01-09T0300,36,71,0.7,17,14,52,,61,颗粒物(PM10)
鞍山市,兴盛南路290号,122.944647,41.082639,2026-01-09T0300,33,72,0.9,26,13,51,,61,颗粒物(PM10)
巴彦淖尔市,附二中,107.4206,40.7609,2026-01-09T0300,69,332,0.3,3,3,65,,191,颗粒物(PM10)
巴彦淖尔市,市环保大楼,107.37,40.7372,2026-01-09T0300,67,323,0.4,4,3,71,,187,颗粒物(PM10)
巴音郭楞蒙古自治州,孔雀公园,86.1476,41.7529,2026-01-09T0300,47,120,0.8,68,7,1,,85,颗粒物(PM10)
巴音郭楞蒙古自治州,棉纺厂,86.1971,41.7166,2026-01-09T0300,32,161,/,55,/,8,,106,颗粒物(PM10)
巴音郭楞蒙古自治州,经济开发区,86.236,41.7172,2026-01-09T0300,27,90,0.5,17,5,32,,70,颗粒物(PM10)
巴中市,市五中,106.776805,31.852614,2026-01-09T0300,76,102,1.0,39,,8,,102,细颗粒物(PM2.5)
巴中市,圣泉水务公司,106.7419,31.8654,2026-01-09T0300,57,70,0.6,23,4,32,,78,细颗粒物(PM2.5)
巴中市,市中心医院,106.7617,31.8343,2026-01-09T0300,79,99,1.0,37,,2,,105,细颗粒物(PM2.5)
白城市,洮北区环保局,122.7909,45.608,2026-01-09T0300,23,40,0.2,12,5,42,,40,
白城市,市环保局,122.8741,45.5725,2026-01-09T0300,27,48,0.3,11,4,39,,48,
白山市,喜丰,126.4219,41.9172,2026-01-09T0300,32,67,1.1,50,14,8,,59,颗粒物(PM10)
白山市,环保局,126.4082,41.9416,2026-01-09T0300,33,44,1.1,32,13,12,,48,
白银市,第三小学,104.1727,36.5448,2026-01-09T0300,26,34,1.0,41,11,17,,38,
白银市,动力公司,104.1467,36.5482,2026-01-09T0300,17,21,0.7,18,7,38,,25,
百色市,市监测站,106.6102,23.901,2026-01-09T0300,65,,1.4,35,8,2,,,
百色市,市中心血站,106.6524,23.8842,2026-01-09T0300,67,87,0.8,51,25,9,,90,细颗粒物(PM2.5)
百色市,龙景西路,106.6273,23.8798,2026-01-09T0300,,,,,,,80,,
蚌埠市,工人疗养院,117.396,32.9389,2026-01-09T0300,51,89,0.5,19,7,71,,70,"颗粒物(PM10),细颗粒物(PM2.5)"
蚌埠市,百货大楼,117.3606,32.9428,2026-01-09T0300,52,81,0.5,18,8,71,,72,细颗粒物(PM2.5)
蚌埠市,蚌埠学院,117.4183,32.8909,2026-01-09T0300,80,124,1.1,42,9,,,107,细颗粒物(PM2.5)
蚌埠市,淮上区政府,117.3534,32.9672,2026-01-09T0300,57,83,0.6,19,4,72,,78,细颗粒物(PM2.5)
蚌埠市,高新区,117.3143,32.8977,2026-01-09T0300,80,119,0.4,40,8,35,,107,细颗粒物(PM2.5)
蚌埠市,蚌埠田家炳中学,117.3091,32.9314,2026-01-09T0300,71,105,0.5,38,24,41,,95,细颗粒物(PM2.5)
包头市,市环境监测站,109.8761,40.6533,2026-01-09T0300,21,164,1.4,58,8,3,,107,颗粒物(PM10)
包头市,包头八中,109.9992,40.5843,2026-01-09T0300,40,138,1.1,54,6,5,,94,颗粒物(PM10)
包头市,惠龙物流,109.8641,40.6288,2026-01-09T0300,32,148,1.0,59,13,6,,99,颗粒物(PM10)
包头市,东河鸿龙湾,110.0376,40.5546,2026-01-09T0300,29,88,1.5,72,9,4,,69,颗粒物(PM10)
包头市,滨河大厦,109.9154,40.5684,2026-01-09T0300,32,97,0.5,10,5,58,,74,颗粒物(PM10)
包头市,包头市委党校,109.9449,40.6259,2026-01-09T0300,24,143,0.9,49,12,25,,97,颗粒物(PM10)
包头市,昆区政府,109.8332,40.6577,2026-01-09T0300,40,153,1.3,71,11,2,,102,颗粒物(PM10)
宝鸡市,竹园沟,107.0802,34.3129,2026-01-09T0300,29,44,0.3,24,5,26,,44,
宝鸡市,监测站,107.1429,34.3549,2026-01-09T0300,33,42,0.3,23,4,34,,48,
宝鸡市,技工学校,107.1172,34.3759,2026-01-09T0300,42,45,0.5,12,5,41,,59,细颗粒物(PM2.5)
宝鸡市,文理学院,107.2025,34.3518,2026-01-09T0300,38,52,0.4,24,6,35,,54,细颗粒物(PM2.5)
宝鸡市,三迪小学,107.2396,34.3626,2026-01-09T0300,50,59,0.4,33,6,24,,69,细颗粒物(PM2.5)
宝鸡市,滨河北路,107.1721,34.3558,2026-01-09T0300,36,60,0.5,20,6,31,,55,颗粒物(PM10)
宝鸡市,陈仓区北开路21号,107.3898,34.3601,2026-01-09T0300,53,65,0.6,35,41,33,,73,细颗粒物(PM2.5)
保定市,游泳馆,115.4803,38.8568,2026-01-09T0300,59,97,0.5,41,14,13,,80,细颗粒物(PM2.5)
保定市,华电二区,115.509,38.8895,2026-01-09T0300,56,85,0.9,42,,6,,,
保定市,接待中心,115.4588,38.9037,2026-01-09T0300,57,103,0.5,52,4,4,,78,细颗粒物(PM2.5)
保定市,地表水厂,115.4484,38.8344,2026-01-09T0300,57,114,0.6,42,6,14,,82,颗粒物(PM10)
保定市,满城区生态环境分局,115.3136,38.9511,2026-01-09T0300,66,119,0.9,58,6,2,,89,细颗粒物(PM2.5)
保定市,清苑区第二中学,115.4709,38.7628,2026-01-09T0300,58,122,0.6,32,12,16,,86,颗粒物(PM10)
保定市,徐水物探局,115.6231,39.0223,2026-01-09T0300,58,128,0.7,54,13,7,,89,颗粒物(PM10)
保定市,双鹰农机,115.4199,38.8665,2026-01-09T0300,58,118,0.6,52,8,9,,84,颗粒物(PM10)
保定市,植保所站,115.515,38.8589,2026-01-09T0300,51,90,0.8,51,7,7,,70,"颗粒物(PM10),细颗粒物(PM2.5)"
保山市,市环境监测站,99.1589,25.1137,2026-01-09T0300,23,,0.3,5,3,58,,33,
保山市,市环保局,99.1616,25.1381,2026-01-09T0300,16,28,0.4,3,4,72,,28,
北海市,海滩公园,109.1435,21.4085,2026-01-09T0300,37,57,0.7,16,17,84,,54,颗粒物(PM10)
北海市,新市环保局,109.0983,21.466,2026-01-09T0300,53,,0.6,18,6,89,,73,细颗粒物(PM2.5)
北海市,北海工业园,109.1775,21.5232,2026-01-09T0300,59,73,0.6,19,19,72,,80,细颗粒物(PM2.5)
北海市,龙潭自来水厂,109.1844,21.4396,2026-01-09T0300,70,76,0.8,19,9,56,,94,细颗粒物(PM2.5)
北京市,万寿西宫,116.3611,39.8786,2026-01-09T0300,50,115,0.8,76,3,0,,83,颗粒物(PM10)
北京市,东四,116.4174,39.9289,2026-01-09T0300,53,117,0.6,70,6,2,,84,颗粒物(PM10)
北京市,天坛,116.4073,39.8858,2026-01-09T0300,48,95,0.8,70,2,3,,73,颗粒物(PM10)
北京市,农展馆,116.4622,39.9364,2026-01-09T0300,56,122,1.1,68,5,3,,86,颗粒物(PM10)
北京市,官园,116.3399,39.9293,2026-01-09T0300,52,113,0.9,70,6,0,,82,颗粒物(PM10)
北京市,海淀万柳,116.2879,39.9613,2026-01-09T0300,39,81,0.8,68,3,2,,66,颗粒物(PM10)
北京市,顺义新城,116.6635,40.1349,2026-01-09T0300,46,85,0.8,61,3,1,,68,颗粒物(PM10)
北京市,怀柔镇,116.6275,40.327,2026-01-09T0300,41,62,0.7,42,6,15,,58,细颗粒物(PM2.5)
北京市,昌平镇,116.2295,40.217,2026-01-09T0300,40,74,0.7,39,5,20,,62,颗粒物(PM10)
北京市,奥体中心,116.3968,39.982,2026-01-09T0300,52,102,1.0,65,5,1,,76,颗粒物(PM10)
北京市,密云新城,116.8336,40.4095,2026-01-09T0300,43,85,0.7,44,3,5,,68,颗粒物(PM10)
北京市,门头沟三家店,116.0879,39.9725,2026-01-09T0300,31,63,0.6,43,3,7,,57,颗粒物(PM10)
北京市,丰台云岗,116.1507,39.8246,2026-01-09T0300,41,88,0.8,61,3,0,,69,颗粒物(PM10)
北京市,房山燕山,115.9578,39.7602,2026-01-09T0300,58,102,0.6,24,5,26,,79,细颗粒物(PM2.5)
北京市,大兴旧宫,116.4669,39.7734,2026-01-09T0300,46,121,0.7,39,2,9,,86,颗粒物(PM10)
北京市,延庆石河营,115.9859,40.4562,2026-01-09T0300,33,60,0.8,45,2,7,,55,颗粒物(PM10)
北京市,怀柔新城,116.6151,40.3052,2026-01-09T0300,42,70,0.6,37,5,16,,60,颗粒物(PM10)
北京市,丰台小屯,116.2542,39.8764,2026-01-09T0300,44,101,0.7,70,4,1,,76,颗粒物(PM10)
北京市,密云镇,116.8399,40.3843,2026-01-09T0300,43,76,0.7,53,2,2,,63,颗粒物(PM10)
北京市,延庆百泉,115.9423,40.4431,2026-01-09T0300,33,64,0.7,36,1,12,,57,颗粒物(PM10)
北京市,通州新华,116.6598,39.9164,2026-01-09T0300,61,151,0.9,84,5,1,,101,颗粒物(PM10)
北京市,石景山八角,116.1942,39.9158,2026-01-09T0300,41,93,0.7,72,2,5,,72,颗粒物(PM10)
北京市,平谷新城,117.078628,40.151726,2026-01-09T0300,61,99,0.9,41,3,5,,83,细颗粒物(PM2.5)
本溪市,大峪,123.8274146,41.31234549,2026-01-09T0300,22,54,0.7,14,11,53,,52,颗粒物(PM10)
本溪市,彩屯,123.7169,41.3094,2026-01-09T0300,25,53,3.7,44,19,30,,52,颗粒物(PM10)
本溪市,东明,123.7672166,41.28649327,2026-01-09T0300,23,37,0.7,8,10,62,,37,
本溪市,新立屯,123.799345,41.266614,2026-01-09T0300,30,32,0.8,11,,59,,,
本溪市,威宁,123.829144,41.336777,2026-01-09T0300,25,55,0.7,22,7,,,,
毕节市,八中,105.287,27.3133,2026-01-09T0300,43,55,0.6,9,12,71,,60,细颗粒物(PM2.5)
毕节市,师专,105.3079,27.2987,2026-01-09T0300,46,56,0.5,10,10,78,,64,细颗粒物(PM2.5)
毕节市,工业大道,105.3688,27.3598,2026-01-09T0300,46,57,/,11,16,68,,64,细颗粒物(PM2.5)
滨州市,第二水厂,117.9961,37.3604,2026-01-09T0300,41,78,0.6,37,,28,,,
滨州市,北中新校,117.9789,37.3931,2026-01-09T0300,44,78,0.6,44,,28,,,
滨州市,中海酒店,117.9379,37.3959,2026-01-09T0300,51,75,0.7,31,13,47,,70,细颗粒物(PM2.5)
滨州市,开发区一中,117.9381509,37.35547456,2026-01-09T0300,46,92,0.7,50,16,18,,71,颗粒物(PM10)
滨州市,金海六路,118.0914,37.6938,2026-01-09T0300,51,90,1.0,63,8,13,,70,"颗粒物(PM10),细颗粒物(PM2.5)"
滨州市,滨州市西街道办事处,117.9955,37.3752,2026-01-09T0300,46,80,0.6,32,12,34,,65,颗粒物(PM10)
亳州市,污水处理厂,115.8071,33.8399,2026-01-09T0300,40,83,0.3,11,5,68,,67,颗粒物(PM10)
亳州市,三国揽胜宫,115.7789,33.8519,2026-01-09T0300,50,82,0.6,19,6,64,,69,细颗粒物(PM2.5)
亳州市,亳州学院,115.7631,33.803,2026-01-09T0300,56,89,0.4,24,4,54,,77,细颗粒物(PM2.5)
博尔塔拉蒙古自治州,市党校,82.0482,44.8553,2026-01-09T0300,30,74,0.8,20,2,54,,62,颗粒物(PM10)
博尔塔拉蒙古自治州,市环保局,82.0805,44.8966,2026-01-09T0300,46,88,1.1,23,6,57,,69,颗粒物(PM10)
沧州市,沧县城建局,116.8733,38.2922,2026-01-09T0300,65,110,0.5,31,6,39,,88,细颗粒物(PM2.5)
沧州市,电视转播站,116.8462,38.3189,2026-01-09T0300,58,94,0.5,27,5,45,,79,细颗粒物(PM2.5)
沧州市,市环保局,116.8588,38.3161,2026-01-09T0300,59,91,0.5,29,8,36,,80,细颗粒物(PM2.5)
沧州市,河北水利电力学院,116.8011,38.294,2026-01-09T0300,55,100,0.5,29,11,34,,75,"颗粒物(PM10),细颗粒物(PM2.5)"
昌都市,昌都监测站,97.1813,31.1289,2026-01-09T0300,3,19,0.7,7,3,46,,19,
昌都市,昌都会议中心,97.1707,31.1428,2026-01-09T0300,8,11,0.2,2,1,50,,16,
昌吉回族自治州,新区政务中心,87.2722,44.0298,2026-01-09T0300,69,96,1.2,67,6,1,,93,细颗粒物(PM2.5)
昌吉回族自治州,亚心广场,87.3069,44.0093,2026-01-09T0300,61,90,0.9,65,7,9,,83,细颗粒物(PM2.5)
昌吉回族自治州,财政所,87.2057,43.9289,2026-01-09T0300,51,73,0.7,14,5,50,,70,细颗粒物(PM2.5)
长春市,客车厂,125.2874,43.9024,2026-01-09T0300,34,49,0.6,31,14,29,,49,
长春市,邮电学院,125.2943,43.8508,2026-01-09T0300,30,51,0.6,32,14,28,,51,颗粒物(PM10)
长春市,劳动公园,125.3648,43.8745,2026-01-09T0300,22,43,0.5,28,10,34,,43,
长春市,园林处,125.3233,43.8781,2026-01-09T0300,24,47,0.7,24,12,34,,47,
长春市,净月潭,125.4604,43.7904,2026-01-09T0300,18,39,0.4,13,7,50,,39,
长春市,经开区环卫处,125.38,43.8422,2026-01-09T0300,17,44,0.5,27,6,34,,44,
长春市,高新区管委会,125.234,43.7761,2026-01-09T0300,29,51,0.9,28,9,38,,51,颗粒物(PM10)
长春市,岱山公园,125.1695,43.83,2026-01-09T0300,28,52,0.5,23,8,38,,51,颗粒物(PM10)
长春市,北亚泰大街1068号,125.334645,43.916281,2026-01-09T0300,38,55,0.7,7,13,34,,54,细颗粒物(PM2.5)
长沙市,经开区环保局,113.082,28.2421,2026-01-09T0300,57,92,0.7,80,7,7,,78,细颗粒物(PM2.5)
长沙市,高开区环保局,112.8873,28.2202,2026-01-09T0300,72,105,1.1,75,6,0,,97,细颗粒物(PM2.5)
长沙市,马坡岭,113.0785,28.2012,2026-01-09T0300,79,121,0.9,67,6,2,,105,细颗粒物(PM2.5)
长沙市,湖南师范大学,112.9448,28.1894,2026-01-09T0300,39,47,0.5,63,6,25,,55,细颗粒物(PM2.5)
长沙市,雨花区环保局,113.0177,28.1322,2026-01-09T0300,46,74,0.6,82,10,11,,64,细颗粒物(PM2.5)
长沙市,伍家岭,112.9795,28.2593,2026-01-09T0300,69,121,0.7,62,6,1,,93,细颗粒物(PM2.5)
长沙市,火车新站,113.002,28.1944,2026-01-09T0300,75,131,1.4,92,10,7,,100,细颗粒物(PM2.5)
长沙市,天心区环保局,112.9846,28.1177,2026-01-09T0300,52,92,1.3,95,7,3,,72,细颗粒物(PM2.5)
长沙市,湖南中医药大学,112.8906,28.1307,2026-01-09T0300,51,92,0.7,60,,2,,,
长治市,清华站,113.1146,36.1547,2026-01-09T0300,12,30,0.7,17,,60,,,
长治市,审计局,113.0887,36.2126,2026-01-09T0300,17,34,0.5,25,10,52,,34,
长治市,长治八中,113.0845,36.1856,2026-01-09T0300,22,34,0.7,16,12,51,,34,
长治市,德盛苑,113.1561,36.1912,2026-01-09T0300,17,23,0.4,12,,76,,,
长治市,向阳小学,113.0603,36.0464,2026-01-09T0300,22,60,0.6,17,15,64,,55,颗粒物(PM10)
长治市,屯留一中,112.8788,36.315,2026-01-09T0300,22,45,1.0,21,19,46,,45,
长治市,英华南巷50号,113.113092,36.199482,2026-01-09T0300,22,37,0.5,12,9,56,,37,
长治市,学府街1号,113.23666,36.33435,2026-01-09T0300,25,54,0.7,38,12,26,,52,颗粒物(PM10)
常德市,市二中,111.696,28.9725,2026-01-09T0300,74,86,0.6,26,4,28,,99,细颗粒物(PM2.5)
常德市,武陵区永安,111.7152,29.0288,2026-01-09T0300,87,114,1.0,55,,2,,115,细颗粒物(PM2.5)
常德市,鼎城区玉霞,111.6891,28.9881,2026-01-09T0300,66,81,0.6,31,6,3,,89,细颗粒物(PM2.5)
常德市,武陵区长庚,111.6651,29.0526,2026-01-09T0300,98,120,0.8,52,4,5,,129,细颗粒物(PM2.5)
常州市,市监测站,119.9524,31.7586,2026-01-09T0300,104,154,0.9,90,7,2,,137,细颗粒物(PM2.5)
常州市,武进监测站,119.9351,31.703,2026-01-09T0300,87,128,0.6,55,,30,,115,细颗粒物(PM2.5)
常州市,行政中心,119.9701,31.813,2026-01-09T0300,89,128,1.3,71,,18,,118,细颗粒物(PM2.5)
常州市,经开区,120.0434,31.7726,2026-01-09T0300,97,158,1.6,90,12,6,,128,细颗粒物(PM2.5)
常州市,钟楼,119.8919,31.7892,2026-01-09T0300,83,121,0.9,80,9,10,,110,细颗粒物(PM2.5)
常州市,武进经发区,119.8595,31.706,2026-01-09T0300,123,147,0.8,87,13,6,,162,细颗粒物(PM2.5)
常州市,金坛城区,119.5812,31.7256,2026-01-09T0300,95,126,1.0,70,11,,,125,细颗粒物(PM2.5)
常州市,崇义南街5-H号,119.9551,31.863,2026-01-09T0300,93,116,1.1,92,6,1,,123,细颗粒物(PM2.5)
朝阳市,西梁,120.4318,41.588,2026-01-09T0300,38,84,0.9,31,12,38,,67,颗粒物(PM10)
朝阳市,河畔小区,120.452,41.565,2026-01-09T0300,40,79,1.5,34,13,37,,65,颗粒物(PM10)
朝阳市,八里堡,120.4176,41.5648,2026-01-09T0300,37,72,0.7,31,12,40,,61,颗粒物(PM10)
潮州市,市政府,116.6179,23.6608,2026-01-09T0300,17,32,0.3,7,6,51,,32,
潮州市,金山,116.646,23.676,2026-01-09T0300,21,29,0.3,12,,43,,,
郴州市,市职中,113.0116,25.8228,2026-01-09T0300,36,48,0.5,37,3,0,,52,细颗粒物(PM2.5)
郴州市,市审计局,113.0381,25.8074,2026-01-09T0300,41,52,/,49,3,0,,58,细颗粒物(PM2.5)
郴州市,市环保局,113.0348,25.7757,2026-01-09T0300,44,67,0.7,50,4,2,,62,细颗粒物(PM2.5)
郴州市,好美居路49号,113.0138,25.8011,2026-01-09T0300,38,46,/,46,1,0,,54,细颗粒物(PM2.5)
成都市,金泉两河,103.9727,30.7242,2026-01-09T0300,62,88,1.4,78,2,2,,84,细颗粒物(PM2.5)
成都市,十里店,104.1423,30.6765,2026-01-09T0300,66,86,0.7,69,4,20,,89,细颗粒物(PM2.5)
成都市,三瓦窑,104.0594,30.5765,2026-01-09T0300,52,88,0.7,87,4,6,,72,细颗粒物(PM2.5)
成都市,沙河铺,104.1122,30.6306,2026-01-09T0300,68,86,0.8,74,3,11,,92,细颗粒物(PM2.5)
成都市,大石西路,104.0219,30.6561,2026-01-09T0300,67,91,1.3,80,5,1,,90,细颗粒物(PM2.5)
成都市,龙泉驿区区政府,104.2724,30.559,2026-01-09T0300,56,61,0.6,19,6,47,,77,细颗粒物(PM2.5)
成都市,金博路,104.0028,30.6891,2026-01-09T0300,76,80,1.4,82,5,1,,102,细颗粒物(PM2.5)
成都市,华阳,104.056,30.5228,2026-01-09T0300,61,70,1.2,73,3,2,,83,细颗粒物(PM2.5)
成都市,青石路225号,104.387954,30.746684,2026-01-09T0300,59,82,0.5,59,,23,,,
成都市,科学城,104.0788,30.4054,2026-01-09T0300,54,69,0.6,50,6,2,,74,细颗粒物(PM2.5)
成都市,光华大道三段,103.8505,30.6946,2026-01-09T0300,92,116,1.1,71,3,,,122,细颗粒物(PM2.5)
成都市,八角井街185号,104.3257,30.6406,2026-01-09T0300,77,82,0.6,16,2,62,,103,细颗粒物(PM2.5)
成都市,鲸龙路1057号,104.2433276,30.53529463,2026-01-09T0300,68,77,0.4,60,,24,,,
承德市,铁路,117.9531,40.908,2026-01-09T0300,36,66,1.1,38,5,9,,58,颗粒物(PM10)
承德市,中国银行,117.9397,40.9763,2026-01-09T0300,52,83,1.0,44,3,5,,72,细颗粒物(PM2.5)
承德市,杏林街1号,117.9462,40.95,2026-01-09T0300,54,76,1.1,44,5,3,,74,细颗粒物(PM2.5)
承德市,滨河大街98号,117.7994,40.9605,2026-01-09T0300,42,65,0.6,41,,9,,,
池州市,池州学院,117.4698,30.6617,2026-01-09T0300,37,53,1.2,34,4,30,,53,细颗粒物(PM2.5)
池州市,展览馆,117.4918,30.6617,2026-01-09T0300,34,49,1.4,33,2,23,,49,
池州市,第八中学,117.5626,30.695,2026-01-09T0300,38,56,1.1,37,4,29,,54,细颗粒物(PM2.5)
池州市,第十二中学,117.5037,30.6242,2026-01-09T0300,30,57,2.0,34,4,37,,54,颗粒物(PM10)
赤峰市,松山一中,118.9229,42.2816,2026-01-09T0300,20,63,1.2,44,6,16,,57,颗粒物(PM10)
赤峰市,哈达街,118.9588,42.2733,2026-01-09T0300,15,59,0.9,26,7,29,,55,颗粒物(PM10)
赤峰市,天义路,118.8792,42.2551,2026-01-09T0300,27,39,0.5,12,5,59,,39,
赤峰市,银河街,119.2656,42.0356,2026-01-09T0300,42,59,1.0,22,18,34,,59,细颗粒物(PM2.5)
赤峰市,桥北物流园区,118.9359,42.3146,2026-01-09T0300,29,60,1.0,20,10,34,,55,颗粒物(PM10)
崇左市,市环保局江州分局,107.3473,22.4137,2026-01-09T0300,42,55,0.6,26,6,11,,59,细颗粒物(PM2.5)
崇左市,石景林东路7号,107.375,22.3736,2026-01-09T0300,43,48,0.5,24,8,26,,60,细颗粒物(PM2.5)
滁州市,市政府原办公楼,118.31131,32.3033,2026-01-09T0300,62,92,0.6,30,7,55,,84,细颗粒物(PM2.5)
滁州市,图书馆,118.3268,32.2633,2026-01-09T0300,56,94,0.6,39,11,37,,77,细颗粒物(PM2.5)
滁州市,银山路666号,118.3196,32.3335,2026-01-09T0300,68,76,0.4,41,7,0,,92,细颗粒物(PM2.5)
滁州市,黄山路555号,118.3426,32.2979,2026-01-09T0300,84,122,0.9,80,11,4,,112,细颗粒物(PM2.5)
楚雄彝族自治州,市经济开发区,101.5379,25.0492,2026-01-09T0300,17,,0.5,5,2,44,,25,
楚雄彝族自治州,团结路562号,101.5536,25.0343,2026-01-09T0300,13,21,0.5,2,1,43,,21,
达州市,市环境监测站,107.5087,31.2186,2026-01-09T0300,92,98,0.6,39,5,,,122,细颗粒物(PM2.5)
达州市,凤凰小区,107.4988,31.2132,2026-01-09T0300,90,110,0.5,35,3,11,,119,细颗粒物(PM2.5)
达州市,达县机关宾馆,107.5081,31.1987,2026-01-09T0300,93,110,0.7,34,1,13,,123,细颗粒物(PM2.5)
达州市,市政中心,107.4644,31.2124,2026-01-09T0300,92,116,0.5,43,5,8,,122,细颗粒物(PM2.5)
大理白族自治州,大理市环境监测站,100.2168,25.5818,2026-01-09T0300,24,26,0.5,8,6,73,,35,
大理白族自治州,大理古城,100.1542,25.7055,2026-01-09T0300,16,,0.7,4,8,66,,23,
大连市,甘井子,121.6119,38.974,2026-01-09T0300,36,48,0.4,24,10,52,,52,细颗粒物(PM2.5)
大连市,周水子,121.565,38.9509,2026-01-09T0300,36,51,0.4,26,20,45,,52,细颗粒物(PM2.5)
大连市,星海三站,121.5637,38.8849,2026-01-09T0300,38,45,0.7,22,9,46,,54,细颗粒物(PM2.5)
大连市,青泥洼桥,121.6301,38.9117,2026-01-09T0300,39,61,0.6,24,11,46,,56,颗粒物(PM10)
大连市,傅家庄,121.6248,38.8643,2026-01-09T0300,38,57,0.6,22,10,46,,54,"颗粒物(PM10),细颗粒物(PM2.5)"
大连市,七贤岭,121.5117,38.8636,2026-01-09T0300,35,49,0.7,21,11,,,,
大连市,金州,121.7507,39.1339,2026-01-09T0300,34,49,0.4,26,11,51,,49,
大连市,开发区,121.7811,39.0495,2026-01-09T0300,34,49,0.7,26,5,40,,49,
大连市,双D港,121.9762,39.0631,2026-01-09T0300,31,56,0.4,21,9,54,,53,颗粒物(PM10)
大连市,旅顺,121.2548,38.8188,2026-01-09T0300,41,68,0.8,17,8,43,,59,颗粒物(PM10)
大庆市,大同区,124.8085,46.0381,2026-01-09T0300,33,90,0.5,20,6,35,,70,颗粒物(PM10)
大庆市,龙凤区,125.1166,46.5255,2026-01-09T0300,43,71,0.9,40,10,24,,61,颗粒物(PM10)
大庆市,红岗区,124.8894,46.4007,2026-01-09T0300,41,70,0.7,28,5,27,,60,颗粒物(PM10)
大庆市,萨尔图区,125.1391,46.578,2026-01-09T0300,36,90,0.5,24,9,30,,70,颗粒物(PM10)
大庆市,让胡路区,124.9026,46.6217,2026-01-09T0300,36,66,0.5,13,8,44,,58,颗粒物(PM10)
大庆市,萨区政府监测点,125.127,46.6277,2026-01-09T0300,31,85,0.8,44,9,12,,68,颗粒物(PM10)
大同市,云冈宾馆,113.2926,40.0759,2026-01-09T0300,20,65,0.5,19,9,52,,58,颗粒物(PM10)
大同市,大同大学,113.3437,40.0921,2026-01-09T0300,30,63,0.5,18,7,54,,57,颗粒物(PM10)
大同市,安家小村,113.2637,40.129,2026-01-09T0300,29,62,0.5,21,7,49,,56,颗粒物(PM10)
大同市,大同市卫生学校,113.3399,40.0586,2026-01-09T0300,22,68,0.3,22,10,49,,59,颗粒物(PM10)
大同市,云冈站,113.1371,40.1122,2026-01-09T0300,20,55,0.6,14,7,46,,53,颗粒物(PM10)
大同市,图书馆,113.1186,40.2556,2026-01-09T0300,21,61,0.5,14,7,51,,56,颗粒物(PM10)
大同市,区一中,113.5931,40.0459,2026-01-09T0300,31,76,0.5,30,4,40,,63,颗粒物(PM10)
大同市,魏都大道141号,113.2798248,40.09972476,2026-01-09T0300,21,70,0.5,21,7,49,,60,颗粒物(PM10)
大兴安岭地区,科技局,124.1068,50.4091,2026-01-09T0300,24,27,0.3,6,6,43,,35,
大兴安岭地区,红旗社区,124.117,50.4279,2026-01-09T0300,9,9,0.3,9,6,47,,15,
丹东市,江湾东路,124.33,40.0625,2026-01-09T0300,35,66,1.4,33,7,18,,58,颗粒物(PM10)
丹东市,临江后街,124.4242,40.1513,2026-01-09T0300,32,64,1.1,47,14,16,,57,颗粒物(PM10)
丹东市,元宝山,124.3935,40.1461,2026-01-09T0300,19,35,0.5,6,7,54,,35,
丹东市,民主桥,124.3634,40.1093,2026-01-09T0300,21,46,0.7,16,7,38,,46,
儋州市,第一中学子站,109.5726195,19.51688767,2026-01-09T0300,23,39,0.5,8,5,53,,39,
儋州市,东坡学校子站,109.5567,19.5187,2026-01-09T0300,22,41,0.6,6,5,78,,41,
德宏傣族景颇族自治州,德宏州监测站,98.5611,24.4273,2026-01-09T0300,53,58,0.7,32,6,14,,73,细颗粒物(PM2.5)
德宏傣族景颇族自治州,芒市人民政府综合楼,98.5887,24.4366,2026-01-09T0300,36,49,0.8,13,4,24,,52,细颗粒物(PM2.5)
德阳市,东山公园,104.424,31.1209,2026-01-09T0300,65,75,0.7,21,4,68,,88,细颗粒物(PM2.5)
德阳市,西小区,104.3827,31.1318,2026-01-09T0300,74,101,0.8,63,3,3,,99,细颗粒物(PM2.5)
德阳市,耐火材料厂,104.3553,31.1091,2026-01-09T0300,79,101,0.7,54,2,18,,105,细颗粒物(PM2.5)
德阳市,市林业局,104.4144,31.1495,2026-01-09T0300,78,,0.8,54,2,11,,104,细颗粒物(PM2.5)
德州市,儿童乐园,116.3034,37.4675,2026-01-09T0300,56,112,1.1,27,13,46,,81,颗粒物(PM10)
德州市,监理站,116.2992,37.4449,2026-01-09T0300,58,97,0.7,27,15,54,,79,细颗粒物(PM2.5)
德州市,九衢泉纯净水厂,116.2722,37.438,2026-01-09T0300,58,97,0.7,33,13,39,,79,细颗粒物(PM2.5)
德州市,开发区人民医院,116.3693,37.44,2026-01-09T0300,56,105,0.6,43,13,53,,78,颗粒物(PM10)
德州市,陵城艺术中心,116.5687,37.3331,2026-01-09T0300,53,100,0.5,38,17,38,,75,颗粒物(PM10)
德州市,新河东路,116.352738,37.420875,2026-01-09T0300,61,97,0.8,30,14,46,,83,细颗粒物(PM2.5)
迪庆藏族自治州,迪庆州站,99.7054,27.8319,2026-01-09T0300,14,16,0.5,9,4,47,,20,
迪庆藏族自治州,质量技术监督局,99.7122,27.8129,2026-01-09T0300,13,22,0.5,10,4,52,,22,
定西市,将台街,104.6092,35.5962,2026-01-09T0300,51,65,1.0,40,12,18,,70,细颗粒物(PM2.5)
定西市,正龙路62号,104.6159,35.5701,2026-01-09T0300,57,69,1.0,16,6,33,,78,细颗粒物(PM2.5)
东莞市,东城石井,113.7943,23.0132,2026-01-09T0300,16,28,0.4,27,6,49,,28,
东莞市,南城西平,113.7384,22.9659,2026-01-09T0300,28,57,0.5,98,10,0,,54,颗粒物(PM10)
东莞市,万江金泰,113.7283,23.041,2026-01-09T0300,16,32,0.5,24,,65,,,
东莞市,裕兴路,113.8666,23.1062,2026-01-09T0300,18,33,0.6,36,5,62,,33,
东莞市,教育路1号,114.0076,22.9739,2026-01-09T0300,51,88,0.6,77,8,16,,70,细颗粒物(PM2.5)
东莞市,长怡路1号,113.7981,22.8124,2026-01-09T0300,21,46,0.3,35,9,57,,46,
东营市,市环保局,118.6612,37.4313,2026-01-09T0300,46,88,0.8,57,17,20,,69,颗粒物(PM10)
东营市,开发区管委会,118.6903,37.4337,2026-01-09T0300,44,94,0.8,50,25,30,,72,颗粒物(PM10)
东营市,垦利区民丰路,118.5721,37.5654,2026-01-09T0300,46,95,1.1,47,13,27,,73,颗粒物(PM10)
东营市,河口城区,118.5063,37.8606,2026-01-09T0300,42,100,1.1,43,8,33,,75,颗粒物(PM10)
东营市,胜利站,118.4979,37.4623,2026-01-09T0300,51,76,1.0,46,21,29,,70,细颗粒物(PM2.5)
东营市,理想之城,118.5753,37.4405,2026-01-09T0300,46,85,1.0,64,12,5,,68,颗粒物(PM10)
鄂尔多斯市,综合楼,110.0024,39.8127,2026-01-09T0300,44,185,0.2,5,3,78,,118,颗粒物(PM10)
鄂尔多斯市,巴音孟克林场办事处,109.9485,39.8259,2026-01-09T0300,41,232,0.2,6,6,80,,141,颗粒物(PM10)
鄂尔多斯市,康泽苑,109.7734,39.5987,2026-01-09T0300,41,210,0.2,5,4,,,130,颗粒物(PM10)
鄂尔多斯市,华泰汽车城,109.8121,39.5987,2026-01-09T0300,41,205,0.2,5,3,85,,128,颗粒物(PM10)
鄂尔多斯市,奥林花园,109.9734,39.7884,2026-01-09T0300,41,237,0.3,39,28,49,,144,颗粒物(PM10)
鄂州市,市政府,114.894,30.3989,2026-01-09T0300,41,72,0.7,54,12,8,,61,颗粒物(PM10)
鄂州市,赵家坝,114.8986,30.3714,2026-01-09T0300,31,60,0.7,31,6,16,,55,颗粒物(PM10)
鄂州市,精准医疗中心,114.8093,30.4091,2026-01-09T0300,51,88,0.7,71,10,3,,70,细颗粒物(PM2.5)
恩施土家族苗族自治州,湖北民院,109.4978,30.2979,2026-01-09T0300,83,,1.0,26,6,4,,110,细颗粒物(PM2.5)
恩施土家族苗族自治州,龙凤新区,109.5061,30.3771,2026-01-09T0300,55,61,0.4,5,7,7,,75,细颗粒物(PM2.5)
防城港市,沙万,108.3411,21.6159,2026-01-09T0300,35,57,0.4,21,12,62,,54,颗粒物(PM10)
防城港市,防城档案局,108.3515,21.7733,2026-01-09T0300,44,88,0.5,25,5,30,,69,颗粒物(PM10)
防城港市,大海花园,108.3506,21.6414,2026-01-09T0300,38,53,0.6,15,11,78,,54,细颗粒物(PM2.5)
佛山市,湾梁,113.1293,23.0065,2026-01-09T0300,21,24,/,39,/,53,,30,
佛山市,华材职中,113.1082,23.0477,2026-01-09T0300,26,41,0.5,58,8,37,,41,
佛山市,南海气象局,113.1439,23.045,2026-01-09T0300,23,33,/,42,/,51,,33,
佛山市,顺德苏岗,113.2879,22.8094,2026-01-09T0300,19,20,0.5,47,/,40,,28,
佛山市,高明孔堂,112.8384,22.8678,2026-01-09T0300,25,38,/,26,/,53,,38,
佛山市,三水监测站,112.8835,23.1584,2026-01-09T0300,29,46,0.6,46,10,36,,46,
佛山市,三水云东海,112.8668,23.185,2026-01-09T0300,24,43,/,37,/,32,,43,
佛山市,容桂街道办,113.2568,22.7629,2026-01-09T0300,22,34,/,56,/,30,,34,
福州市,师大,119.2681,26.0506,2026-01-09T0300,31,42,0.5,31,3,63,,45,
福州市,五四北路,119.2983,26.1028,2026-01-09T0300,34,39,0.7,22,6,77,,49,
福州市,杨桥西路,119.2648,26.0769,2026-01-09T0300,29,43,/,22,5,68,,43,
福州市,九龙,119.5799,26.0937,2026-01-09T0300,29,38,0.7,17,7,90,,42,
福州市,吴航,119.5188,25.9666,2026-01-09T0300,35,52,0.5,16,7,90,,51,颗粒物(PM10)
福州市,路通桥巷6号,119.3106,26.0648,2026-01-09T0300,39,45,/,16,/,82,,55,细颗粒物(PM2.5)
抚顺市,望花区,123.7974,41.8494,2026-01-09T0300,39,64,0.9,27,26,42,,57,颗粒物(PM10)
抚顺市,顺城区,123.9161,41.8827,2026-01-09T0300,28,54,0.8,64,9,3,,52,颗粒物(PM10)
抚顺市,东洲区,124.0437,41.8615,2026-01-09T0300,26,50,0.8,22,14,42,,50,
抚顺市,新抚区,123.9246,41.8638,2026-01-09T0300,34,60,1.1,56,6,,,,
抚顺市,大伙房水库,124.0972,41.8961,2026-01-09T0300,22,43,0.7,11,12,54,,43,
抚顺市,沈抚新城,123.708,41.8386,2026-01-09T0300,33,60,1.3,28,11,48,,55,颗粒物(PM10)
抚州市,市站,116.3544,27.9833,2026-01-09T0300,42,65,0.6,38,9,,,,
抚州市,血防站,116.3562,27.9631,2026-01-09T0300,40,64,0.9,20,12,56,,57,"颗粒物(PM10),细颗粒物(PM2.5)"
抚州市,采茶剧团,116.3561,28.0007,2026-01-09T0300,41,64,0.7,28,6,31,,58,细颗粒物(PM2.5)
抚州市,医学分院,116.3854,27.9648,2026-01-09T0300,40,75,0.7,14,10,,,,
阜新市,工业园区,121.6095,41.9978,2026-01-09T0300,78,,1.4,46,37,6,,,
阜新市,长青街,121.6567,42.0188,2026-01-09T0300,63,80,1.2,57,12,2,,85,细颗粒物(PM2.5)
阜新市,农业园区,121.6672,42.07,2026-01-09T0300,56,78,0.9,38,36,29,,77,细颗粒物(PM2.5)
阜新市,玉龙新城,121.6343,42.0455,2026-01-09T0300,54,85,1.5,56,11,6,,74,细颗粒物(PM2.5)
阜阳市,市监测站,115.8276,32.8929,2026-01-09T0300,49,76,0.4,19,7,67,,68,细颗粒物(PM2.5)
阜阳市,开发区,115.8551,32.8606,2026-01-09T0300,51,79,0.4,22,,55,,,
阜阳市,阜阳职业技术学院,115.783962,32.889217,2026-01-09T0300,39,58,0.4,12,8,78,,55,细颗粒物(PM2.5)
阜阳市,市规划展馆,115.79,32.8614,2026-01-09T0300,47,88,0.5,21,,64,,,
阜阳市,枣园社区,115.835101,32.918568,2026-01-09T0300,47,90,0.5,19,7,63,,70,颗粒物(PM10)
甘南藏族自治州,州政府,102.9097,34.9841,2026-01-09T0300,22,43,0.9,33,4,23,,43,
甘南藏族自治州,甘肃民族师范学院,102.8915,34.9618,2026-01-09T0300,7,40,0.6,24,8,31,,40,
甘孜藏族自治州,水桥子,101.96,30.048,2026-01-09T0300,3,17,0.9,25,6,32,,17,
甘孜藏族自治州,州环保局,101.9534,29.9976,2026-01-09T0300,8,9,0.5,7,5,57,,18,
赣州市,地委,114.9368,25.8663,2026-01-09T0300,30,52,0.8,39,7,19,,51,颗粒物(PM10)
赣州市,气象台,114.946,25.8483,2026-01-09T0300,27,57,0.5,54,3,14,,54,颗粒物(PM10)
赣州市,市图书馆,114.932,25.8332,2026-01-09T0300,26,52,0.5,68,3,1,,51,颗粒物(PM10)
赣州市,华坚鞋城,114.8905,25.8472,2026-01-09T0300,31,50,0.4,60,6,10,,50,
赣州市,赣县区卫计委,115.0094,25.8614,2026-01-09T0300,33,38,0.4,17,7,32,,48,
固原市,监测站,106.2753,36.0057,2026-01-09T0300,8,14,0.3,4,3,85,,27,
固原市,新区,106.2384,36.0189,2026-01-09T0300,3,15,0.3,3,2,92,,29,
广安市,市委,106.6307,30.4577,2026-01-09T0300,95,98,0.9,14,8,58,,125,细颗粒物(PM2.5)
广安市,友谊中学,106.6266,30.4662,2026-01-09T0300,90,95,0.7,14,6,48,,119,细颗粒物(PM2.5)
广安市,广电花园,106.6386,30.4551,2026-01-09T0300,90,102,0.7,16,,44,,119,细颗粒物(PM2.5)
广安市,北辰小学,106.6347,30.4868,2026-01-09T0300,93,99,0.9,12,,36,,123,细颗粒物(PM2.5)
广元市,老城,105.8211,32.4444,2026-01-09T0300,46,63,0.7,63,4,6,,64,细颗粒物(PM2.5)
广元市,监测站,105.8629,32.429,2026-01-09T0300,55,73,0.9,39,3,18,,75,细颗粒物(PM2.5)
广元市,经开区,105.8047,32.4167,2026-01-09T0300,59,76,1.3,57,6,2,,80,细颗粒物(PM2.5)
广州市,广雅中学,113.2346,23.1423,2026-01-09T0300,25,42,0.4,37,5,55,,42,
广州市,市五中,113.2611,23.105,2026-01-09T0300,22,33,/,28,12,80,,33,
广州市,广东商学院,113.3477,23.0916,2026-01-09T0300,20,33,0.1,23,,70,,,
广州市,市八十六中,113.4332,23.105,2026-01-09T0300,24,31,/,60,8,36,,35,
广州市,番禺中学,113.3506,22.9488,2026-01-09T0300,22,35,0.3,47,3,55,,35,
广州市,花都师范,113.2147,23.3918,2026-01-09T0300,18,29,0.5,12,7,91,,29,
广州市,市监测站,113.2599,23.1329,2026-01-09T0300,32,32,/,32,4,70,,46,
广州市,九龙镇镇龙,113.5618,23.3119,2026-01-09T0300,17,32,0.4,24,6,53,,32,
广州市,麓湖,113.2764,23.1544,2026-01-09T0300,21,31,0.3,30,11,59,,31,
广州市,体育西,113.3209,23.1323,2026-01-09T0300,22,34,0.4,24,8,60,,34,
广州市,从化街口,113.5718,23.5493,2026-01-09T0300,29,40,0.3,60,,17,,,
广州市,白云竹料,113.3463,23.369,2026-01-09T0300,24,39,0.4,48,6,43,,39,
广州市,白云嘉禾,113.2981,23.2365,2026-01-09T0300,20,39,/,27,7,78,,39,
广州市,黄埔科学城,113.4256,23.1716,2026-01-09T0300,17,29,0.5,20,6,79,,29,
广州市,番禺大学城,113.3942,23.0485,2026-01-09T0300,18,31,0.3,54,10,45,,31,
广州市,南沙黄阁,113.4923,22.8169,2026-01-09T0300,22,36,/,36,18,64,,36,
广州市,南沙街,113.534,22.7893,2026-01-09T0300,22,38,0.5,32,8,54,,38,
广州市,花都梯面,113.2905,23.5541,2026-01-09T0300,15,24,/,20,8,65,,24,
广州市,从化良口,113.786,23.7479,2026-01-09T0300,8,14,/,7,8,70,,22,
广州市,增城荔城,113.805,23.2614,2026-01-09T0300,16,24,0.4,9,9,89,,28,
贵港市,江南子站,109.604387,23.066791,2026-01-09T0300,84,122,1.0,67,7,5,,112,细颗粒物(PM2.5)
贵港市,荷城子站,109.5669,23.1065,2026-01-09T0300,46,68,0.9,38,5,36,,64,细颗粒物(PM2.5)
贵港市,新世纪学校,109.5886,23.1172,2026-01-09T0300,54,83,0.5,50,/,32,,74,细颗粒物(PM2.5)
贵港市,中山路155-3号,109.5933,23.095,2026-01-09T0300,60,79,0.7,41,/,30,,82,细颗粒物(PM2.5)
贵阳市,马鞍山,106.6863,26.6035,2026-01-09T0300,58,66,/,38,8,10,,79,细颗粒物(PM2.5)
贵阳市,鉴湖路,106.6241,26.6266,2026-01-09T0300,36,63,0.7,22,15,53,,57,颗粒物(PM10)
贵阳市,燕子冲,106.7468,26.6344,2026-01-09T0300,53,56,0.8,37,9,18,,73,细颗粒物(PM2.5)
贵阳市,碧云窝,106.6556,26.4362,2026-01-09T0300,61,83,/,32,12,14,,83,细颗粒物(PM2.5)
贵阳市,红边门,106.6963,26.6063,2026-01-09T0300,48,66,/,46,31,19,,67,细颗粒物(PM2.5)
贵阳市,新华路,106.7162383,26.56964667,2026-01-09T0300,44,75,0.8,48,14,18,,63,颗粒物(PM10)
贵阳市,太慈桥,106.6742,26.542,2026-01-09T0300,48,63,/,34,6,33,,67,细颗粒物(PM2.5)
贵阳市,花果园大街66号,106.688212,26.56952,2026-01-09T0300,43,66,/,58,26,12,,60,细颗粒物(PM2.5)
贵阳市,漓江路57号,106.687268,26.516892,2026-01-09T0300,56,68,1.1,59,24,13,,77,细颗粒物(PM2.5)
桂林市,龙隐路小学,110.3091,25.2705,2026-01-09T0300,32,32,0.2,12,7,64,,46,
桂林市,八中,110.2849361,25.22909545,2026-01-09T0300,40,,0.4,27,8,59,,57,细颗粒物(PM2.5)
桂林市,旅游学院,110.296,25.1254,2026-01-09T0300,41,53,0.3,34,17,30,,58,细颗粒物(PM2.5)
桂林市,环湖路276号,110.1835,25.2444,2026-01-09T0300,44,46,0.5,47,36,26,,62,细颗粒物(PM2.5)
桂林市,信义路13号,110.2803,25.2773,2026-01-09T0300,27,34,0.4,15,6,80,,39,
果洛藏族自治州,玛沁县大武镇,100.2262,34.4854,2026-01-09T0300,10,39,0.5,3,16,50,,39,
哈尔滨市,松北商大,126.5557,45.8109,2026-01-09T0300,27,42,0.6,43,9,20,,42,
哈尔滨市,南岗学府路,126.6162,45.719,2026-01-09T0300,20,42,0.8,23,10,33,,42,
哈尔滨市,太平宏伟公园,126.6894,45.7733,2026-01-09T0300,22,40,0.5,35,12,25,,40,
哈尔滨市,道外承德广场,126.6361,45.7672,2026-01-09T0300,25,70,0.5,35,10,30,,60,颗粒物(PM10)
哈尔滨市,动力和平路,126.644,45.7261,2026-01-09T0300,24,39,0.6,37,10,26,,39,
哈尔滨市,道里建国路,126.5933,45.7479,2026-01-09T0300,29,44,0.7,29,9,29,,44,
哈尔滨市,平房东轻厂,126.6127,45.6119,2026-01-09T0300,21,32,0.6,17,6,40,,32,
哈尔滨市,呼兰师专,126.5875,45.9827,2026-01-09T0300,43,,1.0,33,13,24,,60,细颗粒物(PM2.5)
哈尔滨市,省农科院,126.6299,45.6799,2026-01-09T0300,22,37,0.4,28,10,35,,37,
哈尔滨市,华山路1号,126.6769,45.7379,2026-01-09T0300,22,39,0.6,36,15,21,,39,
哈尔滨市,解放大街52号,126.9717,45.5356,2026-01-09T0300,17,28,0.6,10,12,,,,
哈密市,地区监测站,93.5124,42.8176,2026-01-09T0300,58,87,0.5,28,3,12,,79,细颗粒物(PM2.5)
哈密市,哈密师范学校,93.5014,42.8312,2026-01-09T0300,43,93,0.7,38,4,11,,72,颗粒物(PM10)
海北藏族自治州,海晏县西海镇,100.9016,36.9464,2026-01-09T0300,11,22,0.3,2,5,86,,27,
海东市,平安区公安局北苑,102.074,36.5056,2026-01-09T0300,46,64,1.0,22,14,28,,64,细颗粒物(PM2.5)
海东市,滨河路,102.0984,36.5119,2026-01-09T0300,43,58,0.9,43,16,22,,60,细颗粒物(PM2.5)
海口市,海南大学,110.3189,20.0596,2026-01-09T0300,23,40,0.3,26,7,76,,40,
海口市,秀英海南医院,110.2827,20.0051,2026-01-09T0300,40,62,0.4,38,8,45,,57,细颗粒物(PM2.5)
海口市,海南师范大学,110.3391,19.9979,2026-01-09T0300,31,57,0.4,29,6,60,,54,颗粒物(PM10)
海口市,龙华路环保局宿舍,110.3303,20.0359,2026-01-09T0300,,,,,,,120,,
海口市,桂林洋子站,110.5111,19.9737,2026-01-09T0300,42,60,/,69,/,22,,59,细颗粒物(PM2.5)
海口市,长滨二路9号,110.1952,20.0451,2026-01-09T0300,32,56,/,40,/,47,,53,颗粒物(PM10)
海南藏族自治州,共和县恰卜恰镇,100.6158,36.2985,2026-01-09T0300,3,26,0.4,20,12,61,,26,
海西蒙古族藏族自治州,德令哈市,97.373,37.376,2026-01-09T0300,12,21,0.4,6,12,71,,23,
邯郸市,矿院,114.492,36.5712,2026-01-09T0300,61,83,0.7,42,5,15,,83,细颗粒物(PM2.5)
邯郸市,丛台公园,114.4839,36.6136,2026-01-09T0300,48,71,0.6,34,6,26,,67,细颗粒物(PM2.5)
邯郸市,香泉濮院小区,114.7893,36.5592,2026-01-09T0300,57,95,0.5,27,4,37,,78,细颗粒物(PM2.5)
邯郸市,峰峰矿区临水派出所,114.1998,36.4439,2026-01-09T0300,19,41,0.5,8,7,71,,41,
邯郸市,建安街268号,114.5209,36.7697,2026-01-09T0300,46,72,0.8,53,12,8,,64,细颗粒物(PM2.5)
邯郸市,丛台东路558号,114.5488,36.6177,2026-01-09T0300,45,72,0.6,38,9,18,,63,细颗粒物(PM2.5)
汉中市,市监测站,107.0155,33.0707,2026-01-09T0300,85,103,1.2,43,6,20,,113,细颗粒物(PM2.5)
汉中市,鑫源开发区,107.0083,33.114,2026-01-09T0300,69,78,1.0,53,15,29,,93,细颗粒物(PM2.5)
汉中市,南郑大河坎水厂,107.0072,33.0323,2026-01-09T0300,79,86,1.0,24,6,22,,105,细颗粒物(PM2.5)
杭州市,滨江,120.2073,30.2111,2026-01-09T0300,62,96,0.7,62,,7,,,
杭州市,西溪,120.0625,30.2737,2026-01-09T0300,50,80,1.0,53,,0,,,
杭州市,下沙,120.3417,30.315,2026-01-09T0300,71,105,1.0,93,9,1,,95,细颗粒物(PM2.5)
杭州市,卧龙桥,120.1252,30.2465,2026-01-09T0300,54,75,0.5,27,8,19,,74,细颗粒物(PM2.5)
杭州市,浙江农大,120.1902,30.2691,2026-01-09T0300,79,120,0.8,71,7,1,,105,细颗粒物(PM2.5)
杭州市,和睦小学,120.1195,30.3121,2026-01-09T0300,68,108,0.9,67,6,2,,92,细颗粒物(PM2.5)
杭州市,临平镇,120.3076,30.4146,2026-01-09T0300,82,120,0.9,73,8,1,,109,细颗粒物(PM2.5)
杭州市,城厢镇,120.2753,30.1839,2026-01-09T0300,64,95,0.7,72,8,1,,87,细颗粒物(PM2.5)
杭州市,云栖,120.0883,30.1808,2026-01-09T0300,55,81,0.6,31,4,19,,75,细颗粒物(PM2.5)
杭州市,镇二中,119.9463,30.0496,2026-01-09T0300,58,74,0.7,56,5,2,,79,细颗粒物(PM2.5)
杭州市,市府大楼,119.7184,30.2367,2026-01-09T0300,54,85,0.8,30,10,23,,74,细颗粒物(PM2.5)
杭州市,消防大队,120.1554,30.2863,2026-01-09T0300,74,96,0.7,69,,5,,,
合肥市,明珠广场,117.1957,31.7845,2026-01-09T0300,51,75,0.8,62,8,30,,70,细颗粒物(PM2.5)
合肥市,三里街,117.307,31.8765,2026-01-09T0300,58,95,1.0,94,8,0,,79,细颗粒物(PM2.5)
合肥市,琥珀山庄,117.2587,31.8703,2026-01-09T0300,53,83,1.0,67,8,25,,73,细颗粒物(PM2.5)
合肥市,庐阳区,117.2593,31.9376,2026-01-09T0300,41,75,0.8,57,8,49,,63,颗粒物(PM10)
合肥市,瑶海区,117.345251,31.861615,2026-01-09T0300,54,80,0.5,91,5,7,,74,细颗粒物(PM2.5)
合肥市,包河区,117.3033,31.7967,2026-01-09T0300,48,73,0.8,94,8,8,,67,细颗粒物(PM2.5)
合肥市,滨湖新区,117.278,31.7392,2026-01-09T0300,53,80,0.9,86,6,12,,73,细颗粒物(PM2.5)
合肥市,高新区,117.1324,31.8395,2026-01-09T0300,36,70,0.4,53,7,43,,60,颗粒物(PM10)
合肥市,高教基地,117.3802,31.9148,2026-01-09T0300,55,83,0.6,68,7,16,,75,细颗粒物(PM2.5)
合肥市,中国科学技术大学,117.2518,31.8404,2026-01-09T0300,52,80,0.6,51,11,45,,72,细颗粒物(PM2.5)
和田地区,地区环保局,79.9241,37.0878,2026-01-09T0300,88,119,1.3,58,5,22,,117,细颗粒物(PM2.5)
和田地区,市环保局,79.9132,37.1137,2026-01-09T0300,95,139,2.9,69,5,8,,125,细颗粒物(PM2.5)
河池市,市环保站,108.0496,24.6957,2026-01-09T0300,33,40,0.6,38,2,7,,48,
河池市,上任中路54号,108.0901,24.6945,2026-01-09T0300,32,48,0.7,41,5,2,,48,
河源市,东埔,114.6962,23.7538,2026-01-09T0300,21,27,0.5,30,,57,,,
河源市,老城,114.6895,23.7232,2026-01-09T0300,10,28,0.6,30,,39,,,
菏泽市,定陶老年大学,115.5562,35.089,2026-01-09T0300,46,88,0.3,18,3,55,,69,颗粒物(PM10)
菏泽市,黄河路600号,115.4239,35.2593,2026-01-09T0300,53,91,0.4,24,4,50,,73,细颗粒物(PM2.5)
菏泽市,菏泽市人社局,115.5025,35.2727,2026-01-09T0300,46,89,0.4,19,3,55,,70,颗粒物(PM10)
菏泽市,永昌路1号,115.479691,35.244011,2026-01-09T0300,52,83,0.4,22,6,51,,72,细颗粒物(PM2.5)
菏泽市,长城路999号,115.471542,35.280012,2026-01-09T0300,44,90,0.5,18,9,60,,70,颗粒物(PM10)
贺州市,环保小区,111.5264,24.4178,2026-01-09T0300,39,,0.4,26,5,32,,55,细颗粒物(PM2.5)
贺州市,政协大楼,111.561,24.4074,2026-01-09T0300,36,41,0.7,39,9,12,,52,细颗粒物(PM2.5)
贺州市,西湾,111.4744,24.455,2026-01-09T0300,42,61,0.6,29,9,23,,59,细颗粒物(PM2.5)
鹤壁市,市监测站,114.17,35.9019,2026-01-09T0300,19,62,0.7,20,2,32,,56,颗粒物(PM10)
鹤壁市,市交警支队,114.2953,35.7512,2026-01-09T0300,41,89,0.6,46,3,14,,70,颗粒物(PM10)
鹤壁市,迎宾馆,114.2877,35.7302,2026-01-09T0300,42,79,0.7,44,5,13,,65,颗粒物(PM10)
鹤壁市,大新区,114.2616,35.6824,2026-01-09T0300,33,84,0.6,46,8,20,,67,颗粒物(PM10)
鹤壁市,南山宾馆,114.1573,35.9607,2026-01-09T0300,23,55,0.6,15,8,54,,53,颗粒物(PM10)
鹤岗市,哈啤分公司,130.2537,47.3416,2026-01-09T0300,24,31,0.5,11,6,50,,35,
鹤岗市,斯达机电,130.2683,47.3087,2026-01-09T0300,23,29,0.4,8,6,57,,33,
鹤岗市,东山纸板厂,130.3114,47.3388,2026-01-09T0300,26,28,0.6,11,9,55,,38,
黑河市,交通局,127.4832,50.2524,2026-01-09T0300,29,40,0.7,21,12,39,,42,
黑河市,环保局,127.5146,50.2339,2026-01-09T0300,24,29,0.6,29,10,30,,35,
衡水市,电机北厂,115.6839,37.754,2026-01-09T0300,57,97,0.5,24,9,36,,78,细颗粒物(PM2.5)
衡水市,市监测站,115.6303,37.7318,2026-01-09T0300,52,88,0.5,28,6,34,,72,细颗粒物(PM2.5)
衡水市,市城管局,115.6684,37.7216,2026-01-09T0300,59,112,0.6,32,7,33,,81,颗粒物(PM10)
衡水市,地表水厂,115.599,37.5491,2026-01-09T0300,58,87,0.5,29,5,26,,79,细颗粒物(PM2.5)
衡阳市,衡阳化工总厂,112.6209,26.9268,2026-01-09T0300,41,53,0.8,49,8,2,,58,细颗粒物(PM2.5)
衡阳市,珠晖区环保局,112.621,26.8957,2026-01-09T0300,45,59,1.0,56,,12,,,
衡阳市,市委党校,112.628,26.8654,2026-01-09T0300,49,65,0.8,38,,27,,,
衡阳市,市监测站,112.6007,26.8977,2026-01-09T0300,59,88,1.3,50,7,1,,80,细颗粒物(PM2.5)
衡阳市,真空机电公司,112.5658,26.9013,2026-01-09T0300,47,68,1.0,39,7,16,,65,细颗粒物(PM2.5)
衡阳市,师范学院,112.6703,26.8817,2026-01-09T0300,44,60,0.8,41,2,19,,62,细颗粒物(PM2.5)
红河哈尼族彝族自治州,州图书馆,103.3757,23.3679,2026-01-09T0300,16,22,0.5,4,6,46,,23,
红河哈尼族彝族自治州,蒙自市朝阳路,103.401,23.3561,2026-01-09T0300,12,15,0.4,4,4,43,,18,
呼和浩特市,呼市一监,111.6506,40.7517,2026-01-09T0300,42,80,0.8,53,3,5,,65,颗粒物(PM10)
呼和浩特市,如意水处理厂,111.7516,40.8369,2026-01-09T0300,39,80,0.4,66,10,0,,65,颗粒物(PM10)
呼和浩特市,二十九中,111.727798,40.806187,2026-01-09T0300,42,89,0.7,53,12,4,,70,颗粒物(PM10)
呼和浩特市,化肥厂生活区,111.717,40.7617,2026-01-09T0300,50,97,1.1,59,8,,,,
呼和浩特市,海东办,111.6519,40.8389,2026-01-09T0300,39,80,0.9,52,5,4,,65,颗粒物(PM10)
呼和浩特市,成吉思汗西街8号,111.591512,40.827312,2026-01-09T0300,43,83,0.8,42,6,13,,67,颗粒物(PM10)
呼和浩特市,公园东路75号,111.6597,40.8077,2026-01-09T0300,52,100,1.1,63,8,,,,
呼和浩特市,金海路35号,111.5427,40.7846,2026-01-09T0300,41,92,1.0,53,8,1,,71,颗粒物(PM10)
呼伦贝尔市,国华电力东,119.7511,49.1576,2026-01-09T0300,21,35,0.3,18,4,53,,35,
呼伦贝尔市,伊敏大街东7号,119.7569,49.2222,2026-01-09T0300,17,,0.4,14,6,48,,25,
湖州市,城西水厂,120.075,30.867,2026-01-09T0300,59,98,0.6,60,10,18,,80,细颗粒物(PM2.5)
湖州市,仁皇山新区,120.083,30.8929,2026-01-09T0300,75,100,0.6,75,11,23,,100,细颗粒物(PM2.5)
湖州市,吴兴区站,120.1846,30.8592,2026-01-09T0300,79,112,0.8,81,,4,,105,细颗粒物(PM2.5)
湖州市,南浔区站,120.4146,30.8538,2026-01-09T0300,90,123,0.9,103,9,0,,119,细颗粒物(PM2.5)
葫芦岛市,龙港区,120.904878,40.721091,2026-01-09T0300,42,92,0.9,56,12,16,,71,颗粒物(PM10)
葫芦岛市,化工街,120.8382,40.7521,2026-01-09T0300,44,100,0.8,61,32,12,,75,颗粒物(PM10)
葫芦岛市,新区,120.8339,40.7078,2026-01-09T0300,42,91,1.0,73,11,5,,71,颗粒物(PM10)
葫芦岛市,东城区,120.8697,40.7679,2026-01-09T0300,48,93,1.1,55,14,18,,72,颗粒物(PM10)
怀化市,河西地税局,109.9297,27.5383,2026-01-09T0300,45,46,/,16,2,8,,63,细颗粒物(PM2.5)
怀化市,市四医院,109.9783,27.5342,2026-01-09T0300,54,84,0.8,41,9,,,,
怀化市,监测楼,109.9971,27.5579,2026-01-09T0300,56,72,0.4,31,2,1,,77,细颗粒物(PM2.5)
淮安市,钵池山,119.0566,33.5991,2026-01-09T0300,50,73,0.4,19,11,65,,69,细颗粒物(PM2.5)
淮安市,北京南路,119.0083,33.578,2026-01-09T0300,51,73,0.5,26,12,47,,70,细颗粒物(PM2.5)
淮安市,市监测站,118.9938,33.6083,2026-01-09T0300,56,75,1.7,33,16,49,,77,细颗粒物(PM2.5)
淮安市,楚州区监测站,119.135,33.5038,2026-01-09T0300,52,66,1.0,39,9,33,,72,细颗粒物(PM2.5)
淮安市,新华书店,118.8757,33.2897,2026-01-09T0300,60,79,0.9,41,,32,,,
淮安市,枚皋中路89号,119.119691,33.550006,2026-01-09T0300,57,68,0.7,21,9,60,,78,细颗粒物(PM2.5)
淮安市,承德北路606号,119.028838,33.631911,2026-01-09T0300,49,70,0.5,20,12,62,,68,细颗粒物(PM2.5)
淮北市,监测站,116.8005,33.9749,2026-01-09T0300,70,109,0.8,37,11,49,,94,细颗粒物(PM2.5)
淮北市,烈山区政府,116.8094,33.9008,2026-01-09T0300,75,121,0.6,42,14,34,,100,细颗粒物(PM2.5)
淮北市,市博物馆,116.7926,33.9534,2026-01-09T0300,77,112,0.7,37,7,49,,103,细颗粒物(PM2.5)
淮北市,杜集区第一实验学校,116.8322,33.9884,2026-01-09T0300,72,103,0.6,28,10,45,,97,细颗粒物(PM2.5)
淮南市,潘集区政府,116.8304,32.7726,2026-01-09T0300,62,96,0.6,32,7,48,,84,细颗粒物(PM2.5)
淮南市,谢家集区政府,116.8569,32.5949,2026-01-09T0300,45,85,0.5,36,8,38,,68,颗粒物(PM10)
淮南市,八公山区政府,116.8279,32.6333,2026-01-09T0300,44,75,0.5,25,,54,,,
淮南市,经济技术开发区消防队,117.0561,32.6536,2026-01-09T0300,40,81,0.5,19,7,71,,66,颗粒物(PM10)
淮南市,山南新区,117.011,32.5891,2026-01-09T0300,49,95,0.5,23,5,64,,73,颗粒物(PM10)
淮南市,国庆中路369号,117.003137,32.644456,2026-01-09T0300,42,66,0.6,22,8,61,,59,细颗粒物(PM2.5)
黄冈市,职工中心,114.9021,30.474,2026-01-09T0300,41,62,0.7,38,9,28,,58,细颗粒物(PM2.5)
黄冈市,红卫路,114.8858,30.4519,2026-01-09T0300,44,60,0.5,61,9,3,,62,细颗粒物(PM2.5)
黄冈市,市林业局,114.9134,30.4446,2026-01-09T0300,,,,,,,92,,
黄南藏族自治州,同仁县隆务镇,102.02,35.5101,2026-01-09T0300,7,35,0.3,2,9,59,,35,
黄山市,延安路89号,118.2905,29.6965,2026-01-09T0300,26,,0.4,18,3,21,,38,
黄山市,黄山区政府5号楼,118.1369,30.2755,2026-01-09T0300,30,47,0.4,12,2,25,,47,
黄山市,滨江东路7-2号,118.335445,29.720283,2026-01-09T0300,44,47,/,18,/,14,,62,细颗粒物(PM2.5)
黄石市,沈家营,115.0547,30.2332,2026-01-09T0300,44,70,1.3,61,8,1,,62,细颗粒物(PM2.5)
黄石市,铁山,114.899,30.211,2026-01-09T0300,22,58,0.5,36,5,26,,54,颗粒物(PM10)
黄石市,团城山,115.0259,30.2108,2026-01-09T0300,33,76,0.7,65,7,,,,
黄石市,笔架山北路,115.0174,30.1591,2026-01-09T0300,39,90,1.1,23,8,40,,70,颗粒物(PM10)
黄石市,磁湖东路29号,115.078022,30.21118,2026-01-09T0300,28,50,1.0,47,6,5,,50,
惠州市,河南岸金山湖子站,114.4181,23.0528,2026-01-09T0300,19,34,0.5,23,8,73,,34,
惠州市,下埔横江三路子站,114.4055,23.0824,2026-01-09T0300,21,35,0.2,13,13,80,,35,
惠州市,惠阳区承修路船湖子站,114.4645,22.7832,2026-01-09T0300,17,27,0.3,24,10,59,,27,
惠州市,大亚湾管委会子站,114.5316,22.7423,2026-01-09T0300,16,28,0.2,9,7,79,,28,
惠州市,惠阳秋长,114.4334,22.8134,2026-01-09T0300,22,36,/,20,/,74,,36,
惠州市,大亚湾霞涌,114.6521,22.7755,2026-01-09T0300,16,30,/,16,/,76,,30,
惠州市,文华一路1号,114.4089,23.1147,2026-01-09T0300,19,30,/,14,/,87,,30,
鸡西市,环保局,130.9618,45.2926,2026-01-09T0300,19,37,0.7,38,8,8,,37,
鸡西市,第一中学,130.9294,45.2959,2026-01-09T0300,18,24,0.6,5,4,56,,26,
鸡西市,欧美日汽修厂,131.0069,45.2988,2026-01-09T0300,43,84,0.6,30,16,,,,
吉安市,红声器材厂,114.9753,27.0803,2026-01-09T0300,32,57,0.6,31,10,,,,
吉安市,市环境监测站,114.9903,27.1313,2026-01-09T0300,40,52,/,37,8,27,,57,细颗粒物(PM2.5)
吉安市,青原区法院,115.009527,27.096792,2026-01-09T0300,38,61,0.6,55,9,3,,56,颗粒物(PM10)
吉林市,哈达湾,126.54,43.8622,2026-01-09T0300,18,29,1.1,10,8,67,,29,
吉林市,东局子,126.5843,43.8358,2026-01-09T0300,20,25,0.7,11,7,55,,29,
吉林市,电力学院,126.5051,43.8243,2026-01-09T0300,18,23,0.6,9,12,60,,26,
吉林市,江北,126.6133,43.8971,2026-01-09T0300,18,36,0.8,15,8,50,,36,
吉林市,江南公园,126.5549,43.8304,2026-01-09T0300,22,31,0.5,9,8,65,,32,
吉林市,九站,126.4737,43.953,2026-01-09T0300,20,32,0.6,19,8,52,,32,
济南市,科干所,116.9866,36.6118,2026-01-09T0300,34,97,0.8,16,8,75,,74,颗粒物(PM10)
济南市,农科所,116.9379,36.6652,2026-01-09T0300,42,95,0.6,18,6,68,,73,颗粒物(PM10)
济南市,开发区,117.1265,36.6736,2026-01-09T0300,39,90,0.7,17,6,79,,70,颗粒物(PM10)
济南市,省种子仓库,117.0616,36.6865,2026-01-09T0300,36,92,0.6,16,6,80,,71,颗粒物(PM10)
济南市,机床二厂,116.9495185,36.644937,2026-01-09T0300,46,115,0.8,23,8,69,,83,颗粒物(PM10)
济南市,市监测站,117.0496,36.6629,2026-01-09T0300,37,95,0.5,9,6,78,,73,颗粒物(PM10)
济南市,长清党校,116.7674,36.5458,2026-01-09T0300,49,93,0.8,22,11,62,,72,颗粒物(PM10)
济南市,东山小学,117.5323,36.6865,2026-01-09T0300,44,103,0.9,21,7,71,,77,颗粒物(PM10)
济南市,泰兴公司,117.7181,36.205,2026-01-09T0300,58,85,0.8,49,7,29,,79,细颗粒物(PM2.5)
济南市,莱芜战役纪念馆,117.6861,36.2172,2026-01-09T0300,62,85,0.5,26,12,58,,84,细颗粒物(PM2.5)
济南市,济阳区政府,117.1673,36.9782,2026-01-09T0300,42,107,0.5,22,9,67,,79,颗粒物(PM10)
济南市,锦屏中学,117.1168,36.6299,2026-01-09T0300,34,81,0.6,17,,79,,,
济南市,山财大街5号,117.7107,36.2385,2026-01-09T0300,51,78,0.9,31,14,67,,70,细颗粒物(PM2.5)
济南市,无影山路12号,116.9744,36.6889,2026-01-09T0300,50,102,0.1,14,8,71,,76,颗粒物(PM10)
济宁市,火炬城,116.6229,35.4288,2026-01-09T0300,66,95,0.4,17,4,65,,89,细颗粒物(PM2.5)
济宁市,北湖一中,116.5808,35.3703,2026-01-09T0300,71,94,0.5,24,8,54,,95,细颗粒物(PM2.5)
济宁市,服务中心,116.8251,35.5592,2026-01-09T0300,57,107,0.8,42,13,39,,79,颗粒物(PM10)
济宁市,市第七中学,116.5907,35.4054,2026-01-09T0300,56,93,0.5,22,8,62,,77,细颗粒物(PM2.5)
济宁市,任和路,116.6075,35.4566,2026-01-09T0300,57,105,0.5,20,7,65,,78,"颗粒物(PM10),细颗粒物(PM2.5)"
济宁市,文体南路1号,116.5648,35.3921,2026-01-09T0300,72,112,0.5,24,6,53,,97,细颗粒物(PM2.5)
佳木斯市,佳纺,130.2749,46.8028,2026-01-09T0300,12,12,0.4,3,6,55,,18,
佳木斯市,环保局,130.3258,46.7975,2026-01-09T0300,9,12,0.3,6,6,58,,19,
佳木斯市,顺和街,130.363,46.806,2026-01-09T0300,6,17,0.3,10,9,49,,17,
佳木斯市,长安路196号,130.3952,46.8268,2026-01-09T0300,14,18,0.4,16,5,44,,20,
嘉兴市,清河小学,120.7439,30.778,2026-01-09T0300,104,138,1.2,82,7,1,,137,细颗粒物(PM2.5)
嘉兴市,嘉兴学院,120.7261,30.7477,2026-01-09T0300,98,145,0.9,99,10,0,,129,细颗粒物(PM2.5)
嘉兴市,南湖区残联,120.7845,30.7524,2026-01-09T0300,98,142,1.2,86,6,3,,129,细颗粒物(PM2.5)
嘉兴市,秀洲住建,120.6915,30.7741,2026-01-09T0300,112,154,1.1,90,9,1,,147,细颗粒物(PM2.5)
嘉峪关市,气象局,98.291,39.7705,2026-01-09T0300,34,107,0.5,16,13,65,,79,颗粒物(PM10)
嘉峪关市,酒钢宾馆,98.2672,39.7978,2026-01-09T0300,39,146,1.3,27,22,42,,98,颗粒物(PM10)
嘉峪关市,雄关区,98.2644,39.7723,2026-01-09T0300,32,95,0.8,44,14,33,,73,颗粒物(PM10)
江门市,北街,113.1063,22.6058,2026-01-09T0300,30,50,/,59,/,33,,50,
江门市,西区,113.073,22.5835,2026-01-09T0300,29,55,/,54,/,28,,53,颗粒物(PM10)
江门市,圭峰西,113.0218,22.531,2026-01-09T0300,23,32,/,32,/,64,,33,
江门市,东湖,113.0826,22.5947,2026-01-09T0300,32,45,0.5,52,,33,,,
江门市,江海富民,113.1077,22.5647,2026-01-09T0300,17,36,0.3,58,/,36,,36,
江门市,新会银湖,113.0496,22.4669,2026-01-09T0300,30,46,0.4,66,9,13,,46,
焦作市,马村街道办,113.3137,35.2643,2026-01-09T0300,25,58,0.5,19,10,49,,54,颗粒物(PM10)
焦作市,焦作技师学院,113.2464,35.2374,2026-01-09T0300,22,63,0.4,27,12,52,,57,颗粒物(PM10)
焦作市,中站许衡医院,113.1656,35.2536,2026-01-09T0300,20,39,0.5,11,7,69,,39,
焦作市,原李万街道办,113.2456,35.18,2026-01-09T0300,14,49,0.5,17,7,44,,49,
焦作市,新安路1731号,113.234,35.219,2026-01-09T0300,37,60,0.6,21,7,,,,
焦作市,人民路3066号,113.2722,35.2121,2026-01-09T0300,18,59,0.4,14,7,48,,55,颗粒物(PM10)
揭阳市,新兴,116.3701,23.5345,2026-01-09T0300,56,66,0.7,70,,22,,,
揭阳市,西马,116.3261,23.5442,2026-01-09T0300,49,90,1.1,60,7,4,,70,颗粒物(PM10)
揭阳市,东兴,116.361,23.5627,2026-01-09T0300,44,73,/,62,27,23,,62,"颗粒物(PM10),细颗粒物(PM2.5)"
揭阳市,渔湖,116.4151,23.5295,2026-01-09T0300,50,95,/,103,44,1,,73,颗粒物(PM10)
揭阳市,曲溪,116.4028,23.5699,2026-01-09T0300,47,75,0.5,41,8,33,,65,细颗粒物(PM2.5)
金昌市,天庆家园,102.1691,38.5166,2026-01-09T0300,24,75,0.9,28,28,32,,63,颗粒物(PM10)
金昌市,金川区人防中心,102.1648,38.5369,2026-01-09T0300,21,41,0.8,15,15,52,,41,
金昌市,长春路96号,102.193042,38.531887,2026-01-09T0300,12,45,0.6,5,11,69,,45,
金华市,十五中,119.6478,29.0773,2026-01-09T0300,52,83,0.4,49,4,24,,72,细颗粒物(PM2.5)
金华市,监测站,119.6859,29.1032,2026-01-09T0300,57,95,0.5,68,4,0,,78,细颗粒物(PM2.5)
金华市,气象局,119.656,29.1132,2026-01-09T0300,57,87,0.8,69,4,4,,78,细颗粒物(PM2.5)
锦州市,南山,121.1114,41.0879,2026-01-09T0300,50,88,0.8,43,12,25,,69,"颗粒物(PM10),细颗粒物(PM2.5)"
锦州市,开发区,121.060361,40.842794,2026-01-09T0300,45,100,0.9,59,11,7,,75,颗粒物(PM10)
锦州市,百股街道,121.1836,41.1118,2026-01-09T0300,46,79,1.0,47,10,24,,65,颗粒物(PM10)
锦州市,天安街道,121.1176,41.1224,2026-01-09T0300,56,92,1.5,41,24,29,,77,细颗粒物(PM2.5)
锦州市,北湖公园,121.1303,41.1385,2026-01-09T0300,53,89,1.2,33,21,38,,73,细颗粒物(PM2.5)
晋城市,自来水公司,112.8496,35.5051,2026-01-09T0300,27,46,0.7,32,6,39,,46,
晋城市,市环保局,112.8509,35.4886,2026-01-09T0300,29,57,0.7,50,5,15,,54,颗粒物(PM10)
晋城市,泽州一中,112.8258,35.4804,2026-01-09T0300,9,41,0.4,10,,67,,,
晋城市,前书院路,112.8246,35.5152,2026-01-09T0300,14,60,0.5,22,4,47,,55,颗粒物(PM10)
晋城市,祥云街666号,112.8864,35.4773,2026-01-09T0300,28,51,0.6,44,8,32,,51,颗粒物(PM10)
晋中市,榆次区政府,112.6992,37.6984,2026-01-09T0300,55,122,1.5,64,33,7,,86,颗粒物(PM10)
晋中市,榆次三中,112.7195,37.683,2026-01-09T0300,46,132,1.3,54,38,12,,91,颗粒物(PM10)
晋中市,广安街188号,112.7375,37.7215,2026-01-09T0300,53,118,1.0,57,18,8,,84,颗粒物(PM10)
晋中市,迎宾街26号,112.7478,37.6954,2026-01-09T0300,48,112,1.2,58,36,9,,81,颗粒物(PM10)
荆门市,竹园小学,112.2012,31.048,2026-01-09T0300,80,91,0.4,,2,78,,107,细颗粒物(PM2.5)
荆门市,掇刀,112.1968,30.9892,2026-01-09T0300,67,88,0.5,,7,71,,,
荆门市,西山林语,112.1849,31.0361,2026-01-09T0300,63,81,0.3,18,1,69,,85,细颗粒物(PM2.5)
荆门市,龙泉中学南校,112.1631,31.0134,2026-01-09T0300,74,97,0.6,,10,72,,,
荆门市,新台西路6号,112.2213,31.0654,2026-01-09T0300,85,98,0.9,34,10,59,,113,细颗粒物(PM2.5)
荆州市,市图书馆,112.2493,30.3198,2026-01-09T0300,70,89,,45,8,34,,,
荆州市,市委党校,112.2009,30.3543,2026-01-09T0300,65,75,0.8,47,4,27,,88,细颗粒物(PM2.5)
荆州市,管委会,112.2749,30.3124,2026-01-09T0300,69,77,,41,8,34,,,
荆州市,学苑路85号,112.1722,30.3366,2026-01-09T0300,80,,0.8,39,14,34,,107,细颗粒物(PM2.5)
景德镇市,老干部活动中心,117.2114,29.2931,2026-01-09T0300,36,49,0.5,35,8,0,,52,细颗粒物(PM2.5)
景德镇市,兽医站,117.1893,29.2789,2026-01-09T0300,43,56,0.9,39,7,3,,60,细颗粒物(PM2.5)
景德镇市,陶研所,117.246,29.2958,2026-01-09T0300,41,57,0.4,33,3,0,,58,细颗粒物(PM2.5)
景德镇市,青少年活动中心,117.154766,29.256967,2026-01-09T0300,38,66,/,34,12,14,,58,颗粒物(PM10)
九江市,十里,115.9873,29.6816,2026-01-09T0300,45,57,1.0,62,5,8,,63,细颗粒物(PM2.5)
九江市,茅山头,115.9583,29.7047,2026-01-09T0300,14,50,0.8,74,4,0,,50,
九江市,西园,115.9877,29.7295,2026-01-09T0300,36,54,0.7,84,2,,,,
九江市,综合工业园,115.9112,29.6038,2026-01-09T0300,30,44,0.8,55,2,26,,44,
九江市,外国语学校,116.0254,29.6995,2026-01-09T0300,39,40,0.9,71,7,8,,55,细颗粒物(PM2.5)
九江市,莲花大道8号,116.010205,29.659402,2026-01-09T0300,19,34,0.3,3,2,68,,34,
酒泉市,玉门东路5号,98.495752,39.733935,2026-01-09T0300,45,119,0.7,26,9,24,,85,颗粒物(PM10)
酒泉市,北大街108号,98.5099,39.7506,2026-01-09T0300,40,105,0.7,15,9,38,,78,颗粒物(PM10)
喀什地区,巡警大队,76.0071,39.466,2026-01-09T0300,129,199,3.2,60,3,3,,170,细颗粒物(PM2.5)
喀什地区,吾办,75.9756,39.4693,2026-01-09T0300,148,172,4.5,74,5,4,,198,细颗粒物(PM2.5)
喀什地区,老干局,75.9485,39.4688,2026-01-09T0300,154,321,4.5,59,5,0,,204,细颗粒物(PM2.5)
开封市,肿瘤医院,114.3389,34.778,2026-01-09T0300,40,81,0.6,29,,36,,,
开封市,世纪星幼儿园,114.2884,34.7966,2026-01-09T0300,56,92,0.5,37,,31,,,
开封市,龙亭公园,114.3434,34.8101,2026-01-09T0300,47,87,0.5,40,,38,,,
开封市,汴京公园,114.3645,34.7955,2026-01-09T0300,47,94,0.6,31,6,38,,72,颗粒物(PM10)
开封市,技师学院,114.2485,34.8306,2026-01-09T0300,51,95,0.7,36,,33,,,
开封市,祥符区生态环境局,114.4518,34.7503,2026-01-09T0300,43,95,0.5,36,,38,,,
克拉玛依市,长征新村,84.886,45.6029,2026-01-09T0300,106,160,0.9,28,4,51,,139,细颗粒物(PM2.5)
克拉玛依市,南林小区,84.8894,45.5827,2026-01-09T0300,96,158,1.4,17,4,54,,127,细颗粒物(PM2.5)
克拉玛依市,独山子区,84.896,44.3328,2026-01-09T0300,21,26,0.5,15,5,60,,30,
克拉玛依市,乌尔禾区商贸楼,85.6888,46.0909,2026-01-09T0300,98,144,1.1,35,5,42,,129,细颗粒物(PM2.5)
克拉玛依市,白碱滩区新站,85.1045,45.6895,2026-01-09T0300,85,120,0.8,16,8,77,,113,细颗粒物(PM2.5)
克孜勒苏柯尔克孜自治州,市人民政府,76.1457,39.7143,2026-01-09T0300,40,65,0.1,9,3,51,,58,颗粒物(PM10)
克孜勒苏柯尔克孜自治州,克州文化中心,76.1654,39.7157,2026-01-09T0300,46,53,0.6,7,4,53,,64,细颗粒物(PM2.5)
昆明市,呈贡新区,102.8203,24.889,2026-01-09T0300,18,29,0.8,37,5,10,,29,
昆明市,龙泉镇,102.7253,25.0904,2026-01-09T0300,33,38,1.0,27,2,0,,48,
昆明市,东风东路,102.7267,25.0378,2026-01-09T0300,32,37,0.6,16,3,24,,46,
昆明市,金鼎山,102.6744,25.0671,2026-01-09T0300,19,31,0.8,17,2,18,,31,
昆明市,碧鸡广场,102.6643,25.0401,2026-01-09T0300,26,29,0.5,16,3,22,,38,
昆明市,官渡区博物馆,102.7491,25.012,2026-01-09T0300,29,32,0.6,15,2,25,,42,
昆明市,青年创业园,102.8016,24.8336,2026-01-09T0300,20,23,0.6,13,2,32,,29,
昆明市,昆明学院,102.8,24.9787,2026-01-09T0300,22,28,0.8,12,3,33,,32,
昆明市,晋宁区生态环境分局,102.5969,24.6738,2026-01-09T0300,27,47,0.6,14,2,21,,47,
昆明市,云天化总部,102.6673,24.9861,2026-01-09T0300,23,29,0.5,12,4,28,,33,
拉萨市,八廓街,91.132,29.6515,2026-01-09T0300,7,15,0.5,9,7,59,,19,
拉萨市,市环保局,91.1221,29.6748,2026-01-09T0300,22,35,1.5,27,8,24,,35,
拉萨市,区监测站,91.0874,29.6476,2026-01-09T0300,8,17,0.9,27,4,45,,17,
拉萨市,西藏大学,91.1774,29.6541,2026-01-09T0300,7,20,0.3,15,5,54,,20,
拉萨市,区辐射站,90.9798,29.6586,2026-01-09T0300,7,11,0.4,13,3,56,,18,
拉萨市,拉萨火车站,91.0831,29.6292,2026-01-09T0300,18,28,1.3,49,5,17,,28,
来宾市,来宾技工学校,109.2203,23.7252,2026-01-09T0300,54,86,0.7,42,12,8,,74,细颗粒物(PM2.5)
来宾市,兴宾区政府,109.1781,23.7293,2026-01-09T0300,61,78,0.6,17,6,40,,83,细颗粒物(PM2.5)
来宾市,中南小学,109.2312,23.7428,2026-01-09T0300,54,80,0.6,52,6,4,,74,细颗粒物(PM2.5)
兰州市,铁路设计院,103.8309,36.0467,2026-01-09T0300,,,,,,,,,
兰州市,百合公园,103.7439,36.0841,2026-01-09T0300,,,,,,,43,,
兰州市,和平,103.9613,35.9985,2026-01-09T0300,31,40,1.1,49,7,15,,45,
兰州市,庄浪东路808号,103.629272,36.093822,2026-01-09T0300,40,59,1.0,53,15,18,,57,细颗粒物(PM2.5)
兰州市,安宁西路88号,103.7251,36.104344,2026-01-09T0300,,,,,,,56,,
兰州市,北滨河东路1号,103.846982,36.067567,2026-01-09T0300,39,54,1.3,77,11,3,,55,细颗粒物(PM2.5)
廊坊市,药材公司,116.6712,39.5109,2026-01-09T0300,75,121,0.9,61,8,5,,100,细颗粒物(PM2.5)
廊坊市,开发区,116.7215,39.5592,2026-01-09T0300,87,140,0.9,68,10,0,,115,细颗粒物(PM2.5)
廊坊市,北华航天学院,116.7246,39.5273,2026-01-09T0300,77,138,0.8,64,8,3,,103,细颗粒物(PM2.5)
廊坊市,河北工业大学,116.7022,39.5454,2026-01-09T0300,69,130,0.8,58,9,9,,93,细颗粒物(PM2.5)
乐山市,牛耳桥,103.7629,29.5844,2026-01-09T0300,73,82,0.6,38,8,6,,98,细颗粒物(PM2.5)
乐山市,市第三水厂,103.7501,29.6002,2026-01-09T0300,73,92,0.7,47,6,2,,98,细颗粒物(PM2.5)
乐山市,市监测站,103.7571,29.5664,2026-01-09T0300,74,91,0.7,36,7,2,,99,细颗粒物(PM2.5)
乐山市,理工大学,103.7313,29.563,2026-01-09T0300,74,91,0.7,41,,1,,,
丽江市,丽江古城,100.2497,26.8802,2026-01-09T0300,13,24,0.5,7,8,78,,25,
丽江市,市中心,100.2203,26.8906,2026-01-09T0300,3,14,0.3,6,7,80,,25,
丽水市,监测站大楼,119.9141,28.4513,2026-01-09T0300,27,29,0.4,40,6,12,,39,
丽水市,莲都小学,119.93,28.4589,2026-01-09T0300,28,47,/,33,/,27,,47,
丽水市,余庄前,119.8794,28.4232,2026-01-09T0300,28,40,0.3,27,4,9,,40,
连云港市,市环境监测站,119.1759,34.5885,2026-01-09T0300,41,61,0.6,22,11,62,,58,细颗粒物(PM2.5)
连云港市,德源药业,119.3577,34.6971,2026-01-09T0300,39,61,0.5,21,8,67,,56,颗粒物(PM10)
连云港市,新城一中,119.178,34.8442,2026-01-09T0300,73,81,0.8,50,12,27,,98,细颗粒物(PM2.5)
连云港市,胡沟管理处,119.3607,34.7519,2026-01-09T0300,31,58,0.6,21,6,69,,54,颗粒物(PM10)
连云港市,矿山设计院,119.1478,34.5913,2026-01-09T0300,39,66,0.8,15,,72,,,
连云港市,工贸学校,119.2414,34.6539,2026-01-09T0300,48,73,0.7,20,12,58,,67,细颗粒物(PM2.5)
连云港市,连云街道,119.4171,34.734,2026-01-09T0300,37,66,0.6,18,,78,,,
凉山彝族自治州,西昌市政府,102.2629,27.8981,2026-01-09T0300,73,,0.9,20,5,34,,98,细颗粒物(PM2.5)
凉山彝族自治州,凉山州政府,102.2686,27.885,2026-01-09T0300,55,123,1.0,22,8,32,,87,颗粒物(PM10)
凉山彝族自治州,凯乐南路30号,102.2342,27.8859,2026-01-09T0300,108,139,0.7,32,6,23,,142,细颗粒物(PM2.5)
辽阳市,宏伟区,123.1978,41.2036,2026-01-09T0300,26,52,0.5,10,6,59,,51,颗粒物(PM10)
辽阳市,新华园,123.1684,41.2497,2026-01-09T0300,28,52,0.4,16,9,52,,51,颗粒物(PM10)
辽阳市,滨河路,123.2355,41.2663,2026-01-09T0300,22,44,0.4,11,35,51,,44,
辽阳市,铁西路150号,123.153,41.2874,2026-01-09T0300,28,70,0.7,22,10,46,,60,颗粒物(PM10)
辽源市,环保局,125.1359,42.8845,2026-01-09T0300,30,54,0.6,14,7,58,,52,颗粒物(PM10)
辽源市,安宁大街333号,125.0998,42.9134,2026-01-09T0300,23,59,0.3,12,7,56,,55,颗粒物(PM10)
聊城市,区政府,115.9789,36.4372,2026-01-09T0300,58,106,0.8,29,13,47,,79,细颗粒物(PM2.5)
聊城市,监控中心,115.9772,36.4986,2026-01-09T0300,61,105,0.7,22,12,52,,83,细颗粒物(PM2.5)
聊城市,九州社区,116.0443,36.436,2026-01-09T0300,64,106,0.6,14,5,56,,87,细颗粒物(PM2.5)
聊城市,星美广场,116.0564,36.4609,2026-01-09T0300,62,111,0.6,18,7,53,,84,细颗粒物(PM2.5)
聊城市,利民路,116.0091,36.4495,2026-01-09T0300,62,99,0.6,29,11,46,,84,细颗粒物(PM2.5)
林芝市,林芝监测站,94.3683,29.6373,2026-01-09T0300,11,12,0.4,4,3,55,,18,
林芝市,林芝人民医院,94.3616,29.6634,2026-01-09T0300,10,15,0.4,5,5,50,,16,
临沧市,市环保局,100.0779,23.8981,2026-01-09T0300,31,35,0.5,11,3,21,,45,
临沧市,市气象局,100.0894,23.882,2026-01-09T0300,28,33,0.5,6,5,27,,40,
临汾市,临钢医院,111.5552,36.0791,2026-01-09T0300,,,,,,,63,,
临汾市,技工学校,111.4984,36.0734,2026-01-09T0300,43,98,1.1,51,7,0,,74,颗粒物(PM10)
临汾市,市委,111.5017,36.0857,2026-01-09T0300,40,92,1.2,52,9,4,,71,颗粒物(PM10)
临汾市,唐尧大酒店,111.5048,36.1015,2026-01-09T0300,36,84,0.9,36,2,15,,67,颗粒物(PM10)
临汾市,启星学校,111.4879,36.053,2026-01-09T0300,40,84,1.4,50,5,0,,67,颗粒物(PM10)
临夏回族自治州,滨河东路1号,103.2464,35.6123,2026-01-09T0300,87,157,1.6,34,4,7,,115,细颗粒物(PM2.5)
临夏回族自治州,新华街21号,103.207136,35.599807,2026-01-09T0300,86,124,1.6,30,7,20,,114,细颗粒物(PM2.5)
临沂市,沂河小区,118.3429,35.0532,2026-01-09T0300,77,100,0.8,48,21,29,,103,细颗粒物(PM2.5)
临沂市,鲁南制药厂,118.2962,35.0568,2026-01-09T0300,71,92,0.7,54,19,26,,95,细颗粒物(PM2.5)
临沂市,新光毛纺厂,118.2793,34.9976,2026-01-09T0300,71,88,0.8,58,19,16,,95,细颗粒物(PM2.5)
临沂市,河东保险公司,118.3955,35.0889,2026-01-09T0300,61,100,0.7,38,17,35,,83,细颗粒物(PM2.5)
临沂市,十里堡居委,118.3563,35.0215,2026-01-09T0300,66,92,0.7,48,26,27,,89,细颗粒物(PM2.5)
临沂市,南坊新区,118.359,35.1067,2026-01-09T0300,58,85,0.7,40,16,44,,79,细颗粒物(PM2.5)
临沂市,皇山花园小区,118.3915,35.0297,2026-01-09T0300,59,90,0.8,43,24,35,,80,细颗粒物(PM2.5)
柳州市,柳东小学,109.4854,24.3898,2026-01-09T0300,75,84,0.6,33,40,50,,100,细颗粒物(PM2.5)
柳州市,环保监测站,109.4109,24.3304,2026-01-09T0300,82,146,0.8,55,8,3,,109,细颗粒物(PM2.5)
柳州市,河西水厂,109.3886,24.3408,2026-01-09T0300,85,133,0.7,49,9,3,,113,细颗粒物(PM2.5)
柳州市,市四中,109.4263,24.2951,2026-01-09T0300,48,55,0.6,45,26,32,,67,细颗粒物(PM2.5)
柳州市,市九中,109.396,24.3658,2026-01-09T0300,75,127,1.0,57,12,12,,100,细颗粒物(PM2.5)
柳州市,古亭山,109.4912,24.3164,2026-01-09T0300,26,28,0.6,21,26,66,,38,
柳州市,市二中,109.5422,24.3994,2026-01-09T0300,81,81,0.7,44,11,0,,108,细颗粒物(PM2.5)
六安市,监测大楼,116.5078,31.7369,2026-01-09T0300,49,65,0.5,31,4,51,,68,细颗粒物(PM2.5)
六安市,皖西学院,116.4738,31.7642,2026-01-09T0300,46,67,0.5,32,4,40,,64,细颗粒物(PM2.5)
六安市,朝阳厂,116.4997,31.7904,2026-01-09T0300,40,64,0.5,28,4,51,,57,"颗粒物(PM10),细颗粒物(PM2.5)"
六安市,开发区,116.5566,31.7885,2026-01-09T0300,54,78,0.5,44,4,16,,74,细颗粒物(PM2.5)
六盘水市,黄土坡,104.8293,26.592,2026-01-09T0300,35,43,0.5,12,8,79,,50,
六盘水市,民中,104.8481,26.5898,2026-01-09T0300,36,45,0.6,11,6,76,,52,细颗粒物(PM2.5)
六盘水市,双水,104.9541,26.5506,2026-01-09T0300,43,56,0.4,11,6,79,,60,细颗粒物(PM2.5)
六盘水市,钟山大道中段564号,104.8899,26.5685,2026-01-09T0300,39,56,0.6,9,9,75,,55,细颗粒物(PM2.5)
龙岩市,龙岩市监测站,117.022,25.1031,2026-01-09T0300,17,18,0.4,20,50,46,,25,
龙岩市,闽西职业技术学院,117.0257,25.0662,2026-01-09T0300,16,45,0.4,30,21,36,,45,
龙岩市,龙岩学院,117.0195,25.0306,2026-01-09T0300,18,30,/,16,9,46,,30,
陇南市,滨江中学,104.9344,33.3827,2026-01-09T0300,36,82,2.0,52,11,5,,66,颗粒物(PM10)
陇南市,市总工会,104.9551,33.3709,2026-01-09T0300,36,47,0.9,26,9,27,,52,细颗粒物(PM2.5)
娄底市,市监测站,111.9984,27.7346,2026-01-09T0300,56,69,0.8,42,8,18,,77,细颗粒物(PM2.5)
娄底市,市政府,111.9888,27.7035,2026-01-09T0300,49,56,0.7,16,7,19,,68,细颗粒物(PM2.5)
娄底市,涟钢职大,111.9812,27.7591,2026-01-09T0300,45,69,1.3,29,6,27,,63,细颗粒物(PM2.5)
娄底市,娄底体校,112.0303,27.7457,2026-01-09T0300,43,60,0.5,21,2,9,,60,细颗粒物(PM2.5)
泸州市,小市上码头,105.4427,28.9063,2026-01-09T0300,163,196,1.3,43,14,16,,213,细颗粒物(PM2.5)
泸州市,兰田宪桥,105.4241,28.8573,2026-01-09T0300,103,126,1.1,30,7,15,,135,细颗粒物(PM2.5)
泸州市,市环监站,105.4378,28.8833,2026-01-09T0300,125,154,1.2,51,,7,,165,细颗粒物(PM2.5)
泸州市,纳溪中医医院,105.3689,28.7783,2026-01-09T0300,83,101,0.8,24,7,4,,110,细颗粒物(PM2.5)
吕梁市,环保局,111.1447,37.5212,2026-01-09T0300,20,89,0.5,50,4,2,,70,颗粒物(PM10)
吕梁市,自来水公司,111.1285,37.5338,2026-01-09T0300,39,182,0.5,46,8,0,,116,颗粒物(PM10)
吕梁市,马茂庄小学,111.1225,37.5093,2026-01-09T0300,22,95,0.4,51,4,1,,73,颗粒物(PM10)
洛阳市,市委党校,112.3934,34.6517,2026-01-09T0300,37,52,0.5,26,10,33,,53,细颗粒物(PM2.5)
洛阳市,河南林校,112.494,34.6883,2026-01-09T0300,41,75,0.8,49,10,15,,63,颗粒物(PM10)
洛阳市,开发区管委会,112.3843,34.623,2026-01-09T0300,,,,,,,72,,
洛阳市,市委新办公区,112.4263,34.6249,2026-01-09T0300,50,78,0.7,33,10,19,,69,细颗粒物(PM2.5)
洛阳市,伊滨,112.6005,34.6323,2026-01-09T0300,57,104,0.6,30,13,34,,78,细颗粒物(PM2.5)
洛阳市,中移产业园,112.495,34.6338,2026-01-09T0300,38,63,0.5,31,15,33,,57,颗粒物(PM10)
洛阳市,吉利监测站,112.5736,34.8993,2026-01-09T0300,19,45,0.5,29,6,51,,45,
洛阳市,河科大西苑校区,112.3678,34.6623,2026-01-09T0300,42,67,0.7,36,9,18,,59,"颗粒物(PM10),细颗粒物(PM2.5)"
洛阳市,英才小学,112.4387,34.678,2026-01-09T0300,52,76,1.0,53,11,10,,72,细颗粒物(PM2.5)
洛阳市,春都路1号院,112.460027,34.694929,2026-01-09T0300,42,82,1.1,52,11,4,,66,颗粒物(PM10)
漯河市,三五一五工厂,114.051,33.5721,2026-01-09T0300,42,74,0.7,15,8,,,,
漯河市,漯河大学,114.0055,33.5698,2026-01-09T0300,19,70,0.5,16,6,59,,60,颗粒物(PM10)
漯河市,市水利局,114.0134,33.5826,2026-01-09T0300,36,63,0.6,11,,59,,,
漯河市,市广电局,114.0261,33.5697,2026-01-09T0300,32,61,0.6,15,,66,,,
漯河市,市图书馆,113.9691,33.568,2026-01-09T0300,38,79,0.6,10,5,58,,65,颗粒物(PM10)
漯河市,韶山路11号,114.089259,33.588274,2026-01-09T0300,39,76,0.4,20,7,55,,63,颗粒物(PM10)
马鞍山市,湖东路四小,118.5084,31.6838,2026-01-09T0300,60,101,0.9,60,5,,,,
马鞍山市,开发区,118.5019,31.6449,2026-01-09T0300,86,110,1.1,74,6,5,,114,细颗粒物(PM2.5)
马鞍山市,雨山,118.4914,31.681,2026-01-09T0300,60,102,0.9,62,9,24,,82,细颗粒物(PM2.5)
马鞍山市,慈湖高新区,118.527362,31.722269,2026-01-09T0300,72,115,0.8,52,7,33,,97,细颗粒物(PM2.5)
茂名市,电白南海,111.0285,21.469,2026-01-09T0300,29,51,0.5,23,23,59,,51,颗粒物(PM10)
茂名市,茂石化七小,110.9294,21.6533,2026-01-09T0300,34,53,0.4,19,15,72,,52,颗粒物(PM10)
茂名市,健康路,110.9108,21.6688,2026-01-09T0300,46,46,0.5,30,,56,,,
茂名市,高岭,110.8592,21.6826,2026-01-09T0300,46,90,/,34,,34,,,
茂名市,电白水东,111.0101,21.5165,2026-01-09T0300,24,34,/,16,35,70,,35,
眉山市,气象局,103.8414,30.0871,2026-01-09T0300,66,71,0.5,31,9,21,,89,细颗粒物(PM2.5)
眉山市,区人社局,103.829,30.0563,2026-01-09T0300,75,89,0.9,51,7,2,,100,细颗粒物(PM2.5)
眉山市,眉职院,103.8836,30.0695,2026-01-09T0300,56,84,0.6,23,1,29,,77,细颗粒物(PM2.5)
梅州市,梅江月梅,116.1248,24.3307,2026-01-09T0300,21,39,/,46,/,12,,39,
梅州市,梅县新城,116.0798,24.2719,2026-01-09T0300,18,32,0.5,44,7,6,,32,
梅州市,梅龙,116.1234,24.2994,2026-01-09T0300,15,27,0.4,22,8,29,,27,
绵阳市,富乐山,104.7775,31.4741,2026-01-09T0300,70,79,0.5,33,11,28,,94,细颗粒物(PM2.5)
绵阳市,高新区自来水公司,104.6698,31.4668,2026-01-09T0300,90,134,1.1,52,8,0,,119,细颗粒物(PM2.5)
绵阳市,西科大附属小学,104.6899,31.5324,2026-01-09T0300,77,132,1.0,47,9,10,,103,细颗粒物(PM2.5)
绵阳市,安州区旅游局,104.5647,31.5343,2026-01-09T0300,73,99,1.2,36,15,11,,98,细颗粒物(PM2.5)
绵阳市,科技城新区公安局,104.7092,31.4972,2026-01-09T0300,99,134,1.3,54,4,11,,130,细颗粒物(PM2.5)
绵阳市,绵阳市气象局,104.765114,31.453094,2026-01-09T0300,90,120,0.7,56,8,1,,119,细颗粒物(PM2.5)
牡丹江市,环保大楼,129.61,44.561,2026-01-09T0300,17,52,0.6,24,6,24,,51,颗粒物(PM10)
牡丹江市,机车工厂,129.6364,44.6075,2026-01-09T0300,55,108,0.9,43,12,3,,79,颗粒物(PM10)
牡丹江市,第一中学,129.6386,44.5462,2026-01-09T0300,32,38,0.7,29,5,10,,46,
牡丹江市,东晓云街98号,129.5992,44.5964,2026-01-09T0300,66,92,1.1,42,9,4,,89,细颗粒物(PM2.5)
内江市,市监测站,105.0703,29.61,2026-01-09T0300,73,81,0.7,22,4,23,,98,细颗粒物(PM2.5)
内江市,内江二中,105.0657,29.5807,2026-01-09T0300,80,97,0.9,56,4,4,,107,细颗粒物(PM2.5)
内江市,内江日报社,105.0407,29.5828,2026-01-09T0300,81,,0.7,41,2,38,,108,细颗粒物(PM2.5)
内江市,玉峰路西段888号,105.0433,29.6105,2026-01-09T0300,77,109,0.8,51,2,10,,103,细颗粒物(PM2.5)
那曲市,那曲监测站,92.0653,31.4846,2026-01-09T0300,19,45,1.4,24,7,36,,45,
那曲市,那曲市委宣传部,92.0515,31.4787,2026-01-09T0300,19,46,1.5,26,6,25,,46,
南昌市,省林业公司,115.8887,28.7006,2026-01-09T0300,41,58,0.9,92,4,5,,58,细颗粒物(PM2.5)
南昌市,林科所,115.813,28.7443,2026-01-09T0300,36,56,0.2,87,7,0,,53,颗粒物(PM10)
南昌市,建工学校,115.8518,28.687,2026-01-09T0300,37,44,0.7,45,13,23,,53,细颗粒物(PM2.5)
南昌市,象湖,115.8926,28.6425,2026-01-09T0300,39,60,0.9,76,9,0,,55,"颗粒物(PM10),细颗粒物(PM2.5)"
南昌市,机电学校,115.9084,28.6062,2026-01-09T0300,39,57,0.6,64,4,13,,55,细颗粒物(PM2.5)
南昌市,外国语学校,115.9718,28.7032,2026-01-09T0300,57,81,1.0,74,12,0,,78,细颗粒物(PM2.5)
南昌市,工业二路,115.7923,28.6873,2026-01-09T0300,28,38,0.3,57,4,26,,40,
南昌市,南京东路235号,115.931587,28.686774,2026-01-09T0300,67,89,1.2,87,6,4,,90,细颗粒物(PM2.5)
南充市,南充市委,106.0791,30.8022,2026-01-09T0300,77,92,0.6,24,4,23,,103,细颗粒物(PM2.5)
南充市,南充炼油厂,106.1038,30.8215,2026-01-09T0300,77,93,0.6,38,7,21,,103,细颗粒物(PM2.5)
南充市,梨树横街98号,106.108336,30.788436,2026-01-09T0300,125,138,1.0,50,6,15,,165,细颗粒物(PM2.5)
南充市,清泉寺北路188号,106.1172,30.843,2026-01-09T0300,55,68,0.4,17,7,64,,75,细颗粒物(PM2.5)
南充市,同庆路1号,106.067,30.7616,2026-01-09T0300,75,84,0.6,54,5,7,,100,细颗粒物(PM2.5)
南京市,迈皋桥,118.8033,32.1085,2026-01-09T0300,70,97,0.7,33,4,42,,94,细颗粒物(PM2.5)
南京市,草场门,118.7487,32.057,2026-01-09T0300,63,100,0.5,70,8,15,,85,细颗粒物(PM2.5)
南京市,中华门,118.770105,32.004342,2026-01-09T0300,66,88,0.7,67,6,4,,89,细颗粒物(PM2.5)
南京市,瑞金路,118.8059,32.0329,2026-01-09T0300,70,90,1.0,72,4,4,,94,细颗粒物(PM2.5)
南京市,玄武湖,118.7946,32.0774,2026-01-09T0300,70,102,0.8,27,4,32,,94,细颗粒物(PM2.5)
南京市,浦口,118.6415,32.0964,2026-01-09T0300,51,86,0.5,58,9,21,,70,细颗粒物(PM2.5)
南京市,奥体中心,118.730129,32.000956,2026-01-09T0300,63,95,0.7,86,7,3,,85,细颗粒物(PM2.5)
南京市,仙林大学城,118.9072,32.1047,2026-01-09T0300,68,105,0.9,73,8,11,,92,细颗粒物(PM2.5)
南京市,江宁彩虹桥,118.8443,31.919,2026-01-09T0300,63,90,0.7,66,4,0,,85,细颗粒物(PM2.5)
南京市,六合雄州,118.8497,32.3599,2026-01-09T0300,62,87,0.8,70,,8,,,
南京市,新模范马路66号,118.7641,32.0841,2026-01-09T0300,72,115,0.9,54,4,24,,97,细颗粒物(PM2.5)
南京市,汶溪路181号,118.8707617,31.34017673,2026-01-09T0300,64,80,0.8,52,6,14,,87,细颗粒物(PM2.5)
南京市,中山西路1号,119.019,31.6512,2026-01-09T0300,67,73,0.8,46,5,10,,90,细颗粒物(PM2.5)
南宁市,二十一中,108.3098,22.788,2026-01-09T0300,51,64,0.8,61,4,0,,70,细颗粒物(PM2.5)
南宁市,北湖,108.3135,22.8529,2026-01-09T0300,51,83,0.9,66,5,1,,70,细颗粒物(PM2.5)
南宁市,市监测站,108.3205,22.8222,2026-01-09T0300,45,63,0.9,48,14,26,,63,细颗粒物(PM2.5)
南宁市,大自然花园,108.3828,22.8038,2026-01-09T0300,34,50,0.7,20,12,62,,50,
南宁市,区农职院,108.2397,22.8462,2026-01-09T0300,42,48,0.7,37,11,12,,59,细颗粒物(PM2.5)
南宁市,英华嘉园,108.3285,22.7356,2026-01-09T0300,58,82,0.9,66,5,1,,79,细颗粒物(PM2.5)
南宁市,红星社区,108.4829,22.762,2026-01-09T0300,52,62,0.7,48,6,20,,72,细颗粒物(PM2.5)
南宁市,起凤路9号,108.2927,23.1477,2026-01-09T0300,79,89,0.6,36,2,0,,105,细颗粒物(PM2.5)
南宁市,乐贤路16号,108.2177,22.7774,2026-01-09T0300,39,74,0.6,50,2,0,,62,颗粒物(PM10)
南平市,南平市监测站,118.1682,26.6371,2026-01-09T0300,25,33,0.4,44,4,4,,36,
南平市,南平七中,118.1757,26.6276,2026-01-09T0300,19,26,0.4,43,4,12,,28,
南通市,狼山街道,120.9056,31.9669,2026-01-09T0300,51,59,0.5,45,2,10,,70,细颗粒物(PM2.5)
南通市,城中,120.8635,32.0231,2026-01-09T0300,45,70,0.7,49,,25,,,
南通市,星湖花园,120.9376,31.9301,2026-01-09T0300,42,69,0.5,46,5,31,,60,颗粒物(PM10)
南通市,紫琅学院,120.8053,32.046,2026-01-09T0300,47,69,0.3,52,4,17,,65,细颗粒物(PM2.5)
南通市,通州监测站,121.0631,32.0644,2026-01-09T0300,41,58,0.6,20,3,64,,58,细颗粒物(PM2.5)
南通市,环境教育馆,120.9348,31.9874,2026-01-09T0300,53,75,0.7,62,5,3,,73,细颗粒物(PM2.5)
南通市,洪江路,120.8692,31.9885,2026-01-09T0300,51,57,0,49,2,17,,70,细颗粒物(PM2.5)
南阳市,瓦房庄,112.5338,33.0086,2026-01-09T0300,45,68,0.5,19,9,55,,63,细颗粒物(PM2.5)
南阳市,汉画馆,112.5002,32.9734,2026-01-09T0300,49,69,0.5,37,6,34,,68,细颗粒物(PM2.5)
南阳市,气象站,112.5778,33.0144,2026-01-09T0300,44,74,0.6,22,,56,,,
南阳市,理工学院,112.548,32.9687,2026-01-09T0300,36,64,0.5,27,,49,,,
南阳市,卧龙区政府,112.5233,32.9921,2026-01-09T0300,49,81,0.6,31,7,41,,68,细颗粒物(PM2.5)
宁波市,区环保大楼,121.8352,29.9111,2026-01-09T0300,74,103,1.0,64,5,7,,99,细颗粒物(PM2.5)
宁波市,万里学院,121.5595,29.8208,2026-01-09T0300,62,86,0.7,76,7,2,,84,细颗粒物(PM2.5)
宁波市,龙赛医院,121.713,29.9564,2026-01-09T0300,65,106,0.7,63,6,16,,88,细颗粒物(PM2.5)
宁波市,太古小学,121.5855,29.8635,2026-01-09T0300,58,92,,74,5,2,,,
宁波市,市环境监测中心,121.5239,29.8673,2026-01-09T0300,51,85,0.8,55,,16,,,
宁波市,万里国际学校,121.6156,29.9015,2026-01-09T0300,58,84,0.7,87,6,2,,79,细颗粒物(PM2.5)
宁波市,白沙活动中心,121.5593,29.8976,2026-01-09T0300,57,75,0.7,53,5,26,,78,细颗粒物(PM2.5)
宁波市,中科路88号,121.8962,29.7529,2026-01-09T0300,74,90,0.7,32,4,31,,99,细颗粒物(PM2.5)
宁德市,宁德市监测站,119.5387,26.6611,2026-01-09T0300,35,37,0.5,18,10,72,,50,
宁德市,宁德一中,119.5231,26.6562,2026-01-09T0300,23,42,0.6,13,8,68,,42,
怒江傈僳族自治州,州监测站,98.859,25.8541,2026-01-09T0300,22,32,0.4,13,7,38,,32,
怒江傈僳族自治州,泸水一中,98.8607,25.8168,2026-01-09T0300,17,22,0.5,18,6,22,,25,
攀枝花市,弄弄坪,101.6891,26.571,2026-01-09T0300,45,66,1.5,30,,22,,,
攀枝花市,河门口,101.577,26.5914,2026-01-09T0300,38,54,1.0,30,,14,,,
攀枝花市,仁和,101.7365,26.4986,2026-01-09T0300,39,56,0.8,13,8,23,,55,细颗粒物(PM2.5)
攀枝花市,四十中小,101.7222,26.567,2026-01-09T0300,47,78,1.2,43,19,7,,65,细颗粒物(PM2.5)
盘锦市,开发区,122.0303,41.1489,2026-01-09T0300,47,67,1.2,19,4,30,,65,细颗粒物(PM2.5)
盘锦市,兴隆台,122.0486,41.0883,2026-01-09T0300,42,66,0.7,30,4,34,,59,细颗粒物(PM2.5)
盘锦市,新生街道,121.8297,41.1026,2026-01-09T0300,55,72,0.8,34,4,21,,75,细颗粒物(PM2.5)
平顶山市,新华旅馆,113.3257,33.7423,2026-01-09T0300,28,58,0.3,16,5,76,,54,颗粒物(PM10)
平顶山市,规划设计院,113.2917,33.737,2026-01-09T0300,28,51,0.3,12,6,74,,51,颗粒物(PM10)
平顶山市,平顶山工学院,113.182,33.7738,2026-01-09T0300,19,52,0.3,13,7,75,,51,颗粒物(PM10)
平顶山市,石龙区,112.8736,33.9068,2026-01-09T0300,34,62,0.5,25,6,67,,56,颗粒物(PM10)
平顶山市,姚电大道23号,113.284,33.7139,2026-01-09T0300,24,65,0.4,29,7,62,,58,颗粒物(PM10)
平凉市,聚贤嘉苑,106.6633,35.5338,2026-01-09T0300,21,31,0.6,21,14,55,,31,
平凉市,博物馆,106.7021,35.5307,2026-01-09T0300,24,37,0.5,24,10,48,,37,
萍乡市,中医院,113.8384,27.6436,2026-01-09T0300,51,83,1.1,42,4,12,,70,细颗粒物(PM2.5)
萍乡市,市环保局,113.8677,27.6438,2026-01-09T0300,68,93,1.0,48,17,17,,92,细颗粒物(PM2.5)
萍乡市,安源区政府,113.8663,27.6202,2026-01-09T0300,65,81,1.0,24,8,19,,88,细颗粒物(PM2.5)
萍乡市,联洪村委会,113.8686,27.6668,2026-01-09T0300,65,96,1.1,46,9,11,,88,细颗粒物(PM2.5)
莆田市,荔城区仓后路,119.0142,25.4324,2026-01-09T0300,31,43,/,11,/,98,,45,
莆田市,莆田市监测站,119.0016,25.4553,2026-01-09T0300,27,32,0.4,10,3,102,,39,
莆田市,涵江区六中,119.112,25.4561,2026-01-09T0300,30,44,0.5,16,/,96,,44,
莆田市,秀屿区政府,119.1014,25.3215,2026-01-09T0300,32,34,0.5,14,4,94,,46,
濮阳市,环保局,115.0312,35.7636,2026-01-09T0300,41,71,0.5,22,7,47,,61,颗粒物(PM10)
濮阳市,濮水河管理处,115,35.7667,2026-01-09T0300,44,83,0.7,14,5,41,,67,颗粒物(PM10)
濮阳市,中原东路68号,115.0552,35.7816,2026-01-09T0300,40,88,0.4,26,6,48,,69,颗粒物(PM10)
濮阳市,任丘路479号,115.0923632,35.76857718,2026-01-09T0300,43,88,0.5,22,,44,,,
普洱市,市环保局,100.9801,22.7634,2026-01-09T0300,23,31,0.4,4,4,38,,33,
普洱市,普洱第二中学,100.9763,22.8237,2026-01-09T0300,15,28,0.3,5,4,37,,28,
七台河市,中波台,131.0413,45.7795,2026-01-09T0300,17,22,0.3,11,7,37,,25,
七台河市,人民广场,131.0136,45.7688,2026-01-09T0300,16,26,0.5,16,8,41,,26,
七台河市,新建矿广场,130.8639,45.8144,2026-01-09T0300,23,48,0.5,42,19,9,,48,
齐齐哈尔市,安居小区,123.9307,47.3641,2026-01-09T0300,36,42,0.7,33,9,17,,52,细颗粒物(PM2.5)
齐齐哈尔市,中心广场,123.9497,47.3389,2026-01-09T0300,31,38,0.6,19,7,32,,45,
齐齐哈尔市,农牧车辆厂,123.9483,47.3229,2026-01-09T0300,27,44,0.5,20,4,28,,44,
齐齐哈尔市,市环境监测站,123.9442,47.2994,2026-01-09T0300,28,47,0.7,18,8,38,,47,
齐齐哈尔市,富区青少年活动中心,123.6341,47.2079,2026-01-09T0300,31,45,0.6,12,3,34,,45,
黔东南苗族侗族自治州,市环境监测站,107.9765,26.5724,2026-01-09T0300,38,46,0.6,31,2,12,,54,细颗粒物(PM2.5)
黔东南苗族侗族自治州,凯里学院,107.8909,26.531,2026-01-09T0300,32,34,0.5,21,4,18,,46,
黔南布依族苗族自治州,小围寨,107.5223,26.2371,2026-01-09T0300,39,44,0.8,26,9,11,,55,细颗粒物(PM2.5)
黔南布依族苗族自治州,沙坝,107.5175,26.2977,2026-01-09T0300,39,58,0.8,16,6,17,,55,细颗粒物(PM2.5)
黔西南布依族苗族自治州,场坝街,104.9022,25.0943,2026-01-09T0300,62,72,0.7,9,8,68,,84,细颗粒物(PM2.5)
黔西南布依族苗族自治州,坪东大道,104.8812,25.0994,2026-01-09T0300,45,55,0.7,11,8,66,,63,细颗粒物(PM2.5)
钦州市,市环保站,108.6238,21.9667,2026-01-09T0300,48,97,0.8,37,5,51,,74,颗粒物(PM10)
钦州市,沙埠小学,108.655,21.9481,2026-01-09T0300,62,83,0.9,40,7,46,,84,细颗粒物(PM2.5)
钦州市,港区一小,108.5989,21.7435,2026-01-09T0300,56,78,1.5,43,9,50,,77,细颗粒物(PM2.5)
钦州市,北职校,108.5959,21.9634,2026-01-09T0300,65,96,3.5,43,8,23,,88,细颗粒物(PM2.5)
秦皇岛市,建设大厦,119.5247,39.9346,2026-01-09T0300,58,108,1.3,63,20,10,,79,"颗粒物(PM10),细颗粒物(PM2.5)"
秦皇岛市,文明里,119.5979,39.938,2026-01-09T0300,46,99,1.0,57,20,12,,75,颗粒物(PM10)
秦皇岛市,南园路157号,119.7458,39.9952,2026-01-09T0300,53,114,1.3,56,19,15,,82,颗粒物(PM10)
秦皇岛市,翠岛大街1号,119.5131,39.8858,2026-01-09T0300,51,105,1.2,59,,7,,,
秦皇岛市,北戴河轮滑馆,119.509013,39.825305,2026-01-09T0300,43,92,0.6,34,8,32,,71,颗粒物(PM10)
青岛市,市南区东部子站,120.404,36.0625,2026-01-09T0300,36,68,1.1,28,17,56,,59,颗粒物(PM10)
青岛市,四方区子站,120.362344,36.10282,2026-01-09T0300,39,112,0.8,21,10,64,,81,颗粒物(PM10)
青岛市,市南区西部子站,120.294373,36.054183,2026-01-09T0300,37,70,0.8,31,10,57,,60,颗粒物(PM10)
青岛市,崂山区子站,120.4581,36.0858,2026-01-09T0300,31,66,0.7,22,18,61,,58,颗粒物(PM10)
青岛市,城阳区子站,120.3945,36.3083,2026-01-09T0300,29,73,1.2,46,14,42,,62,颗粒物(PM10)
青岛市,市北区南部,120.3454,36.0735,2026-01-09T0300,36,60,0.8,24,,54,,,
青岛市,李沧区北部,120.3897,36.18,2026-01-09T0300,41,63,1.1,44,18,43,,58,细颗粒物(PM2.5)
青岛市,盟旺路653号,120.5222,36.4089,2026-01-09T0300,30,72,0.8,46,12,41,,61,颗粒物(PM10)
青岛市,珠江路669号,120.196923,35.954556,2026-01-09T0300,44,56,1.0,25,16,60,,62,细颗粒物(PM2.5)
青岛市,黄岛区人民政府广场,120.0424,35.8656,2026-01-09T0300,39,68,1.0,35,13,52,,59,颗粒物(PM10)
清远市,凤城街办,113.0218,23.7086,2026-01-09T0300,16,25,/,32,/,57,,25,
清远市,技师学院,113.0479,23.6343,2026-01-09T0300,18,35,0.4,33,13,51,,35,
清远市,清新太和,112.9898,23.7403,2026-01-09T0300,14,24,0.4,14,7,98,,31,
清远市,清城东城,113.076,23.72,2026-01-09T0300,17,33,/,19,/,84,,33,
庆阳市,庆阳五中,107.6325,35.7357,2026-01-09T0300,21,34,0.5,9,5,76,,34,
庆阳市,市环保局,107.6361,35.7067,2026-01-09T0300,20,44,0.3,8,6,80,,44,
曲靖市,环境监测站,103.7897,25.5036,2026-01-09T0300,17,25,0.6,14,2,29,,25,
曲靖市,烟厂办公区,103.8013,25.5357,2026-01-09T0300,24,32,0.6,13,4,32,,35,
曲靖市,南苑二区,103.7926,25.4651,2026-01-09T0300,20,31,0.5,7,3,37,,31,
曲靖市,曲靖师范学院,103.7442,25.5259,2026-01-09T0300,24,24,0.4,10,1,34,,35,
衢州市,环保大楼,118.8694,28.94,2026-01-09T0300,27,48,/,35,/,28,,48,
衢州市,衢州学院,118.8622,28.9809,2026-01-09T0300,25,49,0.5,54,5,12,,49,
衢州市,衢州三中,118.9646,28.9832,2026-01-09T0300,43,70,0.6,62,6,1,,60,"颗粒物(PM10),细颗粒物(PM2.5)"
泉州市,涂山街,118.5818,24.9116,2026-01-09T0300,25,33,0.5,10,3,95,,36,
泉州市,津头埔,118.597,24.8976,2026-01-09T0300,29,33,0.4,13,5,96,,42,
泉州市,万安,118.6669,24.9422,2026-01-09T0300,27,38,0.5,16,3,89,,39,
泉州市,霞新路6号,118.6355,24.9148,2026-01-09T0300,26,43,0.4,15,/,99,,43,
日喀则市,日喀则监测站,88.8873,29.2723,2026-01-09T0300,11,16,0.6,12,3,52,,17,
日喀则市,林业技术推广中心,88.8775,29.2425,2026-01-09T0300,3,16,0.2,7,9,54,,17,
日照市,监测站,119.4711,35.421,2026-01-09T0300,68,97,1.1,56,19,22,,92,细颗粒物(PM2.5)
日照市,市政府广场,119.523,35.4216,2026-01-09T0300,56,83,0.6,32,14,51,,77,细颗粒物(PM2.5)
日照市,港务局,119.5511,35.4113,2026-01-09T0300,69,95,1.1,61,13,23,,93,细颗粒物(PM2.5)
日照市,职业技术学院,119.5326,35.4627,2026-01-09T0300,46,88,1.0,38,15,49,,69,颗粒物(PM10)
日照市,岚山环保分局,119.3267,35.1043,2026-01-09T0300,69,97,0.8,58,12,28,,93,细颗粒物(PM2.5)
三门峡市,市政府,111.1922,34.7752,2026-01-09T0300,31,51,0.8,52,13,8,,51,颗粒物(PM10)
三门峡市,开发区,111.1588,34.794,2026-01-09T0300,36,65,0.5,39,8,10,,58,颗粒物(PM10)
三门峡市,三门峡市第一小学,111.1911,34.7829,2026-01-09T0300,31,60,0.7,54,9,3,,55,颗粒物(PM10)
三门峡市,富达温泉假日酒店,111.1031,34.719,2026-01-09T0300,34,69,1.1,61,14,5,,60,颗粒物(PM10)
三明市,三钢,117.621,26.2626,2026-01-09T0300,29,,1.0,28,6,26,,42,
三明市,三明二中,117.6352,26.2714,2026-01-09T0300,21,31,0.5,18,4,28,,31,
三明市,三元区政府,117.6028,26.2377,2026-01-09T0300,27,33,0.7,26,7,20,,39,
三亚市,河西子站,109.4962,18.2682,2026-01-09T0300,18,32,0.6,7,7,102,,32,
三亚市,君悦子站,109.7348,18.3443,2026-01-09T0300,23,31,0.5,15,6,77,,33,
三亚市,城东小学站,109.1714,18.3739,2026-01-09T0300,32,35,/,9,/,70,,46,
山南市,山南监测站,91.7592,29.234,2026-01-09T0300,16,38,0.4,12,5,38,,38,
山南市,山南人民医院,91.7701,29.2436,2026-01-09T0300,10,27,0.4,7,4,43,,27,
汕头市,金平子站,116.6795,23.3666,2026-01-09T0300,27,41,0.7,18,9,87,,41,
汕头市,龙湖子站,116.7248,23.3632,2026-01-09T0300,23,39,/,17,11,82,,39,
汕头市,濠江子站,116.7257,23.2774,2026-01-09T0300,25,48,/,14,11,91,,48,
汕头市,澄海子站,116.7518,23.4712,2026-01-09T0300,35,49,0.4,22,9,80,,50,
汕头市,潮阳子站,116.6088,23.2539,2026-01-09T0300,18,31,0.4,13,9,98,,31,
汕头市,潮南峡山,116.4539,23.2684,2026-01-09T0300,27,47,0.4,13,10,92,,47,
汕头市,潮南子站,116.4069,23.2533,2026-01-09T0300,29,52,/,15,8,83,,51,颗粒物(PM10)
汕尾市,市环保局,115.3653,22.7751,2026-01-09T0300,25,42,0.4,12,,82,,,
汕尾市,新城中学,115.362,22.7926,2026-01-09T0300,26,43,0.6,12,6,82,,43,
商洛市,监测站,109.9155,33.8714,2026-01-09T0300,17,32,0.4,36,5,20,,32,
商洛市,商州区中学,109.9647,33.8486,2026-01-09T0300,16,22,0.6,43,6,10,,23,
商丘市,环境监测站,115.6701,34.4283,2026-01-09T0300,51,77,0.1,13,4,81,,70,细颗粒物(PM2.5)
商丘市,粮食局,115.6458,34.4047,2026-01-09T0300,56,78,0.1,13,,67,,,
商丘市,梁园区档案局,115.6069,34.4465,2026-01-09T0300,63,92,0.4,15,7,62,,85,细颗粒物(PM2.5)
商丘市,北海东路185号,115.6701,34.3767,2026-01-09T0300,57,111,0.5,30,3,44,,81,颗粒物(PM10)
商丘市,中山大街3号,115.6172,34.3704,2026-01-09T0300,72,122,0.4,26,5,40,,97,细颗粒物(PM2.5)
上海市,普陀,121.401,31.2382,2026-01-09T0300,52,76,0.6,43,7,52,,72,细颗粒物(PM2.5)
上海市,十五厂,121.4774,31.2043,2026-01-09T0300,52,77,0.8,61,7,32,,72,细颗粒物(PM2.5)
上海市,虹口,121.4673,31.3011,2026-01-09T0300,46,77,0.6,49,,25,,,
上海市,静安监测站,121.4253,31.226,2026-01-09T0300,50,72,0.5,33,7,63,,69,细颗粒物(PM2.5)
上海市,浦东川沙,121.7029,31.1905,2026-01-09T0300,52,81,0.8,78,7,2,,72,细颗粒物(PM2.5)
上海市,浦东新区监测站,121.5339,31.229,2026-01-09T0300,48,71,0.7,48,7,50,,67,细颗粒物(PM2.5)
上海市,浦东张江,121.5776,31.2038,2026-01-09T0300,55,81,0.7,73,7,9,,75,细颗粒物(PM2.5)
上海市,宝山庙行,121.4242,31.3303,2026-01-09T0300,57,86,0.6,60,6,23,,78,细颗粒物(PM2.5)
上海市,崇明上实东滩,121.8789,31.4662,2026-01-09T0300,31,45,0.5,8,3,40,,45,
上海市,嘉定南翔,121.316,31.2839,2026-01-09T0300,65,90,0.8,88,6,2,,88,细颗粒物(PM2.5)
上海市,金山新城,121.3357,30.7455,2026-01-09T0300,58,76,0.4,28,,45,,,
上海市,闵行浦江,121.4996,31.0741,2026-01-09T0300,57,79,0.6,75,7,0,,78,细颗粒物(PM2.5)
上海市,青浦徐泾,121.2886,31.1663,2026-01-09T0300,58,89,0.9,87,7,0,,79,细颗粒物(PM2.5)
上海市,松江图书馆,121.2193,31.0382,2026-01-09T0300,59,100,0.6,98,8,1,,80,细颗粒物(PM2.5)
上海市,长宁仙霞,121.3904,31.206,2026-01-09T0300,49,71,0.5,51,8,39,,68,细颗粒物(PM2.5)
上海市,浦东惠南,121.7964,31.0507,2026-01-09T0300,54,92,0.8,71,5,17,,74,细颗粒物(PM2.5)
上海市,奉贤南桥新城,121.4891,30.925,2026-01-09T0300,65,91,0.6,37,,54,,,
上海市,冠生园路458号,121.417401,31.16637,2026-01-09T0300,61,80,0.7,77,,8,,,
上海市,宁武路151号,121.541914,31.268301,2026-01-09T0300,51,74,0.6,84,5,4,,70,细颗粒物(PM2.5)
上饶市,市监测站,117.9758,28.4439,2026-01-09T0300,34,56,/,42,17,,,,
上饶市,凤凰光学,117.9521,28.4637,2026-01-09T0300,33,58,0.7,49,32,6,,54,颗粒物(PM10)
上饶市,双创科技城,117.897,28.4316,2026-01-09T0300,57,71,0.8,63,14,23,,78,细颗粒物(PM2.5)
上饶市,裕丰大道,118.190438,28.444845,2026-01-09T0300,34,41,0.5,17,9,44,,49,
韶关市,市八中,113.5821,24.7733,2026-01-09T0300,28,46,0.5,45,13,16,,46,
韶关市,园林处,113.5916,24.7973,2026-01-09T0300,29,39,/,58,,5,,,
韶关市,曲江监测站,113.5971,24.6864,2026-01-09T0300,20,36,0.2,26,12,32,,36,
韶关市,大学路288号,113.6668,24.7756,2026-01-09T0300,21,,/,19,3,14,,30,
韶关市,碧湖山庄,113.5556,24.8082,2026-01-09T0300,30,46,0.4,23,8,32,,46,
邵阳市,市化工厂,111.5277,27.2442,2026-01-09T0300,63,94,1.1,49,7,4,,85,细颗粒物(PM2.5)
邵阳市,市环保局,111.4327,27.2276,2026-01-09T0300,63,63,1.2,31,5,20,,85,细颗粒物(PM2.5)
邵阳市,北塔二期4-26地块,111.446,27.2472,2026-01-09T0300,,,,,,,82,,
邵阳市,邵水西路287号,111.4739,27.2282,2026-01-09T0300,67,98,0.8,49,9,2,,90,细颗粒物(PM2.5)
绍兴市,城东开发委,120.6053,29.9927,2026-01-09T0300,57,82,0.7,33,9,22,,78,细颗粒物(PM2.5)
绍兴市,树下王站,120.5482,30.0003,2026-01-09T0300,56,84,0.9,57,8,5,,77,细颗粒物(PM2.5)
绍兴市,绍兴中专,120.5685,29.936,2026-01-09T0300,56,78,0.5,48,,8,,,
绍兴市,柯桥区政府,120.4905,30.086,2026-01-09T0300,72,92,0.7,59,6,2,,97,细颗粒物(PM2.5)
绍兴市,重华小学,120.8751,30.0249,2026-01-09T0300,49,76,0.7,37,,31,,,
绍兴市,上虞中学,120.837,30.0137,2026-01-09T0300,53,70,0.7,45,7,14,,73,细颗粒物(PM2.5)
绍兴市,柯桥妇保,120.4715,30.0414,2026-01-09T0300,61,85,0.7,35,5,15,,83,细颗粒物(PM2.5)
绍兴市,袍江中学,120.6156,30.0762,2026-01-09T0300,64,86,0.7,61,,7,,,
深圳市,通心岭子站,114.0948,22.5506,2026-01-09T0300,18,37,0.4,28,9,53,,37,
深圳市,洪湖,114.1153,22.5713,2026-01-09T0300,20,46,0.5,22,11,68,,46,
深圳市,华侨城,113.9823,22.5398,2026-01-09T0300,16,30,/,22,/,72,,30,
深圳市,南海子站,113.9181,22.517,2026-01-09T0300,23,44,0.6,34,7,50,,44,
深圳市,盐田,114.2345,22.565,2026-01-09T0300,13,23,0.5,7,8,90,,29,
深圳市,南澳,114.4911,22.5381,2026-01-09T0300,10,15,/,10,/,56,,18,
深圳市,葵涌,114.41,22.6346,2026-01-09T0300,17,28,0.5,14,10,71,,28,
深圳市,梅沙,114.2967,22.5978,2026-01-09T0300,14,29,/,11,/,94,,30,
深圳市,观澜,114.0563,22.7353,2026-01-09T0300,43,83,0.6,70,7,6,,67,颗粒物(PM10)
深圳市,莲花,114.0614,22.556,2026-01-09T0300,21,32,/,27,/,61,,32,
深圳市,民治,114.0144,22.6163,2026-01-09T0300,19,27,/,25,/,64,,28,
深圳市,横岗,114.1756,22.6421,2026-01-09T0300,24,44,/,26,/,66,,44,
深圳市,坪山,114.344,22.7115,2026-01-09T0300,21,63,0.6,39,11,48,,57,颗粒物(PM10)
深圳市,西乡,113.8952,22.586,2026-01-09T0300,21,39,0.5,33,,54,,,
深圳市,黄阁路,114.214113,22.713717,2026-01-09T0300,20,34,0.4,27,,58,,,
沈阳市,浑南东路,123.5058,41.7084,2026-01-09T0300,29,54,0.7,28,12,46,,52,颗粒物(PM10)
沈阳市,新秀街,123.4238,41.6992,2026-01-09T0300,27,56,1.2,24,10,50,,53,颗粒物(PM10)
沈阳市,东陵路,123.5903,41.8412,2026-01-09T0300,28,53,0.7,32,8,,,,
沈阳市,陵东街,123.4267,41.8466,2026-01-09T0300,31,55,0.8,29,19,40,,53,颗粒物(PM10)
沈阳市,文化路,123.4116,41.7654,2026-01-09T0300,33,65,0.7,21,11,52,,58,颗粒物(PM10)
沈阳市,小河沿,123.4673,41.787,2026-01-09T0300,29,52,0.8,32,16,45,,51,颗粒物(PM10)
沈阳市,太原街,123.4019,41.7978,2026-01-09T0300,36,68,0.6,28,13,41,,59,颗粒物(PM10)
沈阳市,京沈街,123.3778,41.9233,2026-01-09T0300,42,68,0.8,32,11,40,,59,"颗粒物(PM10),细颗粒物(PM2.5)"
沈阳市,沈辽西路,123.2429,41.7341,2026-01-09T0300,29,59,0.6,25,10,45,,55,颗粒物(PM10)
沈阳市,裕农路,123.5951,41.9085,2026-01-09T0300,30,56,0.7,26,9,46,,53,颗粒物(PM10)
十堰市,滨河新村,110.78,32.6494,2026-01-09T0300,29,37,,30,/,23,,,
十堰市,刘家沟,110.7305,32.6408,2026-01-09T0300,21,32,/,19,/,28,,32,
十堰市,铁二处,110.8843,32.5712,2026-01-09T0300,30,40,,26,7,19,,,
十堰市,郧阳区金沙路,110.8053,32.8401,2026-01-09T0300,20,32,,12,5,49,,,
石河子市,艾青诗歌馆,86.0391,44.298,2026-01-09T0300,54,92,1.0,51,7,15,,74,细颗粒物(PM2.5)
石河子市,南区管委会,86.047,44.2331,2026-01-09T0300,29,38,0.7,16,6,58,,42,
石河子市,世纪广场,86.0791,44.3018,2026-01-09T0300,40,80,0.6,34,5,48,,65,颗粒物(PM10)
石河子市,城南景苑小区,86.0126,44.2349,2026-01-09T0300,18,39,0.5,14,3,58,,39,
石家庄市,高新区,114.5919,38.0328,2026-01-09T0300,55,107,0.9,45,7,13,,79,颗粒物(PM10)
石家庄市,西南高教,114.4556,38.0136,2026-01-09T0300,17,76,0.4,20,4,58,,63,颗粒物(PM10)
石家庄市,世纪公园,114.533,38.0177,2026-01-09T0300,53,87,1.1,60,4,7,,73,细颗粒物(PM2.5)
石家庄市,人民会堂,114.5105,38.0489,2026-01-09T0300,51,91,0.9,51,1,11,,71,颗粒物(PM10)
石家庄市,鹿泉一中,114.2887,38.0905,2026-01-09T0300,32,76,0.5,15,9,62,,63,颗粒物(PM10)
石家庄市,栾城区星河路,114.6491,37.9014,2026-01-09T0300,63,98,0.9,50,12,10,,85,细颗粒物(PM2.5)
石家庄市,裕华西路63号,114.4563,38.0365,2026-01-09T0300,20,51,0.5,15,6,66,,51,颗粒物(PM10)
石家庄市,和平路363号,114.5586,38.0581,2026-01-09T0300,61,100,0.9,60,3,3,,83,细颗粒物(PM2.5)
石家庄市,廉州西路160号,114.8347,38.0213,2026-01-09T0300,72,128,0.7,45,4,3,,97,细颗粒物(PM2.5)
石家庄市,北城路41号,114.4498,38.0729,2026-01-09T0300,18,62,0.5,18,6,55,,56,颗粒物(PM10)
石家庄市,矿区区委大楼,114.0494,38.059,2026-01-09T0300,18,65,0.4,21,12,58,,58,颗粒物(PM10)
石嘴山市,大武口朝阳西街,106.3668,39.0145,2026-01-09T0300,46,91,0.8,26,13,46,,71,颗粒物(PM10)
石嘴山市,惠农南大街,106.7713,39.2278,2026-01-09T0300,32,232,0.4,8,12,84,,141,颗粒物(PM10)
石嘴山市,红果子镇惠新街,106.7074,39.1332,2026-01-09T0300,30,204,0.3,10,12,70,,127,颗粒物(PM10)
石嘴山市,妇女儿童医院,106.3495,38.9837,2026-01-09T0300,39,96,0.7,23,15,56,,73,颗粒物(PM10)
石嘴山市,石大公路,106.7495,39.2068,2026-01-09T0300,33,243,0.6,7,8,80,,147,颗粒物(PM10)
双鸭山市,双合村,131.1509,46.6936,2026-01-09T0300,14,31,0.6,11,7,52,,31,
双鸭山市,南小市,131.1651,46.6191,2026-01-09T0300,8,24,0.4,8,7,52,,24,
双鸭山市,环保局,131.1526,46.6554,2026-01-09T0300,3,23,0.4,5,2,63,,23,
朔州市,平朔,112.4399,39.3521,2026-01-09T0300,14,56,0.3,10,4,62,,53,颗粒物(PM10)
朔州市,朔唯,112.4574,39.362,2026-01-09T0300,19,47,/,9,6,,,,
朔州市,区政府,112.426,39.3199,2026-01-09T0300,3,56,0.2,5,4,72,,53,颗粒物(PM10)
朔州市,市环保局,112.4075,39.3277,2026-01-09T0300,10,54,/,11,4,71,,52,颗粒物(PM10)
朔州市,市二中,112.4273,39.3682,2026-01-09T0300,12,65,/,6,4,68,,58,颗粒物(PM10)
朔州市,一水厂,112.2938,39.5296,2026-01-09T0300,18,50,0.4,9,3,61,,50,
四平市,境园,124.3744,43.1842,2026-01-09T0300,37,59,0.5,22,12,40,,55,颗粒物(PM10)
四平市,植物园,124.4029,43.1411,2026-01-09T0300,47,66,0.6,47,22,24,,65,细颗粒物(PM2.5)
四平市,世纪城,124.3286,43.1726,2026-01-09T0300,40,54,0.6,22,10,39,,57,细颗粒物(PM2.5)
松原市,江南,124.8007,45.1213,2026-01-09T0300,41,70,0.6,22,10,28,,60,颗粒物(PM10)
松原市,江北,124.7967,45.1721,2026-01-09T0300,46,68,0.6,18,9,32,,64,细颗粒物(PM2.5)
苏州市,轧钢厂,120.5974,31.3247,2026-01-09T0300,100,151,1.4,84,7,2,,132,细颗粒物(PM2.5)
苏州市,吴中区,120.6329,31.2741,2026-01-09T0300,90,126,0.7,105,10,10,,119,细颗粒物(PM2.5)
苏州市,苏州新区,120.5566,31.3049,2026-01-09T0300,101,134,1.0,101,11,2,,133,细颗粒物(PM2.5)
苏州市,苏州工业园区,120.668709,31.312523,2026-01-09T0300,95,144,1.2,100,8,1,,125,细颗粒物(PM2.5)
苏州市,相城区,120.6408,31.3707,2026-01-09T0300,91,134,1.3,88,14,18,,120,细颗粒物(PM2.5)
苏州市,方洲路,120.7431,31.3188,2026-01-09T0300,82,117,0.8,88,8,0,,109,细颗粒物(PM2.5)
苏州市,木渎中学,120.4979,31.2777,2026-01-09T0300,94,131,1.1,60,8,21,,124,细颗粒物(PM2.5)
苏州市,越秀幼儿园,120.642,31.1733,2026-01-09T0300,111,134,1.2,,8,2,,145,细颗粒物(PM2.5)
苏州市,高铁新城,120.6502,31.4117,2026-01-09T0300,93,132,0.8,88,10,2,,123,细颗粒物(PM2.5)
苏州市,学森路9号,120.4282,31.3228,2026-01-09T0300,92,115,1.0,63,7,2,,122,细颗粒物(PM2.5)
宿迁市,宿迁学院,118.2924,33.933,2026-01-09T0300,58,88,0.3,31,4,39,,79,细颗粒物(PM2.5)
宿迁市,宿迁中学,118.2321,33.9572,2026-01-09T0300,59,88,0.7,31,6,41,,80,细颗粒物(PM2.5)
宿迁市,市供电局,118.2781,33.9658,2026-01-09T0300,67,91,0.6,22,6,56,,90,细颗粒物(PM2.5)
宿迁市,宿豫区政府,118.3243,33.95,2026-01-09T0300,57,74,0.8,22,8,56,,78,细颗粒物(PM2.5)
宿迁市,春华路,118.352,33.7886,2026-01-09T0300,56,85,0.5,22,5,41,,77,细颗粒物(PM2.5)
宿州市,远航博物馆,116.9508,33.666,2026-01-09T0300,69,122,0.6,27,14,61,,93,细颗粒物(PM2.5)
宿州市,社会福利中心,116.9708,33.5911,2026-01-09T0300,69,110,0.7,40,10,36,,93,细颗粒物(PM2.5)
宿州市,皖北煤电集团,116.9647,33.6252,2026-01-09T0300,62,110,0.6,27,7,63,,84,细颗粒物(PM2.5)
宿州市,中兴路,116.9929,33.6412,2026-01-09T0300,60,101,0.6,21,8,59,,82,细颗粒物(PM2.5)
绥化市,人和东街,126.9783,46.6365,2026-01-09T0300,18,62,0.5,15,22,48,,56,颗粒物(PM10)
绥化市,党政办公中心,126.964,46.6527,2026-01-09T0300,23,45,0.6,20,13,44,,45,
随州市,市委党校,113.3587,31.7275,2026-01-09T0300,36,54,0.4,35,5,32,,52,"颗粒物(PM10),细颗粒物(PM2.5)"
随州市,市林业局,113.3745,31.6926,2026-01-09T0300,41,72,,70,11,1,,,
随州市,市立交桥水厂,113.3984,31.7309,2026-01-09T0300,36,50,,40,5,18,,,
遂宁市,市监测站,105.5581,30.5231,2026-01-09T0300,54,91,0.7,44,7,3,,74,细颗粒物(PM2.5)
遂宁市,美宁食品公司,105.5917,30.4727,2026-01-09T0300,60,90,0.6,45,7,7,,82,细颗粒物(PM2.5)
遂宁市,环岛商务中心9号楼,105.5911,30.5368,2026-01-09T0300,58,80,0.5,37,8,10,,79,细颗粒物(PM2.5)
塔城地区,东门外小游园,82.9993,46.7432,2026-01-09T0300,25,,0.5,6,5,62,,36,
塔城地区,文化广场,82.9716,46.7464,2026-01-09T0300,22,31,0.8,8,5,57,,32,
台州市,黄岩环保大楼,121.2727,28.6461,2026-01-09T0300,42,64,/,19,/,50,,59,细颗粒物(PM2.5)
台州市,台州环保大楼,121.4188,28.6545,2026-01-09T0300,43,77,0.5,60,/,13,,64,颗粒物(PM10)
台州市,路桥田洋王,121.3768,28.5772,2026-01-09T0300,42,72,0.6,66,4,3,,61,颗粒物(PM10)
台州市,台州科技职业学院,121.25678,28.66823971,2026-01-09T0300,40,73,0.5,34,,30,,,
太原市,尖草坪,112.5138,37.8916,2026-01-09T0300,42,85,0.7,60,7,2,,68,颗粒物(PM10)
太原市,晋源,112.4691,37.7125,2026-01-09T0300,41,97,0.8,54,8,4,,74,颗粒物(PM10)
太原市,小店,112.5595,37.7391,2026-01-09T0300,59,113,1.0,55,18,4,,82,颗粒物(PM10)
太原市,坞城,112.5705,37.8199,2026-01-09T0300,54,97,1.1,61,20,6,,74,"颗粒物(PM10),细颗粒物(PM2.5)"
太原市,南寨,112.5495,37.9853,2026-01-09T0300,50,118,0.9,50,5,3,,84,颗粒物(PM10)
太原市,金胜,112.4702,37.7821,2026-01-09T0300,43,100,0.7,43,6,17,,75,颗粒物(PM10)
太原市,育英中学,112.5608,37.8807,2026-01-09T0300,47,95,1.0,46,17,16,,73,颗粒物(PM10)
太原市,西矿街336号,112.449,37.8509,2026-01-09T0300,12,54,0.4,31,4,28,,52,颗粒物(PM10)
太原市,迎宾北路9号,112.4792,37.9393,2026-01-09T0300,38,90,0.9,57,6,3,,70,颗粒物(PM10)
太原市,迎泽大街248号,112.551,37.8575,2026-01-09T0300,37,82,1.0,48,19,13,,66,颗粒物(PM10)
泰安市,监测站,117.1436,36.1938,2026-01-09T0300,60,105,0.9,28,9,46,,82,细颗粒物(PM2.5)
泰安市,人口学校,117.0905,36.2002,2026-01-09T0300,54,102,0.7,21,10,70,,76,颗粒物(PM10)
泰安市,电力学校,117.0992,36.1757,2026-01-09T0300,66,95,0.7,34,,48,,,
泰安市,国网新校,117.1812,36.2273,2026-01-09T0300,51,94,0.9,24,9,60,,72,颗粒物(PM10)
泰安市,交通技校,117.0315,36.2017,2026-01-09T0300,57,85,,25,8,66,,,
泰安市,山东第一医科大学,117.083,36.13,2026-01-09T0300,82,107,0.5,49,14,28,,109,细颗粒物(PM2.5)
泰州市,公园路,119.9042,32.488,2026-01-09T0300,70,97,0.6,43,8,37,,94,细颗粒物(PM2.5)
泰州市,莲花,119.9189,32.4626,2026-01-09T0300,85,115,0.7,55,13,24,,113,细颗粒物(PM2.5)
泰州市,留学生创业园,119.8877,32.4636,2026-01-09T0300,76,120,0.6,58,13,30,,102,细颗粒物(PM2.5)
泰州市,王营,119.8767,32.3291,2026-01-09T0300,85,114,0.8,88,8,0,,113,细颗粒物(PM2.5)
泰州市,姜堰区政府广场,120.1226,32.515,2026-01-09T0300,85,113,0.7,31,11,48,,113,细颗粒物(PM2.5)
泰州市,周山河街区,119.9186,32.4322,2026-01-09T0300,97,108,0.7,65,11,15,,128,细颗粒物(PM2.5)
唐山市,十二中,118.1707,39.6505,2026-01-09T0300,48,76,1.1,55,7,21,,67,细颗粒物(PM2.5)
唐山市,小山,118.1868,39.6219,2026-01-09T0300,51,84,0.9,39,5,4,,70,细颗粒物(PM2.5)
唐山市,冀东油田职工医院,118.4357,39.277,2026-01-09T0300,46,72,0.6,26,10,36,,64,细颗粒物(PM2.5)
唐山市,正泰大街热力站,118.0927,39.5807,2026-01-09T0300,55,92,1.2,44,1,8,,75,细颗粒物(PM2.5)
唐山市,丰润区政府,118.1561,39.8322,2026-01-09T0300,54,111,1.3,36,4,5,,81,颗粒物(PM10)
唐山市,金山小学,118.436906,39.73802,2026-01-09T0300,42,93,1.2,37,4,9,,72,颗粒物(PM10)
唐山市,政府服务中心,118.2449,39.6693,2026-01-09T0300,36,79,1.0,46,9,0,,65,颗粒物(PM10)
唐山市,消防缸窑路中队,118.2043,39.6703,2026-01-09T0300,34,86,1.2,34,7,18,,68,颗粒物(PM10)
唐山市,路南电大,118.1432,39.6203,2026-01-09T0300,47,82,1.2,44,2,3,,66,颗粒物(PM10)
唐山市,光明北路515号,118.1267,39.6579,2026-01-09T0300,48,112,1.1,48,6,21,,81,颗粒物(PM10)
唐山市,友谊北路34号,118.130859,39.636026,2026-01-09T0300,50,91,1.4,38,3,15,,71,颗粒物(PM10)
天津市,勤俭道,117.1446,39.1659,2026-01-09T0300,63,116,0.6,36,10,30,,85,细颗粒物(PM2.5)
天津市,前进道,117.2016,39.0928,2026-01-09T0300,58,102,0.7,43,9,23,,79,细颗粒物(PM2.5)
天津市,淮河道,117.1837,39.2134,2026-01-09T0300,58,123,0.7,29,8,30,,87,颗粒物(PM10)
天津市,跃进路,117.308261,39.088386,2026-01-09T0300,60,115,0.6,68,,4,,,
天津市,第四大街,117.707,39.0344,2026-01-09T0300,65,123,0.6,41,10,29,,88,细颗粒物(PM2.5)
天津市,永明路,117.4573,38.8395,2026-01-09T0300,64,101,0.8,41,10,21,,87,细颗粒物(PM2.5)
天津市,汉北路,117.7641,39.1588,2026-01-09T0300,63,116,0.6,36,11,24,,85,细颗粒物(PM2.5)
天津市,河西一经路,117.7917,39.2473,2026-01-09T0300,61,125,1.0,54,10,16,,88,颗粒物(PM10)
天津市,津沽路,117.3747,38.9845,2026-01-09T0300,60,109,0.9,39,10,22,,82,细颗粒物(PM2.5)
天津市,宾水西道,117.159,39.0844,2026-01-09T0300,60,93,0.8,40,,20,,,
天津市,大理道,117.194,39.1069,2026-01-09T0300,55,104,0.7,42,11,21,,77,颗粒物(PM10)
天津市,中山北路,117.2096,39.1698,2026-01-09T0300,60,113,0.6,34,8,29,,82,"颗粒物(PM10),细颗粒物(PM2.5)"
天津市,西四道,117.385,39.1483,2026-01-09T0300,53,109,0.7,72,11,4,,80,颗粒物(PM10)
天津市,雍阳西道,117.0362,39.3827,2026-01-09T0300,59,114,0.7,36,10,28,,82,颗粒物(PM10)
天津市,辛老路,117.0291,39.0612,2026-01-09T0300,63,124,0.9,45,10,20,,87,颗粒物(PM10)
天津市,地纬路,116.9638,38.9374,2026-01-09T0300,60,103,0.6,40,10,22,,82,细颗粒物(PM2.5)
天津市,北环路,117.4065,40.0583,2026-01-09T0300,45,109,0.6,41,4,17,,80,颗粒物(PM10)
天津市,建设路,117.3041,39.7167,2026-01-09T0300,68,138,0.7,62,10,2,,94,颗粒物(PM10)
天津市,滨水东路,117.8201,39.3519,2026-01-09T0300,56,124,4.4,57,16,14,,87,颗粒物(PM10)
天津市,光华路,117.24369,39.102911,2026-01-09T0300,57,112,0.4,39,10,28,,81,颗粒物(PM10)
天水市,公园小学,105.72058,34.57859,2026-01-09T0300,40,53,0.9,40,17,24,,57,细颗粒物(PM2.5)
天水市,麦积国土局,105.89428,34.55353,2026-01-09T0300,51,74,1.6,42,17,10,,70,细颗粒物(PM2.5)
铁岭市,水上乐园,123.865,42.292,2026-01-09T0300,36,61,0.7,31,15,37,,56,颗粒物(PM10)
铁岭市,金沙江路北,123.7158,42.2218,2026-01-09T0300,28,49,0.8,26,7,45,,49,
铁岭市,新华街20号,123.835,42.2853,2026-01-09T0300,29,78,0.7,26,14,45,,64,颗粒物(PM10)
通化市,光明,125.9359,41.7174,2026-01-09T0300,7,12,0.2,5,6,67,,21,
通化市,铁路,125.9446,41.7323,2026-01-09T0300,14,28,0.0,10,7,44,,28,
通辽市,艺术职业学校,122.253,43.6801,2026-01-09T0300,33,72,0.6,22,10,42,,61,颗粒物(PM10)
通辽市,老干部活动中心,122.2584,43.6333,2026-01-09T0300,46,76,0.6,22,4,36,,64,细颗粒物(PM2.5)
通辽市,东方明珠社区,122.2923,43.6189,2026-01-09T0300,51,54,0.6,20,14,40,,70,细颗粒物(PM2.5)
铜川市,王益区政府,109.0696,35.0699,2026-01-09T0300,33,53,0.7,,2,5,,,
铜川市,新区管委会,108.9345,34.9059,2026-01-09T0300,30,42,0.5,26,6,33,,43,
铜川市,大唐三路,108.949652,34.870529,2026-01-09T0300,43,55,1.0,32,20,23,,60,细颗粒物(PM2.5)
铜陵市,市第四中学,117.8176,30.9412,2026-01-09T0300,44,87,0.5,50,10,10,,69,颗粒物(PM10)
铜陵市,市新民污水厂,117.7806,30.9413,2026-01-09T0300,46,80,1.1,58,2,3,,65,颗粒物(PM10)
铜陵市,车站新区,117.846,30.9414,2026-01-09T0300,58,71,0.5,67,17,5,,79,细颗粒物(PM2.5)
铜陵市,市职教基地,117.8472,30.9699,2026-01-09T0300,44,123,0.9,55,12,2,,87,颗粒物(PM10)
铜仁市,铜仁卫校,109.1839,27.7344,2026-01-09T0300,41,42,0.7,25,2,15,,58,细颗粒物(PM2.5)
铜仁市,铜仁七中,109.1752,27.6945,2026-01-09T0300,28,35,0.7,12,1,27,,40,
吐鲁番市,市环保局,89.1905,42.9419,2026-01-09T0300,125,194,2.7,41,2,20,,165,细颗粒物(PM2.5)
吐鲁番市,地区环保局,89.1674,42.9558,2026-01-09T0300,140,208,2.4,47,3,10,,186,细颗粒物(PM2.5)
威海市,华夏技校,122.121,37.4231,2026-01-09T0300,16,29,0.3,15,/,61,,29,
威海市,山大分校,122.0508,37.5236,2026-01-09T0300,15,20,/,17,/,51,,22,
威海市,市监测站,122.1067,37.5067,2026-01-09T0300,24,32,0.4,19,6,63,,35,
威海市,文登开发区,122.0693,37.2175,2026-01-09T0300,34,40,/,22,/,44,,49,
威海市,临港区管委会,122.1379,37.3414,2026-01-09T0300,17,36,0.5,19,6,56,,36,
潍坊市,环保局,119.1436,36.7022,2026-01-09T0300,41,83,0.4,26,9,44,,67,颗粒物(PM10)
潍坊市,坊子邮政,119.1638,36.6524,2026-01-09T0300,41,80,0.7,33,10,44,,65,颗粒物(PM10)
潍坊市,潍坊七中,119.0587,36.7209,2026-01-09T0300,47,75,0.5,20,6,50,,65,细颗粒物(PM2.5)
潍坊市,高新实验学校,119.1978,36.6871,2026-01-09T0300,51,83,0.6,28,9,44,,70,细颗粒物(PM2.5)
潍坊市,潍坊学院,119.1758,36.7139,2026-01-09T0300,45,78,0.6,29,9,53,,64,颗粒物(PM10)
潍坊市,寒亭区实验一小,119.2046,36.7696,2026-01-09T0300,41,78,0.6,24,,54,,,
渭南市,体育馆,109.4605,34.4927,2026-01-09T0300,32,78,0.5,36,5,37,,64,颗粒物(PM10)
渭南市,高新一小,109.4257,34.5067,2026-01-09T0300,34,63,0.5,33,6,36,,57,颗粒物(PM10)
渭南市,渭花路4号,109.505065,34.492137,2026-01-09T0300,44,75,0.8,35,6,43,,63,颗粒物(PM10)
温州市,瓯海,120.6342,28.0088,2026-01-09T0300,60,88,0.5,70,11,5,,82,细颗粒物(PM2.5)
温州市,南浦,120.6747,27.9881,2026-01-09T0300,61,94,0.6,65,9,9,,83,细颗粒物(PM2.5)
温州市,龙湾,120.76,27.9745,2026-01-09T0300,52,95,0.6,71,6,2,,73,颗粒物(PM10)
温州市,茶山,120.6985,27.9252,2026-01-09T0300,48,68,/,32,/,28,,67,细颗粒物(PM2.5)
温州市,鹿城惠民路,120.6935,28.0114,2026-01-09T0300,26,53,0.4,30,/,43,,52,颗粒物(PM10)
文山壮族苗族自治州,州水务局,104.2533,23.3595,2026-01-09T0300,33,39,0.7,5,4,28,,48,
文山壮族苗族自治州,市便民服务中心,104.2319,23.3892,2026-01-09T0300,33,38,0.6,12,7,23,,48,
乌海市,市林业局,106.8172,39.6972,2026-01-09T0300,49,255,0.3,3,13,88,,153,颗粒物(PM10)
乌海市,中海勃湾学校,106.7907,39.6666,2026-01-09T0300,71,303,0.3,3,8,92,,177,颗粒物(PM10)
乌海市,海北新区,106.8129,39.7274,2026-01-09T0300,54,283,0.3,5,18,83,,167,颗粒物(PM10)
乌海市,海拉北路,106.8212,39.6741,2026-01-09T0300,54,319,0.3,3,23,76,,185,颗粒物(PM10)
乌兰察布市,集宁新区,113.1306,40.9924,2026-01-09T0300,40,71,0.7,34,8,42,,61,颗粒物(PM10)
乌兰察布市,光明街小学,113.1076,41.0385,2026-01-09T0300,37,92,0.5,28,7,45,,71,颗粒物(PM10)
乌兰察布市,北京八中,113.1383,40.9513,2026-01-09T0300,31,88,0.7,36,8,20,,69,颗粒物(PM10)
乌兰察布市,市委党校,113.1776,40.9779,2026-01-09T0300,36,88,0.7,47,7,,,,
乌鲁木齐市,监测站,87.5796,43.8299,2026-01-09T0300,70,93,1.1,74,2,4,,94,细颗粒物(PM2.5)
乌鲁木齐市,收费所,87.6044,43.7679,2026-01-09T0300,42,63,1.0,60,6,3,,59,细颗粒物(PM2.5)
乌鲁木齐市,铁路局,87.5529,43.8704,2026-01-09T0300,79,101,1.2,92,2,2,,105,细颗粒物(PM2.5)
乌鲁木齐市,三十一中学,87.6408,43.8258,2026-01-09T0300,93,129,0.9,75,6,7,,123,细颗粒物(PM2.5)
乌鲁木齐市,米东区环保局,87.7218,44.1747,2026-01-09T0300,136,171,1.6,112,8,2,,180,细颗粒物(PM2.5)
乌鲁木齐市,培训基地,87.4652,43.4569,2026-01-09T0300,3,,0.6,5,4,89,,28,
乌鲁木齐市,达坂城区环保局,88.3088,43.3637,2026-01-09T0300,12,13,0.3,16,2,52,,18,
乌鲁木齐市,红光山片区,87.6132,43.8791,2026-01-09T0300,86,99,1.2,87,13,6,,114,细颗粒物(PM2.5)
乌鲁木齐市,新师大温泉校区,87.7008,43.8003,2026-01-09T0300,46,58,0.5,36,5,42,,64,细颗粒物(PM2.5)
乌鲁木齐市,大绿谷,87.4892,43.84,2026-01-09T0300,79,94,1.1,92,2,1,,105,细颗粒物(PM2.5)
无锡市,雪浪,120.2693,31.4864,2026-01-09T0300,73,107,0.9,49,8,23,,98,细颗粒物(PM2.5)
无锡市,黄巷,120.2761,31.621,2026-01-09T0300,75,121,1.0,97,8,1,,100,细颗粒物(PM2.5)
无锡市,漆塘,120.2422,31.5037,2026-01-09T0300,63,101,1.2,29,8,24,,85,细颗粒物(PM2.5)
无锡市,东亭,120.3489,31.5865,2026-01-09T0300,75,110,1.0,95,10,1,,100,细颗粒物(PM2.5)
无锡市,旺庄,120.3538,31.5474,2026-01-09T0300,83,123,1.0,89,8,3,,110,细颗粒物(PM2.5)
无锡市,荣巷,120.2447,31.5633,2026-01-09T0300,66,90,0.9,64,8,8,,89,细颗粒物(PM2.5)
无锡市,堰桥,120.2986,31.6816,2026-01-09T0300,78,112,1.0,97,10,3,,104,细颗粒物(PM2.5)
无锡市,清舒道1号,120.3138,31.4927,2026-01-09T0300,103,112,0.9,59,,12,,135,细颗粒物(PM2.5)
无锡市,健康路105号,120.2925,31.5685,2026-01-09T0300,78,120,1.0,99,9,2,,104,细颗粒物(PM2.5)
吴忠市,教育园区,106.1535,37.9648,2026-01-09T0300,23,86,0.3,2,10,78,,68,颗粒物(PM10)
吴忠市,新区二泵站,106.1851,37.9957,2026-01-09T0300,16,153,0.2,5,6,79,,102,颗粒物(PM10)
吴忠市,文卫南街,106.2176,37.9832,2026-01-09T0300,26,149,0.3,8,8,76,,100,颗粒物(PM10)
芜湖市,监测站,118.3603,31.3515,2026-01-09T0300,14,80,0.7,36,10,48,,65,颗粒物(PM10)
芜湖市,科创中心,118.3716,31.4135,2026-01-09T0300,80,111,0.9,86,,1,,107,细颗粒物(PM2.5)
芜湖市,四水厂,118.3671,31.3132,2026-01-09T0300,63,93,0.8,62,7,8,,85,细颗粒物(PM2.5)
芜湖市,市气象局,118.4209,31.3704,2026-01-09T0300,62,86,0.8,66,7,11,,84,细颗粒物(PM2.5)
芜湖市,清苑社区,118.4783,31.3226,2026-01-09T0300,54,90,0.6,51,,10,,,
芜湖市,扬子职业技术学院,118.2746,31.2326,2026-01-09T0300,54,78,0.7,40,8,12,,74,细颗粒物(PM2.5)
芜湖市,湾沚区人民法院,118.5726,31.1371,2026-01-09T0300,46,64,0.6,18,8,46,,64,细颗粒物(PM2.5)
梧州市,市十一中,111.3126,23.4772,2026-01-09T0300,33,98,0.3,65,10,1,,74,颗粒物(PM10)
梧州市,龙新,111.26,23.4794,2026-01-09T0300,30,62,0.4,49,6,4,,56,颗粒物(PM10)
梧州市,政贤路18号,111.2416,23.4155,2026-01-09T0300,31,67,0.3,39,10,0,,59,颗粒物(PM10)
五家渠市,农水大厦,87.5352,44.1606,2026-01-09T0300,152,215,1.9,83,7,1,,202,细颗粒物(PM2.5)
五家渠市,经开区管委会,87.5461,44.1909,2026-01-09T0300,163,216,2.2,86,5,1,,213,细颗粒物(PM2.5)
五家渠市,建设西街760号,87.055284,43.999117,2026-01-09T0300,72,75,1.7,17,5,52,,97,细颗粒物(PM2.5)
武汉市,东湖梨园,114.3676,30.5584,2026-01-09T0300,37,56,0.9,74,5,0,,53,"颗粒物(PM10),细颗粒物(PM2.5)"
武汉市,汉阳月湖,114.2527,30.5578,2026-01-09T0300,41,56,1.0,68,5,6,,58,细颗粒物(PM2.5)
武汉市,汉口花桥,114.2819,30.6189,2026-01-09T0300,34,58,0.9,,9,12,,,
武汉市,武昌紫阳,114.3024,30.5332,2026-01-09T0300,42,78,1.0,78,8,14,,64,颗粒物(PM10)
武汉市,青山钢花,114.3646,30.6217,2026-01-09T0300,48,75,0.7,71,,5,,,
武汉市,沌口新区,114.156697,30.482592,2026-01-09T0300,47,77,0.8,90,8,3,,65,细颗粒物(PM2.5)
武汉市,汉口江滩,114.3013,30.5944,2026-01-09T0300,40,57,0.7,72,,19,,,
武汉市,吴家山,114.1285,30.6339,2026-01-09T0300,68,92,0.4,93,8,1,,92,细颗粒物(PM2.5)
武汉市,民族大道182号,114.3876,30.4908,2026-01-09T0300,46,82,0.8,72,7,2,,66,颗粒物(PM10)
武威市,监测站,102.6203,37.925,2026-01-09T0300,33,34,0.7,22,9,28,,48,
武威市,钟楼街149号,102.6447,37.9293,2026-01-09T0300,34,35,0.7,17,8,28,,49,
西安市,兴庆小区,108.9931,34.2629,2026-01-09T0300,59,87,0.8,73,2,1,,80,细颗粒物(PM2.5)
西安市,纺织城,109.0595,34.2569,2026-01-09T0300,63,,0.7,60,3,0,,,
西安市,小寨,108.9377,34.2178,2026-01-09T0300,51,88,0.7,44,8,27,,70,细颗粒物(PM2.5)
西安市,市人民体育场,108.9522,34.2739,2026-01-09T0300,59,86,0.9,42,1,27,,80,细颗粒物(PM2.5)
西安市,高新西区,108.8923,34.2322,2026-01-09T0300,54,88,0.8,43,3,27,,74,细颗粒物(PM2.5)
西安市,经开区,108.9386,34.3446,2026-01-09T0300,66,97,0.6,37,4,24,,89,细颗粒物(PM2.5)
西安市,长安区,108.894,34.1557,2026-01-09T0300,52,81,0.8,56,,0,,,
西安市,临潼区,109.213,34.3748,2026-01-09T0300,36,74,0.7,15,6,70,,62,颗粒物(PM10)
西安市,广运潭,109.0508,34.321,2026-01-09T0300,46,82,0.7,56,,3,,,
西安市,无线电监控中心,109.1019,34.5302,2026-01-09T0300,60,99,0.8,59,6,4,,82,细颗粒物(PM2.5)
西安市,行知小学,108.8869,34.2662,2026-01-09T0300,59,99,0.6,55,4,24,,80,细颗粒物(PM2.5)
西安市,西苑北路977号,108.596239,34.118792,2026-01-09T0300,50,50,0.8,60,2,14,,69,细颗粒物(PM2.5)
西安市,曲江池东路988号,108.9817,34.2035,2026-01-09T0300,54,76,0.8,55,2,19,,74,细颗粒物(PM2.5)
西宁市,城北区政府,101.7775,36.643,2026-01-09T0300,34,56,0.7,30,17,38,,53,颗粒物(PM10)
西宁市,世纪职校,101.8304,36.5785,2026-01-09T0300,18,25,0.9,31,16,36,,26,
西宁市,海晏路105号,101.6769,36.6535,2026-01-09T0300,43,67,1.9,64,3,7,,60,细颗粒物(PM2.5)
西双版纳傣族自治州,景洪市江南,100.8018,21.9995,2026-01-09T0300,19,26,0.7,5,4,34,,28,
西双版纳傣族自治州,景洪市江北,100.7995,22.0238,2026-01-09T0300,21,34,0.5,7,3,26,,34,
锡林郭勒盟,市环保监测站,116.1048,43.9318,2026-01-09T0300,15,79,0.3,14,4,48,,65,颗粒物(PM10)
锡林郭勒盟,市政府,116.0778,43.9312,2026-01-09T0300,12,73,0.3,8,4,,,,
厦门市,洪文,118.1519,24.4768,2026-01-09T0300,27,45,0.4,9,3,100,,45,
厦门市,鼓浪屿,118.0671,24.4447,2026-01-09T0300,23,38,/,9,2,103,,38,
厦门市,湖里中学,118.0937,24.5054,2026-01-09T0300,30,46,0.5,10,2,98,,46,
厦门市,集美中学,118.0961,24.5689,2026-01-09T0300,26,35,0.5,11,2,96,,38,
厦门市,同安二实小,118.1502,24.7246,2026-01-09T0300,22,30,0.5,8,3,89,,32,
咸宁市,长江产业园,114.3379,29.8683,2026-01-09T0300,52,,0.5,21,5,41,,72,细颗粒物(PM2.5)
咸宁市,双鹤路18号,114.3182,29.8447,2026-01-09T0300,44,61,0.7,24,2,21,,62,细颗粒物(PM2.5)
咸宁市,碧桂路,114.284,29.8595,2026-01-09T0300,55,68,0.9,24,2,24,,75,细颗粒物(PM2.5)
咸阳市,实验中学,108.6726,34.315,2026-01-09T0300,98,105,0.8,49,6,8,,129,细颗粒物(PM2.5)
咸阳市,师范学院,108.7226,34.3622,2026-01-09T0300,96,,0.7,52,5,16,,127,细颗粒物(PM2.5)
咸阳市,奥体中心,108.6394,34.408,2026-01-09T0300,56,78,0.6,25,4,24,,77,细颗粒物(PM2.5)
咸阳市,五陵塬路2号,108.6601,34.3767,2026-01-09T0300,89,138,1.2,54,4,6,,118,细颗粒物(PM2.5)
咸阳市,胭脂路9号,108.6372,34.3031,2026-01-09T0300,82,126,0.9,51,3,5,,109,细颗粒物(PM2.5)
湘潭市,板塘,112.9508,27.8626,2026-01-09T0300,73,104,0.7,48,2,3,,98,细颗粒物(PM2.5)
湘潭市,市监测站,112.9114,27.8404,2026-01-09T0300,91,105,0.7,47,,3,,120,细颗粒物(PM2.5)
湘潭市,江麓,112.8935,27.8729,2026-01-09T0300,64,79,1.1,47,6,5,,87,细颗粒物(PM2.5)
湘潭市,岳塘,112.9227,27.8159,2026-01-09T0300,49,61,1.0,52,7,0,,68,细颗粒物(PM2.5)
湘潭市,科大,112.9073,27.9118,2026-01-09T0300,72,82,1.2,45,6,4,,97,细颗粒物(PM2.5)
湘潭市,昭山,113.0048,27.9153,2026-01-09T0300,47,61,1.0,55,2,4,,65,细颗粒物(PM2.5)
湘西土家族苗族自治州,州政府,109.7298,28.3164,2026-01-09T0300,27,31,0.3,13,,12,,,
湘西土家族苗族自治州,吉首市计生局,109.6957,28.2676,2026-01-09T0300,28,37,0.6,13,7,16,,40,
襄阳市,襄城运动路,112.1555,32.0197,2026-01-09T0300,49,81,0.4,17,14,68,,68,细颗粒物(PM2.5)
襄阳市,高新管委会,112.1829,32.1146,2026-01-09T0300,59,83,0.4,14,16,71,,80,细颗粒物(PM2.5)
襄阳市,襄州航空路,112.2105,32.0903,2026-01-09T0300,57,76,,17,14,64,,,
襄阳市,襄城隆中路,112.0764,32.0089,2026-01-09T0300,47,80,0.5,31,14,58,,65,"颗粒物(PM10),细颗粒物(PM2.5)"
襄阳市,高新台子湾,112.1154,32.103,2026-01-09T0300,39,79,0.3,51,4,26,,65,颗粒物(PM10)
襄阳市,铁院东路4号,112.1433,32.0581,2026-01-09T0300,67,80,0.4,24,14,62,,90,细颗粒物(PM2.5)
孝感市,东城区,113.9062,30.9378,2026-01-09T0300,40,72,0.7,41,,38,,,
孝感市,天仙南路1号,113.946,30.8999,2026-01-09T0300,43,86,0.6,83,7,1,,68,颗粒物(PM10)
忻州市,开发区,112.7313,38.457,2026-01-09T0300,58,86,0.9,44,8,3,,79,细颗粒物(PM2.5)
忻州市,会展中心,112.7023,38.4932,2026-01-09T0300,47,74,0.9,40,5,3,,65,细颗粒物(PM2.5)
忻州市,市政府,112.7279,38.4157,2026-01-09T0300,39,74,0.7,48,6,11,,62,颗粒物(PM10)
新乡市,环保西院,113.836,35.3104,2026-01-09T0300,30,75,0.6,29,11,35,,63,颗粒物(PM10)
新乡市,开发区,113.8847,35.2724,2026-01-09T0300,34,63,0.6,23,12,44,,57,颗粒物(PM10)
新乡市,环保东院,113.8836,35.3028,2026-01-09T0300,41,69,0.6,25,10,48,,60,颗粒物(PM10)
新乡市,市委党校,113.9194,35.2847,2026-01-09T0300,31,52,0.8,22,13,51,,51,颗粒物(PM10)
新乡市,市政府,113.9189,35.3042,2026-01-09T0300,29,53,0.1,18,14,58,,52,颗粒物(PM10)
新乡市,行政服务中心,113.9002,35.372,2026-01-09T0300,40,50,0.7,29,14,36,,57,细颗粒物(PM2.5)
新乡市,建设东路46号,113.916569,35.331547,2026-01-09T0300,15,55,0.2,17,14,53,,53,颗粒物(PM10)
新余市,飞宇,114.9887,27.8433,2026-01-09T0300,55,65,0.7,30,25,36,,75,细颗粒物(PM2.5)
新余市,第二水厂,114.9234,27.8248,2026-01-09T0300,37,54,0.6,44,10,11,,53,细颗粒物(PM2.5)
新余市,市气象局,114.931,27.8037,2026-01-09T0300,35,49,0.3,41,10,10,,50,
新余市,新钢沁园村,114.9148,27.8069,2026-01-09T0300,32,62,0.7,39,8,8,,56,颗粒物(PM10)
信阳市,平桥分局,114.1096,32.1059,2026-01-09T0300,30,56,0.4,45,6,38,,53,颗粒物(PM10)
信阳市,南湾水厂,113.9956,32.1272,2026-01-09T0300,32,61,0.3,20,5,77,,56,颗粒物(PM10)
信阳市,市酿酒公司,114.078,32.1194,2026-01-09T0300,29,54,0.4,20,6,62,,52,颗粒物(PM10)
信阳市,审计局,114.0712,32.1393,2026-01-09T0300,31,51,0.4,18,,75,,,
兴安盟,洮儿河南路,122.0921,46.065,2026-01-09T0300,16,29,0.6,9,4,67,,29,
兴安盟,科尔沁北路63号,122.0383,46.0691,2026-01-09T0300,18,22,0.5,4,7,66,,26,
邢台市,达活泉,114.4687,37.0883,2026-01-09T0300,36,84,1.8,44,,22,,,
邢台市,邢师高专,114.4954,37.0309,2026-01-09T0300,35,69,1.1,42,11,11,,60,颗粒物(PM10)
邢台市,路桥公司,114.5281,37.0857,2026-01-09T0300,38,76,1.3,24,20,26,,63,颗粒物(PM10)
邢台市,市环保局,114.4721,37.0713,2026-01-09T0300,43,89,1.9,54,16,8,,70,颗粒物(PM10)
邢台市,襄都区政府南院,114.5558,37.0578,2026-01-09T0300,40,93,1.3,45,16,20,,72,颗粒物(PM10)
雄安新区,容城县环境保护局,115.8845,39.034,2026-01-09T0300,70,121,0.6,34,7,20,,94,细颗粒物(PM2.5)
雄安新区,河北容城中学,115.8644,39.0594,2026-01-09T0300,63,97,0.8,42,12,17,,85,细颗粒物(PM2.5)
雄安新区,安新县民政局,115.9234,38.9403,2026-01-09T0300,63,124,0.7,32,7,25,,87,颗粒物(PM10)
雄安新区,安新县电力局,115.9341,38.9332,2026-01-09T0300,60,106,0.6,43,10,25,,82,细颗粒物(PM2.5)
雄安新区,雄县环境保护局,116.0897,38.9816,2026-01-09T0300,54,107,0.8,40,3,,,,
雄安新区,雄县国土资源局,116.1106,39.0048,2026-01-09T0300,57,103,0.7,29,8,22,,78,细颗粒物(PM2.5)
徐州市,新城区,117.257,34.2161,2026-01-09T0300,68,117,0.7,51,,20,,,
徐州市,农科院,117.2933,34.2796,2026-01-09T0300,72,110,0.6,39,,34,,,
徐州市,鼓楼区政府,117.1812,34.29,2026-01-09T0300,59,88,0.6,44,11,,,,
徐州市,铜山区招生办,117.1693,34.1781,2026-01-09T0300,65,117,0.9,80,12,,,,
徐州市,大泉街道,117.4619,34.4368,2026-01-09T0300,51,100,1.0,32,11,39,,75,颗粒物(PM10)
徐州市,纺织东路16号,117.1553,34.2567,2026-01-09T0300,72,106,0.6,41,15,34,,97,细颗粒物(PM2.5)
徐州市,解放南路202号,117.194237,34.229354,2026-01-09T0300,74,107,0.9,56,12,21,,99,细颗粒物(PM2.5)
徐州市,龙潭环路5号,117.2438,34.2844,2026-01-09T0300,75,110,0.7,52,,22,,,
许昌市,开发区,113.7904,33.9949,2026-01-09T0300,54,106,0.8,27,5,39,,78,颗粒物(PM10)
许昌市,市一中,113.8172,34.0339,2026-01-09T0300,45,77,0.5,22,7,44,,64,颗粒物(PM10)
许昌市,许昌学院,113.8611,34.0443,2026-01-09T0300,45,75,0.6,26,3,52,,63,"颗粒物(PM10),细颗粒物(PM2.5)"
许昌市,芙蓉广场,113.8428,34.0825,2026-01-09T0300,46,74,0.3,26,9,52,,64,细颗粒物(PM2.5)
许昌市,新元大道996号,113.8157285,34.126705,2026-01-09T0300,58,102,0.5,32,6,38,,79,细颗粒物(PM2.5)
许昌市,望田路111号,113.835877,34.0155267,2026-01-09T0300,47,75,0.7,28,,41,,,
宣城市,鳌峰子站,118.7578,30.9457,2026-01-09T0300,44,64,0.6,30,10,42,,62,细颗粒物(PM2.5)
宣城市,敬亭山子站,118.7384,30.9745,2026-01-09T0300,43,62,0.5,31,2,41,,60,细颗粒物(PM2.5)
宣城市,开发区子站,118.7172,30.9428,2026-01-09T0300,41,68,0.4,51,7,12,,59,颗粒物(PM10)
雅安市,市政府,103.011,29.9833,2026-01-09T0300,37,45,0.4,8,5,29,,53,细颗粒物(PM2.5)
雅安市,川农大,102.9907,29.9778,2026-01-09T0300,53,60,0.8,39,4,11,,73,细颗粒物(PM2.5)
雅安市,滨江西路,103.0544,30.0133,2026-01-09T0300,59,,0.8,24,7,19,,80,细颗粒物(PM2.5)
烟台市,开发区,121.2517,37.564,2026-01-09T0300,31,48,0.6,30,8,51,,48,
烟台市,西郊化工站,121.3181,37.5436,2026-01-09T0300,32,61,0.8,24,8,55,,56,颗粒物(PM10)
烟台市,莱山环保局,121.4419,37.4858,2026-01-09T0300,35,61,0.7,32,10,38,,56,颗粒物(PM10)
烟台市,福山环保局,121.2619,37.4965,2026-01-09T0300,31,68,0.7,20,8,57,,59,颗粒物(PM10)
烟台市,牟平检察院,121.5989,37.4016,2026-01-09T0300,28,48,0.5,23,7,52,,48,
烟台市,中国农业大学,121.5202,37.4336,2026-01-09T0300,29,46,0.5,22,7,51,,46,
烟台市,青年南路118号,121.364239,37.529648,2026-01-09T0300,34,53,0.8,24,9,47,,52,颗粒物(PM10)
延安市,延大医附院,109.4569,36.6161,2026-01-09T0300,21,50,1.0,50,9,0,,50,
延安市,百米大道,109.5053,36.6105,2026-01-09T0300,28,46,1.0,60,10,8,,46,
延安市,志丹路,109.485,36.6347,2026-01-09T0300,24,42,0.6,34,9,39,,42,
延边朝鲜族自治州,妇幼医院,129.4704,42.8885,2026-01-09T0300,18,33,0.6,18,4,25,,33,
延边朝鲜族自治州,延边医院,129.5047,42.9117,2026-01-09T0300,30,47,0.8,24,5,21,,47,
延边朝鲜族自治州,朝阳川镇医院,129.395,42.8884,2026-01-09T0300,17,86,0.8,26,3,9,,68,颗粒物(PM10)
盐城市,市监测站,120.1554,33.3941,2026-01-09T0300,60,73,0.7,22,,56,,,
