area,positionname,longitude,latitude,timepoint,pm2_5,pm10,co,no2,so2,o3,o3_8h,aqi,primarypollutant
长春市,高新区管委会,125.234,43.7761,2026-02-04T2300,35,46,0.5,32,11,54,64,50,
长春市,岱山公园,125.1695,43.83,2026-02-04T2300,46,67,0.4,41,7,44,60,64,细颗粒物(PM2.5)
长春市,北亚泰大街1068号,125.334645,43.916281,2026-02-04T2300,56,69,0.6,42,10,38,70,77,细颗粒物(PM2.5)
长沙市,经开区环保局,113.082,28.2421,2026-02-04T2300,78,118,0.9,54,4,1,32,104,细颗粒物(PM2.5)
长沙市,高开区环保局,112.8873,28.2202,2026-02-04T2300,96,131,1.1,53,7,3,24,127,细颗粒物(PM2.5)
长沙市,马坡岭,113.0785,28.2012,2026-02-04T2300,81,128,1.2,59,6,5,39,108,细颗粒物(PM2.5)
长沙市,湖南师范大学,112.9448,28.1894,2026-02-04T2300,82,132,1.2,58,6,3,29,109,细颗粒物(PM2.5)
长沙市,雨花区环保局,113.0177,28.1322,2026-02-04T2300,63,107,1.1,70,9,0,25,85,细颗粒物(PM2.5)
长沙市,伍家岭,112.9795,28.2593,2026-02-04T2300,93,137,1.0,57,7,1,19,123,细颗粒物(PM2.5)
长沙市,火车新站,113.002,28.1944,2026-02-04T2300,87,124,1.2,61,4,7,26,115,细颗粒物(PM2.5)
长沙市,天心区环保局,112.9846,28.1177,2026-02-04T2300,78,117,0.9,65,6,2,32,104,细颗粒物(PM2.5)
长沙市,湖南中医药大学,112.8906,28.1307,2026-02-04T2300,85,133,1.1,64,8,4,22,113,细颗粒物(PM2.5)
长治市,清华站,113.1146,36.1547,2026-02-04T2300,53,88,0.8,38,14,56,96,73,细颗粒物(PM2.5)
长治市,审计局,113.0887,36.2126,2026-02-04T2300,52,67,0.7,34,16,62,95,72,细颗粒物(PM2.5)
长治市,长治八中,113.0845,36.1856,2026-02-04T2300,55,89,0.8,31,18,56,96,75,细颗粒物(PM2.5)
长治市,德盛苑,113.1561,36.1912,2026-02-04T2300,54,66,0.7,20,14,80,107,74,细颗粒物(PM2.5)
长治市,向阳小学,113.0603,36.0464,2026-02-04T2300,58,102,0.9,33,19,73,99,79,细颗粒物(PM2.5)
长治市,屯留一中,112.8788,36.315,2026-02-04T2300,50,75,0.8,46,14,59,100,69,细颗粒物(PM2.5)
长治市,英华南巷50号,113.113092,36.199482,2026-02-04T2300,59,90,0.8,48,14,35,98,80,细颗粒物(PM2.5)
长治市,学府街1号,113.23666,36.33435,2026-02-04T2300,60,111,1.3,87,20,12,97,82,细颗粒物(PM2.5)
常德市,市二中,111.696,28.9725,2026-02-04T2300,102,135,1.3,28,5,30,48,134,细颗粒物(PM2.5)
常德市,武陵区永安,111.7152,29.0288,2026-02-04T2300,106,141,1.3,26,4,29,47,139,细颗粒物(PM2.5)
常德市,鼎城区玉霞,111.6891,28.9881,2026-02-04T2300,106,141,1.2,28,7,30,47,139,细颗粒物(PM2.5)
常德市,武陵区长庚,111.6651,29.0526,2026-02-04T2300,107,119,1.0,25,4,33,46,140,细颗粒物(PM2.5)
常州市,市监测站,119.9524,31.7586,2026-02-04T2300,67,98,0.6,71,8,39,97,90,细颗粒物(PM2.5)
常州市,武进监测站,119.9351,31.703,2026-02-04T2300,56,78,0.4,39,9,63,93,77,细颗粒物(PM2.5)
常州市,行政中心,119.9701,31.813,2026-02-04T2300,73,106,1.0,72,6,35,92,98,细颗粒物(PM2.5)
哈尔滨市,道里建国路,126.5933,45.7479,2026-02-04T2300,72,73,0.3,34,12,64,75,97,细颗粒物(PM2.5)
哈尔滨市,平房东轻厂,126.6127,45.6119,2026-02-04T2300,65,71,0.8,50,17,33,55,88,细颗粒物(PM2.5)
哈尔滨市,呼兰师专,126.5875,45.9827,2026-02-04T2300,80,109,1.2,29,14,67,77,107,细颗粒物(PM2.5)
哈尔滨市,省农科院,126.6299,45.6799,2026-02-04T2300,54,,0.8,28,,59,68,,
哈尔滨市,华山路1号,126.6769,45.7379,2026-02-04T2300,55,63,0.9,22,5,78,78,75,细颗粒物(PM2.5)
哈尔滨市,解放大街52号,126.9717,45.5356,2026-02-04T2300,49,63,0.8,27,16,53,69,68,细颗粒物(PM2.5)
哈密市,地区监测站,93.5124,42.8176,2026-02-04T2300,47,94,0.9,33,9,34,70,72,颗粒物(PM10)
哈密市,哈密师范学校,93.5014,42.8312,2026-02-04T2300,30,160,1.9,78,6,2,66,105,颗粒物(PM10)
海北藏族自治州,海晏县西海镇,100.9016,36.9464,2026-02-04T2300,25,35,0.6,4,15,82,88,36,
海东市,平安区公安局北苑,102.074,36.5056,2026-02-04T2300,56,72,0.8,12,24,80,86,77,细颗粒物(PM2.5)
海东市,滨河路,102.0984,36.5119,2026-02-04T2300,56,83,0.9,46,30,62,98,77,细颗粒物(PM2.5)
海口市,海南大学,110.3189,20.0596,2026-02-04T2300,21,42,0.5,9,5,85,108,42,
海口市,秀英海南医院,110.2827,20.0051,2026-02-04T2300,24,38,0.4,9,8,82,100,38,
海口市,海南师范大学,110.3391,19.9979,2026-02-04T2300,28,42,0.6,10,5,84,105,42,
海口市,龙华路环保局宿舍,110.3303,20.0359,2026-02-04T2300,25,37,0.8,9,/,94,116,37,
海口市,桂林洋子站,110.5111,19.9737,2026-02-04T2300,22,42,/,7,/,78,102,42,
海口市,长滨二路9号,110.1952,20.0451,2026-02-04T2300,23,32,/,6,/,88,110,33,
海南藏族自治州,共和县恰卜恰镇,100.6158,36.2985,2026-02-04T2300,25,42,0.5,37,14,40,85,42,
海西蒙古族藏族自治州,德令哈市,97.373,37.376,2026-02-04T2300,11,24,0.4,3,14,,97,,
邯郸市,矿院,114.492,36.5712,2026-02-04T2300,137,145,1.2,66,8,22,102,182,细颗粒物(PM2.5)
邯郸市,丛台公园,114.4839,36.6136,2026-02-04T2300,122,171,1.2,92,11,15,106,160,细颗粒物(PM2.5)
邯郸市,香泉濮院小区,114.7893,36.5592,2026-02-04T2300,101,166,1.1,29,15,82,97,133,细颗粒物(PM2.5)
邯郸市,峰峰矿区临水派出所,114.1998,36.4439,2026-02-04T2300,69,106,1.2,12,14,96,116,93,细颗粒物(PM2.5)
邯郸市,建安街268号,114.5209,36.7697,2026-02-04T2300,133,166,1.3,88,7,12,98,176,细颗粒物(PM2.5)
邯郸市,丛台东路558号,114.5488,36.6177,2026-02-04T2300,124,179,1.2,101,12,5,116,163,细颗粒物(PM2.5)
汉中市,市监测站,107.0155,33.0707,2026-02-04T2300,86,128,1.6,43,6,20,62,114,细颗粒物(PM2.5)
汉中市,鑫源开发区,107.0083,33.114,2026-02-04T2300,109,135,1.7,63,8,10,68,143,细颗粒物(PM2.5)
汉中市,南郑大河坎水厂,107.0072,33.0323,2026-02-04T2300,81,126,1.1,26,6,28,56,108,细颗粒物(PM2.5)
阿坝藏族羌族自治州,马师校,102.2503,31.8896,2026-02-04T2300,8,13,0.5,22,4,28,68,13,
阿坝藏族羌族自治州,马尔康中学西区,102.2174,31.9016,2026-02-04T2300,14,37,0.6,17,7,38,69,37,
阿克苏地区,电视台,80.2899,41.1684,2026-02-04T2300,157,351,3.8,102,15,7,69,207,细颗粒物(PM2.5)
阿克苏地区,艺术中心,80.2592,41.1541,2026-02-04T2300,100,257,1.7,115,7,7,74,154,颗粒物(PM10)
阿拉善盟,蒙二幼,105.699,38.8409,2026-02-04T2300,8,19,0.5,7,9,86,94,27,
阿拉善盟,环保局新楼,105.7198,38.8508,2026-02-04T2300,6,17,0.4,4,9,90,91,29,
阿勒泰地区,市站,88.1266,47.8515,2026-02-04T2300,8,25,0.3,14,2,72,80,25,
阿勒泰地区,阿勒泰路33号,88.1198,47.7931,2026-02-04T2300,15,36,0.6,11,4,66,82,36,
阿里地区,阿里监测站,80.1171,32.4999,2026-02-04T2300,7,,0.4,4,11,87,95,28,
阿里地区,阿里藏医院,80.0906,32.5029,2026-02-04T2300,3,6,0.3,2,8,95,100,30,
安康市,汉滨区检察院,109.0088,32.6974,2026-02-04T2300,58,99,0.8,37,7,9,47,79,细颗粒物(PM2.5)
安康市,市邮政管理局,109.0324,32.6913,2026-02-04T2300,70,122,1.2,51,5,2,46,94,细颗粒物(PM2.5)
安庆市,环科院,117.0806,30.5181,2026-02-04T2300,67,79,0.9,54,7,16,71,90,细颗粒物(PM2.5)
安庆市,马山宾馆,117.0331,30.5118,2026-02-04T2300,66,78,1.2,76,7,4,66,89,细颗粒物(PM2.5)
安庆市,安庆大学,116.9897,30.6146,2026-02-04T2300,45,71,0.7,37,4,39,83,63,细颗粒物(PM2.5)
安庆市,市人大,117.0598,30.5351,2026-02-04T2300,53,83,0.8,69,7,2,79,73,细颗粒物(PM2.5)
安顺市,凤凰山,105.9408,26.2431,2026-02-04T2300,48,64,0.9,21,28,43,62,67,细颗粒物(PM2.5)
安顺市,金钟山,105.9443,26.2567,2026-02-04T2300,44,,0.8,11,16,48,59,62,细颗粒物(PM2.5)
安顺市,娄家坡,105.8983,26.248,2026-02-04T2300,47,60,0.8,15,17,42,62,65,细颗粒物(PM2.5)
安阳市,红庙街,114.3552,36.1017,2026-02-04T2300,102,153,1.1,56,6,35,101,134,细颗粒物(PM2.5)
安阳市,银杏小区,114.361,36.0681,2026-02-04T2300,113,144,1.1,63,7,30,101,148,细颗粒物(PM2.5)
安阳市,信访局,114.3921,36.0879,2026-02-04T2300,90,114,1.0,34,11,58,111,119,细颗粒物(PM2.5)
安阳市,左辅环卫站,114.4706,36.0634,2026-02-04T2300,111,165,0.9,58,8,34,103,145,细颗粒物(PM2.5)
安阳市,钢三路198号,114.2918,36.0769,2026-02-04T2300,113,171,1.0,46,11,36,88,148,细颗粒物(PM2.5)
鞍山市,深沟寺,123.0441,41.1201,2026-02-04T2300,146,190,1.6,63,9,16,85,195,细颗粒物(PM2.5)
鞍山市,太阳城,123.011,41.0931,2026-02-04T2300,149,181,1.5,64,12,12,82,199,细颗粒物(PM2.5)
鞍山市,太平,123.0483,41.1445,2026-02-04T2300,163,215,2.1,64,14,8,31,213,细颗粒物(PM2.5)
鞍山市,铁西三道街,122.964,41.0968,2026-02-04T2300,216,283,3.3,74,21,16,72,266,细颗粒物(PM2.5)
鞍山市,明达新区,123.0219,41.0822,2026-02-04T2300,129,156,1.5,52,9,16,83,170,细颗粒物(PM2.5)
鞍山市,兴盛南路290号,122.944647,41.082639,2026-02-04T2300,203,266,2.8,80,27,4,70,253,细颗粒物(PM2.5)
巴彦淖尔市,附二中,107.4206,40.7609,2026-02-04T2300,28,71,0.4,17,13,57,82,61,颗粒物(PM10)
巴彦淖尔市,市环保大楼,107.37,40.7372,2026-02-04T2300,24,75,0.4,24,6,56,84,63,颗粒物(PM10)
巴音郭楞蒙古自治州,孔雀公园,86.1476,41.7529,2026-02-04T2300,66,91,0.9,25,9,56,70,89,细颗粒物(PM2.5)
巴音郭楞蒙古自治州,棉纺厂,86.1971,41.7166,2026-02-04T2300,63,205,/,26,/,50,72,128,颗粒物(PM10)
巴音郭楞蒙古自治州,经济开发区,86.236,41.7172,2026-02-04T2300,48,163,0.9,39,6,33,62,107,颗粒物(PM10)
巴中市,市五中,106.776805,31.852614,2026-02-04T2300,101,134,1.4,29,6,2,16,133,细颗粒物(PM2.5)
巴中市,圣泉水务公司,106.7419,31.8654,2026-02-04T2300,81,109,1.4,34,6,3,15,108,细颗粒物(PM2.5)
巴中市,市中心医院,106.7617,31.8343,2026-02-04T2300,88,128,1.5,36,6,1,17,117,细颗粒物(PM2.5)
白城市,洮北区环保局,122.7909,45.608,2026-02-04T2300,12,29,0.3,11,7,65,75,29,
白城市,市环保局,122.8741,45.5725,2026-02-04T2300,19,29,0.3,24,5,36,70,29,
白山市,喜丰,126.4219,41.9172,2026-02-04T2300,90,108,1.3,49,15,43,80,119,细颗粒物(PM2.5)
白山市,环保局,126.4082,41.9416,2026-02-04T2300,107,111,1.7,39,16,34,82,140,细颗粒物(PM2.5)
白银市,第三小学,104.1727,36.5448,2026-02-04T2300,30,55,0.9,37,21,49,84,53,颗粒物(PM10)
白银市,动力公司,104.1467,36.5482,2026-02-04T2300,26,47,0.5,25,11,52,94,47,
百色市,市监测站,106.6102,23.901,2026-02-04T2300,60,66,1.0,29,9,26,90,82,细颗粒物(PM2.5)
百色市,市中心血站,106.6524,23.8842,2026-02-04T2300,66,70,1.1,50,10,17,93,89,细颗粒物(PM2.5)
百色市,龙景西路,106.6273,23.8798,2026-02-04T2300,74,110,1.0,51,11,10,97,99,细颗粒物(PM2.5)
蚌埠市,工人疗养院,117.396,32.9389,2026-02-04T2300,68,118,1.0,81,6,33,106,92,细颗粒物(PM2.5)
蚌埠市,百货大楼,117.3606,32.9428,2026-02-04T2300,69,128,0.9,80,6,25,107,93,细颗粒物(PM2.5)
蚌埠市,蚌埠学院,117.4183,32.8909,2026-02-04T2300,55,105,0.8,49,5,44,107,78,颗粒物(PM10)
蚌埠市,淮上区政府,117.3534,32.9672,2026-02-04T2300,77,124,0.8,99,8,25,107,103,细颗粒物(PM2.5)
蚌埠市,高新区,117.3143,32.8977,2026-02-04T2300,90,129,0.8,77,9,9,96,119,细颗粒物(PM2.5)
蚌埠市,蚌埠田家炳中学,117.3091,32.9314,2026-02-04T2300,71,115,0.7,76,8,39,104,95,细颗粒物(PM2.5)
包头市,市环境监测站,109.8761,40.6533,2026-02-04T2300,17,79,0.4,23,8,61,76,65,颗粒物(PM10)
包头市,包头八中,109.9992,40.5843,2026-02-04T2300,20,81,0.6,18,4,66,80,66,颗粒物(PM10)
包头市,惠龙物流,109.8641,40.6288,2026-02-04T2300,20,70,0.4,17,10,73,84,60,颗粒物(PM10)
包头市,东河鸿龙湾,110.0376,40.5546,2026-02-04T2300,15,66,0.5,41,7,53,85,58,颗粒物(PM10)
包头市,滨河大厦,109.9154,40.5684,2026-02-04T2300,25,74,0.5,42,8,48,84,62,颗粒物(PM10)
包头市,包头市委党校,109.9449,40.6259,2026-02-04T2300,15,72,0.4,19,7,69,84,61,颗粒物(PM10)
包头市,昆区政府,109.8332,40.6577,2026-02-04T2300,24,80,0.5,24,16,61,82,65,颗粒物(PM10)
宝鸡市,竹园沟,107.0802,34.3129,2026-02-04T2300,27,50,0.6,22,6,37,72,50,
宝鸡市,监测站,107.1429,34.3549,2026-02-04T2300,46,71,0.6,43,5,21,68,64,细颗粒物(PM2.5)
宝鸡市,技工学校,107.1172,34.3759,2026-02-04T2300,61,89,0.7,35,6,26,72,83,细颗粒物(PM2.5)
宝鸡市,文理学院,107.2025,34.3518,2026-02-04T2300,47,86,0.9,45,4,22,68,68,颗粒物(PM10)
宝鸡市,三迪小学,107.2396,34.3626,2026-02-04T2300,55,92,1.0,66,4,8,62,75,细颗粒物(PM2.5)
宝鸡市,滨河北路,107.1721,34.3558,2026-02-04T2300,55,101,0.6,32,4,24,70,76,颗粒物(PM10)
宝鸡市,陈仓区北开路21号,107.3898,34.3601,2026-02-04T2300,76,132,0.7,42,8,40,77,102,细颗粒物(PM2.5)
保定市,游泳馆,115.4803,38.8568,2026-02-04T2300,100,146,0.9,66,14,25,60,132,细颗粒物(PM2.5)
保定市,华电二区,115.509,38.8895,2026-02-04T2300,91,123,1.1,51,6,27,66,120,细颗粒物(PM2.5)
保定市,接待中心,115.4588,38.9037,2026-02-04T2300,85,125,0.7,41,8,34,68,113,细颗粒物(PM2.5)
保定市,地表水厂,115.4484,38.8344,2026-02-04T2300,97,161,0.9,67,12,19,70,128,细颗粒物(PM2.5)
保定市,满城区生态环境分局,115.3136,38.9511,2026-02-04T2300,74,139,1.0,48,9,33,73,99,细颗粒物(PM2.5)
保定市,清苑区第二中学,115.4709,38.7628,2026-02-04T2300,103,168,1.0,56,16,27,74,135,细颗粒物(PM2.5)
保定市,徐水物探局,115.6231,39.0223,2026-02-04T2300,114,200,1.0,64,15,14,70,149,细颗粒物(PM2.5)
保定市,双鹰农机,115.4199,38.8665,2026-02-04T2300,106,175,1.0,69,13,28,79,139,细颗粒物(PM2.5)
保定市,植保所站,115.515,38.8589,2026-02-04T2300,94,128,1.2,73,6,17,67,124,细颗粒物(PM2.5)
保山市,市环境监测站,99.1589,25.1137,2026-02-04T2300,17,28,0.3,8,4,73,93,28,
保山市,市环保局,99.1616,25.1381,2026-02-04T2300,15,36,0.4,4,3,83,92,36,
北海市,海滩公园,109.1435,21.4085,2026-02-04T2300,24,47,0.9,14,6,88,122,47,
北海市,新市环保局,109.0983,21.466,2026-02-04T2300,32,45,0.5,13,6,98,107,46,
北海市,北海工业园,109.1775,21.5232,2026-02-04T2300,26,66,0.7,10,6,90,105,58,颗粒物(PM10)
北海市,龙潭自来水厂,109.1844,21.4396,2026-02-04T2300,35,46,0.5,9,4,89,109,50,
北京市,万寿西宫,116.3611,39.8786,2026-02-04T2300,127,170,0.9,55,6,57,68,168,细颗粒物(PM2.5)
北京市,东四,116.4174,39.9289,2026-02-04T2300,102,162,0.8,49,8,52,59,134,细颗粒物(PM2.5)
北京市,天坛,116.4073,39.8858,2026-02-04T2300,104,149,0.8,47,3,49,57,137,细颗粒物(PM2.5)
北京市,农展馆,116.4622,39.9364,2026-02-04T2300,101,150,0.8,39,8,59,64,133,细颗粒物(PM2.5)
北京市,官园,116.3399,39.9293,2026-02-04T2300,110,168,0.9,63,7,34,56,144,细颗粒物(PM2.5)
北京市,海淀万柳,116.2879,39.9613,2026-02-04T2300,91,148,1.0,90,5,11,50,120,细颗粒物(PM2.5)
北京市,顺义新城,116.6635,40.1349,2026-02-04T2300,67,121,1.0,81,6,6,70,90,细颗粒物(PM2.5)
北京市,怀柔镇,116.6275,40.327,2026-02-04T2300,43,69,0.8,29,5,40,68,60,"颗粒物(PM10),细颗粒物(PM2.5)"
北京市,昌平镇,116.2295,40.217,2026-02-04T2300,51,91,0.8,48,3,31,76,71,颗粒物(PM10)
北京市,奥体中心,116.3968,39.982,2026-02-04T2300,120,177,1.0,65,8,48,61,158,细颗粒物(PM2.5)
北京市,密云新城,116.8336,40.4095,2026-02-04T2300,61,106,0.7,58,4,12,67,83,细颗粒物(PM2.5)
北京市,门头沟三家店,116.0879,39.9725,2026-02-04T2300,50,89,0.7,39,3,20,61,70,颗粒物(PM10)
北京市,丰台云岗,116.1507,39.8246,2026-02-04T2300,61,121,0.7,82,3,3,67,86,颗粒物(PM10)
北京市,房山燕山,115.9578,39.7602,2026-02-04T2300,68,101,1.0,35,6,34,60,92,细颗粒物(PM2.5)
北京市,大兴旧宫,116.4669,39.7734,2026-02-04T2300,100,144,0.9,59,5,40,63,132,细颗粒物(PM2.5)
北京市,延庆石河营,115.9859,40.4562,2026-02-04T2300,42,81,0.8,65,4,4,68,66,颗粒物(PM10)
北京市,怀柔新城,116.6151,40.3052,2026-02-04T2300,54,81,0.6,20,2,37,63,74,细颗粒物(PM2.5)
北京市,丰台小屯,116.2542,39.8764,2026-02-04T2300,91,153,1.0,92,4,7,48,120,细颗粒物(PM2.5)
北京市,密云镇,116.8399,40.3843,2026-02-04T2300,64,111,0.8,79,4,3,66,87,细颗粒物(PM2.5)
北京市,延庆百泉,115.9423,40.4431,2026-02-04T2300,47,88,0.7,43,3,19,68,69,颗粒物(PM10)
北京市,通州新华,116.6598,39.9164,2026-02-04T2300,101,155,0.9,44,6,53,54,133,细颗粒物(PM2.5)
北京市,石景山八角,116.1942,39.9158,2026-02-04T2300,68,126,0.7,85,2,6,54,92,细颗粒物(PM2.5)
北京市,平谷新城,117.078628,40.151726,2026-02-04T2300,68,114,1.0,41,4,24,63,92,细颗粒物(PM2.5)
本溪市,大峪,123.8274146,41.31234549,2026-02-04T2300,91,139,1.1,43,10,48,68,120,细颗粒物(PM2.5)
本溪市,彩屯,123.7169,41.3094,2026-02-04T2300,107,137,3.4,42,18,41,56,140,细颗粒物(PM2.5)
本溪市,东明,123.7672166,41.28649327,2026-02-04T2300,93,,1.1,30,10,64,78,123,细颗粒物(PM2.5)
本溪市,新立屯,123.799345,41.266614,2026-02-04T2300,88,90,1.0,24,11,74,81,117,细颗粒物(PM2.5)
本溪市,威宁,123.829144,41.336777,2026-02-04T2300,91,114,1.6,56,8,17,54,120,细颗粒物(PM2.5)
毕节市,八中,105.287,27.3133,2026-02-04T2300,9,12,0.9,8,8,49,53,16,
毕节市,师专,105.3079,27.2987,2026-02-04T2300,3,9,0.8,10,7,56,56,18,
毕节市,工业大道,105.3688,27.3598,2026-02-04T2300,11,,/,9,9,62,56,20,
滨州市,第二水厂,117.9961,37.3604,2026-02-04T2300,142,190,1.1,55,13,38,85,189,细颗粒物(PM2.5)
滨州市,北中新校,117.9789,37.3931,2026-02-04T2300,155,197,1.2,37,9,56,88,205,细颗粒物(PM2.5)
滨州市,中海酒店,117.9379,37.3959,2026-02-04T2300,156,183,1.3,46,9,58,95,206,细颗粒物(PM2.5)
滨州市,开发区一中,117.9381509,37.35547456,2026-02-04T2300,152,210,1.3,100,19,4,78,202,细颗粒物(PM2.5)
滨州市,金海六路,118.0914,37.6938,2026-02-04T2300,186,229,1.6,99,13,3,93,236,细颗粒物(PM2.5)
滨州市,滨州市西街道办事处,117.9955,37.3752,2026-02-04T2300,144,197,1.2,52,10,27,88,192,细颗粒物(PM2.5)
亳州市,污水处理厂,115.8071,33.8399,2026-02-04T2300,97,142,0.9,56,5,38,100,128,细颗粒物(PM2.5)
亳州市,三国揽胜宫,115.7789,33.8519,2026-02-04T2300,96,162,0.8,44,6,70,97,127,细颗粒物(PM2.5)
亳州市,亳州学院,115.7631,33.803,2026-02-04T2300,92,138,0.8,37,4,72,102,122,细颗粒物(PM2.5)
博尔塔拉蒙古自治州,市党校,82.0482,44.8553,2026-02-04T2300,20,47,,10,3,75,92,,
博尔塔拉蒙古自治州,市环保局,82.0805,44.8966,2026-02-04T2300,25,67,1.0,41,7,45,73,59,颗粒物(PM10)
沧州市,沧县城建局,116.8733,38.2922,2026-02-04T2300,139,194,1.0,92,11,22,75,185,细颗粒物(PM2.5)
沧州市,电视转播站,116.8462,38.3189,2026-02-04T2300,170,182,1.1,62,5,41,81,220,细颗粒物(PM2.5)
沧州市,市环保局,116.8588,38.3161,2026-02-04T2300,120,168,1.0,41,10,58,68,158,细颗粒物(PM2.5)
沧州市,河北水利电力学院,116.8011,38.294,2026-02-04T2300,158,193,0.9,44,11,57,72,208,细颗粒物(PM2.5)
昌都市,昌都监测站,97.1813,31.1289,2026-02-04T2300,17,36,0.4,19,4,65,94,36,
昌都市,昌都会议中心,97.1707,31.1428,2026-02-04T2300,6,10,0.1,2,4,78,79,25,
昌吉回族自治州,新区政务中心,87.2722,44.0298,2026-02-04T2300,44,61,0.9,46,8,52,83,62,细颗粒物(PM2.5)
昌吉回族自治州,亚心广场,87.3069,44.0093,2026-02-04T2300,56,75,1.1,72,9,27,80,77,细颗粒物(PM2.5)
昌吉回族自治州,财政所,87.2057,43.9289,2026-02-04T2300,23,38,0.5,11,6,71,113,38,
长春市,客车厂,125.2874,43.9024,2026-02-04T2300,45,51,0.7,47,10,44,65,63,细颗粒物(PM2.5)
长春市,邮电学院,125.2943,43.8508,2026-02-04T2300,49,60,0.6,33,12,50,70,68,细颗粒物(PM2.5)
长春市,劳动公园,125.3648,43.8745,2026-02-04T2300,58,91,1.1,39,11,44,74,79,细颗粒物(PM2.5)
长春市,园林处,125.3233,43.8781,2026-02-04T2300,55,68,0.7,25,12,56,74,75,细颗粒物(PM2.5)
长春市,净月潭,125.4604,43.7904,2026-02-04T2300,36,46,0.5,18,5,55,75,52,细颗粒物(PM2.5)
长春市,经开区环卫处,125.38,43.8422,2026-02-04T2300,46,62,0.6,38,6,43,70,64,细颗粒物(PM2.5)
常州市,经开区,120.0434,31.7726,2026-02-04T2300,63,106,1.1,48,7,49,98,85,细颗粒物(PM2.5)
常州市,钟楼,119.8919,31.7892,2026-02-04T2300,60,93,0.7,56,8,52,89,82,细颗粒物(PM2.5)
常州市,武进经发区,119.8595,31.706,2026-02-04T2300,68,93,1.0,57,6,47,95,92,细颗粒物(PM2.5)
常州市,金坛城区,119.5812,31.7256,2026-02-04T2300,66,93,0.6,38,17,,90,,
常州市,崇义南街5-H号,119.9551,31.863,2026-02-04T2300,83,,1.1,96,6,,102,110,细颗粒物(PM2.5)
朝阳市,西梁,120.4318,41.588,2026-02-04T2300,54,106,1.0,62,24,12,82,78,颗粒物(PM10)
朝阳市,河畔小区,120.452,41.565,2026-02-04T2300,75,105,1.5,54,19,13,83,100,细颗粒物(PM2.5)
朝阳市,八里堡,120.4176,41.5648,2026-02-04T2300,98,116,1.8,68,23,5,78,129,细颗粒物(PM2.5)
潮州市,市政府,116.6179,23.6608,2026-02-04T2300,36,46,0.7,20,5,79,145,52,细颗粒物(PM2.5)
潮州市,金山,116.646,23.676,2026-02-04T2300,40,50,0.6,22,4,74,148,57,细颗粒物(PM2.5)
郴州市,市职中,113.0116,25.8228,2026-02-04T2300,39,49,0.8,37,8,24,102,55,细颗粒物(PM2.5)
郴州市,市审计局,113.0381,25.8074,2026-02-04T2300,33,45,/,53,6,24,92,48,
郴州市,市环保局,113.0348,25.7757,2026-02-04T2300,35,59,0.5,47,8,34,107,55,颗粒物(PM10)
郴州市,好美居路49号,113.0138,25.8011,2026-02-04T2300,33,38,/,30,6,66,106,48,
成都市,金泉两河,103.9727,30.7242,2026-02-04T2300,78,102,1.8,92,2,1,83,104,细颗粒物(PM2.5)
成都市,十里店,104.1423,30.6765,2026-02-04T2300,78,168,1.2,84,4,7,76,109,颗粒物(PM10)
成都市,三瓦窑,104.0594,30.5765,2026-02-04T2300,87,144,1.2,75,4,19,63,115,细颗粒物(PM2.5)
成都市,沙河铺,104.1122,30.6306,2026-02-04T2300,82,134,1.2,64,3,11,58,109,细颗粒物(PM2.5)
成都市,大石西路,104.0219,30.6561,2026-02-04T2300,95,147,1.3,83,4,2,80,125,细颗粒物(PM2.5)
成都市,龙泉驿区区政府,104.2724,30.559,2026-02-04T2300,71,95,1.0,23,6,46,76,95,细颗粒物(PM2.5)
成都市,金博路,104.0028,30.6891,2026-02-04T2300,92,136,1.3,94,4,2,83,122,细颗粒物(PM2.5)
成都市,华阳,104.056,30.5228,2026-02-04T2300,79,117,1.2,58,3,33,68,105,细颗粒物(PM2.5)
成都市,青石路225号,104.387954,30.746684,2026-02-04T2300,74,114,1.1,74,1,3,69,99,细颗粒物(PM2.5)
成都市,科学城,104.0788,30.4054,2026-02-04T2300,72,101,1.2,32,6,26,47,97,细颗粒物(PM2.5)
成都市,光华大道三段,103.8505,30.6946,2026-02-04T2300,90,162,1.3,83,3,3,89,119,细颗粒物(PM2.5)
成都市,八角井街185号,104.3257,30.6406,2026-02-04T2300,66,98,0.7,25,3,49,67,89,细颗粒物(PM2.5)
成都市,鲸龙路1057号,104.2433276,30.53529463,2026-02-04T2300,76,112,1.0,45,5,25,71,102,细颗粒物(PM2.5)
承德市,铁路,117.9531,40.908,2026-02-04T2300,75,98,1.2,39,9,24,32,100,细颗粒物(PM2.5)
承德市,中国银行,117.9397,40.9763,2026-02-04T2300,56,96,1.5,54,5,11,47,77,细颗粒物(PM2.5)
承德市,杏林街1号,117.9462,40.95,2026-02-04T2300,69,107,1.6,56,8,12,59,93,细颗粒物(PM2.5)
承德市,滨河大街98号,117.7994,40.9605,2026-02-04T2300,33,69,0.6,37,7,28,53,60,颗粒物(PM10)
池州市,池州学院,117.4698,30.6617,2026-02-04T2300,50,67,1.1,35,6,41,79,69,细颗粒物(PM2.5)
池州市,展览馆,117.4918,30.6617,2026-02-04T2300,60,81,0.9,34,4,31,75,82,细颗粒物(PM2.5)
池州市,第八中学,117.5626,30.695,2026-02-04T2300,45,71,1.2,26,10,50,77,63,细颗粒物(PM2.5)
池州市,第十二中学,117.5037,30.6242,2026-02-04T2300,42,66,1.0,56,4,16,72,59,细颗粒物(PM2.5)
赤峰市,松山一中,118.9229,42.2816,2026-02-04T2300,41,62,1.2,62,10,7,57,58,细颗粒物(PM2.5)
赤峰市,哈达街,118.9588,42.2733,2026-02-04T2300,62,66,1.5,75,122,6,60,84,细颗粒物(PM2.5)
赤峰市,天义路,118.8792,42.2551,2026-02-04T2300,33,46,0.8,69,83,7,62,48,
赤峰市,银河街,119.2656,42.0356,2026-02-04T2300,32,64,0.8,16,26,54,76,57,颗粒物(PM10)
赤峰市,桥北物流园区,118.9359,42.3146,2026-02-04T2300,27,52,1.1,39,4,30,77,51,颗粒物(PM10)
崇左市,市环保局江州分局,107.3473,22.4137,2026-02-04T2300,94,127,1.4,36,5,31,91,124,细颗粒物(PM2.5)
崇左市,石景林东路7号,107.375,22.3736,2026-02-04T2300,75,,0.9,39,3,23,66,100,细颗粒物(PM2.5)
滁州市,市政府原办公楼,118.31131,32.3033,2026-02-04T2300,65,110,1.0,80,5,12,98,88,细颗粒物(PM2.5)
滁州市,图书馆,118.3268,32.2633,2026-02-04T2300,37,74,0.6,47,8,53,102,62,颗粒物(PM10)
滁州市,银山路666号,118.3196,32.3335,2026-02-04T2300,54,75,0.6,44,11,18,111,74,细颗粒物(PM2.5)
滁州市,黄山路555号,118.3426,32.2979,2026-02-04T2300,56,121,0.9,89,8,7,112,86,颗粒物(PM10)
楚雄彝族自治州,市经济开发区,101.5379,25.0492,2026-02-04T2300,31,49,0.7,32,3,55,80,49,
楚雄彝族自治州,团结路562号,101.5536,25.0343,2026-02-04T2300,28,,0.5,8,4,71,81,40,
达州市,市环境监测站,107.5087,31.2186,2026-02-04T2300,85,113,1.0,45,7,4,12,113,细颗粒物(PM2.5)
达州市,凤凰小区,107.4988,31.2132,2026-02-04T2300,90,129,0.9,48,6,3,13,119,细颗粒物(PM2.5)
达州市,达县机关宾馆,107.5081,31.1987,2026-02-04T2300,109,146,1.1,49,7,3,14,143,细颗粒物(PM2.5)
达州市,市政中心,107.4644,31.2124,2026-02-04T2300,96,167,1.5,54,7,4,10,127,细颗粒物(PM2.5)
大理白族自治州,大理市环境监测站,100.2168,25.5818,2026-02-04T2300,16,22,0.4,8,6,78,79,25,
大理白族自治州,大理古城,100.1542,25.7055,2026-02-04T2300,9,22,0.5,4,8,81,82,26,
大连市,甘井子,121.6119,38.974,2026-02-04T2300,144,194,0.9,87,7,2,63,192,细颗粒物(PM2.5)
大连市,周水子,121.565,38.9509,2026-02-04T2300,150,187,1.4,79,8,6,64,200,细颗粒物(PM2.5)
大连市,星海三站,121.5637,38.8849,2026-02-04T2300,142,160,1.3,45,5,15,72,189,细颗粒物(PM2.5)
大连市,青泥洼桥,121.6301,38.9117,2026-02-04T2300,132,165,1.3,60,9,22,79,175,细颗粒物(PM2.5)
大连市,傅家庄,121.6248,38.8643,2026-02-04T2300,121,161,1.1,38,10,49,76,159,细颗粒物(PM2.5)
大连市,七贤岭,121.5117,38.8636,2026-02-04T2300,133,169,1.0,36,15,61,73,176,细颗粒物(PM2.5)
大连市,金州,121.7507,39.1339,2026-02-04T2300,68,285,1.0,35,11,29,79,168,颗粒物(PM10)
大连市,开发区,121.7811,39.0495,2026-02-04T2300,106,158,1.1,47,7,18,67,139,细颗粒物(PM2.5)
大连市,双D港,121.9762,39.0631,2026-02-04T2300,64,87,1.1,29,10,46,67,87,细颗粒物(PM2.5)
大连市,旅顺,121.2548,38.8188,2026-02-04T2300,162,210,1.5,43,8,16,77,212,细颗粒物(PM2.5)
大庆市,大同区,124.8085,46.0381,2026-02-04T2300,22,50,0.6,23,10,47,72,50,
大庆市,龙凤区,125.1166,46.5255,2026-02-04T2300,20,38,0.6,17,8,62,66,38,
大庆市,红岗区,124.8894,46.4007,2026-02-04T2300,25,42,1.0,34,9,31,64,42,
大庆市,萨尔图区,125.1391,46.578,2026-02-04T2300,18,27,0.3,12,8,63,61,27,
大庆市,让胡路区,124.9026,46.6217,2026-02-04T2300,17,29,0.5,37,8,35,72,29,
大庆市,萨区政府监测点,125.127,46.6277,2026-02-04T2300,22,36,0.6,2,7,70,70,36,
大同市,云冈宾馆,113.2926,40.0759,2026-02-04T2300,28,89,1.4,47,13,32,76,70,颗粒物(PM10)
大同市,大同大学,113.3437,40.0921,2026-02-04T2300,30,78,1.2,28,15,62,77,64,颗粒物(PM10)
大同市,安家小村,113.2637,40.129,2026-02-04T2300,44,109,1.3,64,15,19,76,80,颗粒物(PM10)
大同市,大同市卫生学校,113.3399,40.0586,2026-02-04T2300,27,88,1.7,37,14,59,89,69,颗粒物(PM10)
大同市,云冈站,113.1371,40.1122,2026-02-04T2300,16,58,0.6,34,9,35,76,54,颗粒物(PM10)
大同市,图书馆,113.1186,40.2556,2026-02-04T2300,29,62,0.8,12,4,54,82,56,颗粒物(PM10)
大同市,区一中,113.5931,40.0459,2026-02-04T2300,132,437,1.2,78,32,15,78,322,颗粒物(PM10)
大同市,魏都大道141号,113.2798248,40.09972476,2026-02-04T2300,55,97,1.6,71,14,22,78,75,细颗粒物(PM2.5)
大兴安岭地区,科技局,124.1068,50.4091,2026-02-04T2300,27,47,0.4,11,7,52,64,47,
大兴安岭地区,红旗社区,124.117,50.4279,2026-02-04T2300,30,36,0.5,20,10,46,72,43,
丹东市,江湾东路,124.33,40.0625,2026-02-04T2300,75,104,1.0,18,10,68,73,100,细颗粒物(PM2.5)
丹东市,临江后街,124.4242,40.1513,2026-02-04T2300,114,145,1.2,24,11,55,76,149,细颗粒物(PM2.5)
丹东市,元宝山,124.3935,40.1461,2026-02-04T2300,89,128,1.8,30,20,59,75,118,细颗粒物(PM2.5)
丹东市,民主桥,124.3634,40.1093,2026-02-04T2300,84,116,1.0,23,12,65,70,112,细颗粒物(PM2.5)
儋州市,第一中学子站,109.5726195,19.51688767,2026-02-04T2300,18,36,0.7,6,5,72,76,36,
儋州市,东坡学校子站,109.5567,19.5187,2026-02-04T2300,17,40,0.6,6,5,91,94,40,
德宏傣族景颇族自治州,德宏州监测站,98.5611,24.4273,2026-02-04T2300,44,60,1.0,20,6,51,90,62,细颗粒物(PM2.5)
德宏傣族景颇族自治州,芒市人民政府综合楼,98.5887,24.4366,2026-02-04T2300,46,85,0.9,18,4,43,86,68,颗粒物(PM10)
德阳市,东山公园,104.424,31.1209,2026-02-04T2300,85,96,1.0,17,2,62,85,113,细颗粒物(PM2.5)
德阳市,西小区,104.3827,31.1318,2026-02-04T2300,96,123,1.3,84,4,2,83,127,细颗粒物(PM2.5)
德阳市,耐火材料厂,104.3553,31.1091,2026-02-04T2300,99,130,1.0,84,3,4,72,130,细颗粒物(PM2.5)
德阳市,市林业局,104.4144,31.1495,2026-02-04T2300,86,118,1.1,84,5,2,74,114,细颗粒物(PM2.5)
德州市,儿童乐园,116.3034,37.4675,2026-02-04T2300,124,183,1.4,41,19,75,93,163,细颗粒物(PM2.5)
德州市,监理站,116.2992,37.4449,2026-02-04T2300,146,215,1.4,100,18,31,94,195,细颗粒物(PM2.5)
德州市,九衢泉纯净水厂,116.2722,37.438,2026-02-04T2300,184,232,1.4,109,18,12,82,234,细颗粒物(PM2.5)
德州市,开发区人民医院,116.3693,37.44,2026-02-04T2300,135,197,1.1,50,17,63,93,179,细颗粒物(PM2.5)
德州市,陵城艺术中心,116.5687,37.3331,2026-02-04T2300,136,183,1.5,65,17,45,70,180,细颗粒物(PM2.5)
德州市,新河东路,116.352738,37.420875,2026-02-04T2300,123,183,1.5,74,16,38,86,162,细颗粒物(PM2.5)
迪庆藏族自治州,迪庆州站,99.7054,27.8319,2026-02-04T2300,15,22,0.9,12,6,68,82,22,
迪庆藏族自治州,质量技术监督局,99.7122,27.8129,2026-02-04T2300,8,15,0.4,8,4,75,86,24,
定西市,将台街,104.6092,35.5962,2026-02-04T2300,66,101,1.0,49,21,19,92,89,细颗粒物(PM2.5)
定西市,正龙路62号,104.6159,35.5701,2026-02-04T2300,46,107,1.2,21,18,39,90,79,颗粒物(PM10)
东莞市,东城石井,113.7943,23.0132,2026-02-04T2300,47,82,0.7,57,5,55,178,66,颗粒物(PM10)
东莞市,南城西平,113.7384,22.9659,2026-02-04T2300,40,62,0.6,37,6,83,166,57,细颗粒物(PM2.5)
东莞市,万江金泰,113.7283,23.041,2026-02-04T2300,52,95,0.9,46,5,81,162,73,颗粒物(PM10)
东莞市,裕兴路,113.8666,23.1062,2026-02-04T2300,78,162,1.1,87,7,24,164,106,颗粒物(PM10)
东莞市,教育路1号,114.0076,22.9739,2026-02-04T2300,38,73,0.8,60,4,56,176,62,颗粒物(PM10)
东莞市,长怡路1号,113.7981,22.8124,2026-02-04T2300,46,81,0.8,57,8,54,146,66,颗粒物(PM10)
东营市,市环保局,118.6612,37.4313,2026-02-04T2300,168,212,1.4,76,13,12,104,218,细颗粒物(PM2.5)
东营市,开发区管委会,118.6903,37.4337,2026-02-04T2300,162,201,1.2,68,11,30,100,212,细颗粒物(PM2.5)
东营市,垦利区民丰路,118.5721,37.5654,2026-02-04T2300,152,180,1.2,92,12,6,102,202,细颗粒物(PM2.5)
东营市,河口城区,118.5063,37.8606,2026-02-04T2300,150,202,1.5,65,10,42,104,200,细颗粒物(PM2.5)
东营市,胜利站,118.4979,37.4623,2026-02-04T2300,135,191,1.6,90,15,27,88,179,细颗粒物(PM2.5)
东营市,理想之城,118.5753,37.4405,2026-02-04T2300,135,195,1.4,92,8,4,100,179,细颗粒物(PM2.5)
鄂尔多斯市,综合楼,110.0024,39.8127,2026-02-04T2300,27,139,0.5,25,9,67,92,95,颗粒物(PM10)
鄂尔多斯市,巴音孟克林场办事处,109.9485,39.8259,2026-02-04T2300,29,127,0.4,23,8,63,95,89,颗粒物(PM10)
鄂尔多斯市,康泽苑,109.7734,39.5987,2026-02-04T2300,27,112,0.4,13,6,66,98,81,颗粒物(PM10)
鄂尔多斯市,华泰汽车城,109.8121,39.5987,2026-02-04T2300,28,107,0.4,28,5,43,105,79,颗粒物(PM10)
鄂尔多斯市,奥林花园,109.9734,39.7884,2026-02-04T2300,22,124,0.4,27,3,61,88,87,颗粒物(PM10)
鄂州市,市政府,114.894,30.3989,2026-02-04T2300,50,68,0.8,52,5,17,48,69,细颗粒物(PM2.5)
鄂州市,赵家坝,114.8986,30.3714,2026-02-04T2300,46,67,1.1,52,8,13,55,64,细颗粒物(PM2.5)
鄂州市,精准医疗中心,114.8093,30.4091,2026-02-04T2300,41,68,0.9,42,43,25,54,59,颗粒物(PM10)
恩施土家族苗族自治州,湖北民院,109.4978,30.2979,2026-02-04T2300,136,,1.4,38,6,5,42,180,细颗粒物(PM2.5)
恩施土家族苗族自治州,龙凤新区,109.5061,30.3771,2026-02-04T2300,89,111,1.0,32,7,7,29,118,细颗粒物(PM2.5)
防城港市,沙万,108.3411,21.6159,2026-02-04T2300,27,39,0.5,18,6,90,71,39,
防城港市,防城档案局,108.3515,21.7733,2026-02-04T2300,34,39,0.7,11,5,76,85,49,
防城港市,大海花园,108.3506,21.6414,2026-02-04T2300,28,38,0.8,18,7,101,86,40,
佛山市,湾梁,113.1293,23.0065,2026-02-04T2300,36,73,/,51,/,57,121,62,颗粒物(PM10)
佛山市,华材职中,113.1082,23.0477,2026-02-04T2300,60,85,0.9,51,6,61,126,82,细颗粒物(PM2.5)
佛山市,南海气象局,113.1439,23.045,2026-02-04T2300,49,104,/,76,/,37,118,77,颗粒物(PM10)
佛山市,顺德苏岗,113.2879,22.8094,2026-02-04T2300,23,50,0.6,29,/,84,133,50,
佛山市,高明孔堂,112.8384,22.8678,2026-02-04T2300,26,51,/,18,/,79,112,51,颗粒物(PM10)
佛山市,三水监测站,112.8835,23.1584,2026-02-04T2300,55,124,0.8,119,6,2,105,87,颗粒物(PM10)
佛山市,三水云东海,112.8668,23.185,2026-02-04T2300,41,79,/,84,/,16,118,65,颗粒物(PM10)
佛山市,容桂街道办,113.2568,22.7629,2026-02-04T2300,24,41,/,28,/,79,126,41,
福州市,师大,119.2681,26.0506,2026-02-04T2300,17,40,0.5,23,4,73,96,40,
福州市,五四北路,119.2983,26.1028,2026-02-04T2300,20,43,0.6,34,5,51,87,43,
福州市,杨桥西路,119.2648,26.0769,2026-02-04T2300,19,39,/,26,5,70,96,39,
福州市,九龙,119.5799,26.0937,2026-02-04T2300,17,30,0.7,22,4,40,92,30,
福州市,吴航,119.5188,25.9666,2026-02-04T2300,24,43,0.7,32,5,47,90,43,
福州市,路通桥巷6号,119.3106,26.0648,2026-02-04T2300,16,35,/,26,/,63,88,35,
抚顺市,望花区,123.7974,41.8494,2026-02-04T2300,131,147,1.3,63,20,10,40,173,细颗粒物(PM2.5)
抚顺市,顺城区,123.9161,41.8827,2026-02-04T2300,198,200,1.6,70,25,7,39,248,细颗粒物(PM2.5)
抚顺市,东洲区,124.0437,41.8615,2026-02-04T2300,164,249,1.6,80,33,3,46,214,细颗粒物(PM2.5)
抚顺市,新抚区,123.9246,41.8638,2026-02-04T2300,154,216,1.8,76,10,6,33,204,细颗粒物(PM2.5)
抚顺市,大伙房水库,124.0972,41.8961,2026-02-04T2300,155,192,2.0,90,16,1,63,205,细颗粒物(PM2.5)
抚顺市,沈抚新城,123.708,41.8386,2026-02-04T2300,105,133,1.1,84,11,15,46,138,细颗粒物(PM2.5)
抚州市,市站,116.3544,27.9833,2026-02-04T2300,62,79,1.2,23,7,55,81,84,细颗粒物(PM2.5)
抚州市,血防站,116.3562,27.9631,2026-02-04T2300,71,78,1.0,,8,50,78,,
抚州市,采茶剧团,116.3561,28.0007,2026-02-04T2300,61,82,1.3,13,7,48,74,83,细颗粒物(PM2.5)
抚州市,医学分院,116.3854,27.9648,2026-02-04T2300,58,87,1.2,21,9,51,76,79,细颗粒物(PM2.5)
阜新市,工业园区,121.6095,41.9978,2026-02-04T2300,67,102,0.9,40,26,31,70,90,细颗粒物(PM2.5)
阜新市,长青街,121.6567,42.0188,2026-02-04T2300,69,85,1.0,40,22,28,75,93,细颗粒物(PM2.5)
阜新市,农业园区,121.6672,42.07,2026-02-04T2300,49,85,0.4,20,8,57,67,68,"颗粒物(PM10),细颗粒物(PM2.5)"
阜新市,玉龙新城,121.6343,42.0455,2026-02-04T2300,63,101,0.9,40,13,33,71,85,细颗粒物(PM2.5)
阜阳市,市监测站,115.8276,32.8929,2026-02-04T2300,100,177,1.5,78,5,10,102,132,细颗粒物(PM2.5)
阜阳市,开发区,115.8551,32.8606,2026-02-04T2300,107,186,1.0,75,6,8,100,140,细颗粒物(PM2.5)
阜阳市,阜阳职业技术学院,115.783962,32.889217,2026-02-04T2300,72,129,0.9,65,6,36,113,97,细颗粒物(PM2.5)
阜阳市,市规划展馆,115.79,32.8614,2026-02-04T2300,90,148,1.1,56,6,39,114,119,细颗粒物(PM2.5)
阜阳市,枣园社区,115.835101,32.918568,2026-02-04T2300,85,150,1.2,96,7,2,102,113,细颗粒物(PM2.5)
甘南藏族自治州,州政府,102.9097,34.9841,2026-02-04T2300,53,74,0.9,20,9,71,80,73,细颗粒物(PM2.5)
甘南藏族自治州,甘肃民族师范学院,102.8915,34.9618,2026-02-04T2300,33,79,0.6,25,9,66,83,65,颗粒物(PM10)
甘孜藏族自治州,水桥子,101.96,30.048,2026-02-04T2300,16,,1.1,8,6,61,73,23,
甘孜藏族自治州,州环保局,101.9534,29.9976,2026-02-04T2300,12,19,0.8,18,6,60,86,19,
赣州市,地委,114.9368,25.8663,2026-02-04T2300,23,67,1.4,45,8,53,124,59,颗粒物(PM10)
赣州市,气象台,114.946,25.8483,2026-02-04T2300,23,53,0.4,46,6,46,126,52,颗粒物(PM10)
赣州市,市图书馆,114.932,25.8332,2026-02-04T2300,,54,1.0,52,3,,98,,
赣州市,华坚鞋城,114.8905,25.8472,2026-02-04T2300,23,45,0.6,40,8,55,112,45,
赣州市,赣县区卫计委,115.0094,25.8614,2026-02-04T2300,30,60,0.9,52,8,22,114,55,颗粒物(PM10)
固原市,监测站,106.2753,36.0057,2026-02-04T2300,60,87,1.4,41,16,36,88,82,细颗粒物(PM2.5)
固原市,新区,106.2384,36.0189,2026-02-04T2300,61,138,2.4,68,10,7,89,94,颗粒物(PM10)
广安市,市委,106.6307,30.4577,2026-02-04T2300,86,127,1.3,68,6,7,74,114,细颗粒物(PM2.5)
广安市,友谊中学,106.6266,30.4662,2026-02-04T2300,71,110,1.2,38,6,24,78,95,细颗粒物(PM2.5)
广安市,广电花园,106.6386,30.4551,2026-02-04T2300,87,113,1.4,54,6,5,73,115,细颗粒物(PM2.5)
广安市,北辰小学,106.6347,30.4868,2026-02-04T2300,87,105,0.9,20,8,37,77,115,细颗粒物(PM2.5)
广元市,老城,105.8211,32.4444,2026-02-04T2300,56,77,1.2,55,10,6,23,77,细颗粒物(PM2.5)
广元市,监测站,105.8629,32.429,2026-02-04T2300,54,81,1.4,40,8,8,20,74,细颗粒物(PM2.5)
广元市,经开区,105.8047,32.4167,2026-02-04T2300,66,87,1.3,48,4,3,18,89,细颗粒物(PM2.5)
广州市,广雅中学,113.2346,23.1423,2026-02-04T2300,48,88,1.2,59,2,68,118,69,颗粒物(PM10)
广州市,市五中,113.2611,23.105,2026-02-04T2300,44,86,/,70,6,60,145,68,颗粒物(PM10)
广州市,广东商学院,113.3477,23.0916,2026-02-04T2300,51,88,0.9,113,5,15,137,70,细颗粒物(PM2.5)
广州市,市八十六中,113.4332,23.105,2026-02-04T2300,44,86,/,141,8,,130,,
广州市,番禺中学,113.3506,22.9488,2026-02-04T2300,35,106,0.9,48,2,60,124,78,颗粒物(PM10)
广州市,花都师范,113.2147,23.3918,2026-02-04T2300,44,80,0.9,86,5,47,126,65,颗粒物(PM10)
广州市,市监测站,113.2599,23.1329,2026-02-04T2300,48,88,/,57,2,72,124,69,颗粒物(PM10)
广州市,九龙镇镇龙,113.5618,23.3119,2026-02-04T2300,47,96,0.8,77,5,2,112,73,颗粒物(PM10)
广州市,麓湖,113.2764,23.1544,2026-02-04T2300,48,75,0.9,92,3,36,123,67,细颗粒物(PM2.5)
广州市,体育西,113.3209,23.1323,2026-02-04T2300,46,85,1.0,59,6,78,129,68,颗粒物(PM10)
广州市,从化街口,113.5718,23.5493,2026-02-04T2300,46,65,0.9,52,6,29,125,64,细颗粒物(PM2.5)
广州市,白云竹料,113.3463,23.369,2026-02-04T2300,47,88,0.9,66,4,57,122,69,颗粒物(PM10)
广州市,白云嘉禾,113.2981,23.2365,2026-02-04T2300,52,103,/,92,5,20,123,77,颗粒物(PM10)
广州市,黄埔科学城,113.4256,23.1716,2026-02-04T2300,40,68,0.8,91,2,2,136,59,颗粒物(PM10)
广州市,番禺大学城,113.3942,23.0485,2026-02-04T2300,47,102,0.6,46,8,92,145,76,颗粒物(PM10)
广州市,南沙黄阁,113.4923,22.8169,2026-02-04T2300,36,52,/,33,4,61,105,52,细颗粒物(PM2.5)
广州市,南沙街,113.534,22.7893,2026-02-04T2300,32,54,0.6,37,4,68,119,52,颗粒物(PM10)
广州市,花都梯面,113.2905,23.5541,2026-02-04T2300,39,71,/,52,4,23,116,61,颗粒物(PM10)
广州市,从化良口,113.786,23.7479,2026-02-04T2300,20,26,/,33,7,36,108,29,
广州市,增城荔城,113.805,23.2614,2026-02-04T2300,35,77,0.8,50,5,19,130,64,颗粒物(PM10)
贵港市,江南子站,109.604387,23.066791,2026-02-04T2300,44,70,0.8,25,6,60,97,62,细颗粒物(PM2.5)
贵港市,荷城子站,109.5669,23.1065,2026-02-04T2300,52,92,1.2,44,8,42,72,72,细颗粒物(PM2.5)
贵港市,新世纪学校,109.5886,23.1172,2026-02-04T2300,77,95,0.8,46,/,48,83,103,细颗粒物(PM2.5)
贵港市,中山路155-3号,109.5933,23.095,2026-02-04T2300,53,69,0.9,34,/,51,92,73,细颗粒物(PM2.5)
贵阳市,马鞍山,106.6863,26.6035,2026-02-04T2300,35,44,/,19,5,12,24,50,
贵阳市,鉴湖路,106.6241,26.6266,2026-02-04T2300,32,44,0.7,19,3,12,35,46,
贵阳市,燕子冲,106.7468,26.6344,2026-02-04T2300,35,36,0.7,19,8,13,23,50,
贵阳市,碧云窝,106.6556,26.4362,2026-02-04T2300,53,63,/,32,38,6,42,73,细颗粒物(PM2.5)
贵阳市,红边门,106.6963,26.6063,2026-02-04T2300,47,,/,23,14,10,17,65,细颗粒物(PM2.5)
贵阳市,新华路,106.7162383,26.56964667,2026-02-04T2300,42,53,0.9,38,10,9,23,59,细颗粒物(PM2.5)
贵阳市,太慈桥,106.6742,26.542,2026-02-04T2300,39,53,/,29,4,12,29,55,细颗粒物(PM2.5)
贵阳市,花果园大街66号,106.688212,26.56952,2026-02-04T2300,40,41,/,28,3,8,14,57,细颗粒物(PM2.5)
贵阳市,漓江路57号,106.687268,26.516892,2026-02-04T2300,44,61,1.2,39,10,0,25,62,细颗粒物(PM2.5)
桂林市,龙隐路小学,110.3091,25.2705,2026-02-04T2300,107,107,1.0,38,15,14,32,140,细颗粒物(PM2.5)
桂林市,八中,110.2849361,25.22909545,2026-02-04T2300,73,114,1.1,36,5,,30,,
桂林市,旅游学院,110.296,25.1254,2026-02-04T2300,105,122,0.7,44,5,4,36,138,细颗粒物(PM2.5)
桂林市,环湖路276号,110.1835,25.2444,2026-02-04T2300,81,100,1.3,36,11,11,29,108,细颗粒物(PM2.5)
桂林市,信义路13号,110.2803,25.2773,2026-02-04T2300,96,107,1.4,40,43,17,39,127,细颗粒物(PM2.5)
果洛藏族自治州,玛沁县大武镇,100.2262,34.4854,2026-02-04T2300,21,43,0.3,16,17,31,66,43,
哈尔滨市,松北商大,126.5557,45.8109,2026-02-04T2300,81,98,1.0,27,9,73,78,108,细颗粒物(PM2.5)
哈尔滨市,南岗学府路,126.6162,45.719,2026-02-04T2300,38,66,0.8,29,10,61,75,58,颗粒物(PM10)
哈尔滨市,太平宏伟公园,126.6894,45.7733,2026-02-04T2300,98,109,0.9,40,10,64,88,129,细颗粒物(PM2.5)
哈尔滨市,道外承德广场,126.6361,45.7672,2026-02-04T2300,83,120,0.4,36,20,65,76,110,细颗粒物(PM2.5)
哈尔滨市,动力和平路,126.644,45.7261,2026-02-04T2300,52,65,1.0,23,8,66,74,72,细颗粒物(PM2.5)
杭州市,滨江,120.2073,30.2111,2026-02-04T2300,73,124,0.9,92,9,14,64,98,细颗粒物(PM2.5)
杭州市,西溪,120.0625,30.2737,2026-02-04T2300,50,83,1.0,56,8,2,59,69,细颗粒物(PM2.5)
杭州市,下沙,120.3417,30.315,2026-02-04T2300,72,105,0.7,98,10,19,67,97,细颗粒物(PM2.5)
杭州市,卧龙桥,120.1252,30.2465,2026-02-04T2300,48,65,0.5,58,9,3,61,67,细颗粒物(PM2.5)
杭州市,浙江农大,120.1902,30.2691,2026-02-04T2300,67,116,0.8,104,8,11,70,90,细颗粒物(PM2.5)
杭州市,和睦小学,120.1195,30.3121,2026-02-04T2300,74,120,1.1,106,6,2,61,99,细颗粒物(PM2.5)
杭州市,临平镇,120.3076,30.4146,2026-02-04T2300,80,125,0.8,61,8,42,54,107,细颗粒物(PM2.5)
杭州市,城厢镇,120.2753,30.1839,2026-02-04T2300,73,114,0.8,95,11,,69,,
杭州市,云栖,120.0883,30.1808,2026-02-04T2300,42,72,0.6,58,5,8,64,61,颗粒物(PM10)
杭州市,镇二中,119.9463,30.0496,2026-02-04T2300,74,89,1.5,81,6,3,58,99,细颗粒物(PM2.5)
杭州市,市府大楼,119.7184,30.2367,2026-02-04T2300,71,89,1.2,63,12,8,77,95,细颗粒物(PM2.5)
杭州市,消防大队,120.1554,30.2863,2026-02-04T2300,81,118,0.9,101,8,7,56,108,细颗粒物(PM2.5)
合肥市,明珠广场,117.1957,31.7845,2026-02-04T2300,51,95,1.0,117,7,1,76,73,颗粒物(PM10)
合肥市,三里街,117.307,31.8765,2026-02-04T2300,53,110,1.6,99,8,2,67,80,颗粒物(PM10)
合肥市,琥珀山庄,117.2587,31.8703,2026-02-04T2300,49,102,1.7,101,8,6,78,76,颗粒物(PM10)
合肥市,庐阳区,117.2593,31.9376,2026-02-04T2300,35,102,1.0,104,5,3,76,76,颗粒物(PM10)
合肥市,瑶海区,117.345251,31.861615,2026-02-04T2300,39,75,0.7,86,6,44,80,63,颗粒物(PM10)
合肥市,包河区,117.3033,31.7967,2026-02-04T2300,46,92,1.2,149,14,2,88,75,二氧化氮(NO2)
合肥市,滨湖新区,117.278,31.7392,2026-02-04T2300,41,75,0.9,64,4,39,87,63,颗粒物(PM10)
合肥市,高新区,117.1324,31.8395,2026-02-04T2300,44,100,1.0,96,6,3,83,75,颗粒物(PM10)
合肥市,高教基地,117.3802,31.9148,2026-02-04T2300,27,63,0.7,62,8,5,84,57,颗粒物(PM10)
合肥市,中国科学技术大学,117.2518,31.8404,2026-02-04T2300,35,92,1.1,101,9,3,88,71,颗粒物(PM10)
和田地区,地区环保局,79.9241,37.0878,2026-02-04T2300,74,188,1.6,43,17,48,86,119,颗粒物(PM10)
和田地区,市环保局,79.9132,37.1137,2026-02-04T2300,72,226,3.1,98,23,9,98,138,颗粒物(PM10)
河池市,市环保站,108.0496,24.6957,2026-02-04T2300,121,121,1.4,34,4,14,102,159,细颗粒物(PM2.5)
河池市,上任中路54号,108.0901,24.6945,2026-02-04T2300,125,133,1.7,36,6,11,49,165,细颗粒物(PM2.5)
河源市,东埔,114.6962,23.7538,2026-02-04T2300,46,70,1.2,77,6,1,122,64,细颗粒物(PM2.5)
河源市,老城,114.6895,23.7232,2026-02-04T2300,23,25,0.7,38,5,28,118,33,
菏泽市,定陶老年大学,115.5562,35.089,2026-02-04T2300,129,173,0.8,36,6,,92,170,细颗粒物(PM2.5)
菏泽市,黄河路600号,115.4239,35.2593,2026-02-04T2300,138,204,1.0,74,6,37,90,183,细颗粒物(PM2.5)
菏泽市,菏泽市人社局,115.5025,35.2727,2026-02-04T2300,128,190,1.0,53,11,52,82,169,细颗粒物(PM2.5)
菏泽市,永昌路1号,115.479691,35.244011,2026-02-04T2300,135,199,1.0,48,5,47,92,179,细颗粒物(PM2.5)
菏泽市,长城路999号,115.471542,35.280012,2026-02-04T2300,122,182,1.2,53,10,55,87,160,细颗粒物(PM2.5)
贺州市,环保小区,111.5264,24.4178,2026-02-04T2300,82,140,1.2,57,5,24,81,109,细颗粒物(PM2.5)
贺州市,政协大楼,111.561,24.4074,2026-02-04T2300,37,61,0.8,26,12,72,98,56,颗粒物(PM10)
贺州市,西湾,111.4744,24.455,2026-02-04T2300,60,117,1.0,48,4,29,94,84,颗粒物(PM10)
鹤壁市,市监测站,114.17,35.9019,2026-02-04T2300,74,131,1.1,32,7,47,96,99,细颗粒物(PM2.5)
鹤壁市,市交警支队,114.2953,35.7512,2026-02-04T2300,99,143,1.0,85,9,18,87,130,细颗粒物(PM2.5)
鹤壁市,迎宾馆,114.2877,35.7302,2026-02-04T2300,89,143,1.1,92,10,13,96,118,细颗粒物(PM2.5)
鹤壁市,大新区,114.2616,35.6824,2026-02-04T2300,112,140,1.3,100,12,3,86,147,细颗粒物(PM2.5)
鹤壁市,南山宾馆,114.1573,35.9607,2026-02-04T2300,89,120,0.7,17,15,84,102,118,细颗粒物(PM2.5)
鹤岗市,哈啤分公司,130.2537,47.3416,2026-02-04T2300,19,31,0.5,10,6,76,88,31,
鹤岗市,斯达机电,130.2683,47.3087,2026-02-04T2300,46,62,0.8,32,12,46,80,64,细颗粒物(PM2.5)
鹤岗市,东山纸板厂,130.3114,47.3388,2026-02-04T2300,66,,1.4,54,18,21,78,,
黑河市,交通局,127.4832,50.2524,2026-02-04T2300,33,,0.5,20,7,49,70,48,
黑河市,环保局,127.5146,50.2339,2026-02-04T2300,39,54,0.9,28,7,43,69,55,细颗粒物(PM2.5)
衡水市,电机北厂,115.6839,37.754,2026-02-04T2300,116,160,0.5,47,11,60,77,152,细颗粒物(PM2.5)
衡水市,市监测站,115.6303,37.7318,2026-02-04T2300,98,136,,52,15,53,74,129,细颗粒物(PM2.5)
衡水市,市城管局,115.6684,37.7216,2026-02-04T2300,102,175,1.0,67,16,42,74,134,细颗粒物(PM2.5)
衡水市,地表水厂,115.599,37.5491,2026-02-04T2300,123,180,1.1,94,19,10,79,162,细颗粒物(PM2.5)
衡阳市,衡阳化工总厂,112.6209,26.9268,2026-02-04T2300,72,86,1.0,18,12,45,44,97,细颗粒物(PM2.5)
衡阳市,珠晖区环保局,112.621,26.8957,2026-02-04T2300,63,94,1.1,27,10,43,46,85,细颗粒物(PM2.5)
衡阳市,市委党校,112.628,26.8654,2026-02-04T2300,69,79,1.4,18,16,46,46,93,细颗粒物(PM2.5)
