area,positionname,longitude,latitude,timepoint,pm2_5,pm10,co,no2,so2,o3,o3_8h,aqi,primarypollutant
阿坝藏族羌族自治州,马师校,102.2503,31.8896,2026-01-23T1900,22,35,0.6,20,4,49,63,35,
阿坝藏族羌族自治州,马尔康中学西区,102.2174,31.9016,2026-01-23T1900,18,32,0.5,24,6,46,63,32,
阿克苏地区,电视台,80.2899,41.1684,2026-01-23T1900,104,543,,11,9,,15,443,颗粒物(PM10)
阿克苏地区,艺术中心,80.2592,41.1541,2026-01-23T1900,104,487,0.6,19,4,51,33,384,颗粒物(PM10)
阿拉善盟,蒙二幼,105.699,38.8409,2026-01-23T1900,25,50,0.7,26,11,60,80,50,
阿拉善盟,环保局新楼,105.7198,38.8508,2026-01-23T1900,17,37,0.5,12,9,66,82,37,
阿勒泰地区,市站,88.1266,47.8515,2026-01-23T1900,16,24,0.5,64,9,27,78,32,
阿勒泰地区,阿勒泰路33号,88.1198,47.7931,2026-01-23T1900,8,22,0.4,21,8,64,68,22,
阿里地区,阿里监测站,80.1171,32.4999,2026-01-23T1900,3,,0.5,3,6,94,95,30,
阿里地区,阿里藏医院,80.0906,32.5029,2026-01-23T1900,17,99,0.6,1,12,101,100,75,颗粒物(PM10)
安康市,汉滨区检察院,109.0088,32.6974,2026-01-23T1900,25,38,0.6,14,5,58,57,38,
安康市,市邮政管理局,109.0324,32.6913,2026-01-23T1900,28,40,0.7,17,4,54,60,40,
安庆市,环科院,117.0806,30.5181,2026-01-23T1900,52,70,0.6,40,10,58,78,72,细颗粒物(PM2.5)
安庆市,马山宾馆,117.0331,30.5118,2026-01-23T1900,51,63,0.6,29,11,77,89,70,细颗粒物(PM2.5)
安庆市,安庆大学,116.9897,30.6146,2026-01-23T1900,45,56,0.5,29,5,80,86,63,细颗粒物(PM2.5)
安庆市,市人大,117.0598,30.5351,2026-01-23T1900,49,70,0.9,30,27,,86,,
安顺市,凤凰山,105.9408,26.2431,2026-01-23T1900,65,70,0.6,29,25,36,46,88,细颗粒物(PM2.5)
安顺市,金钟山,105.9443,26.2567,2026-01-23T1900,63,,0.8,18,30,35,44,85,细颗粒物(PM2.5)
安顺市,娄家坡,105.8983,26.248,2026-01-23T1900,64,68,0.6,20,23,34,47,87,细颗粒物(PM2.5)
安阳市,红庙街,114.3552,36.1017,2026-01-23T1900,128,128,1.3,48,6,57,72,169,细颗粒物(PM2.5)
安阳市,银杏小区,114.361,36.0681,2026-01-23T1900,144,,1.2,38,7,63,75,192,细颗粒物(PM2.5)
安阳市,信访局,114.3921,36.0879,2026-01-23T1900,138,141,1.2,49,8,49,78,183,细颗粒物(PM2.5)
安阳市,左辅环卫站,114.4706,36.0634,2026-01-23T1900,142,163,1.1,48,7,59,80,189,细颗粒物(PM2.5)
安阳市,钢三路198号,114.2918,36.0769,2026-01-23T1900,145,180,1.3,43,8,54,64,193,细颗粒物(PM2.5)
鞍山市,深沟寺,123.0441,41.1201,2026-01-23T1900,29,42,1.0,29,10,53,66,42,
鞍山市,太阳城,123.011,41.0931,2026-01-23T1900,39,46,0.8,30,11,47,61,55,细颗粒物(PM2.5)
鞍山市,太平,123.0483,41.1445,2026-01-23T1900,34,64,1.1,46,14,36,61,57,颗粒物(PM10)
鞍山市,铁西三道街,122.964,41.0968,2026-01-23T1900,50,96,1.0,81,10,13,59,73,颗粒物(PM10)
鞍山市,明达新区,123.0219,41.0822,2026-01-23T1900,56,76,1.0,31,14,37,62,77,细颗粒物(PM2.5)
鞍山市,兴盛南路290号,122.944647,41.082639,2026-01-23T1900,90,157,1.6,83,18,17,66,119,细颗粒物(PM2.5)
巴彦淖尔市,附二中,107.4206,40.7609,2026-01-23T1900,44,85,0.6,26,12,42,44,68,颗粒物(PM10)
巴彦淖尔市,市环保大楼,107.37,40.7372,2026-01-23T1900,40,88,0.6,31,8,41,45,69,颗粒物(PM10)
巴音郭楞蒙古自治州,孔雀公园,86.1476,41.7529,2026-01-23T1900,50,307,0.4,10,8,60,57,179,颗粒物(PM10)
巴音郭楞蒙古自治州,棉纺厂,86.1971,41.7166,2026-01-23T1900,59,376,/,10,/,58,52,238,颗粒物(PM10)
巴音郭楞蒙古自治州,经济开发区,86.236,41.7172,2026-01-23T1900,38,313,0.6,13,6,55,52,182,颗粒物(PM10)
巴中市,市五中,106.776805,31.852614,2026-01-23T1900,41,53,1.0,26,5,36,36,58,细颗粒物(PM2.5)
巴中市,圣泉水务公司,106.7419,31.8654,2026-01-23T1900,44,54,0.6,26,5,37,35,62,细颗粒物(PM2.5)
巴中市,市中心医院,106.7617,31.8343,2026-01-23T1900,45,55,0.8,30,7,32,44,63,细颗粒物(PM2.5)
白城市,洮北区环保局,122.7909,45.608,2026-01-23T1900,26,62,0.1,10,1,60,70,56,颗粒物(PM10)
白城市,市环保局,122.8741,45.5725,2026-01-23T1900,20,63,0.3,10,6,58,68,57,颗粒物(PM10)
白山市,喜丰,126.4219,41.9172,2026-01-23T1900,19,44,0.8,18,8,67,68,44,
白山市,环保局,126.4082,41.9416,2026-01-23T1900,13,24,0.6,10,8,73,66,24,
白银市,第三小学,104.1727,36.5448,2026-01-23T1900,63,67,1.0,66,13,53,74,85,细颗粒物(PM2.5)
白银市,动力公司,104.1467,36.5482,2026-01-23T1900,51,72,0.8,30,8,81,84,70,细颗粒物(PM2.5)
百色市,市监测站,106.6102,23.901,2026-01-23T1900,30,39,0.7,14,10,53,56,43,
百色市,市中心血站,106.6524,23.8842,2026-01-23T1900,40,49,0.8,14,12,50,57,57,细颗粒物(PM2.5)
百色市,龙景西路,106.6273,23.8798,2026-01-23T1900,44,75,0.6,17,13,50,56,63,颗粒物(PM10)
蚌埠市,工人疗养院,117.396,32.9389,2026-01-23T1900,77,105,0.7,34,5,,91,103,细颗粒物(PM2.5)
蚌埠市,百货大楼,117.3606,32.9428,2026-01-23T1900,76,106,0.7,35,5,79,93,102,细颗粒物(PM2.5)
蚌埠市,蚌埠学院,117.4183,32.8909,2026-01-23T1900,66,80,0.7,30,4,89,97,89,细颗粒物(PM2.5)
蚌埠市,淮上区政府,117.3534,32.9672,2026-01-23T1900,75,97,0.7,39,2,80,94,100,细颗粒物(PM2.5)
蚌埠市,高新区,117.3143,32.8977,2026-01-23T1900,79,112,0.7,54,7,57,85,105,细颗粒物(PM2.5)
蚌埠市,蚌埠田家炳中学,117.3091,32.9314,2026-01-23T1900,85,119,0.8,68,8,46,85,113,细颗粒物(PM2.5)
包头市,市环境监测站,109.8761,40.6533,2026-01-23T1900,37,90,1.2,67,16,19,47,70,颗粒物(PM10)
包头市,包头八中,109.9992,40.5843,2026-01-23T1900,45,77,0.9,63,8,23,54,64,颗粒物(PM10)
包头市,惠龙物流,109.8641,40.6288,2026-01-23T1900,34,85,1.1,60,14,27,51,68,颗粒物(PM10)
包头市,东河鸿龙湾,110.0376,40.5546,2026-01-23T1900,16,53,0.5,58,10,39,61,52,颗粒物(PM10)
包头市,滨河大厦,109.9154,40.5684,2026-01-23T1900,30,56,0.7,56,8,30,52,53,颗粒物(PM10)
包头市,包头市委党校,109.9449,40.6259,2026-01-23T1900,17,68,1.0,81,15,13,50,59,颗粒物(PM10)
包头市,昆区政府,109.8332,40.6577,2026-01-23T1900,46,88,1.6,79,24,22,44,69,颗粒物(PM10)
宝鸡市,竹园沟,107.0802,34.3129,2026-01-23T1900,82,86,0.6,31,6,36,54,109,细颗粒物(PM2.5)
宝鸡市,监测站,107.1429,34.3549,2026-01-23T1900,80,82,0.7,37,6,60,58,107,细颗粒物(PM2.5)
宝鸡市,技工学校,107.1172,34.3759,2026-01-23T1900,63,82,0.7,52,4,47,58,85,细颗粒物(PM2.5)
宝鸡市,文理学院,107.2025,34.3518,2026-01-23T1900,75,78,0.6,25,6,70,69,100,细颗粒物(PM2.5)
宝鸡市,三迪小学,107.2396,34.3626,2026-01-23T1900,77,81,0.8,46,5,55,60,103,细颗粒物(PM2.5)
宝鸡市,滨河北路,107.1721,34.3558,2026-01-23T1900,57,82,0.6,33,6,58,58,78,细颗粒物(PM2.5)
宝鸡市,陈仓区北开路21号,107.3898,34.3601,2026-01-23T1900,103,107,0.5,44,9,62,64,135,细颗粒物(PM2.5)
保定市,游泳馆,115.4803,38.8568,2026-01-23T1900,137,142,1.1,79,9,25,48,182,细颗粒物(PM2.5)
保定市,华电二区,115.509,38.8895,2026-01-23T1900,117,131,1.3,,8,23,38,153,细颗粒物(PM2.5)
保定市,接待中心,115.4588,38.9037,2026-01-23T1900,120,164,1.4,86,6,7,39,158,细颗粒物(PM2.5)
保定市,地表水厂,115.4484,38.8344,2026-01-23T1900,113,182,1.1,71,8,28,46,148,细颗粒物(PM2.5)
保定市,满城区生态环境分局,115.3136,38.9511,2026-01-23T1900,117,185,1.5,100,7,5,38,153,细颗粒物(PM2.5)
保定市,清苑区第二中学,115.4709,38.7628,2026-01-23T1900,120,201,1.1,79,10,14,48,158,细颗粒物(PM2.5)
保定市,徐水物探局,115.6231,39.0223,2026-01-23T1900,125,191,1.3,86,10,7,44,165,细颗粒物(PM2.5)
保定市,双鹰农机,115.4199,38.8665,2026-01-23T1900,111,172,1.3,68,13,32,53,145,细颗粒物(PM2.5)
保定市,植保所站,115.515,38.8589,2026-01-23T1900,112,158,1.1,69,5,22,54,147,细颗粒物(PM2.5)
保山市,市环境监测站,99.1589,25.1137,2026-01-23T1900,25,34,0.3,8,5,81,88,36,
保山市,市环保局,99.1616,25.1381,2026-01-23T1900,25,38,0.5,4,4,81,90,38,
北海市,海滩公园,109.1435,21.4085,2026-01-23T1900,46,68,0.9,22,6,31,33,64,细颗粒物(PM2.5)
北海市,新市环保局,109.0983,21.466,2026-01-23T1900,46,53,1.3,20,3,31,32,64,细颗粒物(PM2.5)
北海市,北海工业园,109.1775,21.5232,2026-01-23T1900,59,66,0.8,20,6,25,29,80,细颗粒物(PM2.5)
北海市,龙潭自来水厂,109.1844,21.4396,2026-01-23T1900,55,59,1.0,17,6,30,33,75,细颗粒物(PM2.5)
北京市,万寿西宫,116.3611,39.8786,2026-01-23T1900,60,83,0.7,49,5,36,54,82,细颗粒物(PM2.5)
北京市,东四,116.4174,39.9289,2026-01-23T1900,41,70,0.6,35,7,41,51,60,颗粒物(PM10)
北京市,天坛,116.4073,39.8858,2026-01-23T1900,48,77,1.0,42,3,35,53,67,细颗粒物(PM2.5)
北京市,农展馆,116.4622,39.9364,2026-01-23T1900,47,75,0.7,32,5,42,62,65,细颗粒物(PM2.5)
北京市,官园,116.3399,39.9293,2026-01-23T1900,52,74,0.6,41,8,37,52,72,细颗粒物(PM2.5)
北京市,海淀万柳,116.2879,39.9613,2026-01-23T1900,48,74,0.7,48,5,29,50,67,细颗粒物(PM2.5)
北京市,顺义新城,116.6635,40.1349,2026-01-23T1900,9,18,0.3,10,3,64,67,20,
北京市,怀柔镇,116.6275,40.327,2026-01-23T1900,16,26,0.5,16,4,53,60,26,
北京市,昌平镇,116.2295,40.217,2026-01-23T1900,11,30,0.4,16,1,54,62,30,
北京市,奥体中心,116.3968,39.982,2026-01-23T1900,33,69,0.7,51,6,37,60,60,颗粒物(PM10)
北京市,密云新城,116.8336,40.4095,2026-01-23T1900,14,28,0.4,9,1,60,65,28,
北京市,门头沟三家店,116.0879,39.9725,2026-01-23T1900,44,76,0.7,52,4,15,60,63,颗粒物(PM10)
北京市,丰台云岗,116.1507,39.8246,2026-01-23T1900,69,90,0.7,50,4,27,47,93,细颗粒物(PM2.5)
北京市,房山燕山,115.9578,39.7602,2026-01-23T1900,40,58,0.4,32,5,36,44,57,细颗粒物(PM2.5)
北京市,大兴旧宫,116.4669,39.7734,2026-01-23T1900,57,108,0.7,62,5,16,55,79,颗粒物(PM10)
北京市,延庆石河营,115.9859,40.4562,2026-01-23T1900,9,18,0.4,13,3,61,64,20,
北京市,怀柔新城,116.6151,40.3052,2026-01-23T1900,9,16,0.2,7,4,60,60,19,
北京市,丰台小屯,116.2542,39.8764,2026-01-23T1900,49,83,0.8,52,5,23,43,68,细颗粒物(PM2.5)
北京市,密云镇,116.8399,40.3843,2026-01-23T1900,10,29,0.3,26,1,40,65,29,
北京市,延庆百泉,115.9423,40.4431,2026-01-23T1900,8,14,0.4,5,2,59,57,19,
北京市,通州新华,116.6598,39.9164,2026-01-23T1900,14,57,0.4,46,2,23,49,54,颗粒物(PM10)
北京市,石景山八角,116.1942,39.9158,2026-01-23T1900,48,90,0.6,49,4,26,50,70,颗粒物(PM10)
北京市,平谷新城,117.078628,40.151726,2026-01-23T1900,25,35,0.4,17,3,56,66,36,
本溪市,大峪,123.8274146,41.31234549,2026-01-23T1900,40,64,1.3,36,8,40,56,57,"颗粒物(PM10),细颗粒物(PM2.5)"
本溪市,彩屯,123.7169,41.3094,2026-01-23T1900,77,104,1.1,55,12,21,53,103,细颗粒物(PM2.5)
本溪市,东明,123.7672166,41.28649327,2026-01-23T1900,83,,1.8,65,10,27,59,110,细颗粒物(PM2.5)
本溪市,新立屯,123.799345,41.266614,2026-01-23T1900,40,69,1.4,60,10,19,48,60,颗粒物(PM10)
本溪市,威宁,123.829144,41.336777,2026-01-23T1900,58,60,1.1,66,6,7,50,79,细颗粒物(PM2.5)
毕节市,八中,105.287,27.3133,2026-01-23T1900,54,59,0.9,16,8,38,28,74,细颗粒物(PM2.5)
毕节市,师专,105.3079,27.2987,2026-01-23T1900,54,67,1.0,22,9,34,32,74,细颗粒物(PM2.5)
毕节市,工业大道,105.3688,27.3598,2026-01-23T1900,50,62,/,14,11,39,34,69,细颗粒物(PM2.5)
滨州市,第二水厂,117.9961,37.3604,2026-01-23T1900,67,105,0.9,41,15,44,76,90,细颗粒物(PM2.5)
滨州市,北中新校,117.9789,37.3931,2026-01-23T1900,63,92,0.9,40,12,43,80,85,细颗粒物(PM2.5)
滨州市,中海酒店,117.9379,37.3959,2026-01-23T1900,80,105,1.0,34,13,51,88,107,细颗粒物(PM2.5)
滨州市,开发区一中,117.9381509,37.35547456,2026-01-23T1900,70,114,0.9,36,15,50,79,94,细颗粒物(PM2.5)
滨州市,金海六路,118.0914,37.6938,2026-01-23T1900,31,58,0.6,52,1,37,80,54,颗粒物(PM10)
滨州市,滨州市西街道办事处,117.9955,37.3752,2026-01-23T1900,70,114,1.1,42,12,38,82,94,细颗粒物(PM2.5)
亳州市,污水处理厂,115.8071,33.8399,2026-01-23T1900,73,110,0.4,42,4,63,98,98,细颗粒物(PM2.5)
亳州市,三国揽胜宫,115.7789,33.8519,2026-01-23T1900,84,110,0.6,26,4,90,100,112,细颗粒物(PM2.5)
亳州市,亳州学院,115.7631,33.803,2026-01-23T1900,72,98,0.6,26,3,90,102,97,细颗粒物(PM2.5)
博尔塔拉蒙古自治州,市党校,82.0482,44.8553,2026-01-23T1900,51,103,1.4,56,8,17,45,77,颗粒物(PM10)
博尔塔拉蒙古自治州,市环保局,82.0805,44.8966,2026-01-23T1900,50,124,0.6,40,10,41,56,87,颗粒物(PM10)
沧州市,沧县城建局,116.8733,38.2922,2026-01-23T1900,88,148,1.7,98,10,10,59,117,细颗粒物(PM2.5)
沧州市,电视转播站,116.8462,38.3189,2026-01-23T1900,108,133,1.5,64,7,25,57,142,细颗粒物(PM2.5)
沧州市,市环保局,116.8588,38.3161,2026-01-23T1900,86,118,1.0,63,8,19,52,114,细颗粒物(PM2.5)
沧州市,河北水利电力学院,116.8011,38.294,2026-01-23T1900,89,119,0.9,71,5,21,54,118,细颗粒物(PM2.5)
昌都市,昌都监测站,97.1813,31.1289,2026-01-23T1900,27,,1.3,63,7,28,64,39,
昌都市,昌都会议中心,97.1707,31.1428,2026-01-23T1900,11,16,0.4,5,3,70,66,22,
昌吉回族自治州,新区政务中心,87.2722,44.0298,2026-01-23T1900,97,147,1.1,28,8,70,55,128,细颗粒物(PM2.5)
昌吉回族自治州,亚心广场,87.3069,44.0093,2026-01-23T1900,88,156,1.1,23,8,74,59,117,细颗粒物(PM2.5)
昌吉回族自治州,财政所,87.2057,43.9289,2026-01-23T1900,99,163,0.8,19,5,74,67,130,细颗粒物(PM2.5)
长春市,客车厂,125.2874,43.9024,2026-01-23T1900,32,34,0.5,35,10,43,56,46,
长春市,邮电学院,125.2943,43.8508,2026-01-23T1900,27,40,0.4,39,10,38,57,40,
长春市,劳动公园,125.3648,43.8745,2026-01-23T1900,26,37,0.2,,8,39,62,,
长春市,园林处,125.3233,43.8781,2026-01-23T1900,35,37,0.6,38,13,35,57,50,
长春市,净月潭,125.4604,43.7904,2026-01-23T1900,24,31,0.4,16,6,53,62,35,
长春市,经开区环卫处,125.38,43.8422,2026-01-23T1900,,36,0.5,35,7,46,62,,
长春市,高新区管委会,125.234,43.7761,2026-01-23T1900,39,54,0.5,60,8,27,71,55,细颗粒物(PM2.5)
长春市,岱山公园,125.1695,43.83,2026-01-23T1900,35,39,0.4,31,6,45,67,50,
长春市,北亚泰大街1068号,125.334645,43.916281,2026-01-23T1900,24,27,0.5,42,9,33,54,35,
长沙市,经开区环保局,113.082,28.2421,2026-01-23T1900,46,60,0.6,29,3,55,65,64,细颗粒物(PM2.5)
长沙市,高开区环保局,112.8873,28.2202,2026-01-23T1900,54,,0.8,25,8,62,64,74,细颗粒物(PM2.5)
长沙市,马坡岭,113.0785,28.2012,2026-01-23T1900,50,64,0.8,23,4,71,76,69,细颗粒物(PM2.5)
长沙市,湖南师范大学,112.9448,28.1894,2026-01-23T1900,,61,0.7,33,5,,75,,
长沙市,雨花区环保局,113.0177,28.1322,2026-01-23T1900,39,56,0.8,23,8,64,65,55,细颗粒物(PM2.5)
长沙市,伍家岭,112.9795,28.2593,2026-01-23T1900,44,71,0.8,30,5,56,65,62,细颗粒物(PM2.5)
长沙市,火车新站,113.002,28.1944,2026-01-23T1900,48,66,0.9,34,1,54,66,67,细颗粒物(PM2.5)
长沙市,天心区环保局,112.9846,28.1177,2026-01-23T1900,42,48,0.6,30,6,63,72,59,细颗粒物(PM2.5)
长沙市,湖南中医药大学,112.8906,28.1307,2026-01-23T1900,45,55,0.8,38,7,54,70,63,细颗粒物(PM2.5)
长治市,清华站,113.1146,36.1547,2026-01-23T1900,36,54,0.7,52,13,42,75,52,"颗粒物(PM10),细颗粒物(PM2.5)"
长治市,审计局,113.0887,36.2126,2026-01-23T1900,55,64,0.9,41,16,,77,,
长治市,长治八中,113.0845,36.1856,2026-01-23T1900,41,89,0.9,46,14,42,70,70,颗粒物(PM10)
长治市,德盛苑,113.1561,36.1912,2026-01-23T1900,35,37,0.6,17,10,86,85,50,
长治市,向阳小学,113.0603,36.0464,2026-01-23T1900,42,85,0.9,55,20,58,79,68,颗粒物(PM10)
长治市,屯留一中,112.8788,36.315,2026-01-23T1900,52,75,1.5,44,12,53,72,72,细颗粒物(PM2.5)
长治市,英华南巷50号,113.113092,36.199482,2026-01-23T1900,51,85,1.1,57,12,39,83,70,细颗粒物(PM2.5)
长治市,学府街1号,113.23666,36.33435,2026-01-23T1900,49,72,1.4,54,19,43,75,68,细颗粒物(PM2.5)
常德市,市二中,111.696,28.9725,2026-01-23T1900,57,68,0.8,41,6,62,78,78,细颗粒物(PM2.5)
常德市,武陵区永安,111.7152,29.0288,2026-01-23T1900,60,70,0.9,23,6,82,82,82,细颗粒物(PM2.5)
常德市,鼎城区玉霞,111.6891,28.9881,2026-01-23T1900,57,,0.7,20,7,89,86,78,细颗粒物(PM2.5)
常德市,武陵区长庚,111.6651,29.0526,2026-01-23T1900,55,58,0.6,19,5,86,83,75,细颗粒物(PM2.5)
常州市,市监测站,119.9524,31.7586,2026-01-23T1900,54,95,1.0,45,6,58,78,74,细颗粒物(PM2.5)
常州市,武进监测站,119.9351,31.703,2026-01-23T1900,53,81,0.8,42,10,58,76,73,细颗粒物(PM2.5)
常州市,行政中心,119.9701,31.813,2026-01-23T1900,55,75,1.0,45,7,59,72,75,细颗粒物(PM2.5)
常州市,经开区,120.0434,31.7726,2026-01-23T1900,51,92,0.8,39,6,64,78,71,颗粒物(PM10)
常州市,钟楼,119.8919,31.7892,2026-01-23T1900,58,92,0.9,58,8,41,68,79,细颗粒物(PM2.5)
常州市,武进经发区,119.8595,31.706,2026-01-23T1900,61,73,0.8,38,7,64,76,83,细颗粒物(PM2.5)
常州市,金坛城区,119.5812,31.7256,2026-01-23T1900,65,85,1.0,40,9,56,80,88,细颗粒物(PM2.5)
常州市,崇义南街5-H号,119.9551,31.863,2026-01-23T1900,50,80,0.9,57,7,41,71,69,细颗粒物(PM2.5)
朝阳市,西梁,120.4318,41.588,2026-01-23T1900,34,63,0.7,44,9,37,64,57,颗粒物(PM10)
朝阳市,河畔小区,120.452,41.565,2026-01-23T1900,21,35,0.7,32,7,47,64,35,
朝阳市,八里堡,120.4176,41.5648,2026-01-23T1900,28,46,0.6,32,9,45,63,46,
潮州市,市政府,116.6179,23.6608,2026-01-23T1900,23,29,0.6,15,3,35,48,33,
潮州市,金山,116.646,23.676,2026-01-23T1900,36,,0.7,16,3,34,44,52,细颗粒物(PM2.5)
郴州市,市职中,113.0116,25.8228,2026-01-23T1900,45,56,0.5,21,5,17,22,63,细颗粒物(PM2.5)
郴州市,市审计局,113.0381,25.8074,2026-01-23T1900,51,56,/,22,4,16,21,70,细颗粒物(PM2.5)
郴州市,市环保局,113.0348,25.7757,2026-01-23T1900,55,72,0.9,32,3,8,16,75,细颗粒物(PM2.5)
郴州市,好美居路49号,113.0138,25.8011,2026-01-23T1900,54,59,/,30,8,21,28,74,细颗粒物(PM2.5)
成都市,金泉两河,103.9727,30.7242,2026-01-23T1900,78,100,0.8,63,2,6,19,104,细颗粒物(PM2.5)
成都市,十里店,104.1423,30.6765,2026-01-23T1900,77,86,0.7,46,3,20,33,103,细颗粒物(PM2.5)
成都市,三瓦窑,104.0594,30.5765,2026-01-23T1900,54,75,0.8,52,3,15,35,74,细颗粒物(PM2.5)
成都市,沙河铺,104.1122,30.6306,2026-01-23T1900,55,70,0.8,48,4,23,27,75,细颗粒物(PM2.5)
成都市,大石西路,104.0219,30.6561,2026-01-23T1900,54,92,1.0,48,3,9,26,74,细颗粒物(PM2.5)
成都市,龙泉驿区区政府,104.2724,30.559,2026-01-23T1900,44,61,0.8,29,6,28,42,62,细颗粒物(PM2.5)
成都市,金博路,104.0028,30.6891,2026-01-23T1900,70,85,0.8,57,4,5,23,94,细颗粒物(PM2.5)
成都市,华阳,104.056,30.5228,2026-01-23T1900,41,58,0.8,54,2,12,43,58,细颗粒物(PM2.5)
成都市,青石路225号,104.387954,30.746684,2026-01-23T1900,61,74,1.0,32,3,24,37,83,细颗粒物(PM2.5)
成都市,科学城,104.0788,30.4054,2026-01-23T1900,40,51,0.6,34,6,28,38,57,细颗粒物(PM2.5)
成都市,光华大道三段,103.8505,30.6946,2026-01-23T1900,94,104,0.9,62,2,7,18,124,细颗粒物(PM2.5)
成都市,八角井街185号,104.3257,30.6406,2026-01-23T1900,52,82,0.8,30,3,24,44,72,细颗粒物(PM2.5)
成都市,鲸龙路1057号,104.2433276,30.53529463,2026-01-23T1900,50,71,0.8,39,4,14,44,69,细颗粒物(PM2.5)
承德市,铁路,117.9531,40.908,2026-01-23T1900,41,94,0.7,41,11,24,57,72,颗粒物(PM10)
承德市,中国银行,117.9397,40.9763,2026-01-23T1900,19,42,0.6,35,2,29,62,42,
承德市,杏林街1号,117.9462,40.95,2026-01-23T1900,26,40,0.6,31,6,33,65,40,
承德市,滨河大街98号,117.7994,40.9605,2026-01-23T1900,22,38,0.4,20,5,42,65,38,
池州市,池州学院,117.4698,30.6617,2026-01-23T1900,53,66,0.6,29,6,74,85,73,细颗粒物(PM2.5)
池州市,展览馆,117.4918,30.6617,2026-01-23T1900,57,64,0.8,,3,53,83,,
池州市,第八中学,117.5626,30.695,2026-01-23T1900,51,67,0.5,41,23,69,86,70,细颗粒物(PM2.5)
池州市,第十二中学,117.5037,30.6242,2026-01-23T1900,61,82,0.9,50,4,57,85,83,细颗粒物(PM2.5)
赤峰市,松山一中,118.9229,42.2816,2026-01-23T1900,3,26,0.6,14,2,58,66,26,
赤峰市,哈达街,118.9588,42.2733,2026-01-23T1900,14,25,0.6,16,5,53,62,25,
赤峰市,天义路,118.8792,42.2551,2026-01-23T1900,16,16,0.7,24,6,48,67,23,
赤峰市,银河街,119.2656,42.0356,2026-01-23T1900,13,31,0.6,14,12,58,71,31,
赤峰市,桥北物流园区,118.9359,42.3146,2026-01-23T1900,13,20,0.5,16,5,60,72,20,
崇左市,市环保局江州分局,107.3473,22.4137,2026-01-23T1900,36,57,0.9,20,6,45,45,54,颗粒物(PM10)
崇左市,石景林东路7号,107.375,22.3736,2026-01-23T1900,44,,0.5,16,1,49,48,62,细颗粒物(PM2.5)
滁州市,市政府原办公楼,118.31131,32.3033,2026-01-23T1900,46,61,0.6,31,5,68,79,64,细颗粒物(PM2.5)
滁州市,图书馆,118.3268,32.2633,2026-01-23T1900,41,62,0.7,28,7,66,72,58,细颗粒物(PM2.5)
滁州市,银山路666号,118.3196,32.3335,2026-01-23T1900,54,,0.4,14,5,82,86,74,细颗粒物(PM2.5)
滁州市,黄山路555号,118.3426,32.2979,2026-01-23T1900,54,71,0.8,20,17,,84,,
楚雄彝族自治州,市经济开发区,101.5379,25.0492,2026-01-23T1900,13,22,0.5,9,2,77,78,25,
楚雄彝族自治州,团结路562号,101.5536,25.0343,2026-01-23T1900,12,20,0.3,6,4,77,78,25,
达州市,市环境监测站,107.5087,31.2186,2026-01-23T1900,,71,0.8,45,6,26,32,,
达州市,凤凰小区,107.4988,31.2132,2026-01-23T1900,,70,0.9,48,4,32,38,,
达州市,达县机关宾馆,107.5081,31.1987,2026-01-23T1900,44,78,1.1,57,3,19,36,64,颗粒物(PM10)
达州市,市政中心,107.4644,31.2124,2026-01-23T1900,51,78,0.8,51,6,26,35,70,细颗粒物(PM2.5)
大理白族自治州,大理市环境监测站,100.2168,25.5818,2026-01-23T1900,8,22,0.5,10,6,75,75,24,
大理白族自治州,大理古城,100.1542,25.7055,2026-01-23T1900,23,31,0.9,21,8,67,90,33,
大连市,甘井子,121.6119,38.974,2026-01-23T1900,18,39,0.4,34,8,59,66,39,
大连市,周水子,121.565,38.9509,2026-01-23T1900,16,48,0.5,42,10,39,54,48,
大连市,星海三站,121.5637,38.8849,2026-01-23T1900,14,33,0.8,24,12,55,60,33,
大连市,青泥洼桥,121.6301,38.9117,2026-01-23T1900,13,19,0.5,25,9,54,54,19,
大连市,傅家庄,121.6248,38.8643,2026-01-23T1900,11,33,0.7,23,7,54,53,33,
大连市,七贤岭,121.5117,38.8636,2026-01-23T1900,17,42,0.7,14,7,60,58,42,
大连市,金州,121.7507,39.1339,2026-01-23T1900,21,32,0.4,19,9,72,70,32,
大连市,开发区,121.7811,39.0495,2026-01-23T1900,21,45,0.5,18,5,63,63,45,
大连市,双D港,121.9762,39.0631,2026-01-23T1900,16,35,0.4,16,7,70,67,35,
大连市,旅顺,121.2548,38.8188,2026-01-23T1900,18,29,0.7,17,9,62,60,29,
大庆市,大同区,124.8085,46.0381,2026-01-23T1900,72,145,1.4,46,12,47,71,98,颗粒物(PM10)
大庆市,龙凤区,125.1166,46.5255,2026-01-23T1900,18,44,0.4,38,8,39,59,44,
大庆市,红岗区,124.8894,46.4007,2026-01-23T1900,17,35,0.5,36,4,33,56,35,
大庆市,萨尔图区,125.1391,46.578,2026-01-23T1900,12,32,0.8,32,8,40,57,32,
大庆市,让胡路区,124.9026,46.6217,2026-01-23T1900,16,32,0.4,20,8,62,74,32,
大庆市,萨区政府监测点,125.127,46.6277,2026-01-23T1900,,32,0.5,27,9,44,65,,
大同市,云冈宾馆,113.2926,40.0759,2026-01-23T1900,27,48,0.7,36,8,47,46,48,
大同市,大同大学,113.3437,40.0921,2026-01-23T1900,25,85,0.7,32,7,55,52,68,颗粒物(PM10)
大同市,安家小村,113.2637,40.129,2026-01-23T1900,20,81,0.6,26,11,56,47,66,颗粒物(PM10)
大同市,大同市卫生学校,113.3399,40.0586,2026-01-23T1900,30,79,0.7,38,5,56,50,65,颗粒物(PM10)
大同市,云冈站,113.1371,40.1122,2026-01-23T1900,15,46,0.6,34,9,44,61,46,
大同市,图书馆,113.1186,40.2556,2026-01-23T1900,34,37,0.7,23,6,51,64,49,
大同市,区一中,113.5931,40.0459,2026-01-23T1900,,124,1.8,45,44,35,52,,
大同市,魏都大道141号,113.2798248,40.09972476,2026-01-23T1900,34,81,0.5,38,7,49,46,66,颗粒物(PM10)
大兴安岭地区,科技局,124.1068,50.4091,2026-01-23T1900,9,24,0.2,5,5,63,67,24,
大兴安岭地区,红旗社区,124.117,50.4279,2026-01-23T1900,15,17,0.3,7,6,65,71,22,
丹东市,江湾东路,124.33,40.0625,2026-01-23T1900,67,109,1.7,56,14,21,47,90,细颗粒物(PM2.5)
丹东市,临江后街,124.4242,40.1513,2026-01-23T1900,66,96,1.4,59,17,21,50,89,细颗粒物(PM2.5)
丹东市,元宝山,124.3935,40.1461,2026-01-23T1900,22,36,0.3,18,13,57,53,36,
丹东市,民主桥,124.3634,40.1093,2026-01-23T1900,64,119,1.3,51,14,23,45,87,细颗粒物(PM2.5)
儋州市,第一中学子站,109.5726195,19.51688767,2026-01-23T1900,22,52,0.7,12,4,67,66,51,颗粒物(PM10)
儋州市,东坡学校子站,109.5567,19.5187,2026-01-23T1900,18,40,0.7,13,5,80,81,40,
德宏傣族景颇族自治州,德宏州监测站,98.5611,24.4273,2026-01-23T1900,21,35,0.6,21,6,80,79,35,
德宏傣族景颇族自治州,芒市人民政府综合楼,98.5887,24.4366,2026-01-23T1900,12,37,0.6,15,4,75,75,37,
德阳市,东山公园,104.424,31.1209,2026-01-23T1900,50,52,0.7,13,1,30,29,69,细颗粒物(PM2.5)
德阳市,西小区,104.3827,31.1318,2026-01-23T1900,53,68,0.9,30,2,21,25,73,细颗粒物(PM2.5)
德阳市,耐火材料厂,104.3553,31.1091,2026-01-23T1900,55,69,0.8,31,1,20,22,75,细颗粒物(PM2.5)
德阳市,市林业局,104.4144,31.1495,2026-01-23T1900,55,62,0.8,20,2,30,29,75,细颗粒物(PM2.5)
德州市,儿童乐园,116.3034,37.4675,2026-01-23T1900,114,158,1.2,48,14,71,84,149,细颗粒物(PM2.5)
德州市,监理站,116.2992,37.4449,2026-01-23T1900,,,1.1,46,14,80,92,,
德州市,九衢泉纯净水厂,116.2722,37.438,2026-01-23T1900,117,158,1.2,54,8,64,81,153,细颗粒物(PM2.5)
德州市,开发区人民医院,116.3693,37.44,2026-01-23T1900,107,161,1.0,56,16,70,92,140,细颗粒物(PM2.5)
德州市,陵城艺术中心,116.5687,37.3331,2026-01-23T1900,134,190,1.3,77,27,33,77,178,细颗粒物(PM2.5)
德州市,新河东路,116.352738,37.420875,2026-01-23T1900,117,166,1.2,67,13,57,85,153,细颗粒物(PM2.5)
迪庆藏族自治州,迪庆州站,99.7054,27.8319,2026-01-23T1900,18,31,0.4,11,5,66,74,31,
迪庆藏族自治州,质量技术监督局,99.7122,27.8129,2026-01-23T1900,24,,0.4,8,4,72,81,35,
定西市,将台街,104.6092,35.5962,2026-01-23T1900,25,61,0.4,17,13,81,86,56,颗粒物(PM10)
定西市,正龙路62号,104.6159,35.5701,2026-01-23T1900,33,52,0.5,6,6,87,87,51,颗粒物(PM10)
东莞市,东城石井,113.7943,23.0132,2026-01-23T1900,25,49,0.7,32,7,17,29,49,
东莞市,南城西平,113.7384,22.9659,2026-01-23T1900,31,45,0.8,45,6,7,31,45,
东莞市,万江金泰,113.7283,23.041,2026-01-23T1900,36,60,0.9,48,5,11,33,55,颗粒物(PM10)
东莞市,裕兴路,113.8666,23.1062,2026-01-23T1900,27,48,0.8,27,5,23,32,48,
东莞市,教育路1号,114.0076,22.9739,2026-01-23T1900,31,55,0.8,41,6,18,36,53,颗粒物(PM10)
东莞市,长怡路1号,113.7981,22.8124,2026-01-23T1900,23,47,0.7,43,7,18,33,47,
东营市,市环保局,118.6612,37.4313,2026-01-23T1900,73,97,1.0,46,14,50,83,98,细颗粒物(PM2.5)
东营市,开发区管委会,118.6903,37.4337,2026-01-23T1900,92,132,0.9,53,6,44,86,122,细颗粒物(PM2.5)
东营市,垦利区民丰路,118.5721,37.5654,2026-01-23T1900,,117,0.9,46,,48,83,,
东营市,河口城区,118.5063,37.8606,2026-01-23T1900,100,144,1.2,66,8,42,76,132,细颗粒物(PM2.5)
东营市,胜利站,118.4979,37.4623,2026-01-23T1900,88,98,1.0,43,12,51,78,117,细颗粒物(PM2.5)
东营市,理想之城,118.5753,37.4405,2026-01-23T1900,73,107,0.9,61,7,29,76,98,细颗粒物(PM2.5)
鄂尔多斯市,综合楼,110.0024,39.8127,2026-01-23T1900,29,110,0.6,55,12,33,78,80,颗粒物(PM10)
鄂尔多斯市,巴音孟克林场办事处,109.9485,39.8259,2026-01-23T1900,22,83,0.6,40,8,43,82,67,颗粒物(PM10)
鄂尔多斯市,康泽苑,109.7734,39.5987,2026-01-23T1900,22,51,0.5,24,10,68,82,51,颗粒物(PM10)
鄂尔多斯市,华泰汽车城,109.8121,39.5987,2026-01-23T1900,21,63,0.7,38,4,55,80,57,颗粒物(PM10)
鄂尔多斯市,奥林花园,109.9734,39.7884,2026-01-23T1900,22,80,0.5,37,7,48,73,65,颗粒物(PM10)
鄂州市,市政府,114.894,30.3989,2026-01-23T1900,,,,40,7,61,70,,
鄂州市,赵家坝,114.8986,30.3714,2026-01-23T1900,76,93,1.2,37,11,64,74,102,细颗粒物(PM2.5)
鄂州市,精准医疗中心,114.8093,30.4091,2026-01-23T1900,56,68,0.4,23,19,85,83,77,细颗粒物(PM2.5)
恩施土家族苗族自治州,湖北民院,109.4978,30.2979,2026-01-23T1900,47,48,1.0,19,6,38,50,65,细颗粒物(PM2.5)
恩施土家族苗族自治州,龙凤新区,109.5061,30.3771,2026-01-23T1900,37,52,0.7,23,7,28,44,53,细颗粒物(PM2.5)
防城港市,沙万,108.3411,21.6159,2026-01-23T1900,42,53,0.8,21,6,35,45,59,细颗粒物(PM2.5)
防城港市,防城档案局,108.3515,21.7733,2026-01-23T1900,54,55,0.6,16,5,37,41,74,细颗粒物(PM2.5)
防城港市,大海花园,108.3506,21.6414,2026-01-23T1900,28,45,0.7,21,6,37,45,45,
佛山市,湾梁,113.1293,23.0065,2026-01-23T1900,33,63,/,43,/,6,18,57,颗粒物(PM10)
佛山市,华材职中,113.1082,23.0477,2026-01-23T1900,38,75,0.7,40,6,8,19,63,颗粒物(PM10)
佛山市,南海气象局,113.1439,23.045,2026-01-23T1900,33,56,/,52,/,3,19,53,颗粒物(PM10)
佛山市,顺德苏岗,113.2879,22.8094,2026-01-23T1900,31,57,0.9,55,/,3,20,54,颗粒物(PM10)
佛山市,高明孔堂,112.8384,22.8678,2026-01-23T1900,41,76,/,40,/,10,20,63,颗粒物(PM10)
佛山市,三水监测站,112.8835,23.1584,2026-01-23T1900,37,51,0.8,25,1,23,26,53,细颗粒物(PM2.5)
佛山市,三水云东海,112.8668,23.185,2026-01-23T1900,33,37,/,24,/,26,27,48,
佛山市,容桂街道办,113.2568,22.7629,2026-01-23T1900,34,70,/,60,/,4,18,60,颗粒物(PM10)
福州市,师大,119.2681,26.0506,2026-01-23T1900,24,43,0.7,28,3,34,38,43,
福州市,五四北路,119.2983,26.1028,2026-01-23T1900,21,34,0.6,27,4,28,38,34,
福州市,杨桥西路,119.2648,26.0769,2026-01-23T1900,26,45,/,25,4,25,35,45,
福州市,九龙,119.5799,26.0937,2026-01-23T1900,20,27,0.7,26,6,43,48,29,
福州市,吴航,119.5188,25.9666,2026-01-23T1900,27,46,0.6,63,5,2,44,46,
福州市,路通桥巷6号,119.3106,26.0648,2026-01-23T1900,29,55,/,31,/,24,36,53,颗粒物(PM10)
抚顺市,望花区,123.7974,41.8494,2026-01-23T1900,30,64,0.9,62,8,20,61,57,颗粒物(PM10)
抚顺市,顺城区,123.9161,41.8827,2026-01-23T1900,84,,1.1,72,12,13,57,112,细颗粒物(PM2.5)
抚顺市,东洲区,124.0437,41.8615,2026-01-23T1900,42,93,1.0,56,127,25,49,72,颗粒物(PM10)
抚顺市,新抚区,123.9246,41.8638,2026-01-23T1900,26,58,1.1,66,7,18,56,54,颗粒物(PM10)
抚顺市,大伙房水库,124.0972,41.8961,2026-01-23T1900,31,47,0.9,30,11,41,55,47,
抚顺市,沈抚新城,123.708,41.8386,2026-01-23T1900,47,71,0.8,70,9,23,60,65,细颗粒物(PM2.5)
抚州市,市站,116.3544,27.9833,2026-01-23T1900,,,1.0,,10,28,46,,
抚州市,血防站,116.3562,27.9631,2026-01-23T1900,51,74,1.4,33,6,35,42,70,细颗粒物(PM2.5)
抚州市,采茶剧团,116.3561,28.0007,2026-01-23T1900,54,77,1.3,30,6,28,46,74,细颗粒物(PM2.5)
抚州市,医学分院,116.3854,27.9648,2026-01-23T1900,44,68,0.9,19,6,49,51,62,细颗粒物(PM2.5)
阜新市,工业园区,121.6095,41.9978,2026-01-23T1900,36,114,0.7,32,21,40,66,82,颗粒物(PM10)
阜新市,长青街,121.6567,42.0188,2026-01-23T1900,19,48,0.4,18,7,59,77,48,
阜新市,农业园区,121.6672,42.07,2026-01-23T1900,17,49,0.3,13,8,53,66,49,
阜新市,玉龙新城,121.6343,42.0455,2026-01-23T1900,10,56,0.4,19,17,54,65,53,颗粒物(PM10)
阜阳市,市监测站,115.8276,32.8929,2026-01-23T1900,63,98,0.8,47,4,65,98,85,细颗粒物(PM2.5)
阜阳市,开发区,115.8551,32.8606,2026-01-23T1900,64,98,,59,,46,97,,
阜阳市,阜阳职业技术学院,115.783962,32.889217,2026-01-23T1900,54,68,0.7,44,8,73,106,74,细颗粒物(PM2.5)
阜阳市,市规划展馆,115.79,32.8614,2026-01-23T1900,60,65,0.5,21,6,102,110,82,细颗粒物(PM2.5)
阜阳市,枣园社区,115.835101,32.918568,2026-01-23T1900,73,77,0.6,42,6,71,103,98,细颗粒物(PM2.5)
甘南藏族自治州,州政府,102.9097,34.9841,2026-01-23T1900,19,64,0.7,34,10,42,72,57,颗粒物(PM10)
甘南藏族自治州,甘肃民族师范学院,102.8915,34.9618,2026-01-23T1900,12,104,0.2,30,8,34,65,77,颗粒物(PM10)
甘孜藏族自治州,水桥子,101.96,30.048,2026-01-23T1900,11,40,0.6,36,7,51,58,40,
甘孜藏族自治州,州环保局,101.9534,29.9976,2026-01-23T1900,9,36,0.5,30,5,45,70,36,
赣州市,地委,114.9368,25.8663,2026-01-23T1900,30,48,0.6,16,7,44,49,48,
赣州市,气象台,114.946,25.8483,2026-01-23T1900,28,70,0.5,26,6,35,40,60,颗粒物(PM10)
赣州市,市图书馆,114.932,25.8332,2026-01-23T1900,30,45,0.7,26,4,34,39,45,
赣州市,华坚鞋城,114.8905,25.8472,2026-01-23T1900,41,55,0.5,28,5,31,42,58,细颗粒物(PM2.5)
赣州市,赣县区卫计委,115.0094,25.8614,2026-01-23T1900,44,66,0.7,17,7,32,40,62,细颗粒物(PM2.5)
固原市,监测站,106.2753,36.0057,2026-01-23T1900,34,58,0.5,24,9,72,78,54,颗粒物(PM10)
固原市,新区,106.2384,36.0189,2026-01-23T1900,38,64,,34,10,64,76,,
广安市,市委,106.6307,30.4577,2026-01-23T1900,29,41,1.0,28,9,55,54,42,
广安市,友谊中学,106.6266,30.4662,2026-01-23T1900,29,36,0.8,23,6,58,56,42,
广安市,广电花园,106.6386,30.4551,2026-01-23T1900,25,40,0.8,26,5,52,45,40,
广安市,北辰小学,106.6347,30.4868,2026-01-23T1900,30,44,1.1,21,4,59,58,44,
广元市,老城,105.8211,32.4444,2026-01-23T1900,53,73,1.1,45,8,23,35,73,细颗粒物(PM2.5)
广元市,监测站,105.8629,32.429,2026-01-23T1900,45,68,1.0,36,8,29,31,63,细颗粒物(PM2.5)
广元市,经开区,105.8047,32.4167,2026-01-23T1900,46,60,0.9,32,4,26,30,64,细颗粒物(PM2.5)
广州市,广雅中学,113.2346,23.1423,2026-01-23T1900,,,0.7,51,4,3,20,,
广州市,市五中,113.2611,23.105,2026-01-23T1900,45,77,/,71,11,5,27,64,颗粒物(PM10)
广州市,广东商学院,113.3477,23.0916,2026-01-23T1900,44,64,0.7,36,8,9,24,62,细颗粒物(PM2.5)
广州市,市八十六中,113.4332,23.105,2026-01-23T1900,36,59,/,35,8,18,26,55,颗粒物(PM10)
广州市,番禺中学,113.3506,22.9488,2026-01-23T1900,46,81,0.7,55,4,8,25,66,颗粒物(PM10)
广州市,花都师范,113.2147,23.3918,2026-01-23T1900,45,60,0.7,34,6,19,25,63,细颗粒物(PM2.5)
广州市,市监测站,113.2599,23.1329,2026-01-23T1900,49,80,/,49,4,3,24,68,细颗粒物(PM2.5)
广州市,九龙镇镇龙,113.5618,23.3119,2026-01-23T1900,48,82,0.6,33,6,24,29,67,细颗粒物(PM2.5)
广州市,麓湖,113.2764,23.1544,2026-01-23T1900,45,68,0.9,47,13,5,21,63,细颗粒物(PM2.5)
广州市,体育西,113.3209,23.1323,2026-01-23T1900,48,78,0.8,49,9,4,22,67,细颗粒物(PM2.5)
广州市,从化街口,113.5718,23.5493,2026-01-23T1900,42,61,0.6,29,12,24,35,59,细颗粒物(PM2.5)
广州市,白云竹料,113.3463,23.369,2026-01-23T1900,44,66,0.8,34,4,19,37,62,细颗粒物(PM2.5)
广州市,白云嘉禾,113.2981,23.2365,2026-01-23T1900,40,73,/,51,8,2,30,62,颗粒物(PM10)
广州市,黄埔科学城,113.4256,23.1716,2026-01-23T1900,45,65,0.6,33,7,24,31,63,细颗粒物(PM2.5)
广州市,番禺大学城,113.3942,23.0485,2026-01-23T1900,,,,,,,,,
广州市,南沙黄阁,113.4923,22.8169,2026-01-23T1900,34,39,/,55,6,10,22,49,
广州市,南沙街,113.534,22.7893,2026-01-23T1900,37,71,0.9,62,7,2,22,61,颗粒物(PM10)
广州市,花都梯面,113.2905,23.5541,2026-01-23T1900,38,58,/,23,7,20,33,54,"颗粒物(PM10),细颗粒物(PM2.5)"
广州市,从化良口,113.786,23.7479,2026-01-23T1900,27,37,/,15,8,,31,,
广州市,增城荔城,113.805,23.2614,2026-01-23T1900,27,35,0.6,20,7,27,31,39,
贵港市,江南子站,109.604387,23.066791,2026-01-23T1900,77,83,0.8,25,4,25,30,103,细颗粒物(PM2.5)
贵港市,荷城子站,109.5669,23.1065,2026-01-23T1900,56,78,0.9,28,5,23,29,77,细颗粒物(PM2.5)
贵港市,新世纪学校,109.5886,23.1172,2026-01-23T1900,62,88,0.6,27,/,24,32,84,细颗粒物(PM2.5)
贵港市,中山路155-3号,109.5933,23.095,2026-01-23T1900,73,79,0.9,28,/,25,34,98,细颗粒物(PM2.5)
贵阳市,马鞍山,106.6863,26.6035,2026-01-23T1900,51,68,/,26,11,24,44,70,细颗粒物(PM2.5)
贵阳市,鉴湖路,106.6241,26.6266,2026-01-23T1900,53,85,0.8,38,7,12,38,73,细颗粒物(PM2.5)
贵阳市,燕子冲,106.7468,26.6344,2026-01-23T1900,58,,0.7,17,12,36,50,79,细颗粒物(PM2.5)
贵阳市,碧云窝,106.6556,26.4362,2026-01-23T1900,48,75,/,28,11,25,36,67,细颗粒物(PM2.5)
贵阳市,红边门,106.6963,26.6063,2026-01-23T1900,56,66,/,25,16,27,47,77,细颗粒物(PM2.5)
贵阳市,新华路,106.7162383,26.56964667,2026-01-23T1900,46,75,0.7,31,10,26,47,64,细颗粒物(PM2.5)
贵阳市,太慈桥,106.6742,26.542,2026-01-23T1900,48,66,/,33,6,28,46,67,细颗粒物(PM2.5)
贵阳市,花果园大街66号,106.688212,26.56952,2026-01-23T1900,66,68,/,32,11,17,37,89,细颗粒物(PM2.5)
贵阳市,漓江路57号,106.687268,26.516892,2026-01-23T1900,44,68,,33,11,15,35,,
桂林市,龙隐路小学,110.3091,25.2705,2026-01-23T1900,43,44,0.8,15,7,44,45,60,细颗粒物(PM2.5)
桂林市,八中,110.2849361,25.22909545,2026-01-23T1900,48,48,0.5,28,8,36,42,67,细颗粒物(PM2.5)
桂林市,旅游学院,110.296,25.1254,2026-01-23T1900,27,,0.4,10,4,53,53,,
桂林市,环湖路276号,110.1835,25.2444,2026-01-23T1900,31,46,0.7,18,6,42,44,46,
桂林市,信义路13号,110.2803,25.2773,2026-01-23T1900,32,44,0.8,24,5,39,44,46,
果洛藏族自治州,玛沁县大武镇,100.2262,34.4854,2026-01-23T1900,20,63,0.4,7,11,70,78,57,颗粒物(PM10)
哈尔滨市,松北商大,126.5557,45.8109,2026-01-23T1900,19,32,0.6,45,7,24,47,32,
哈尔滨市,南岗学府路,126.6162,45.719,2026-01-23T1900,10,27,0.6,16,6,51,57,27,
哈尔滨市,太平宏伟公园,126.6894,45.7733,2026-01-23T1900,14,18,0.4,9,8,66,65,21,
哈尔滨市,道外承德广场,126.6361,45.7672,2026-01-23T1900,9,37,0.8,18,8,64,66,37,
哈尔滨市,动力和平路,126.644,45.7261,2026-01-23T1900,15,21,0.6,22,18,50,56,22,
哈尔滨市,道里建国路,126.5933,45.7479,2026-01-23T1900,19,23,0.4,24,4,48,57,28,
哈尔滨市,平房东轻厂,126.6127,45.6119,2026-01-23T1900,28,46,0.9,66,13,14,48,46,
哈尔滨市,呼兰师专,126.5875,45.9827,2026-01-23T1900,45,49,0.7,47,14,25,49,63,细颗粒物(PM2.5)
哈尔滨市,省农科院,126.6299,45.6799,2026-01-23T1900,54,80,0.9,55,20,16,48,74,细颗粒物(PM2.5)
哈尔滨市,华山路1号,126.6769,45.7379,2026-01-23T1900,15,31,0.3,24,10,52,56,31,
哈尔滨市,解放大街52号,126.9717,45.5356,2026-01-23T1900,28,61,0.6,24,14,52,58,56,颗粒物(PM10)
哈密市,地区监测站,93.5124,42.8176,2026-01-23T1900,50,100,0.2,29,10,29,40,75,颗粒物(PM10)
哈密市,哈密师范学校,93.5014,42.8312,2026-01-23T1900,35,109,0.7,30,8,33,44,80,颗粒物(PM10)
海北藏族自治州,海晏县西海镇,100.9016,36.9464,2026-01-23T1900,13,27,0.4,4,6,71,80,27,
海东市,平安区公安局北苑,102.074,36.5056,2026-01-23T1900,41,84,1.1,30,14,46,67,67,颗粒物(PM10)
海东市,滨河路,102.0984,36.5119,2026-01-23T1900,34,82,0.8,81,13,18,76,66,颗粒物(PM10)
海口市,海南大学,110.3189,20.0596,2026-01-23T1900,31,55,0.6,15,6,70,69,53,颗粒物(PM10)
海口市,秀英海南医院,110.2827,20.0051,2026-01-23T1900,30,44,0.5,16,8,69,68,44,
海口市,海南师范大学,110.3391,19.9979,2026-01-23T1900,35,44,0.6,18,6,70,70,50,
海口市,龙华路环保局宿舍,110.3303,20.0359,2026-01-23T1900,34,47,0.8,18,/,69,68,49,
海口市,桂林洋子站,110.5111,19.9737,2026-01-23T1900,36,60,/,18,/,64,68,55,颗粒物(PM10)
海口市,长滨二路9号,110.1952,20.0451,2026-01-23T1900,33,47,/,14,/,70,66,48,
海南藏族自治州,共和县恰卜恰镇,100.6158,36.2985,2026-01-23T1900,14,21,0.5,28,9,66,74,21,
海西蒙古族藏族自治州,德令哈市,97.373,37.376,2026-01-23T1900,22,25,,6,18,89,90,,
邯郸市,矿院,114.492,36.5712,2026-01-23T1900,133,137,1.0,61,6,41,68,176,细颗粒物(PM2.5)
邯郸市,丛台公园,114.4839,36.6136,2026-01-23T1900,128,143,1.0,41,4,68,74,169,细颗粒物(PM2.5)
邯郸市,香泉濮院小区,114.7893,36.5592,2026-01-23T1900,118,152,1.0,49,7,64,87,155,细颗粒物(PM2.5)
邯郸市,峰峰矿区临水派出所,114.1998,36.4439,2026-01-23T1900,108,118,1.4,30,13,82,80,142,细颗粒物(PM2.5)
邯郸市,建安街268号,114.5209,36.7697,2026-01-23T1900,125,136,0.8,93,5,8,59,165,细颗粒物(PM2.5)
邯郸市,丛台东路558号,114.5488,36.6177,2026-01-23T1900,142,,1.2,37,6,67,76,189,细颗粒物(PM2.5)
汉中市,市监测站,107.0155,33.0707,2026-01-23T1900,50,58,1.1,42,5,24,32,69,细颗粒物(PM2.5)
汉中市,鑫源开发区,107.0083,33.114,2026-01-23T1900,68,79,1.2,48,5,23,34,92,细颗粒物(PM2.5)
汉中市,南郑大河坎水厂,107.0072,33.0323,2026-01-23T1900,59,65,1.2,47,8,18,35,80,细颗粒物(PM2.5)
杭州市,滨江,120.2073,30.2111,2026-01-23T1900,56,71,0.4,46,6,,67,,
杭州市,西溪,120.0625,30.2737,2026-01-23T1900,51,72,0.6,35,8,44,69,70,细颗粒物(PM2.5)
杭州市,下沙,120.3417,30.315,2026-01-23T1900,66,85,0.6,96,9,14,63,89,细颗粒物(PM2.5)
杭州市,卧龙桥,120.1252,30.2465,2026-01-23T1900,50,70,0.5,46,9,23,60,69,细颗粒物(PM2.5)
杭州市,浙江农大,120.1902,30.2691,2026-01-23T1900,64,84,0.8,77,6,30,64,87,细颗粒物(PM2.5)
杭州市,和睦小学,120.1195,30.3121,2026-01-23T1900,58,96,0.8,58,5,37,67,79,细颗粒物(PM2.5)
杭州市,临平镇,120.3076,30.4146,2026-01-23T1900,55,86,0.8,91,7,6,54,75,细颗粒物(PM2.5)
杭州市,城厢镇,120.2753,30.1839,2026-01-23T1900,47,80,0.3,55,8,56,78,65,"颗粒物(PM10),细颗粒物(PM2.5)"
杭州市,云栖,120.0883,30.1808,2026-01-23T1900,51,80,0.5,40,3,35,56,70,细颗粒物(PM2.5)
杭州市,镇二中,119.9463,30.0496,2026-01-23T1900,62,74,0.7,52,5,43,62,84,细颗粒物(PM2.5)
杭州市,市府大楼,119.7184,30.2367,2026-01-23T1900,62,72,1.0,39,11,48,77,84,细颗粒物(PM2.5)
杭州市,消防大队,120.1554,30.2863,2026-01-23T1900,61,76,0.6,63,7,34,66,83,细颗粒物(PM2.5)
合肥市,明珠广场,117.1957,31.7845,2026-01-23T1900,56,122,1.0,91,6,11,58,86,颗粒物(PM10)
合肥市,三里街,117.307,31.8765,2026-01-23T1900,51,90,0.8,66,6,34,51,70,"颗粒物(PM10),细颗粒物(PM2.5)"
合肥市,琥珀山庄,117.2587,31.8703,2026-01-23T1900,62,97,1.0,77,8,23,60,84,细颗粒物(PM2.5)
合肥市,庐阳区,117.2593,31.9376,2026-01-23T1900,48,124,0.8,93,6,17,68,87,颗粒物(PM10)
合肥市,瑶海区,117.345251,31.861615,2026-01-23T1900,49,88,0.5,63,5,46,60,69,颗粒物(PM10)
合肥市,包河区,117.3033,31.7967,2026-01-23T1900,58,97,0.9,91,7,23,55,79,细颗粒物(PM2.5)
合肥市,滨湖新区,117.278,31.7392,2026-01-23T1900,53,70,0.8,36,3,63,68,73,细颗粒物(PM2.5)
合肥市,高新区,117.1324,31.8395,2026-01-23T1900,38,63,0.6,54,4,56,73,57,颗粒物(PM10)
合肥市,高教基地,117.3802,31.9148,2026-01-23T1900,71,88,0.8,72,8,22,62,95,细颗粒物(PM2.5)
合肥市,中国科学技术大学,117.2518,31.8404,2026-01-23T1900,49,92,0.9,71,8,30,55,71,颗粒物(PM10)
和田地区,地区环保局,79.9241,37.0878,2026-01-23T1900,239,1016,0.1,11,2,51,46,500,颗粒物(PM10)
和田地区,市环保局,79.9132,37.1137,2026-01-23T1900,229,1024,0.5,6,3,,47,500,颗粒物(PM10)
河池市,市环保站,108.0496,24.6957,2026-01-23T1900,24,48,0.7,11,14,53,52,48,
河池市,上任中路54号,108.0901,24.6945,2026-01-23T1900,31,,0.6,30,6,46,45,45,
河源市,东埔,114.6962,23.7538,2026-01-23T1900,36,40,0.5,18,5,31,31,52,细颗粒物(PM2.5)
河源市,老城,114.6895,23.7232,2026-01-23T1900,33,40,0.7,16,6,32,32,48,
菏泽市,定陶老年大学,115.5562,35.089,2026-01-23T1900,107,149,0.6,42,5,75,88,140,细颗粒物(PM2.5)
菏泽市,黄河路600号,115.4239,35.2593,2026-01-23T1900,146,173,1.0,51,4,67,84,195,细颗粒物(PM2.5)
菏泽市,菏泽市人社局,115.5025,35.2727,2026-01-23T1900,145,188,1.2,66,11,35,78,193,细颗粒物(PM2.5)
菏泽市,永昌路1号,115.479691,35.244011,2026-01-23T1900,130,172,0.8,53,4,51,80,172,细颗粒物(PM2.5)
菏泽市,长城路999号,115.471542,35.280012,2026-01-23T1900,151,193,1.4,67,7,42,78,201,细颗粒物(PM2.5)
贺州市,环保小区,111.5264,24.4178,2026-01-23T1900,46,53,0.6,24,4,28,33,64,细颗粒物(PM2.5)
贺州市,政协大楼,111.561,24.4074,2026-01-23T1900,38,52,0.7,25,10,27,33,54,细颗粒物(PM2.5)
贺州市,西湾,111.4744,24.455,2026-01-23T1900,38,54,0.7,28,7,26,36,54,细颗粒物(PM2.5)
鹤壁市,市监测站,114.17,35.9019,2026-01-23T1900,182,201,1.9,56,12,55,67,232,细颗粒物(PM2.5)
鹤壁市,市交警支队,114.2953,35.7512,2026-01-23T1900,162,189,1.6,67,11,44,63,212,细颗粒物(PM2.5)
鹤壁市,迎宾馆,114.2877,35.7302,2026-01-23T1900,162,178,1.7,55,13,55,73,212,细颗粒物(PM2.5)
鹤壁市,大新区,114.2616,35.6824,2026-01-23T1900,174,,1.6,65,11,53,71,224,细颗粒物(PM2.5)
鹤壁市,南山宾馆,114.1573,35.9607,2026-01-23T1900,169,208,1.6,34,13,76,75,219,细颗粒物(PM2.5)
鹤岗市,哈啤分公司,130.2537,47.3416,2026-01-23T1900,24,29,0.3,9,8,75,80,35,
鹤岗市,斯达机电,130.2683,47.3087,2026-01-23T1900,24,37,0.6,15,8,66,75,37,
鹤岗市,东山纸板厂,130.3114,47.3388,2026-01-23T1900,11,15,0.4,8,8,72,75,23,
黑河市,交通局,127.4832,50.2524,2026-01-23T1900,15,23,0.2,12,4,68,79,23,
黑河市,环保局,127.5146,50.2339,2026-01-23T1900,23,,0.4,14,4,66,75,33,
衡水市,电机北厂,115.6839,37.754,2026-01-23T1900,122,151,0.9,33,8,73,71,160,细颗粒物(PM2.5)
衡水市,市监测站,115.6303,37.7318,2026-01-23T1900,126,147,1.0,38,10,65,70,166,细颗粒物(PM2.5)
衡水市,市城管局,115.6684,37.7216,2026-01-23T1900,108,142,1.0,44,10,66,69,142,细颗粒物(PM2.5)
衡水市,地表水厂,115.599,37.5491,2026-01-23T1900,129,178,1.0,99,16,7,70,170,细颗粒物(PM2.5)
衡阳市,衡阳化工总厂,112.6209,26.9268,2026-01-23T1900,37,38,1.0,15,7,52,55,53,细颗粒物(PM2.5)
衡阳市,珠晖区环保局,112.621,26.8957,2026-01-23T1900,42,47,0.9,16,4,52,54,59,细颗粒物(PM2.5)
衡阳市,市委党校,112.628,26.8654,2026-01-23T1900,38,,0.9,7,9,54,53,54,细颗粒物(PM2.5)
衡阳市,市监测站,112.6007,26.8977,2026-01-23T1900,34,63,0.9,18,5,49,55,57,颗粒物(PM10)
衡阳市,真空机电公司,112.5658,26.9013,2026-01-23T1900,41,65,1.0,31,5,41,47,58,"颗粒物(PM10),细颗粒物(PM2.5)"
衡阳市,师范学院,112.6703,26.8817,2026-01-23T1900,38,38,0.8,16,2,49,52,54,细颗粒物(PM2.5)
红河哈尼族彝族自治州,州图书馆,103.3757,23.3679,2026-01-23T1900,19,26,0.6,7,6,73,74,28,
红河哈尼族彝族自治州,蒙自市朝阳路,103.401,23.3561,2026-01-23T1900,22,,0.6,4,6,76,77,32,
呼和浩特市,呼市一监,111.6506,40.7517,2026-01-23T1900,41,90,0.7,55,15,20,43,70,颗粒物(PM10)
呼和浩特市,如意水处理厂,111.7516,40.8369,2026-01-23T1900,54,88,1.0,62,15,17,55,74,细颗粒物(PM2.5)
呼和浩特市,二十九中,111.727798,40.806187,2026-01-23T1900,44,80,0.7,52,15,24,47,65,颗粒物(PM10)
呼和浩特市,化肥厂生活区,111.717,40.7617,2026-01-23T1900,37,81,0.7,53,7,25,46,66,颗粒物(PM10)
呼和浩特市,海东办,111.6519,40.8389,2026-01-23T1900,39,97,0.8,56,9,18,43,74,颗粒物(PM10)
呼和浩特市,成吉思汗西街8号,111.591512,40.827312,2026-01-23T1900,41,88,0.8,58,10,15,38,69,颗粒物(PM10)
呼和浩特市,公园东路75号,111.6597,40.8077,2026-01-23T1900,42,97,0.8,44,10,33,44,74,颗粒物(PM10)
呼和浩特市,金海路35号,111.5427,40.7846,2026-01-23T1900,46,100,0.9,61,12,8,42,75,颗粒物(PM10)
呼伦贝尔市,国华电力东,119.7511,49.1576,2026-01-23T1900,23,26,0.5,20,17,53,61,33,
呼伦贝尔市,伊敏大街东7号,119.7569,49.2222,2026-01-23T1900,24,26,0.4,18,9,52,57,35,
湖州市,城西水厂,120.075,30.867,2026-01-23T1900,45,69,0.5,48,6,48,76,63,细颗粒物(PM2.5)
湖州市,仁皇山新区,120.083,30.8929,2026-01-23T1900,53,70,0.6,55,6,59,84,73,细颗粒物(PM2.5)
湖州市,吴兴区站,120.1846,30.8592,2026-01-23T1900,56,79,0.6,58,5,48,74,77,细颗粒物(PM2.5)
湖州市,南浔区站,120.4146,30.8538,2026-01-23T1900,46,70,0.5,42,7,62,86,64,细颗粒物(PM2.5)
葫芦岛市,龙港区,120.904878,40.721091,2026-01-23T1900,46,57,0.7,22,20,57,62,64,细颗粒物(PM2.5)
葫芦岛市,化工街,120.8382,40.7521,2026-01-23T1900,44,53,0.6,29,17,49,60,62,细颗粒物(PM2.5)
葫芦岛市,新区,120.8339,40.7078,2026-01-23T1900,27,35,0.7,25,18,55,61,39,
葫芦岛市,东城区,120.8697,40.7679,2026-01-23T1900,43,,0.9,36,22,45,62,60,细颗粒物(PM2.5)
怀化市,河西地税局,109.9297,27.5383,2026-01-23T1900,45,54,/,21,4,54,66,63,细颗粒物(PM2.5)
怀化市,市四医院,109.9783,27.5342,2026-01-23T1900,49,65,0.7,22,7,37,59,68,细颗粒物(PM2.5)
怀化市,监测楼,109.9971,27.5579,2026-01-23T1900,50,64,0.3,19,3,47,70,69,细颗粒物(PM2.5)
淮安市,钵池山,119.0566,33.5991,2026-01-23T1900,79,92,0.7,23,7,85,80,105,细颗粒物(PM2.5)
淮安市,北京南路,119.0083,33.578,2026-01-23T1900,88,117,0.8,52,8,50,68,117,细颗粒物(PM2.5)
淮安市,市监测站,118.9938,33.6083,2026-01-23T1900,88,97,0.8,45,9,66,79,117,细颗粒物(PM2.5)
淮安市,楚州区监测站,119.135,33.5038,2026-01-23T1900,92,103,0.5,46,10,52,77,122,细颗粒物(PM2.5)
淮安市,新华书店,118.8757,33.2897,2026-01-23T1900,80,100,1.0,34,10,65,72,107,细颗粒物(PM2.5)
淮安市,枚皋中路89号,119.119691,33.550006,2026-01-23T1900,74,83,0.5,42,9,56,83,99,细颗粒物(PM2.5)
淮安市,承德北路606号,119.028838,33.631911,2026-01-23T1900,74,114,0.9,39,8,70,80,99,细颗粒物(PM2.5)
淮北市,监测站,116.8005,33.9749,2026-01-23T1900,81,108,0.9,46,5,65,93,108,细颗粒物(PM2.5)
淮北市,烈山区政府,116.8094,33.9008,2026-01-23T1900,94,120,0.7,,5,73,89,124,细颗粒物(PM2.5)
淮北市,市博物馆,116.7926,33.9534,2026-01-23T1900,86,119,0.7,31,9,84,98,114,细颗粒物(PM2.5)
淮北市,杜集区第一实验学校,116.8322,33.9884,2026-01-23T1900,92,131,1.0,43,9,69,102,122,细颗粒物(PM2.5)
淮南市,潘集区政府,116.8304,32.7726,2026-01-23T1900,84,105,0.7,28,6,79,90,112,细颗粒物(PM2.5)
淮南市,谢家集区政府,116.8569,32.5949,2026-01-23T1900,39,77,0.7,25,8,71,78,64,颗粒物(PM10)
淮南市,八公山区政府,116.8279,32.6333,2026-01-23T1900,61,63,0.6,16,9,86,90,83,细颗粒物(PM2.5)
淮南市,经济技术开发区消防队,117.0561,32.6536,2026-01-23T1900,60,104,0.8,32,5,75,86,82,细颗粒物(PM2.5)
淮南市,山南新区,117.011,32.5891,2026-01-23T1900,47,79,0.8,34,7,70,85,65,"颗粒物(PM10),细颗粒物(PM2.5)"
淮南市,国庆中路369号,117.003137,32.644456,2026-01-23T1900,58,92,0.7,41,7,57,73,79,细颗粒物(PM2.5)
黄冈市,职工中心,114.9021,30.474,2026-01-23T1900,68,86,1.2,29,10,76,83,92,细颗粒物(PM2.5)
黄冈市,红卫路,114.8858,30.4519,2026-01-23T1900,66,73,0.8,28,11,77,77,89,细颗粒物(PM2.5)
黄冈市,市林业局,114.9134,30.4446,2026-01-23T1900,64,76,1.0,27,3,79,82,87,细颗粒物(PM2.5)
黄南藏族自治州,同仁县隆务镇,102.02,35.5101,2026-01-23T1900,17,78,0.6,14,14,52,64,64,颗粒物(PM10)
黄山市,延安路89号,118.2905,29.6965,2026-01-23T1900,34,50,0.7,30,5,49,78,50,
黄山市,黄山区政府5号楼,118.1369,30.2755,2026-01-23T1900,26,31,0.6,16,2,51,70,38,
黄山市,滨江东路7-2号,118.335445,29.720283,2026-01-23T1900,39,64,/,34,/,43,76,57,颗粒物(PM10)
黄石市,沈家营,115.0547,30.2332,2026-01-23T1900,62,76,1.5,34,9,47,55,84,细颗粒物(PM2.5)
黄石市,铁山,114.899,30.211,2026-01-23T1900,68,70,0.7,21,7,76,,92,细颗粒物(PM2.5)
黄石市,团城山,115.0259,30.2108,2026-01-23T1900,65,68,0.9,25,6,70,77,88,细颗粒物(PM2.5)
黄石市,笔架山北路,115.0174,30.1591,2026-01-23T1900,61,72,1.2,21,6,66,77,83,细颗粒物(PM2.5)
黄石市,磁湖东路29号,115.078022,30.21118,2026-01-23T1900,129,138,2.2,75,7,27,68,170,细颗粒物(PM2.5)
惠州市,河南岸金山湖子站,114.4181,23.0528,2026-01-23T1900,37,54,0.9,31,5,27,36,53,细颗粒物(PM2.5)
惠州市,下埔横江三路子站,114.4055,23.0824,2026-01-23T1900,33,48,0.8,28,7,31,39,48,
惠州市,惠阳区承修路船湖子站,114.4645,22.7832,2026-01-23T1900,45,58,0.8,32,7,37,41,63,细颗粒物(PM2.5)
惠州市,大亚湾管委会子站,114.5316,22.7423,2026-01-23T1900,35,57,0.6,26,8,38,39,54,颗粒物(PM10)
惠州市,惠阳秋长,114.4334,22.8134,2026-01-23T1900,39,70,/,42,/,37,45,60,颗粒物(PM10)
惠州市,大亚湾霞涌,114.6521,22.7755,2026-01-23T1900,29,52,/,22,/,46,50,51,颗粒物(PM10)
惠州市,文华一路1号,114.4089,23.1147,2026-01-23T1900,31,48,/,30,/,29,39,48,
鸡西市,环保局,130.9618,45.2926,2026-01-23T1900,20,34,0.4,17,8,57,64,34,
鸡西市,第一中学,130.9294,45.2959,2026-01-23T1900,21,30,0.4,10,4,66,68,30,
鸡西市,欧美日汽修厂,131.0069,45.2988,2026-01-23T1900,20,39,0.2,15,8,59,66,39,
吉安市,红声器材厂,114.9753,27.0803,2026-01-23T1900,40,54,0.8,22,10,52,52,57,细颗粒物(PM2.5)
吉安市,市环境监测站,114.9903,27.1313,2026-01-23T1900,42,57,/,9,13,58,54,59,细颗粒物(PM2.5)
吉安市,青原区法院,115.009527,27.096792,2026-01-23T1900,40,59,0.8,19,12,51,47,57,细颗粒物(PM2.5)
吉林市,哈达湾,126.54,43.8622,2026-01-23T1900,20,32,0.8,14,8,74,77,32,
吉林市,东局子,126.5843,43.8358,2026-01-23T1900,30,38,0.7,22,4,61,68,43,
吉林市,电力学院,126.5051,43.8243,2026-01-23T1900,41,54,0.8,19,9,69,77,58,细颗粒物(PM2.5)
吉林市,江北,126.6133,43.8971,2026-01-23T1900,31,48,0.7,20,10,59,69,48,
吉林市,江南公园,126.5549,43.8304,2026-01-23T1900,29,43,0.6,17,7,65,72,43,
吉林市,九站,126.4737,43.953,2026-01-23T1900,31,41,0.7,24,8,61,71,45,
济南市,科干所,116.9866,36.6118,2026-01-23T1900,81,119,0.9,62,11,40,86,108,细颗粒物(PM2.5)
济南市,农科所,116.9379,36.6652,2026-01-23T1900,81,122,1.0,57,11,54,78,108,细颗粒物(PM2.5)
济南市,开发区,117.1265,36.6736,2026-01-23T1900,98,139,1.1,72,7,37,75,129,细颗粒物(PM2.5)
济南市,省种子仓库,117.0616,36.6865,2026-01-23T1900,92,141,,52,12,52,79,122,细颗粒物(PM2.5)
济南市,机床二厂,116.9495185,36.644937,2026-01-23T1900,103,137,0.9,63,11,43,90,135,细颗粒物(PM2.5)
济南市,市监测站,117.0496,36.6629,2026-01-23T1900,88,137,1.0,62,8,42,80,117,细颗粒物(PM2.5)
济南市,长清党校,116.7674,36.5458,2026-01-23T1900,59,129,1.0,63,14,48,90,90,颗粒物(PM10)
济南市,东山小学,117.5323,36.6865,2026-01-23T1900,90,117,0.7,51,4,47,85,119,细颗粒物(PM2.5)
济南市,泰兴公司,117.7181,36.205,2026-01-23T1900,102,151,1.6,89,10,14,78,134,细颗粒物(PM2.5)
济南市,莱芜战役纪念馆,117.6861,36.2172,2026-01-23T1900,98,117,1.0,52,17,56,78,129,细颗粒物(PM2.5)
济南市,济阳区政府,117.1673,36.9782,2026-01-23T1900,93,139,1.0,39,11,79,85,123,细颗粒物(PM2.5)
济南市,锦屏中学,117.1168,36.6299,2026-01-23T1900,81,120,1.3,59,3,38,85,108,细颗粒物(PM2.5)
济南市,山财大街5号,117.7107,36.2385,2026-01-23T1900,81,110,1.0,50,13,63,80,108,细颗粒物(PM2.5)
济南市,无影山路12号,116.9744,36.6889,2026-01-23T1900,93,129,1.1,70,13,39,78,123,细颗粒物(PM2.5)
济宁市,火炬城,116.6229,35.4288,2026-01-23T1900,97,98,0.7,36,4,65,77,128,细颗粒物(PM2.5)
济宁市,北湖一中,116.5808,35.3703,2026-01-23T1900,86,96,0.7,36,4,72,84,114,细颗粒物(PM2.5)
济宁市,服务中心,116.8251,35.5592,2026-01-23T1900,86,122,0.6,31,5,52,71,114,细颗粒物(PM2.5)
济宁市,市第七中学,116.5907,35.4054,2026-01-23T1900,90,113,1.0,49,6,61,90,119,细颗粒物(PM2.5)
济宁市,任和路,116.6075,35.4566,2026-01-23T1900,100,144,0.7,42,5,61,80,132,细颗粒物(PM2.5)
济宁市,文体南路1号,116.5648,35.3921,2026-01-23T1900,94,121,0.7,38,5,73,89,124,细颗粒物(PM2.5)
佳木斯市,佳纺,130.2749,46.8028,2026-01-23T1900,38,63,0.7,19,6,49,65,57,颗粒物(PM10)
佳木斯市,环保局,130.3258,46.7975,2026-01-23T1900,41,45,0.6,22,7,52,65,58,细颗粒物(PM2.5)
佳木斯市,顺和街,130.363,46.806,2026-01-23T1900,40,43,0.5,19,9,51,61,57,细颗粒物(PM2.5)
佳木斯市,长安路196号,130.3952,46.8268,2026-01-23T1900,,,,19,6,59,69,,
嘉兴市,清河小学,120.7439,30.778,2026-01-23T1900,52,77,0.9,42,6,52,74,72,细颗粒物(PM2.5)
嘉兴市,嘉兴学院,120.7261,30.7477,2026-01-23T1900,47,81,1.2,51,5,41,70,66,颗粒物(PM10)
嘉兴市,南湖区残联,120.7845,30.7524,2026-01-23T1900,54,72,0.9,54,5,48,76,74,细颗粒物(PM2.5)
嘉兴市,秀洲住建,120.6915,30.7741,2026-01-23T1900,60,90,0.6,56,6,38,77,82,细颗粒物(PM2.5)
嘉峪关市,气象局,98.291,39.7705,2026-01-23T1900,41,134,0.6,15,14,63,69,92,颗粒物(PM10)
嘉峪关市,酒钢宾馆,98.2672,39.7978,2026-01-23T1900,,,0.6,16,,,66,,
嘉峪关市,雄关区,98.2644,39.7723,2026-01-23T1900,44,108,0.7,17,16,64,68,79,颗粒物(PM10)
江门市,北街,113.1063,22.6058,2026-01-23T1900,39,70,/,66,/,1,15,60,颗粒物(PM10)
江门市,西区,113.073,22.5835,2026-01-23T1900,43,86,/,56,/,2,14,68,颗粒物(PM10)
江门市,圭峰西,113.0218,22.531,2026-01-23T1900,46,60,/,40,/,7,18,64,细颗粒物(PM2.5)
江门市,东湖,113.0826,22.5947,2026-01-23T1900,38,70,0.7,48,8,2,15,60,颗粒物(PM10)
江门市,江海富民,113.1077,22.5647,2026-01-23T1900,31,66,0.6,62,/,3,16,58,颗粒物(PM10)
江门市,新会银湖,113.0496,22.4669,2026-01-23T1900,43,76,0.7,54,8,2,12,63,颗粒物(PM10)
焦作市,马村街道办,113.3137,35.2643,2026-01-23T1900,194,211,1.3,48,10,55,77,244,细颗粒物(PM2.5)
焦作市,焦作技师学院,113.2464,35.2374,2026-01-23T1900,180,222,,52,14,63,79,230,细颗粒物(PM2.5)
焦作市,中站许衡医院,113.1656,35.2536,2026-01-23T1900,161,193,1.6,56,13,60,76,211,细颗粒物(PM2.5)
焦作市,原李万街道办,113.2456,35.18,2026-01-23T1900,166,191,1.3,47,6,55,76,216,细颗粒物(PM2.5)
焦作市,新安路1731号,113.234,35.219,2026-01-23T1900,183,221,1.4,46,9,61,76,233,细颗粒物(PM2.5)
焦作市,人民路3066号,113.2722,35.2121,2026-01-23T1900,155,223,1.5,61,6,38,75,205,细颗粒物(PM2.5)
揭阳市,新兴,116.3701,23.5345,2026-01-23T1900,37,38,1.2,37,7,34,44,53,细颗粒物(PM2.5)
揭阳市,西马,116.3261,23.5442,2026-01-23T1900,33,48,0.9,36,4,20,39,48,
揭阳市,东兴,116.361,23.5627,2026-01-23T1900,36,47,/,40,8,19,38,52,细颗粒物(PM2.5)
揭阳市,渔湖,116.4151,23.5295,2026-01-23T1900,,76,/,25,4,40,51,,
揭阳市,曲溪,116.4028,23.5699,2026-01-23T1900,41,68,0.8,37,4,27,42,59,颗粒物(PM10)
金昌市,天庆家园,102.1691,38.5166,2026-01-23T1900,50,100,1.1,22,37,61,67,75,颗粒物(PM10)
金昌市,金川区人防中心,102.1648,38.5369,2026-01-23T1900,67,98,0.9,32,9,54,69,90,细颗粒物(PM2.5)
金昌市,长春路96号,102.193042,38.531887,2026-01-23T1900,50,99,0.8,20,10,62,67,75,颗粒物(PM10)
金华市,十五中,119.6478,29.0773,2026-01-23T1900,71,106,0.6,64,4,31,43,95,细颗粒物(PM2.5)
金华市,监测站,119.6859,29.1032,2026-01-23T1900,69,99,0.6,58,4,27,39,93,细颗粒物(PM2.5)
金华市,气象局,119.656,29.1132,2026-01-23T1900,68,105,0.6,54,4,25,42,92,细颗粒物(PM2.5)
锦州市,南山,121.1114,41.0879,2026-01-23T1900,12,23,0.5,18,6,64,70,23,
锦州市,开发区,121.060361,40.842794,2026-01-23T1900,25,43,0.6,55,21,28,61,43,
锦州市,百股街道,121.1836,41.1118,2026-01-23T1900,33,41,0.7,27,12,59,69,48,
锦州市,天安街道,121.1176,41.1224,2026-01-23T1900,15,30,0.7,22,4,63,73,30,
锦州市,北湖公园,121.1303,41.1385,2026-01-23T1900,20,25,0.7,19,8,58,68,29,
晋城市,自来水公司,112.8496,35.5051,2026-01-23T1900,57,75,0.7,29,10,81,84,78,细颗粒物(PM2.5)
晋城市,市环保局,112.8509,35.4886,2026-01-23T1900,58,101,0.9,28,8,84,90,79,细颗粒物(PM2.5)
晋城市,泽州一中,112.8258,35.4804,2026-01-23T1900,66,96,0.9,36,6,74,88,89,细颗粒物(PM2.5)
晋城市,前书院路,112.8246,35.5152,2026-01-23T1900,56,105,0.8,30,8,74,82,78,颗粒物(PM10)
晋城市,祥云街666号,112.8864,35.4773,2026-01-23T1900,73,91,0.7,27,6,86,85,98,细颗粒物(PM2.5)
晋中市,榆次区政府,112.6992,37.6984,2026-01-23T1900,58,129,0.9,85,24,18,58,90,颗粒物(PM10)
晋中市,榆次三中,112.7195,37.683,2026-01-23T1900,42,119,0.9,54,18,43,62,85,颗粒物(PM10)
晋中市,广安街188号,112.7375,37.7215,2026-01-23T1900,62,165,0.7,75,24,22,61,108,颗粒物(PM10)
晋中市,迎宾街26号,112.7478,37.6954,2026-01-23T1900,58,122,1.0,54,17,42,64,86,颗粒物(PM10)
荆门市,竹园小学,112.2012,31.048,2026-01-23T1900,83,88,0.5,35,7,56,70,110,细颗粒物(PM2.5)
荆门市,掇刀,112.1968,30.9892,2026-01-23T1900,74,91,0.7,29,1,72,76,99,细颗粒物(PM2.5)
荆门市,西山林语,112.1849,31.0361,2026-01-23T1900,65,75,0.8,27,3,67,76,88,细颗粒物(PM2.5)
荆门市,龙泉中学南校,112.1631,31.0134,2026-01-23T1900,73,97,,26,4,72,75,,
荆门市,新台西路6号,112.2213,31.0654,2026-01-23T1900,69,97,0.8,39,9,53,71,93,细颗粒物(PM2.5)
荆州市,市图书馆,112.2493,30.3198,2026-01-23T1900,66,70,1.0,30,7,72,76,89,细颗粒物(PM2.5)
荆州市,市委党校,112.2009,30.3543,2026-01-23T1900,64,94,1.1,63,2,33,64,87,细颗粒物(PM2.5)
荆州市,管委会,112.2749,30.3124,2026-01-23T1900,63,,1.0,29,6,64,74,85,细颗粒物(PM2.5)
荆州市,学苑路85号,112.1722,30.3366,2026-01-23T1900,57,65,0.9,18,11,78,78,78,细颗粒物(PM2.5)
景德镇市,老干部活动中心,117.2114,29.2931,2026-01-23T1900,66,,1.0,26,10,64,65,89,细颗粒物(PM2.5)
景德镇市,兽医站,117.1893,29.2789,2026-01-23T1900,37,64,0.4,33,4,66,74,57,颗粒物(PM10)
景德镇市,陶研所,117.246,29.2958,2026-01-23T1900,62,63,1.1,37,7,41,64,84,细颗粒物(PM2.5)
景德镇市,青少年活动中心,117.154766,29.256967,2026-01-23T1900,38,72,/,42,26,60,76,61,颗粒物(PM10)
九江市,十里,115.9873,29.6816,2026-01-23T1900,49,62,0.9,60,5,31,74,68,细颗粒物(PM2.5)
九江市,茅山头,115.9583,29.7047,2026-01-23T1900,48,75,0.9,60,4,24,73,67,细颗粒物(PM2.5)
九江市,西园,115.9877,29.7295,2026-01-23T1900,36,62,0.7,73,5,32,75,56,颗粒物(PM10)
九江市,综合工业园,115.9112,29.6038,2026-01-23T1900,,,0.8,42,2,,82,,
九江市,外国语学校,116.0254,29.6995,2026-01-23T1900,41,57,0.9,62,9,34,67,58,细颗粒物(PM2.5)
九江市,莲花大道8号,116.010205,29.659402,2026-01-23T1900,43,48,0.5,30,3,39,60,60,细颗粒物(PM2.5)
酒泉市,玉门东路5号,98.495752,39.733935,2026-01-23T1900,34,136,0.6,12,12,64,65,93,颗粒物(PM10)
酒泉市,北大街108号,98.5099,39.7506,2026-01-23T1900,26,134,0.5,14,13,57,58,92,颗粒物(PM10)
喀什地区,巡警大队,76.0071,39.466,2026-01-23T1900,135,475,0.8,17,4,36,35,369,颗粒物(PM10)
喀什地区,吾办,75.9756,39.4693,2026-01-23T1900,155,426,0.9,20,12,36,36,308,颗粒物(PM10)
喀什地区,老干局,75.9485,39.4688,2026-01-23T1900,118,480,0.7,15,3,36,31,375,颗粒物(PM10)
开封市,肿瘤医院,114.3389,34.778,2026-01-23T1900,149,162,1.1,41,9,95,88,199,细颗粒物(PM2.5)
开封市,世纪星幼儿园,114.2884,34.7966,2026-01-23T1900,170,,1.1,57,5,64,81,220,细颗粒物(PM2.5)
开封市,龙亭公园,114.3434,34.8101,2026-01-23T1900,184,,1.0,44,7,97,84,234,细颗粒物(PM2.5)
开封市,汴京公园,114.3645,34.7955,2026-01-23T1900,168,187,0.8,54,4,76,78,218,细颗粒物(PM2.5)
开封市,技师学院,114.2485,34.8306,2026-01-23T1900,157,,1.1,51,6,61,84,207,细颗粒物(PM2.5)
开封市,祥符区生态环境局,114.4518,34.7503,2026-01-23T1900,154,208,0.9,66,4,65,86,204,细颗粒物(PM2.5)
克拉玛依市,长征新村,84.886,45.6029,2026-01-23T1900,53,82,0.6,17,9,69,54,73,细颗粒物(PM2.5)
克拉玛依市,南林小区,84.8894,45.5827,2026-01-23T1900,42,74,0.7,14,5,68,54,62,颗粒物(PM10)
克拉玛依市,独山子区,84.896,44.3328,2026-01-23T1900,42,84,0.4,27,3,66,72,67,颗粒物(PM10)
克拉玛依市,乌尔禾区商贸楼,85.6888,46.0909,2026-01-23T1900,45,61,0.5,22,10,69,53,63,细颗粒物(PM2.5)
克拉玛依市,白碱滩区新站,85.1045,45.6895,2026-01-23T1900,,,0.7,26,,67,50,,
克孜勒苏柯尔克孜自治州,市人民政府,76.1457,39.7143,2026-01-23T1900,146,572,0.7,19,4,39,30,472,颗粒物(PM10)
克孜勒苏柯尔克孜自治州,克州文化中心,76.1654,39.7157,2026-01-23T1900,162,544,1.0,19,4,33,35,444,颗粒物(PM10)
昆明市,呈贡新区,102.8203,24.889,2026-01-23T1900,9,31,0.3,9,4,76,85,31,
昆明市,龙泉镇,102.7253,25.0904,2026-01-23T1900,12,32,0.3,15,4,77,85,32,
昆明市,东风东路,102.7267,25.0378,2026-01-23T1900,,,,,,,87,,
昆明市,金鼎山,102.6744,25.0671,2026-01-23T1900,17,33,0.4,17,6,74,84,33,
昆明市,碧鸡广场,102.6643,25.0401,2026-01-23T1900,18,28,0.6,16,7,77,85,28,
昆明市,官渡区博物馆,102.7491,25.012,2026-01-23T1900,16,31,0.4,21,5,73,89,31,
昆明市,青年创业园,102.8016,24.8336,2026-01-23T1900,11,15,0.2,3,5,84,91,27,
昆明市,昆明学院,102.8,24.9787,2026-01-23T1900,12,24,0.3,11,2,81,95,26,
昆明市,晋宁区生态环境分局,102.5969,24.6738,2026-01-23T1900,7,13,0.5,3,3,88,88,28,
昆明市,云天化总部,102.6673,24.9861,2026-01-23T1900,8,15,0.3,12,6,83,89,26,
拉萨市,八廓街,91.132,29.6515,2026-01-23T1900,10,22,0.5,14,8,,82,,
拉萨市,市环保局,91.1221,29.6748,2026-01-23T1900,6,10,0.7,22,8,76,78,24,
拉萨市,区监测站,91.0874,29.6476,2026-01-23T1900,6,9,0.7,16,4,84,79,27,
拉萨市,西藏大学,91.1774,29.6541,2026-01-23T1900,7,14,0.6,17,6,90,82,29,
拉萨市,区辐射站,90.9798,29.6586,2026-01-23T1900,7,20,0.5,29,4,69,73,22,
拉萨市,拉萨火车站,91.0831,29.6292,2026-01-23T1900,3,10,0.3,14,4,79,73,25,
来宾市,来宾技工学校,109.2203,23.7252,2026-01-23T1900,38,39,0.5,18,8,45,44,54,细颗粒物(PM2.5)
来宾市,兴宾区政府,109.1781,23.7293,2026-01-23T1900,29,56,0.7,20,6,41,46,53,颗粒物(PM10)
来宾市,中南小学,109.2312,23.7428,2026-01-23T1900,39,,0.8,20,6,42,44,55,细颗粒物(PM2.5)
兰州市,铁路设计院,103.8309,36.0467,2026-01-23T1900,,,,,,,,,
兰州市,百合公园,103.7439,36.0841,2026-01-23T1900,88,135,1.6,123,20,5,47,117,细颗粒物(PM2.5)
兰州市,和平,103.9613,35.9985,2026-01-23T1900,80,105,1.1,,16,43,73,107,细颗粒物(PM2.5)
兰州市,庄浪东路808号,103.629272,36.093822,2026-01-23T1900,70,119,1.2,80,21,47,80,94,细颗粒物(PM2.5)
兰州市,安宁西路88号,103.7251,36.104344,2026-01-23T1900,83,162,1.9,139,31,6,63,110,细颗粒物(PM2.5)
兰州市,北滨河东路1号,103.846982,36.067567,2026-01-23T1900,84,161,2.3,135,25,2,50,112,细颗粒物(PM2.5)
廊坊市,药材公司,116.6712,39.5109,2026-01-23T1900,18,57,0.5,45,1,22,51,54,颗粒物(PM10)
廊坊市,开发区,116.7215,39.5592,2026-01-23T1900,15,29,0.6,54,1,19,58,29,
廊坊市,北华航天学院,116.7246,39.5273,2026-01-23T1900,19,39,0.7,61,2,15,55,39,
廊坊市,河北工业大学,116.7022,39.5454,2026-01-23T1900,24,37,0.6,44,2,24,55,37,
乐山市,牛耳桥,103.7629,29.5844,2026-01-23T1900,42,51,0.8,23,5,37,33,59,细颗粒物(PM2.5)
乐山市,市第三水厂,103.7501,29.6002,2026-01-23T1900,45,54,0.9,29,6,35,30,63,细颗粒物(PM2.5)
乐山市,市监测站,103.7571,29.5664,2026-01-23T1900,40,46,0.8,21,4,35,33,57,细颗粒物(PM2.5)
乐山市,理工大学,103.7313,29.563,2026-01-23T1900,43,52,0.8,22,5,22,33,60,细颗粒物(PM2.5)
丽江市,丽江古城,100.2497,26.8802,2026-01-23T1900,14,39,0.5,19,11,81,81,39,
丽江市,市中心,100.2203,26.8906,2026-01-23T1900,17,33,0.6,26,8,76,81,33,
丽水市,监测站大楼,119.9141,28.4513,2026-01-23T1900,71,71,0.6,39,5,30,48,95,细颗粒物(PM2.5)
丽水市,莲都小学,119.93,28.4589,2026-01-23T1900,56,83,/,46,/,35,48,77,细颗粒物(PM2.5)
丽水市,余庄前,119.8794,28.4232,2026-01-23T1900,50,72,0.4,36,4,23,40,69,细颗粒物(PM2.5)
连云港市,市环境监测站,119.1759,34.5885,2026-01-23T1900,68,95,0.8,66,14,40,74,92,细颗粒物(PM2.5)
连云港市,德源药业,119.3577,34.6971,2026-01-23T1900,63,100,0.7,64,6,38,74,85,细颗粒物(PM2.5)
连云港市,新城一中,119.178,34.8442,2026-01-23T1900,84,91,0.9,50,12,62,82,112,细颗粒物(PM2.5)
连云港市,胡沟管理处,119.3607,34.7519,2026-01-23T1900,51,66,0.8,39,7,74,80,70,细颗粒物(PM2.5)
连云港市,矿山设计院,119.1478,34.5913,2026-01-23T1900,70,100,1.0,56,18,42,71,94,细颗粒物(PM2.5)
连云港市,工贸学校,119.2414,34.6539,2026-01-23T1900,89,104,1.0,33,16,63,77,118,细颗粒物(PM2.5)
连云港市,连云街道,119.4171,34.734,2026-01-23T1900,69,82,0.8,27,9,85,78,93,细颗粒物(PM2.5)
凉山彝族自治州,西昌市政府,102.2629,27.8981,2026-01-23T1900,38,53,0.7,28,9,84,90,54,细颗粒物(PM2.5)
凉山彝族自治州,凉山州政府,102.2686,27.885,2026-01-23T1900,37,60,0.8,42,10,63,82,55,颗粒物(PM10)
凉山彝族自治州,凯乐南路30号,102.2342,27.8859,2026-01-23T1900,30,45,0.7,33,12,53,74,45,
辽阳市,宏伟区,123.1978,41.2036,2026-01-23T1900,59,76,0.9,31,9,36,66,80,细颗粒物(PM2.5)
辽阳市,新华园,123.1684,41.2497,2026-01-23T1900,28,56,0.5,29,7,50,68,53,颗粒物(PM10)
辽阳市,滨河路,123.2355,41.2663,2026-01-23T1900,36,52,0.6,32,6,38,60,52,细颗粒物(PM2.5)
辽阳市,铁西路150号,123.153,41.2874,2026-01-23T1900,21,50,0.7,23,8,53,70,50,
辽源市,环保局,125.1359,42.8845,2026-01-23T1900,34,44,0.9,40,5,44,70,49,
辽源市,安宁大街333号,125.0998,42.9134,2026-01-23T1900,31,48,0.7,14,5,58,68,48,
聊城市,区政府,115.9789,36.4372,2026-01-23T1900,105,139,1.1,50,14,62,74,138,细颗粒物(PM2.5)
聊城市,监控中心,115.9772,36.4986,2026-01-23T1900,136,164,1.2,86,8,28,81,180,细颗粒物(PM2.5)
聊城市,九州社区,116.0443,36.436,2026-01-23T1900,106,133,0.9,27,7,84,87,139,细颗粒物(PM2.5)
聊城市,星美广场,116.0564,36.4609,2026-01-23T1900,129,184,1.1,58,5,42,74,170,细颗粒物(PM2.5)
聊城市,利民路,116.0091,36.4495,2026-01-23T1900,106,137,1.1,49,11,60,70,139,细颗粒物(PM2.5)
林芝市,林芝监测站,94.3683,29.6373,2026-01-23T1900,11,18,0.2,3,3,66,67,21,
林芝市,林芝人民医院,94.3616,29.6634,2026-01-23T1900,11,25,0.1,6,7,79,80,25,
临沧市,市环保局,100.0779,23.8981,2026-01-23T1900,43,,0.4,11,9,80,93,,
临沧市,市气象局,100.0894,23.882,2026-01-23T1900,19,45,0.4,10,12,83,95,45,
临汾市,临钢医院,111.5552,36.0791,2026-01-23T1900,106,166,1.8,53,25,38,57,139,细颗粒物(PM2.5)
临汾市,技工学校,111.4984,36.0734,2026-01-23T1900,112,139,1.7,42,25,49,55,147,细颗粒物(PM2.5)
临汾市,市委,111.5017,36.0857,2026-01-23T1900,83,151,1.7,44,26,53,57,110,细颗粒物(PM2.5)
临汾市,唐尧大酒店,111.5048,36.1015,2026-01-23T1900,83,130,1.5,42,21,60,60,110,细颗粒物(PM2.5)
临汾市,启星学校,111.4879,36.053,2026-01-23T1900,95,127,1.7,59,26,46,57,125,细颗粒物(PM2.5)
临夏回族自治州,滨河东路1号,103.2464,35.6123,2026-01-23T1900,78,80,1.2,40,13,52,82,104,细颗粒物(PM2.5)
临夏回族自治州,新华街21号,103.207136,35.599807,2026-01-23T1900,52,100,1.0,40,14,71,77,75,颗粒物(PM10)
临沂市,沂河小区,118.3429,35.0532,2026-01-23T1900,104,144,1.2,55,19,56,80,137,细颗粒物(PM2.5)
临沂市,鲁南制药厂,118.2962,35.0568,2026-01-23T1900,120,163,1.0,86,36,34,78,158,细颗粒物(PM2.5)
临沂市,新光毛纺厂,118.2793,34.9976,2026-01-23T1900,100,129,1.2,64,25,54,83,132,细颗粒物(PM2.5)
临沂市,河东保险公司,118.3955,35.0889,2026-01-23T1900,86,127,1.2,51,16,68,89,114,细颗粒物(PM2.5)
临沂市,十里堡居委,118.3563,35.0215,2026-01-23T1900,75,146,1.3,76,25,44,80,100,细颗粒物(PM2.5)
临沂市,南坊新区,118.359,35.1067,2026-01-23T1900,83,119,1.2,50,12,70,82,110,细颗粒物(PM2.5)
临沂市,皇山花园小区,118.3915,35.0297,2026-01-23T1900,77,129,1.2,64,24,61,84,103,细颗粒物(PM2.5)
柳州市,柳东小学,109.4854,24.3898,2026-01-23T1900,30,33,0.7,12,8,59,52,43,
柳州市,环保监测站,109.4109,24.3304,2026-01-23T1900,22,37,0.6,16,4,55,52,37,
柳州市,河西水厂,109.3886,24.3408,2026-01-23T1900,24,36,0.3,11,5,58,52,36,
柳州市,市四中,109.4263,24.2951,2026-01-23T1900,20,30,1.0,18,9,52,51,30,
柳州市,市九中,109.396,24.3658,2026-01-23T1900,27,52,0.6,13,8,57,52,51,颗粒物(PM10)
柳州市,古亭山,109.4912,24.3164,2026-01-23T1900,,,0.8,18,8,46,54,,
柳州市,市二中,109.5422,24.3994,2026-01-23T1900,35,45,0.7,17,18,63,58,50,
六安市,监测大楼,116.5078,31.7369,2026-01-23T1900,40,54,0.4,25,3,76,81,57,细颗粒物(PM2.5)
六安市,皖西学院,116.4738,31.7642,2026-01-23T1900,43,75,0.4,28,5,80,88,63,颗粒物(PM10)
六安市,朝阳厂,116.4997,31.7904,2026-01-23T1900,40,68,0.6,46,5,67,82,59,颗粒物(PM10)
六安市,开发区,116.5566,31.7885,2026-01-23T1900,48,79,0.5,57,4,32,79,67,细颗粒物(PM2.5)
六盘水市,黄土坡,104.8293,26.592,2026-01-23T1900,58,78,1.1,30,9,41,48,79,细颗粒物(PM2.5)
六盘水市,民中,104.8481,26.5898,2026-01-23T1900,61,65,1.0,28,5,41,47,83,细颗粒物(PM2.5)
六盘水市,双水,104.9541,26.5506,2026-01-23T1900,45,63,0.8,18,5,46,45,63,细颗粒物(PM2.5)
六盘水市,钟山大道中段564号,104.8899,26.5685,2026-01-23T1900,51,72,1.0,20,5,43,40,70,细颗粒物(PM2.5)
龙岩市,龙岩市监测站,117.022,25.1031,2026-01-23T1900,22,28,0.6,26,14,39,38,32,
龙岩市,闽西职业技术学院,117.0257,25.0662,2026-01-23T1900,21,24,0.9,23,10,37,38,30,
龙岩市,龙岩学院,117.0195,25.0306,2026-01-23T1900,24,25,/,21,9,33,36,35,
陇南市,滨江中学,104.9344,33.3827,2026-01-23T1900,91,168,2.5,80,17,8,47,120,细颗粒物(PM2.5)
陇南市,市总工会,104.9551,33.3709,2026-01-23T1900,49,88,1.0,40,10,38,54,69,颗粒物(PM10)
娄底市,市监测站,111.9984,27.7346,2026-01-23T1900,49,53,0.7,25,8,70,76,68,细颗粒物(PM2.5)
娄底市,市政府,111.9888,27.7035,2026-01-23T1900,43,68,0.8,18,5,66,70,60,细颗粒物(PM2.5)
娄底市,涟钢职大,111.9812,27.7591,2026-01-23T1900,56,76,0.7,20,5,61,75,77,细颗粒物(PM2.5)
娄底市,娄底体校,112.0303,27.7457,2026-01-23T1900,38,66,0.5,16,3,64,68,58,颗粒物(PM10)
泸州市,小市上码头,105.4427,28.9063,2026-01-23T1900,65,82,1.0,28,6,26,26,88,细颗粒物(PM2.5)
泸州市,兰田宪桥,105.4241,28.8573,2026-01-23T1900,61,77,1.2,24,8,29,24,83,细颗粒物(PM2.5)
泸州市,市环监站,105.4378,28.8833,2026-01-23T1900,54,74,1.0,25,8,23,20,74,细颗粒物(PM2.5)
泸州市,纳溪中医医院,105.3689,28.7783,2026-01-23T1900,60,74,0.9,21,8,24,18,82,细颗粒物(PM2.5)
吕梁市,环保局,111.1447,37.5212,2026-01-23T1900,52,72,0.4,80,7,14,56,72,细颗粒物(PM2.5)
吕梁市,自来水公司,111.1285,37.5338,2026-01-23T1900,44,91,0.8,50,7,31,61,71,颗粒物(PM10)
吕梁市,马茂庄小学,111.1225,37.5093,2026-01-23T1900,41,92,0.9,,8,22,59,,
洛阳市,市委党校,112.3934,34.6517,2026-01-23T1900,67,108,1.3,59,12,42,60,90,细颗粒物(PM2.5)
洛阳市,河南林校,112.494,34.6883,2026-01-23T1900,92,128,1.6,89,10,10,51,122,细颗粒物(PM2.5)
洛阳市,开发区管委会,112.3843,34.623,2026-01-23T1900,84,122,1.0,51,12,39,62,112,细颗粒物(PM2.5)
洛阳市,市委新办公区,112.4263,34.6249,2026-01-23T1900,92,151,1.4,80,10,16,60,122,细颗粒物(PM2.5)
洛阳市,伊滨,112.6005,34.6323,2026-01-23T1900,103,155,0.9,62,8,37,59,135,细颗粒物(PM2.5)
洛阳市,中移产业园,112.495,34.6338,2026-01-23T1900,97,126,1.3,91,14,10,57,128,细颗粒物(PM2.5)
洛阳市,吉利监测站,112.5736,34.8993,2026-01-23T1900,149,163,1.7,72,8,35,51,199,细颗粒物(PM2.5)
洛阳市,河科大西苑校区,112.3678,34.6623,2026-01-23T1900,75,128,1.2,74,11,29,60,100,细颗粒物(PM2.5)
洛阳市,英才小学,112.4387,34.678,2026-01-23T1900,93,134,1.5,82,12,26,53,123,细颗粒物(PM2.5)
洛阳市,春都路1号院,112.460027,34.694929,2026-01-23T1900,75,151,1.3,70,10,17,48,101,颗粒物(PM10)
漯河市,三五一五工厂,114.051,33.5721,2026-01-23T1900,105,126,1.2,39,7,71,87,138,细颗粒物(PM2.5)
漯河市,漯河大学,114.0055,33.5698,2026-01-23T1900,95,104,0.6,37,6,79,98,125,细颗粒物(PM2.5)
漯河市,市水利局,114.0134,33.5826,2026-01-23T1900,107,122,0.9,31,4,53,77,140,细颗粒物(PM2.5)
漯河市,市广电局,114.0261,33.5697,2026-01-23T1900,104,125,0.8,37,6,62,82,137,细颗粒物(PM2.5)
漯河市,市图书馆,113.9691,33.568,2026-01-23T1900,84,114,0.7,31,8,82,89,112,细颗粒物(PM2.5)
漯河市,韶山路11号,114.089259,33.588274,2026-01-23T1900,101,133,0.8,40,7,72,81,133,细颗粒物(PM2.5)
马鞍山市,湖东路四小,118.5084,31.6838,2026-01-23T1900,65,81,0.9,60,4,34,64,88,细颗粒物(PM2.5)
马鞍山市,开发区,118.5019,31.6449,2026-01-23T1900,70,84,0.7,80,4,17,67,94,细颗粒物(PM2.5)
马鞍山市,雨山,118.4914,31.681,2026-01-23T1900,63,80,0.6,41,7,57,69,85,细颗粒物(PM2.5)
马鞍山市,慈湖高新区,118.527362,31.722269,2026-01-23T1900,66,97,0.8,72,5,22,56,89,细颗粒物(PM2.5)
茂名市,电白南海,111.0285,21.469,2026-01-23T1900,41,92,1.0,20,14,47,42,71,颗粒物(PM10)
茂名市,茂石化七小,110.9294,21.6533,2026-01-23T1900,46,80,1.0,29,7,26,41,65,颗粒物(PM10)
茂名市,健康路,110.9108,21.6688,2026-01-23T1900,41,61,0.9,31,10,29,46,58,细颗粒物(PM2.5)
茂名市,高岭,110.8592,21.6826,2026-01-23T1900,34,73,/,27,9,27,36,62,颗粒物(PM10)
茂名市,电白水东,111.0101,21.5165,2026-01-23T1900,41,73,/,21,18,44,50,62,颗粒物(PM10)
眉山市,气象局,103.8414,30.0871,2026-01-23T1900,44,56,0.9,22,11,41,38,62,细颗粒物(PM2.5)
眉山市,区人社局,103.829,30.0563,2026-01-23T1900,39,56,1.2,25,6,32,31,55,细颗粒物(PM2.5)
眉山市,眉职院,103.8836,30.0695,2026-01-23T1900,33,48,1.0,22,2,33,34,48,
梅州市,梅江月梅,116.1248,24.3307,2026-01-23T1900,38,50,/,38,/,3,10,54,细颗粒物(PM2.5)
梅州市,梅县新城,116.0798,24.2719,2026-01-23T1900,41,46,0.6,37,8,4,12,58,细颗粒物(PM2.5)
梅州市,梅龙,116.1234,24.2994,2026-01-23T1900,36,56,1.0,37,8,4,11,53,颗粒物(PM10)
绵阳市,富乐山,104.7775,31.4741,2026-01-23T1900,32,41,0.6,17,8,35,43,46,
绵阳市,高新区自来水公司,104.6698,31.4668,2026-01-23T1900,39,55,1.0,43,8,17,25,55,细颗粒物(PM2.5)
绵阳市,西科大附属小学,104.6899,31.5324,2026-01-23T1900,43,57,0.7,30,8,32,37,60,细颗粒物(PM2.5)
绵阳市,安州区旅游局,104.5647,31.5343,2026-01-23T1900,46,55,0.6,40,12,23,28,64,细颗粒物(PM2.5)
绵阳市,科技城新区公安局,104.7092,31.4972,2026-01-23T1900,35,43,0.8,31,6,41,44,50,
绵阳市,绵阳市气象局,104.765114,31.453094,2026-01-23T1900,40,,0.8,21,4,34,32,57,细颗粒物(PM2.5)
牡丹江市,环保大楼,129.61,44.561,2026-01-23T1900,21,27,0.3,16,3,65,70,30,
牡丹江市,机车工厂,129.6364,44.6075,2026-01-23T1900,29,48,0.6,17,4,66,67,48,
牡丹江市,第一中学,129.6386,44.5462,2026-01-23T1900,14,36,0.2,12,4,65,68,36,
牡丹江市,东晓云街98号,129.5992,44.5964,2026-01-23T1900,26,47,0.3,8,4,70,70,47,
内江市,市监测站,105.0703,29.61,2026-01-23T1900,61,,0.9,20,4,31,34,83,细颗粒物(PM2.5)
内江市,内江二中,105.0657,29.5807,2026-01-23T1900,49,76,0.6,33,4,23,24,68,细颗粒物(PM2.5)
内江市,内江日报社,105.0407,29.5828,2026-01-23T1900,48,57,0.9,26,5,35,26,67,细颗粒物(PM2.5)
内江市,玉峰路西段888号,105.0433,29.6105,2026-01-23T1900,47,52,1.2,27,3,34,32,65,细颗粒物(PM2.5)
那曲市,那曲监测站,92.0653,31.4846,2026-01-23T1900,7,18,0.6,11,6,73,64,23,
那曲市,那曲市委宣传部,92.0515,31.4787,2026-01-23T1900,3,8,0.4,6,4,,67,,
南昌市,省林业公司,115.8887,28.7006,2026-01-23T1900,70,90,0.5,32,6,54,56,94,细颗粒物(PM2.5)
南昌市,林科所,115.813,28.7443,2026-01-23T1900,48,63,0.5,49,5,38,64,67,细颗粒物(PM2.5)
南昌市,建工学校,115.8518,28.687,2026-01-23T1900,53,88,0.8,53,9,49,53,73,细颗粒物(PM2.5)
南昌市,象湖,115.8926,28.6425,2026-01-23T1900,70,75,0.6,32,10,53,55,94,细颗粒物(PM2.5)
南昌市,机电学校,115.9084,28.6062,2026-01-23T1900,75,100,0.5,32,6,56,59,100,细颗粒物(PM2.5)
南昌市,外国语学校,115.9718,28.7032,2026-01-23T1900,54,82,0.6,31,14,65,65,74,细颗粒物(PM2.5)
南昌市,工业二路,115.7923,28.6873,2026-01-23T1900,48,62,0.6,25,5,62,73,67,细颗粒物(PM2.5)
南昌市,南京东路235号,115.931587,28.686774,2026-01-23T1900,79,87,0.6,28,8,55,59,105,细颗粒物(PM2.5)
南充市,南充市委,106.0791,30.8022,2026-01-23T1900,36,45,0.8,44,4,24,34,52,细颗粒物(PM2.5)
南充市,南充炼油厂,106.1038,30.8215,2026-01-23T1900,35,58,0.7,33,5,34,37,54,颗粒物(PM10)
南充市,梨树横街98号,106.108336,30.788436,2026-01-23T1900,26,46,0.8,32,5,45,42,46,
南充市,清泉寺北路188号,106.1172,30.843,2026-01-23T1900,26,39,0.6,33,7,36,47,39,
南充市,同庆路1号,106.067,30.7616,2026-01-23T1900,36,44,0.9,45,6,28,34,52,细颗粒物(PM2.5)
南京市,迈皋桥,118.8033,32.1085,2026-01-23T1900,48,74,0.6,55,6,23,64,67,细颗粒物(PM2.5)
南京市,草场门,118.7487,32.057,2026-01-23T1900,44,80,0.9,67,3,26,47,65,颗粒物(PM10)
南京市,中华门,118.770105,32.004342,2026-01-23T1900,46,73,0.9,41,4,48,62,64,细颗粒物(PM2.5)
南京市,瑞金路,118.8059,32.0329,2026-01-23T1900,58,97,2.0,57,4,15,59,79,细颗粒物(PM2.5)
南京市,玄武湖,118.7946,32.0774,2026-01-23T1900,49,81,0.7,23,4,33,64,68,细颗粒物(PM2.5)
南京市,浦口,118.6415,32.0964,2026-01-23T1900,46,68,0.4,29,8,63,72,64,细颗粒物(PM2.5)
南京市,奥体中心,118.730129,32.000956,2026-01-23T1900,48,74,0.8,48,12,55,72,67,细颗粒物(PM2.5)
南京市,仙林大学城,118.9072,32.1047,2026-01-23T1900,51,73,0.9,62,7,32,61,70,细颗粒物(PM2.5)
南京市,江宁彩虹桥,118.8443,31.919,2026-01-23T1900,53,86,1.4,67,8,42,81,73,细颗粒物(PM2.5)
南京市,六合雄州,118.8497,32.3599,2026-01-23T1900,53,100,0.7,60,10,52,75,75,颗粒物(PM10)
南京市,新模范马路66号,118.7641,32.0841,2026-01-23T1900,52,75,0.4,56,5,40,84,72,细颗粒物(PM2.5)
南京市,汶溪路181号,118.8707617,31.34017673,2026-01-23T1900,74,88,1.2,83,7,20,76,99,细颗粒物(PM2.5)
南京市,中山西路1号,119.019,31.6512,2026-01-23T1900,61,78,1.3,53,4,28,64,83,细颗粒物(PM2.5)
南宁市,二十一中,108.3098,22.788,2026-01-23T1900,30,37,0.7,22,5,40,39,43,
南宁市,北湖,108.3135,22.8529,2026-01-23T1900,39,46,0.7,23,5,34,34,55,细颗粒物(PM2.5)
南宁市,市监测站,108.3205,22.8222,2026-01-23T1900,26,49,0.8,24,8,36,34,49,
南宁市,大自然花园,108.3828,22.8038,2026-01-23T1900,28,45,0.7,12,7,48,46,45,
南宁市,区农职院,108.2397,22.8462,2026-01-23T1900,41,50,0.6,33,9,30,37,58,细颗粒物(PM2.5)
南宁市,英华嘉园,108.3285,22.7356,2026-01-23T1900,44,,0.6,18,4,42,43,62,细颗粒物(PM2.5)
南宁市,红星社区,108.4829,22.762,2026-01-23T1900,30,44,0.6,15,5,45,55,44,
南宁市,起凤路9号,108.2927,23.1477,2026-01-23T1900,47,55,0.8,12,1,44,45,65,细颗粒物(PM2.5)
南宁市,乐贤路16号,108.2177,22.7774,2026-01-23T1900,16,50,0.7,49,2,13,31,50,
南平市,南平市监测站,118.1682,26.6371,2026-01-23T1900,45,48,0.6,16,4,35,38,63,细颗粒物(PM2.5)
南平市,南平七中,118.1757,26.6276,2026-01-23T1900,,,,,,,37,,
南通市,狼山街道,120.9056,31.9669,2026-01-23T1900,73,85,0.7,70,4,32,54,98,细颗粒物(PM2.5)
南通市,城中,120.8635,32.0231,2026-01-23T1900,66,94,0.8,66,5,41,60,89,细颗粒物(PM2.5)
南通市,星湖花园,120.9376,31.9301,2026-01-23T1900,61,91,0.8,76,7,36,60,83,细颗粒物(PM2.5)
南通市,紫琅学院,120.8053,32.046,2026-01-23T1900,79,118,0.8,83,6,25,59,105,细颗粒物(PM2.5)
南通市,通州监测站,121.0631,32.0644,2026-01-23T1900,68,88,0.8,59,4,54,67,92,细颗粒物(PM2.5)
南通市,环境教育馆,120.9348,31.9874,2026-01-23T1900,75,92,0.9,71,6,35,59,100,细颗粒物(PM2.5)
南通市,洪江路,120.8692,31.9885,2026-01-23T1900,64,84,0.6,66,5,34,53,87,细颗粒物(PM2.5)
南阳市,瓦房庄,112.5338,33.0086,2026-01-23T1900,83,104,1.0,28,8,62,74,110,细颗粒物(PM2.5)
南阳市,汉画馆,112.5002,32.9734,2026-01-23T1900,83,94,0.7,26,7,58,75,110,细颗粒物(PM2.5)
南阳市,气象站,112.5778,33.0144,2026-01-23T1900,75,107,0.8,,6,67,78,,
南阳市,理工学院,112.548,32.9687,2026-01-23T1900,71,91,0.8,30,6,60,75,95,细颗粒物(PM2.5)
南阳市,卧龙区政府,112.5233,32.9921,2026-01-23T1900,77,106,0.8,27,6,59,72,103,细颗粒物(PM2.5)
宁波市,区环保大楼,121.8352,29.9111,2026-01-23T1900,57,112,0.6,135,10,2,61,81,颗粒物(PM10)
宁波市,万里学院,121.5595,29.8208,2026-01-23T1900,47,75,0.5,77,4,32,62,65,细颗粒物(PM2.5)
宁波市,龙赛医院,121.713,29.9564,2026-01-23T1900,68,100,0.7,106,6,17,72,92,细颗粒物(PM2.5)
宁波市,太古小学,121.5855,29.8635,2026-01-23T1900,58,97,0.7,69,6,42,71,79,细颗粒物(PM2.5)
宁波市,市环境监测中心,121.5239,29.8673,2026-01-23T1900,57,73,0.8,78,8,34,69,78,细颗粒物(PM2.5)
宁波市,万里国际学校,121.6156,29.9015,2026-01-23T1900,57,79,0.8,64,6,56,78,78,细颗粒物(PM2.5)
宁波市,白沙活动中心,121.5593,29.8976,2026-01-23T1900,55,65,0.6,64,6,48,72,75,细颗粒物(PM2.5)
宁波市,中科路88号,121.8962,29.7529,2026-01-23T1900,29,40,0.4,61,7,38,72,42,
宁德市,宁德市监测站,119.5387,26.6611,2026-01-23T1900,51,79,1.1,56,4,8,32,70,细颗粒物(PM2.5)
宁德市,宁德一中,119.5231,26.6562,2026-01-23T1900,37,54,0.8,26,2,25,34,53,细颗粒物(PM2.5)
怒江傈僳族自治州,州监测站,98.859,25.8541,2026-01-23T1900,21,31,0.5,12,6,74,77,31,
怒江傈僳族自治州,泸水一中,98.8607,25.8168,2026-01-23T1900,15,67,0.8,36,4,44,66,59,颗粒物(PM10)
攀枝花市,弄弄坪,101.6891,26.571,2026-01-23T1900,41,68,0.9,27,20,113,106,59,颗粒物(PM10)
攀枝花市,河门口,101.577,26.5914,2026-01-23T1900,44,63,1.7,24,28,,99,,
攀枝花市,仁和,101.7365,26.4986,2026-01-23T1900,46,71,1.2,58,10,39,98,64,细颗粒物(PM2.5)
攀枝花市,四十中小,101.7222,26.567,2026-01-23T1900,66,90,2.2,2,21,34,83,89,细颗粒物(PM2.5)
盘锦市,开发区,122.0303,41.1489,2026-01-23T1900,36,83,0.5,30,5,38,67,67,颗粒物(PM10)
盘锦市,兴隆台,122.0486,41.0883,2026-01-23T1900,31,45,0.8,32,4,41,65,45,
盘锦市,新生街道,121.8297,41.1026,2026-01-23T1900,40,55,0.5,35,9,36,70,57,细颗粒物(PM2.5)
平顶山市,新华旅馆,113.3257,33.7423,2026-01-23T1900,98,149,0.9,59,7,38,78,129,细颗粒物(PM2.5)
平顶山市,规划设计院,113.2917,33.737,2026-01-23T1900,107,148,0.9,43,6,48,77,140,细颗粒物(PM2.5)
平顶山市,平顶山工学院,113.182,33.7738,2026-01-23T1900,88,115,0.7,27,8,68,87,117,细颗粒物(PM2.5)
平顶山市,石龙区,112.8736,33.9068,2026-01-23T1900,125,160,1.2,32,8,74,88,165,细颗粒物(PM2.5)
平顶山市,姚电大道23号,113.284,33.7139,2026-01-23T1900,109,143,0.6,47,8,50,84,143,细颗粒物(PM2.5)
平凉市,聚贤嘉苑,106.6633,35.5338,2026-01-23T1900,47,84,0.7,36,21,52,65,67,颗粒物(PM10)
平凉市,博物馆,106.7021,35.5307,2026-01-23T1900,65,117,1.1,61,15,35,62,88,细颗粒物(PM2.5)
萍乡市,中医院,113.8384,27.6436,2026-01-23T1900,74,132,1.8,52,5,26,51,99,细颗粒物(PM2.5)
萍乡市,市环保局,113.8677,27.6438,2026-01-23T1900,78,95,2.0,38,14,40,44,104,细颗粒物(PM2.5)
萍乡市,安源区政府,113.8663,27.6202,2026-01-23T1900,59,62,1.9,32,9,33,36,80,细颗粒物(PM2.5)
萍乡市,联洪村委会,113.8686,27.6668,2026-01-23T1900,,,,,,,46,,
莆田市,荔城区仓后路,119.0142,25.4324,2026-01-23T1900,17,26,/,19,/,40,51,26,
莆田市,莆田市监测站,119.0016,25.4553,2026-01-23T1900,8,13,0.5,8,2,53,56,17,
莆田市,涵江区六中,119.112,25.4561,2026-01-23T1900,16,31,0.5,18,/,45,54,31,
莆田市,秀屿区政府,119.1014,25.3215,2026-01-23T1900,23,31,0.6,19,2,51,52,33,
濮阳市,环保局,115.0312,35.7636,2026-01-23T1900,128,140,1.2,65,8,64,76,169,细颗粒物(PM2.5)
濮阳市,濮水河管理处,115,35.7667,2026-01-23T1900,124,160,1.2,56,6,52,82,163,细颗粒物(PM2.5)
濮阳市,中原东路68号,115.0552,35.7816,2026-01-23T1900,136,177,1.2,52,8,71,84,180,细颗粒物(PM2.5)
濮阳市,任丘路479号,115.0923632,35.76857718,2026-01-23T1900,137,179,1.5,71,6,46,83,182,细颗粒物(PM2.5)
普洱市,市环保局,100.9801,22.7634,2026-01-23T1900,18,64,0.4,18,5,77,93,57,颗粒物(PM10)
普洱市,普洱第二中学,100.9763,22.8237,2026-01-23T1900,20,42,0.2,10,5,94,104,42,
七台河市,中波台,131.0413,45.7795,2026-01-23T1900,16,31,0.4,16,8,61,68,31,
七台河市,人民广场,131.0136,45.7688,2026-01-23T1900,21,48,0.6,19,6,63,69,48,
七台河市,新建矿广场,130.8639,45.8144,2026-01-23T1900,39,41,0.6,15,6,54,61,55,细颗粒物(PM2.5)
齐齐哈尔市,安居小区,123.9307,47.3641,2026-01-23T1900,12,44,0.8,30,8,45,65,44,
齐齐哈尔市,中心广场,123.9497,47.3389,2026-01-23T1900,9,24,0.5,26,12,46,63,24,
齐齐哈尔市,农牧车辆厂,123.9483,47.3229,2026-01-23T1900,21,31,0.4,23,9,47,65,31,
齐齐哈尔市,市环境监测站,123.9442,47.2994,2026-01-23T1900,14,45,0.7,45,13,29,66,45,
齐齐哈尔市,富区青少年活动中心,123.6341,47.2079,2026-01-23T1900,22,43,0.7,22,7,53,67,43,
黔东南苗族侗族自治州,市环境监测站,107.9765,26.5724,2026-01-23T1900,50,61,0.8,21,7,36,40,69,细颗粒物(PM2.5)
黔东南苗族侗族自治州,凯里学院,107.8909,26.531,2026-01-23T1900,33,61,0.8,20,4,47,46,56,颗粒物(PM10)
黔南布依族苗族自治州,小围寨,107.5223,26.2371,2026-01-23T1900,36,36,0.9,7,5,52,45,52,细颗粒物(PM2.5)
黔南布依族苗族自治州,沙坝,107.5175,26.2977,2026-01-23T1900,36,51,0.8,14,6,44,42,52,细颗粒物(PM2.5)
黔西南布依族苗族自治州,场坝街,104.9022,25.0943,2026-01-23T1900,31,44,0.9,16,2,25,30,45,
黔西南布依族苗族自治州,坪东大道,104.8812,25.0994,2026-01-23T1900,20,28,1.0,13,5,25,31,29,
钦州市,市环保站,108.6238,21.9667,2026-01-23T1900,41,68,1.0,24,2,32,39,59,颗粒物(PM10)
钦州市,沙埠小学,108.655,21.9481,2026-01-23T1900,,,,,,,39,,
钦州市,港区一小,108.5989,21.7435,2026-01-23T1900,40,62,0.7,32,2,21,30,57,细颗粒物(PM2.5)
钦州市,北职校,108.5959,21.9634,2026-01-23T1900,42,52,0.8,20,2,32,40,59,细颗粒物(PM2.5)
秦皇岛市,建设大厦,119.5247,39.9346,2026-01-23T1900,22,29,0.5,16,9,55,58,32,
秦皇岛市,文明里,119.5979,39.938,2026-01-23T1900,29,34,0.2,19,12,57,60,42,
秦皇岛市,南园路157号,119.7458,39.9952,2026-01-23T1900,42,76,0.8,43,13,33,60,63,颗粒物(PM10)
秦皇岛市,翠岛大街1号,119.5131,39.8858,2026-01-23T1900,7,37,0.4,12,12,65,62,37,
秦皇岛市,北戴河轮滑馆,119.509013,39.825305,2026-01-23T1900,16,39,0.4,32,7,43,64,39,
青岛市,市南区东部子站,120.404,36.0625,2026-01-23T1900,66,105,1.0,47,17,64,76,89,细颗粒物(PM2.5)
青岛市,四方区子站,120.362344,36.10282,2026-01-23T1900,75,107,1.1,36,12,76,81,100,细颗粒物(PM2.5)
青岛市,市南区西部子站,120.294373,36.054183,2026-01-23T1900,68,100,0.9,35,9,86,83,92,细颗粒物(PM2.5)
青岛市,崂山区子站,120.4581,36.0858,2026-01-23T1900,75,110,0.9,49,17,64,80,100,细颗粒物(PM2.5)
青岛市,城阳区子站,120.3945,36.3083,2026-01-23T1900,66,124,1.0,51,14,68,77,89,细颗粒物(PM2.5)
青岛市,市北区南部,120.3454,36.0735,2026-01-23T1900,68,96,1.1,49,10,60,60,92,细颗粒物(PM2.5)
青岛市,李沧区北部,120.3897,36.18,2026-01-23T1900,83,124,1.3,71,15,48,71,110,细颗粒物(PM2.5)
青岛市,盟旺路653号,120.5222,36.4089,2026-01-23T1900,87,116,1.0,48,10,70,78,115,细颗粒物(PM2.5)
青岛市,珠江路669号,120.196923,35.954556,2026-01-23T1900,73,102,1.2,69,10,41,83,98,细颗粒物(PM2.5)
青岛市,黄岛区人民政府广场,120.0424,35.8656,2026-01-23T1900,68,112,1.3,,14,57,93,,
清远市,凤城街办,113.0218,23.7086,2026-01-23T1900,31,48,/,40,/,12,27,48,
清远市,技师学院,113.0479,23.6343,2026-01-23T1900,31,50,0.6,30,4,25,27,50,
清远市,清新太和,112.9898,23.7403,2026-01-23T1900,24,40,0.7,34,12,15,29,40,
清远市,清城东城,113.076,23.72,2026-01-23T1900,24,36,/,18,/,30,33,36,
庆阳市,庆阳五中,107.6325,35.7357,2026-01-23T1900,59,81,0.8,30,8,85,85,80,细颗粒物(PM2.5)
庆阳市,市环保局,107.6361,35.7067,2026-01-23T1900,78,87,1.1,23,9,90,89,104,细颗粒物(PM2.5)
曲靖市,环境监测站,103.7897,25.5036,2026-01-23T1900,6,41,0.4,11,4,85,94,41,
曲靖市,烟厂办公区,103.8013,25.5357,2026-01-23T1900,14,20,0.2,9,3,87,91,28,
曲靖市,南苑二区,103.7926,25.4651,2026-01-23T1900,9,15,0.4,8,5,82,90,26,
曲靖市,曲靖师范学院,103.7442,25.5259,2026-01-23T1900,10,14,0.3,8,2,90,97,29,
衢州市,环保大楼,118.8694,28.94,2026-01-23T1900,86,110,/,63,/,21,43,114,细颗粒物(PM2.5)
衢州市,衢州学院,118.8622,28.9809,2026-01-23T1900,72,97,1.0,65,6,17,44,97,细颗粒物(PM2.5)
衢州市,衢州三中,118.9646,28.9832,2026-01-23T1900,85,124,1.4,50,10,30,41,113,细颗粒物(PM2.5)
泉州市,涂山街,118.5818,24.9116,2026-01-23T1900,28,44,0.7,28,3,45,60,44,
泉州市,津头埔,118.597,24.8976,2026-01-23T1900,25,45,0.5,30,4,37,58,45,
泉州市,万安,118.6669,24.9422,2026-01-23T1900,22,41,0.6,24,3,43,56,41,
泉州市,霞新路6号,118.6355,24.9148,2026-01-23T1900,22,33,0.6,40,/,33,61,33,
日喀则市,日喀则监测站,88.8873,29.2723,2026-01-23T1900,,,0.2,,9,,75,,
日喀则市,林业技术推广中心,88.8775,29.2425,2026-01-23T1900,3,17,0.3,9,10,78,75,25,
日照市,监测站,119.4711,35.421,2026-01-23T1900,81,124,1.4,83,27,22,81,108,细颗粒物(PM2.5)
日照市,市政府广场,119.523,35.4216,2026-01-23T1900,65,97,0.9,62,13,48,84,88,细颗粒物(PM2.5)
日照市,港务局,119.5511,35.4113,2026-01-23T1900,63,92,0.9,57,11,51,75,85,细颗粒物(PM2.5)
日照市,职业技术学院,119.5326,35.4627,2026-01-23T1900,53,102,1.1,55,11,49,90,76,颗粒物(PM10)
日照市,岚山环保分局,119.3267,35.1043,2026-01-23T1900,82,110,1.1,54,17,53,85,109,细颗粒物(PM2.5)
三门峡市,市政府,111.1922,34.7752,2026-01-23T1900,91,,1.5,88,14,13,6,120,细颗粒物(PM2.5)
三门峡市,开发区,111.1588,34.794,2026-01-23T1900,86,118,0.7,44,8,54,58,114,细颗粒物(PM2.5)
三门峡市,三门峡市第一小学,111.1911,34.7829,2026-01-23T1900,90,120,0.9,58,15,42,50,119,细颗粒物(PM2.5)
三门峡市,富达温泉假日酒店,111.1031,34.719,2026-01-23T1900,98,134,1.1,52,17,36,55,129,细颗粒物(PM2.5)
三明市,三钢,117.621,26.2626,2026-01-23T1900,46,48,0.6,22,8,31,36,64,细颗粒物(PM2.5)
三明市,三明二中,117.6352,26.2714,2026-01-23T1900,38,38,0.7,19,5,35,37,54,细颗粒物(PM2.5)
三明市,三元区政府,117.6028,26.2377,2026-01-23T1900,43,45,0.9,22,6,37,34,60,细颗粒物(PM2.5)
三亚市,河西子站,109.4962,18.2682,2026-01-23T1900,15,40,0.5,13,3,104,104,40,
三亚市,君悦子站,109.7348,18.3443,2026-01-23T1900,15,37,0.5,8,5,110,103,37,
三亚市,城东小学站,109.1714,18.3739,2026-01-23T1900,24,40,/,10,/,109,106,40,
山南市,山南监测站,91.7592,29.234,2026-01-23T1900,3,10,0.2,13,4,72,74,23,
山南市,山南人民医院,91.7701,29.2436,2026-01-23T1900,10,17,0.6,18,8,76,76,24,
汕头市,金平子站,116.6795,23.3666,2026-01-23T1900,35,39,0.8,18,5,104,83,50,
汕头市,龙湖子站,116.7248,23.3632,2026-01-23T1900,32,39,/,21,10,100,89,46,
汕头市,濠江子站,116.7257,23.2774,2026-01-23T1900,38,,/,21,8,101,92,54,细颗粒物(PM2.5)
汕头市,澄海子站,116.7518,23.4712,2026-01-23T1900,40,40,0.7,23,7,91,80,57,细颗粒物(PM2.5)
汕头市,潮阳子站,116.6088,23.2539,2026-01-23T1900,28,36,0.6,14,7,104,84,40,
汕头市,潮南峡山,116.4539,23.2684,2026-01-23T1900,43,62,0.7,22,8,98,76,60,细颗粒物(PM2.5)
汕头市,潮南子站,116.4069,23.2533,2026-01-23T1900,45,87,/,28,8,86,64,69,颗粒物(PM10)
汕尾市,市环保局,115.3653,22.7751,2026-01-23T1900,46,,0.7,20,8,113,96,64,细颗粒物(PM2.5)
汕尾市,新城中学,115.362,22.7926,2026-01-23T1900,49,,0.7,18,6,117,96,68,细颗粒物(PM2.5)
商洛市,监测站,109.9155,33.8714,2026-01-23T1900,40,66,1.2,72,8,18,57,58,颗粒物(PM10)
商洛市,商州区中学,109.9647,33.8486,2026-01-23T1900,27,74,0.9,52,8,29,52,62,颗粒物(PM10)
商丘市,环境监测站,115.6701,34.4283,2026-01-23T1900,129,,0.8,62,3,51,99,170,细颗粒物(PM2.5)
商丘市,粮食局,115.6458,34.4047,2026-01-23T1900,97,99,0.9,33,3,79,92,128,细颗粒物(PM2.5)
商丘市,梁园区档案局,115.6069,34.4465,2026-01-23T1900,99,,0.8,38,1,82,98,130,细颗粒物(PM2.5)
商丘市,北海东路185号,115.6701,34.3767,2026-01-23T1900,97,130,0.9,64,1,47,90,128,细颗粒物(PM2.5)
商丘市,中山大街3号,115.6172,34.3704,2026-01-23T1900,134,156,0.7,77,4,42,87,178,细颗粒物(PM2.5)
上海市,普陀,121.401,31.2382,2026-01-23T1900,60,88,1.0,78,6,35,80,82,细颗粒物(PM2.5)
上海市,十五厂,121.4774,31.2043,2026-01-23T1900,,,1.0,,,56,75,,
上海市,虹口,121.4673,31.3011,2026-01-23T1900,65,85,0.6,79,7,32,67,88,细颗粒物(PM2.5)
上海市,静安监测站,121.4253,31.226,2026-01-23T1900,56,68,0.4,58,7,56,78,77,细颗粒物(PM2.5)
上海市,浦东川沙,121.7029,31.1905,2026-01-23T1900,23,83,0.7,72,9,,69,,
上海市,浦东新区监测站,121.5339,31.229,2026-01-23T1900,56,69,0.8,,,24,71,,
上海市,浦东张江,121.5776,31.2038,2026-01-23T1900,48,79,0.7,89,9,15,77,67,细颗粒物(PM2.5)
上海市,宝山庙行,121.4242,31.3303,2026-01-23T1900,70,81,0.6,76,8,17,69,94,细颗粒物(PM2.5)
上海市,崇明上实东滩,121.8789,31.4662,2026-01-23T1900,48,63,0.0,25,5,73,69,67,细颗粒物(PM2.5)
上海市,嘉定南翔,121.316,31.2839,2026-01-23T1900,52,,0.8,92,5,,75,,
上海市,金山新城,121.3357,30.7455,2026-01-23T1900,80,84,0.6,43,10,70,93,107,细颗粒物(PM2.5)
上海市,闵行浦江,121.4996,31.0741,2026-01-23T1900,57,82,0.7,78,7,19,77,78,细颗粒物(PM2.5)
上海市,青浦徐泾,121.2886,31.1663,2026-01-23T1900,50,81,0.7,95,5,10,77,69,细颗粒物(PM2.5)
上海市,松江图书馆,121.2193,31.0382,2026-01-23T1900,47,72,0.7,53,6,58,84,65,细颗粒物(PM2.5)
上海市,长宁仙霞,121.3904,31.206,2026-01-23T1900,53,77,0.4,87,7,17,73,73,细颗粒物(PM2.5)
上海市,浦东惠南,121.7964,31.0507,2026-01-23T1900,59,81,0.8,59,10,65,90,80,细颗粒物(PM2.5)
上海市,奉贤南桥新城,121.4891,30.925,2026-01-23T1900,75,106,0.7,74,4,53,92,100,细颗粒物(PM2.5)
上海市,冠生园路458号,121.417401,31.16637,2026-01-23T1900,49,67,0.8,49,4,50,74,68,细颗粒物(PM2.5)
上海市,宁武路151号,121.541914,31.268301,2026-01-23T1900,58,96,0.9,95,6,11,66,79,细颗粒物(PM2.5)
上饶市,市监测站,117.9758,28.4439,2026-01-23T1900,40,70,/,37,9,45,52,60,颗粒物(PM10)
上饶市,凤凰光学,117.9521,28.4637,2026-01-23T1900,34,69,0.7,36,14,34,42,60,颗粒物(PM10)
上饶市,双创科技城,117.897,28.4316,2026-01-23T1900,56,78,0.9,49,10,44,46,77,细颗粒物(PM2.5)
上饶市,裕丰大道,118.190438,28.444845,2026-01-23T1900,57,81,0.8,73,14,9,44,78,细颗粒物(PM2.5)
韶关市,市八中,113.5821,24.7733,2026-01-23T1900,22,29,0.6,20,8,45,51,32,
韶关市,园林处,113.5916,24.7973,2026-01-23T1900,24,25,/,21,7,48,54,35,
韶关市,曲江监测站,113.5971,24.6864,2026-01-23T1900,28,37,0.6,23,11,37,48,40,
韶关市,大学路288号,113.6668,24.7756,2026-01-23T1900,19,35,/,16,8,41,51,35,
韶关市,碧湖山庄,113.5556,24.8082,2026-01-23T1900,23,33,0.3,22,8,40,45,33,
邵阳市,市化工厂,111.5277,27.2442,2026-01-23T1900,42,54,0.6,26,2,37,58,59,细颗粒物(PM2.5)
邵阳市,市环保局,111.4327,27.2276,2026-01-23T1900,37,,1.0,22,4,51,64,53,细颗粒物(PM2.5)
邵阳市,北塔二期4-26地块,111.446,27.2472,2026-01-23T1900,49,72,1.4,34,9,39,54,68,细颗粒物(PM2.5)
邵阳市,邵水西路287号,111.4739,27.2282,2026-01-23T1900,40,51,0.9,23,9,49,56,57,细颗粒物(PM2.5)
绍兴市,城东开发委,120.6053,29.9927,2026-01-23T1900,58,76,0.9,59,8,36,72,79,细颗粒物(PM2.5)
绍兴市,树下王站,120.5482,30.0003,2026-01-23T1900,53,70,1.0,46,6,44,67,73,细颗粒物(PM2.5)
绍兴市,绍兴中专,120.5685,29.936,2026-01-23T1900,66,79,0.5,60,8,24,70,89,细颗粒物(PM2.5)
绍兴市,柯桥区政府,120.4905,30.086,2026-01-23T1900,58,70,0.6,55,6,49,78,79,细颗粒物(PM2.5)
绍兴市,重华小学,120.8751,30.0249,2026-01-23T1900,52,67,0.6,40,6,53,71,72,细颗粒物(PM2.5)
绍兴市,上虞中学,120.837,30.0137,2026-01-23T1900,54,77,0.6,58,7,41,64,74,细颗粒物(PM2.5)
绍兴市,柯桥妇保,120.4715,30.0414,2026-01-23T1900,51,65,0.5,,,31,73,,
绍兴市,袍江中学,120.6156,30.0762,2026-01-23T1900,66,96,0.6,37,7,62,67,89,细颗粒物(PM2.5)
深圳市,通心岭子站,114.0948,22.5506,2026-01-23T1900,38,72,0.8,56,6,27,34,61,颗粒物(PM10)
深圳市,洪湖,114.1153,22.5713,2026-01-23T1900,42,79,0.9,67,8,22,32,65,颗粒物(PM10)
深圳市,华侨城,113.9823,22.5398,2026-01-23T1900,40,73,/,53,/,29,33,62,颗粒物(PM10)
深圳市,南海子站,113.9181,22.517,2026-01-23T1900,55,78,1.0,51,6,34,31,75,细颗粒物(PM2.5)
深圳市,盐田,114.2345,22.565,2026-01-23T1900,35,57,0.8,43,8,37,35,54,颗粒物(PM10)
深圳市,南澳,114.4911,22.5381,2026-01-23T1900,27,45,/,27,/,57,69,45,
深圳市,葵涌,114.41,22.6346,2026-01-23T1900,37,60,0.7,28,8,46,37,55,颗粒物(PM10)
深圳市,梅沙,114.2967,22.5978,2026-01-23T1900,32,65,/,40,/,42,49,58,颗粒物(PM10)
深圳市,观澜,114.0563,22.7353,2026-01-23T1900,43,83,0.9,49,8,25,34,67,颗粒物(PM10)
深圳市,莲花,114.0614,22.556,2026-01-23T1900,42,67,/,56,/,20,30,59,"颗粒物(PM10),细颗粒物(PM2.5)"
深圳市,民治,114.0144,22.6163,2026-01-23T1900,41,69,/,43,/,36,39,60,颗粒物(PM10)
深圳市,横岗,114.1756,22.6421,2026-01-23T1900,43,80,/,65,/,14,36,65,颗粒物(PM10)
深圳市,坪山,114.344,22.7115,2026-01-23T1900,35,64,0.8,52,10,25,37,57,颗粒物(PM10)
深圳市,西乡,113.8952,22.586,2026-01-23T1900,40,69,0.8,46,6,39,38,60,颗粒物(PM10)
深圳市,黄阁路,114.214113,22.713717,2026-01-23T1900,35,55,0.9,55,6,23,39,53,颗粒物(PM10)
沈阳市,浑南东路,123.5058,41.7084,2026-01-23T1900,91,95,1.2,85,13,3,52,120,细颗粒物(PM2.5)
沈阳市,新秀街,123.4238,41.6992,2026-01-23T1900,30,96,1.2,88,14,1,56,73,颗粒物(PM10)
沈阳市,东陵路,123.5903,41.8412,2026-01-23T1900,16,52,0.5,29,7,46,61,51,颗粒物(PM10)
沈阳市,陵东街,123.4267,41.8466,2026-01-23T1900,7,44,0.4,19,8,50,64,44,
沈阳市,文化路,123.4116,41.7654,2026-01-23T1900,10,37,1.0,43,15,35,60,37,
沈阳市,小河沿,123.4673,41.787,2026-01-23T1900,20,58,0.6,33,13,53,69,54,颗粒物(PM10)
沈阳市,太原街,123.4019,41.7978,2026-01-23T1900,9,37,0.7,47,8,31,59,37,
沈阳市,京沈街,123.3778,41.9233,2026-01-23T1900,39,58,0.7,78,8,11,69,55,细颗粒物(PM2.5)
沈阳市,沈辽西路,123.2429,41.7341,2026-01-23T1900,17,53,0.7,50,19,26,55,52,颗粒物(PM10)
沈阳市,裕农路,123.5951,41.9085,2026-01-23T1900,10,29,0.5,21,4,67,80,29,
十堰市,滨河新村,110.78,32.6494,2026-01-23T1900,58,71,1.0,39,/,53,55,79,细颗粒物(PM2.5)
十堰市,刘家沟,110.7305,32.6408,2026-01-23T1900,58,,/,34,/,67,63,79,细颗粒物(PM2.5)
十堰市,铁二处,110.8843,32.5712,2026-01-23T1900,58,95,1.3,52,8,31,50,79,细颗粒物(PM2.5)
十堰市,郧阳区金沙路,110.8053,32.8401,2026-01-23T1900,64,85,1.2,,6,36,53,,
石河子市,艾青诗歌馆,86.0391,44.298,2026-01-23T1900,129,153,1.4,44,11,61,56,170,细颗粒物(PM2.5)
石河子市,南区管委会,86.047,44.2331,2026-01-23T1900,80,132,1.2,29,7,80,71,107,细颗粒物(PM2.5)
石河子市,世纪广场,86.0791,44.3018,2026-01-23T1900,116,151,1.3,45,11,69,60,152,细颗粒物(PM2.5)
石河子市,城南景苑小区,86.0126,44.2349,2026-01-23T1900,79,138,0.9,31,6,79,74,105,细颗粒物(PM2.5)
石家庄市,高新区,114.5919,38.0328,2026-01-23T1900,180,214,1.6,48,14,52,47,230,细颗粒物(PM2.5)
石家庄市,西南高教,114.4556,38.0136,2026-01-23T1900,188,233,1.5,62,11,49,38,238,细颗粒物(PM2.5)
石家庄市,世纪公园,114.533,38.0177,2026-01-23T1900,172,211,1.5,48,15,54,45,222,细颗粒物(PM2.5)
石家庄市,人民会堂,114.5105,38.0489,2026-01-23T1900,180,208,1.5,46,10,58,41,230,细颗粒物(PM2.5)
石家庄市,鹿泉一中,114.2887,38.0905,2026-01-23T1900,149,204,1.5,76,12,19,26,199,细颗粒物(PM2.5)
石家庄市,栾城区星河路,114.6491,37.9014,2026-01-23T1900,181,193,1.1,54,12,59,57,231,细颗粒物(PM2.5)
石家庄市,裕华西路63号,114.4563,38.0365,2026-01-23T1900,190,196,1.8,57,14,49,34,240,细颗粒物(PM2.5)
石家庄市,和平路363号,114.5586,38.0581,2026-01-23T1900,203,204,1.6,55,12,48,44,253,细颗粒物(PM2.5)
石家庄市,廉州西路160号,114.8347,38.0213,2026-01-23T1900,196,214,1.9,39,5,42,37,246,细颗粒物(PM2.5)
石家庄市,北城路41号,114.4498,38.0729,2026-01-23T1900,150,212,1.6,61,12,52,40,200,细颗粒物(PM2.5)
石家庄市,矿区区委大楼,114.0494,38.059,2026-01-23T1900,115,205,1.4,91,18,7,26,150,细颗粒物(PM2.5)
石嘴山市,大武口朝阳西街,106.3668,39.0145,2026-01-23T1900,75,85,1.2,45,34,55,61,100,细颗粒物(PM2.5)
石嘴山市,惠农南大街,106.7713,39.2278,2026-01-23T1900,63,89,1.5,84,30,19,55,85,细颗粒物(PM2.5)
石嘴山市,红果子镇惠新街,106.7074,39.1332,2026-01-23T1900,74,94,1.3,71,31,38,60,99,细颗粒物(PM2.5)
石嘴山市,妇女儿童医院,106.3495,38.9837,2026-01-23T1900,55,94,1.3,36,26,80,68,75,细颗粒物(PM2.5)
石嘴山市,石大公路,106.7495,39.2068,2026-01-23T1900,66,104,1.6,61,20,28,55,89,细颗粒物(PM2.5)
双鸭山市,双合村,131.1509,46.6936,2026-01-23T1900,27,31,0.7,9,8,62,68,39,
双鸭山市,南小市,131.1651,46.6191,2026-01-23T1900,40,,0.4,17,10,52,61,57,细颗粒物(PM2.5)
双鸭山市,环保局,131.1526,46.6554,2026-01-23T1900,40,47,0.4,22,6,52,66,57,细颗粒物(PM2.5)
朔州市,平朔,112.4399,39.3521,2026-01-23T1900,20,49,0.6,26,7,53,64,49,
朔州市,朔唯,112.4574,39.362,2026-01-23T1900,26,64,/,26,10,51,60,57,颗粒物(PM10)
朔州市,区政府,112.426,39.3199,2026-01-23T1900,,,,18,4,63,65,,
朔州市,市环保局,112.4075,39.3277,2026-01-23T1900,28,51,/,24,4,65,68,51,颗粒物(PM10)
朔州市,市二中,112.4273,39.3682,2026-01-23T1900,41,75,/,24,12,56,70,63,颗粒物(PM10)
朔州市,一水厂,112.2938,39.5296,2026-01-23T1900,22,46,0.6,19,7,56,70,46,
四平市,境园,124.3744,43.1842,2026-01-23T1900,36,52,0.4,39,10,37,63,52,细颗粒物(PM2.5)
四平市,植物园,124.4029,43.1411,2026-01-23T1900,73,,1.0,72,9,20,61,98,细颗粒物(PM2.5)
四平市,世纪城,124.3286,43.1726,2026-01-23T1900,29,66,0.3,24,10,50,63,58,颗粒物(PM10)
松原市,江南,124.8007,45.1213,2026-01-23T1900,28,59,0.7,39,10,31,62,55,颗粒物(PM10)
松原市,江北,124.7967,45.1721,2026-01-23T1900,12,28,0.4,12,8,52,64,28,
苏州市,轧钢厂,120.5974,31.3247,2026-01-23T1900,60,91,1.0,76,6,18,14,82,细颗粒物(PM2.5)
苏州市,吴中区,120.6329,31.2741,2026-01-23T1900,57,88,0.9,56,7,45,70,78,细颗粒物(PM2.5)
苏州市,苏州新区,120.5566,31.3049,2026-01-23T1900,50,67,0.8,53,8,52,75,69,细颗粒物(PM2.5)
苏州市,苏州工业园区,120.668709,31.312523,2026-01-23T1900,53,77,0.8,69,7,41,76,73,细颗粒物(PM2.5)
苏州市,相城区,120.6408,31.3707,2026-01-23T1900,51,75,0.7,44,4,56,77,70,细颗粒物(PM2.5)
苏州市,方洲路,120.7431,31.3188,2026-01-23T1900,60,77,0.7,56,9,47,78,82,细颗粒物(PM2.5)
苏州市,木渎中学,120.4979,31.2777,2026-01-23T1900,47,60,0.7,18,6,75,86,65,细颗粒物(PM2.5)
苏州市,越秀幼儿园,120.642,31.1733,2026-01-23T1900,49,65,0.8,57,5,53,78,68,细颗粒物(PM2.5)
苏州市,高铁新城,120.6502,31.4117,2026-01-23T1900,96,110,,100,6,3,62,127,细颗粒物(PM2.5)
苏州市,学森路9号,120.4282,31.3228,2026-01-23T1900,46,73,0.7,37,10,67,84,64,细颗粒物(PM2.5)
宿迁市,宿迁学院,118.2924,33.933,2026-01-23T1900,83,112,0.9,35,4,78,96,110,细颗粒物(PM2.5)
宿迁市,宿迁中学,118.2321,33.9572,2026-01-23T1900,82,107,0.9,32,6,73,90,109,细颗粒物(PM2.5)
宿迁市,市供电局,118.2781,33.9658,2026-01-23T1900,85,107,0.8,28,4,84,95,113,细颗粒物(PM2.5)
宿迁市,宿豫区政府,118.3243,33.95,2026-01-23T1900,92,110,0.9,42,6,75,92,122,细颗粒物(PM2.5)
宿迁市,春华路,118.352,33.7886,2026-01-23T1900,102,118,0.5,48,4,58,78,134,细颗粒物(PM2.5)
宿州市,远航博物馆,116.9508,33.666,2026-01-23T1900,75,86,0.6,24,3,107,110,100,细颗粒物(PM2.5)
宿州市,社会福利中心,116.9708,33.5911,2026-01-23T1900,67,93,0.6,32,5,81,95,90,细颗粒物(PM2.5)
宿州市,皖北煤电集团,116.9647,33.6252,2026-01-23T1900,76,98,0.8,32,4,98,107,102,细颗粒物(PM2.5)
宿州市,中兴路,116.9929,33.6412,2026-01-23T1900,,97,,25,5,100,106,,
绥化市,人和东街,126.9783,46.6365,2026-01-23T1900,34,64,0.7,29,4,46,56,57,颗粒物(PM10)
绥化市,党政办公中心,126.964,46.6527,2026-01-23T1900,40,65,0.7,34,4,39,52,58,颗粒物(PM10)
随州市,市委党校,113.3587,31.7275,2026-01-23T1900,74,91,1.0,31,7,70,85,99,细颗粒物(PM2.5)
随州市,市林业局,113.3745,31.6926,2026-01-23T1900,58,72,0.8,17,4,76,80,79,细颗粒物(PM2.5)
随州市,市立交桥水厂,113.3984,31.7309,2026-01-23T1900,82,91,0.5,24,9,68,80,109,细颗粒物(PM2.5)
遂宁市,市监测站,105.5581,30.5231,2026-01-23T1900,23,48,1.0,44,10,12,26,48,
遂宁市,美宁食品公司,105.5917,30.4727,2026-01-23T1900,42,76,0.7,34,13,14,26,63,颗粒物(PM10)
遂宁市,环岛商务中心9号楼,105.5911,30.5368,2026-01-23T1900,31,47,0.9,33,10,14,25,47,
塔城地区,东门外小游园,82.9993,46.7432,2026-01-23T1900,22,83,0.5,14,7,69,61,67,颗粒物(PM10)
塔城地区,文化广场,82.9716,46.7464,2026-01-23T1900,42,76,0.7,15,8,64,61,63,颗粒物(PM10)
台州市,黄岩环保大楼,121.2727,28.6461,2026-01-23T1900,29,59,/,53,/,28,50,55,颗粒物(PM10)
台州市,台州环保大楼,121.4188,28.6545,2026-01-23T1900,39,61,0.4,38,/,55,60,56,颗粒物(PM10)
台州市,路桥田洋王,121.3768,28.5772,2026-01-23T1900,30,59,0.5,28,4,61,59,55,颗粒物(PM10)
台州市,台州科技职业学院,121.25678,28.66823971,2026-01-23T1900,56,90,0.5,71,6,20,47,77,细颗粒物(PM2.5)
太原市,尖草坪,112.5138,37.8916,2026-01-23T1900,70,129,1.0,82,12,23,51,94,细颗粒物(PM2.5)
太原市,晋源,112.4691,37.7125,2026-01-23T1900,57,89,1.0,82,10,15,56,78,细颗粒物(PM2.5)
太原市,小店,112.5595,37.7391,2026-01-23T1900,50,96,0.6,44,11,59,62,73,颗粒物(PM10)
太原市,坞城,112.5705,37.8199,2026-01-23T1900,50,114,0.9,99,12,10,50,82,颗粒物(PM10)
太原市,南寨,112.5495,37.9853,2026-01-23T1900,61,118,0.9,77,12,25,43,84,颗粒物(PM10)
太原市,金胜,112.4702,37.7821,2026-01-23T1900,56,106,0.9,43,10,56,63,78,颗粒物(PM10)
太原市,育英中学,112.5608,37.8807,2026-01-23T1900,54,101,1.0,60,12,40,52,76,颗粒物(PM10)
太原市,西矿街336号,112.449,37.8509,2026-01-23T1900,65,131,1.0,73,10,18,51,91,颗粒物(PM10)
太原市,迎宾北路9号,112.4792,37.9393,2026-01-23T1900,58,103,0.7,50,10,40,33,79,细颗粒物(PM2.5)
太原市,迎泽大街248号,112.551,37.8575,2026-01-23T1900,46,100,0.7,63,9,40,54,75,颗粒物(PM10)
泰安市,监测站,117.1436,36.1938,2026-01-23T1900,84,129,1.0,48,8,56,67,112,细颗粒物(PM2.5)
泰安市,人口学校,117.0905,36.2002,2026-01-23T1900,99,127,0.8,48,6,55,70,130,细颗粒物(PM2.5)
泰安市,电力学校,117.0992,36.1757,2026-01-23T1900,114,122,1.1,70,18,40,70,149,细颗粒物(PM2.5)
泰安市,国网新校,117.1812,36.2273,2026-01-23T1900,85,110,1.0,42,8,43,69,113,细颗粒物(PM2.5)
泰安市,交通技校,117.0315,36.2017,2026-01-23T1900,89,112,0.9,41,4,63,81,118,细颗粒物(PM2.5)
泰安市,山东第一医科大学,117.083,36.13,2026-01-23T1900,117,122,0.7,71,9,35,80,153,细颗粒物(PM2.5)
泰州市,公园路,119.9042,32.488,2026-01-23T1900,41,53,0.2,34,7,70,71,58,细颗粒物(PM2.5)
泰州市,莲花,119.9189,32.4626,2026-01-23T1900,41,59,0.5,39,10,80,81,58,细颗粒物(PM2.5)
泰州市,留学生创业园,119.8877,32.4636,2026-01-23T1900,55,67,0.3,46,12,60,69,75,细颗粒物(PM2.5)
泰州市,王营,119.8767,32.3291,2026-01-23T1900,56,77,0.7,62,8,37,62,77,细颗粒物(PM2.5)
泰州市,姜堰区政府广场,120.1226,32.515,2026-01-23T1900,51,62,0.6,39,7,57,63,70,细颗粒物(PM2.5)
泰州市,周山河街区,119.9186,32.4322,2026-01-23T1900,55,78,0.5,,12,70,67,,
唐山市,十二中,118.1707,39.6505,2026-01-23T1900,33,50,1.0,51,4,18,57,50,
唐山市,小山,118.1868,39.6219,2026-01-23T1900,33,52,0.9,47,3,20,59,51,颗粒物(PM10)
唐山市,冀东油田职工医院,118.4357,39.277,2026-01-23T1900,66,100,1.0,76,7,5,44,89,细颗粒物(PM2.5)
唐山市,正泰大街热力站,118.0927,39.5807,2026-01-23T1900,38,62,0.9,48,3,5,49,56,颗粒物(PM10)
唐山市,丰润区政府,118.1561,39.8322,2026-01-23T1900,18,29,0.7,19,7,44,65,29,
唐山市,金山小学,118.436906,39.73802,2026-01-23T1900,3,17,0.5,13,5,58,70,19,
唐山市,政府服务中心,118.2449,39.6693,2026-01-23T1900,18,36,0.7,24,5,26,55,36,
唐山市,消防缸窑路中队,118.2043,39.6703,2026-01-23T1900,12,39,0.8,23,3,30,63,39,
唐山市,路南电大,118.1432,39.6203,2026-01-23T1900,35,68,1.0,44,1,16,54,59,颗粒物(PM10)
唐山市,光明北路515号,118.1267,39.6579,2026-01-23T1900,36,77,0.9,63,9,10,46,64,颗粒物(PM10)
唐山市,友谊北路34号,118.130859,39.636026,2026-01-23T1900,40,48,1.1,49,1,21,58,57,细颗粒物(PM2.5)
天津市,勤俭道,117.1446,39.1659,2026-01-23T1900,14,26,0.5,41,7,40,58,26,
天津市,前进道,117.2016,39.0928,2026-01-23T1900,16,31,0.5,41,5,37,60,31,
天津市,淮河道,117.1837,39.2134,2026-01-23T1900,19,37,0.4,29,5,46,62,37,
天津市,跃进路,117.308261,39.088386,2026-01-23T1900,19,42,0.6,48,5,26,58,42,
天津市,第四大街,117.707,39.0344,2026-01-23T1900,84,137,1.2,107,11,1,38,112,细颗粒物(PM2.5)
天津市,永明路,117.4573,38.8395,2026-01-23T1900,30,49,0.6,56,11,10,46,49,
天津市,汉北路,117.7641,39.1588,2026-01-23T1900,56,98,1.0,91,10,0,33,77,细颗粒物(PM2.5)
天津市,河西一经路,117.7917,39.2473,2026-01-23T1900,42,84,0.9,91,6,2,35,67,颗粒物(PM10)
天津市,津沽路,117.3747,38.9845,2026-01-23T1900,24,54,0.8,65,8,10,54,52,颗粒物(PM10)
天津市,宾水西道,117.159,39.0844,2026-01-23T1900,10,17,0.5,37,7,36,53,19,
天津市,大理道,117.194,39.1069,2026-01-23T1900,7,23,0.5,42,6,40,55,23,
天津市,中山北路,117.2096,39.1698,2026-01-23T1900,19,51,0.9,66,6,3,49,51,颗粒物(PM10)
天津市,西四道,117.385,39.1483,2026-01-23T1900,12,26,0.6,68,8,10,54,34,
天津市,雍阳西道,117.0362,39.3827,2026-01-23T1900,18,38,0.6,47,6,29,56,38,
天津市,辛老路,117.0291,39.0612,2026-01-23T1900,11,22,0,47,9,30,48,24,
天津市,地纬路,116.9638,38.9374,2026-01-23T1900,24,45,0.7,59,8,18,46,45,
天津市,北环路,117.4065,40.0583,2026-01-23T1900,17,19,0.4,18,2,57,68,25,
天津市,建设路,117.3041,39.7167,2026-01-23T1900,12,24,0.6,38,4,32,48,24,
天津市,滨水东路,117.8201,39.3519,2026-01-23T1900,47,84,0.7,63,11,24,44,67,颗粒物(PM10)
天津市,光华路,117.24369,39.102911,2026-01-23T1900,12,34,0.6,57,6,18,56,34,
天水市,公园小学,105.72058,34.57859,2026-01-23T1900,52,94,1.0,54,18,50,71,72,"颗粒物(PM10),细颗粒物(PM2.5)"
天水市,麦积国土局,105.89428,34.55353,2026-01-23T1900,48,116,1.4,64,14,35,62,83,颗粒物(PM10)
铁岭市,水上乐园,123.865,42.292,2026-01-23T1900,56,65,0.9,60,22,27,62,77,细颗粒物(PM2.5)
铁岭市,金沙江路北,123.7158,42.2218,2026-01-23T1900,28,65,0.6,71,9,11,58,58,颗粒物(PM10)
铁岭市,新华街20号,123.835,42.2853,2026-01-23T1900,52,81,0.8,80,13,15,71,72,细颗粒物(PM2.5)
通化市,光明,125.9359,41.7174,2026-01-23T1900,11,40,0.1,21,14,61,64,40,
通化市,铁路,125.9446,41.7323,2026-01-23T1900,14,45,0.1,26,10,56,58,45,
通辽市,艺术职业学校,122.253,43.6801,2026-01-23T1900,3,40,0.4,8,5,76,78,40,
通辽市,老干部活动中心,122.2584,43.6333,2026-01-23T1900,13,55,0.5,12,4,67,73,53,颗粒物(PM10)
通辽市,东方明珠社区,122.2923,43.6189,2026-01-23T1900,16,47,0.5,22,8,56,64,47,
铜川市,王益区政府,109.0696,35.0699,2026-01-23T1900,86,99,1.4,60,7,25,52,114,细颗粒物(PM2.5)
铜川市,新区管委会,108.9345,34.9059,2026-01-23T1900,122,,1.2,52,8,43,58,160,细颗粒物(PM2.5)
铜川市,大唐三路,108.949652,34.870529,2026-01-23T1900,157,170,1.3,63,9,28,57,207,细颗粒物(PM2.5)
铜陵市,市第四中学,117.8176,30.9412,2026-01-23T1900,65,78,0.8,59,10,35,75,88,细颗粒物(PM2.5)
铜陵市,市新民污水厂,117.7806,30.9413,2026-01-23T1900,45,65,0.6,35,6,46,77,63,细颗粒物(PM2.5)
铜陵市,车站新区,117.846,30.9414,2026-01-23T1900,55,66,0.5,32,8,59,75,75,细颗粒物(PM2.5)
铜陵市,市职教基地,117.8472,30.9699,2026-01-23T1900,53,64,0.5,27,7,63,77,73,细颗粒物(PM2.5)
铜仁市,铜仁卫校,109.1839,27.7344,2026-01-23T1900,73,107,0.8,26,7,82,69,98,细颗粒物(PM2.5)
铜仁市,铜仁七中,109.1752,27.6945,2026-01-23T1900,55,65,0.7,18,13,90,73,75,细颗粒物(PM2.5)
吐鲁番市,市环保局,89.1905,42.9419,2026-01-23T1900,62,183,1.3,34,5,37,28,117,颗粒物(PM10)
吐鲁番市,地区环保局,89.1674,42.9558,2026-01-23T1900,65,166,1.2,22,6,51,44,108,颗粒物(PM10)
威海市,华夏技校,122.121,37.4231,2026-01-23T1900,117,132,0.8,28,/,82,89,153,细颗粒物(PM2.5)
威海市,山大分校,122.0508,37.5236,2026-01-23T1900,100,110,/,37,/,68,77,132,细颗粒物(PM2.5)
威海市,市监测站,122.1067,37.5067,2026-01-23T1900,110,139,0.8,41,7,66,75,144,细颗粒物(PM2.5)
威海市,文登开发区,122.0693,37.2175,2026-01-23T1900,92,113,/,28,/,85,82,122,细颗粒物(PM2.5)
威海市,临港区管委会,122.1379,37.3414,2026-01-23T1900,80,129,0.9,30,5,90,87,107,细颗粒物(PM2.5)
潍坊市,环保局,119.1436,36.7022,2026-01-23T1900,83,122,1.0,45,10,62,81,110,细颗粒物(PM2.5)
潍坊市,坊子邮政,119.1638,36.6524,2026-01-23T1900,88,117,1.1,49,13,64,81,117,细颗粒物(PM2.5)
潍坊市,潍坊七中,119.0587,36.7209,2026-01-23T1900,88,119,0.8,56,10,53,83,117,细颗粒物(PM2.5)
潍坊市,高新实验学校,119.1978,36.6871,2026-01-23T1900,84,119,0.8,38,6,72,86,112,细颗粒物(PM2.5)
潍坊市,潍坊学院,119.1758,36.7139,2026-01-23T1900,,,,38,10,,91,,
潍坊市,寒亭区实验一小,119.2046,36.7696,2026-01-23T1900,102,136,1.0,81,14,27,81,134,细颗粒物(PM2.5)
渭南市,体育馆,109.4605,34.4927,2026-01-23T1900,100,146,0.9,43,7,59,47,132,细颗粒物(PM2.5)
渭南市,高新一小,109.4257,34.5067,2026-01-23T1900,107,123,1.0,43,6,53,46,140,细颗粒物(PM2.5)
渭南市,渭花路4号,109.505065,34.492137,2026-01-23T1900,,149,0.8,38,8,48,17,,
温州市,瓯海,120.6342,28.0088,2026-01-23T1900,40,48,0.5,45,8,42,65,57,细颗粒物(PM2.5)
温州市,南浦,120.6747,27.9881,2026-01-23T1900,32,55,0.5,46,7,43,64,53,颗粒物(PM10)
温州市,龙湾,120.76,27.9745,2026-01-23T1900,18,37,0.3,38,6,52,57,37,
温州市,茶山,120.6985,27.9252,2026-01-23T1900,24,45,/,37,/,52,59,45,
温州市,鹿城惠民路,120.6935,28.0114,2026-01-23T1900,14,40,0.1,39,/,52,64,40,
文山壮族苗族自治州,州水务局,104.2533,23.3595,2026-01-23T1900,29,34,0.5,8,6,45,44,42,
文山壮族苗族自治州,市便民服务中心,104.2319,23.3892,2026-01-23T1900,30,,0.6,7,5,46,48,43,
乌海市,市林业局,106.8172,39.6972,2026-01-23T1900,63,123,1.2,61,22,34,54,87,颗粒物(PM10)
乌海市,中海勃湾学校,106.7907,39.6666,2026-01-23T1900,58,101,1.3,79,24,26,56,79,细颗粒物(PM2.5)
乌海市,海北新区,106.8129,39.7274,2026-01-23T1900,42,99,1.1,45,31,51,53,75,颗粒物(PM10)
乌海市,海拉北路,106.8212,39.6741,2026-01-23T1900,50,118,1.2,63,26,23,42,84,颗粒物(PM10)
乌兰察布市,集宁新区,113.1306,40.9924,2026-01-23T1900,19,37,0.5,23,9,59,66,37,
乌兰察布市,光明街小学,113.1076,41.0385,2026-01-23T1900,21,45,0.6,38,9,41,64,45,
乌兰察布市,北京八中,113.1383,40.9513,2026-01-23T1900,20,55,0.7,27,12,47,57,53,颗粒物(PM10)
乌兰察布市,市委党校,113.1776,40.9779,2026-01-23T1900,22,34,,26,8,61,67,,
乌鲁木齐市,监测站,87.5796,43.8299,2026-01-23T1900,46,129,0.9,72,3,30,41,90,颗粒物(PM10)
乌鲁木齐市,收费所,87.6044,43.7679,2026-01-23T1900,69,144,1.3,72,6,34,42,97,颗粒物(PM10)
乌鲁木齐市,铁路局,87.5529,43.8704,2026-01-23T1900,64,142,1.0,74,3,37,44,96,颗粒物(PM10)
乌鲁木齐市,三十一中学,87.6408,43.8258,2026-01-23T1900,76,149,0.7,83,3,51,41,102,细颗粒物(PM2.5)
乌鲁木齐市,米东区环保局,87.7218,44.1747,2026-01-23T1900,138,192,1.2,66,8,56,49,183,细颗粒物(PM2.5)
乌鲁木齐市,培训基地,87.4652,43.4569,2026-01-23T1900,51,212,0.9,25,4,66,73,131,颗粒物(PM10)
乌鲁木齐市,达坂城区环保局,88.3088,43.3637,2026-01-23T1900,41,166,0.7,25,3,64,66,108,颗粒物(PM10)
乌鲁木齐市,红光山片区,87.6132,43.8791,2026-01-23T1900,73,118,0.8,70,3,37,40,98,细颗粒物(PM2.5)
乌鲁木齐市,新师大温泉校区,87.7008,43.8003,2026-01-23T1900,86,156,0.9,56,6,48,45,114,细颗粒物(PM2.5)
乌鲁木齐市,大绿谷,87.4892,43.84,2026-01-23T1900,68,143,1.1,71,2,33,36,97,颗粒物(PM10)
无锡市,雪浪,120.2693,31.4864,2026-01-23T1900,41,70,1.6,35,6,64,71,60,颗粒物(PM10)
无锡市,黄巷,120.2761,31.621,2026-01-23T1900,63,83,0.9,95,7,6,63,85,细颗粒物(PM2.5)
无锡市,漆塘,120.2422,31.5037,2026-01-23T1900,36,73,0.3,32,9,51,70,62,颗粒物(PM10)
无锡市,东亭,120.3489,31.5865,2026-01-23T1900,51,83,1.0,67,10,33,66,70,细颗粒物(PM2.5)
无锡市,旺庄,120.3538,31.5474,2026-01-23T1900,53,96,0.9,77,6,26,62,73,"颗粒物(PM10),细颗粒物(PM2.5)"
无锡市,荣巷,120.2447,31.5633,2026-01-23T1900,51,75,1.1,57,7,29,64,70,细颗粒物(PM2.5)
无锡市,堰桥,120.2986,31.6816,2026-01-23T1900,48,88,0.8,84,6,15,66,69,颗粒物(PM10)
无锡市,清舒道1号,120.3138,31.4927,2026-01-23T1900,48,81,0.8,33,10,70,75,67,细颗粒物(PM2.5)
无锡市,健康路105号,120.2925,31.5685,2026-01-23T1900,61,85,1.0,94,7,10,57,83,细颗粒物(PM2.5)
吴忠市,教育园区,106.1535,37.9648,2026-01-23T1900,80,112,1.4,53,25,56,73,107,细颗粒物(PM2.5)
吴忠市,新区二泵站,106.1851,37.9957,2026-01-23T1900,84,137,1.5,65,21,46,70,112,细颗粒物(PM2.5)
吴忠市,文卫南街,106.2176,37.9832,2026-01-23T1900,95,140,1.4,57,23,54,81,125,细颗粒物(PM2.5)
芜湖市,监测站,118.3603,31.3515,2026-01-23T1900,69,88,1.0,66,10,27,54,93,细颗粒物(PM2.5)
芜湖市,科创中心,118.3716,31.4135,2026-01-23T1900,73,90,0.9,65,7,29,60,98,细颗粒物(PM2.5)
芜湖市,四水厂,118.3671,31.3132,2026-01-23T1900,69,78,0.7,56,10,46,63,93,细颗粒物(PM2.5)
芜湖市,市气象局,118.4209,31.3704,2026-01-23T1900,69,89,0.7,89,9,12,54,93,细颗粒物(PM2.5)
芜湖市,清苑社区,118.4783,31.3226,2026-01-23T1900,70,95,0.8,102,11,3,60,94,细颗粒物(PM2.5)
芜湖市,扬子职业技术学院,118.2746,31.2326,2026-01-23T1900,70,72,0.9,40,10,60,72,94,细颗粒物(PM2.5)
芜湖市,湾沚区人民法院,118.5726,31.1371,2026-01-23T1900,48,63,1.1,38,10,66,85,67,细颗粒物(PM2.5)
梧州市,市十一中,111.3126,23.4772,2026-01-23T1900,14,21,0.4,4,7,23,31,21,
梧州市,龙新,111.26,23.4794,2026-01-23T1900,17,36,0.6,10,7,32,32,36,
梧州市,政贤路18号,111.2416,23.4155,2026-01-23T1900,,44,0.6,18,5,18,26,,
五家渠市,农水大厦,87.5352,44.1606,2026-01-23T1900,139,166,1.1,37,5,51,45,185,细颗粒物(PM2.5)
五家渠市,经开区管委会,87.5461,44.1909,2026-01-23T1900,138,147,1.4,34,5,53,47,183,细颗粒物(PM2.5)
五家渠市,建设西街760号,87.055284,43.999117,2026-01-23T1900,120,153,1.1,16,3,82,74,158,细颗粒物(PM2.5)
武汉市,东湖梨园,114.3676,30.5584,2026-01-23T1900,54,57,1.0,41,6,63,70,74,细颗粒物(PM2.5)
武汉市,汉阳月湖,114.2527,30.5578,2026-01-23T1900,58,69,0.8,38,4,47,74,79,细颗粒物(PM2.5)
武汉市,汉口花桥,114.2819,30.6189,2026-01-23T1900,63,68,1.1,67,7,29,64,85,细颗粒物(PM2.5)
武汉市,武昌紫阳,114.3024,30.5332,2026-01-23T1900,63,79,1.0,50,6,47,72,85,细颗粒物(PM2.5)
武汉市,青山钢花,114.3646,30.6217,2026-01-23T1900,75,92,1.1,85,6,23,64,100,细颗粒物(PM2.5)
武汉市,沌口新区,114.156697,30.482592,2026-01-23T1900,53,62,0.7,55,7,43,77,73,细颗粒物(PM2.5)
武汉市,汉口江滩,114.3013,30.5944,2026-01-23T1900,67,70,0.8,54,6,44,68,90,细颗粒物(PM2.5)
武汉市,吴家山,114.1285,30.6339,2026-01-23T1900,63,67,0.8,54,4,49,70,85,细颗粒物(PM2.5)
武汉市,民族大道182号,114.3876,30.4908,2026-01-23T1900,46,51,0.2,26,5,77,80,64,细颗粒物(PM2.5)
武威市,监测站,102.6203,37.925,2026-01-23T1900,54,124,0.9,33,13,41,61,87,颗粒物(PM10)
武威市,钟楼街149号,102.6447,37.9293,2026-01-23T1900,41,120,0.6,22,11,55,64,85,颗粒物(PM10)
西安市,兴庆小区,108.9931,34.2629,2026-01-23T1900,132,134,1.0,77,4,25,39,175,细颗粒物(PM2.5)
西安市,纺织城,109.0595,34.2569,2026-01-23T1900,138,155,1.1,82,4,16,36,183,细颗粒物(PM2.5)
西安市,小寨,108.9377,34.2178,2026-01-23T1900,126,183,1.1,95,9,8,56,166,细颗粒物(PM2.5)
西安市,市人民体育场,108.9522,34.2739,2026-01-23T1900,145,168,1.0,96,2,10,50,193,细颗粒物(PM2.5)
西安市,高新西区,108.8923,34.2322,2026-01-23T1900,119,163,1.2,84,4,29,62,156,细颗粒物(PM2.5)
西安市,经开区,108.9386,34.3446,2026-01-23T1900,146,164,1.2,70,4,28,42,195,细颗粒物(PM2.5)
西安市,长安区,108.894,34.1557,2026-01-23T1900,110,133,1.0,36,6,72,72,144,细颗粒物(PM2.5)
西安市,临潼区,109.213,34.3748,2026-01-23T1900,130,141,1.4,51,8,39,33,172,细颗粒物(PM2.5)
西安市,广运潭,109.0508,34.321,2026-01-23T1900,132,172,0.9,58,4,30,38,175,细颗粒物(PM2.5)
西安市,无线电监控中心,109.1019,34.5302,2026-01-23T1900,154,,1.1,71,7,22,42,204,细颗粒物(PM2.5)
西安市,行知小学,108.8869,34.2662,2026-01-23T1900,126,176,0.9,97,5,17,51,166,细颗粒物(PM2.5)
西安市,西苑北路977号,108.596239,34.118792,2026-01-23T1900,138,,0.8,,4,61,68,183,细颗粒物(PM2.5)
西安市,曲江池东路988号,108.9817,34.2035,2026-01-23T1900,120,186,1.1,100,3,5,57,158,细颗粒物(PM2.5)
西宁市,城北区政府,101.7775,36.643,2026-01-23T1900,17,57,1.2,51,14,41,67,54,颗粒物(PM10)
西宁市,世纪职校,101.8304,36.5785,2026-01-23T1900,50,53,1.4,99,19,10,64,69,细颗粒物(PM2.5)
西宁市,海晏路105号,101.6769,36.6535,2026-01-23T1900,40,82,1.5,75,15,17,50,66,颗粒物(PM10)
西双版纳傣族自治州,景洪市江南,100.8018,21.9995,2026-01-23T1900,,,0.7,,5,,81,,
西双版纳傣族自治州,景洪市江北,100.7995,22.0238,2026-01-23T1900,27,37,0.5,26,3,71,88,39,
锡林郭勒盟,市环保监测站,116.1048,43.9318,2026-01-23T1900,3,11,0.4,12,8,49,56,16,
锡林郭勒盟,市政府,116.0778,43.9312,2026-01-23T1900,9,10,0.4,12,7,53,61,17,
厦门市,洪文,118.1519,24.4768,2026-01-23T1900,18,36,0.5,27,3,45,65,36,
厦门市,鼓浪屿,118.0671,24.4447,2026-01-23T1900,15,34,/,20,2,54,76,34,
厦门市,湖里中学,118.0937,24.5054,2026-01-23T1900,11,25,0.5,31,1,42,72,25,
厦门市,集美中学,118.0961,24.5689,2026-01-23T1900,10,20,0.3,15,1,59,74,20,
厦门市,同安二实小,118.1502,24.7246,2026-01-23T1900,15,19,0.6,21,2,49,70,22,
咸宁市,长江产业园,114.3379,29.8683,2026-01-23T1900,30,58,0.2,29,6,74,82,54,颗粒物(PM10)
咸宁市,双鹤路18号,114.3182,29.8447,2026-01-23T1900,37,62,0.2,30,3,80,87,56,颗粒物(PM10)
咸宁市,碧桂路,114.284,29.8595,2026-01-23T1900,39,54,0.7,33,3,72,85,55,细颗粒物(PM2.5)
咸阳市,实验中学,108.6726,34.315,2026-01-23T1900,142,142,0.9,61,6,56,59,189,细颗粒物(PM2.5)
咸阳市,师范学院,108.7226,34.3622,2026-01-23T1900,149,,0.9,68,6,43,58,199,细颗粒物(PM2.5)
咸阳市,奥体中心,108.6394,34.408,2026-01-23T1900,121,162,0.8,65,5,40,59,159,细颗粒物(PM2.5)
咸阳市,五陵塬路2号,108.6601,34.3767,2026-01-23T1900,136,177,0.8,101,5,19,56,180,细颗粒物(PM2.5)
咸阳市,胭脂路9号,108.6372,34.3031,2026-01-23T1900,118,158,0.6,56,4,59,59,155,细颗粒物(PM2.5)
湘潭市,板塘,112.9508,27.8626,2026-01-23T1900,36,39,0.6,24,1,38,49,52,细颗粒物(PM2.5)
湘潭市,市监测站,112.9114,27.8404,2026-01-23T1900,44,44,1.1,16,2,49,62,62,细颗粒物(PM2.5)
湘潭市,江麓,112.8935,27.8729,2026-01-23T1900,42,45,,21,,58,72,,
湘潭市,岳塘,112.9227,27.8159,2026-01-23T1900,51,,1.1,19,7,54,72,70,细颗粒物(PM2.5)
湘潭市,科大,112.9073,27.9118,2026-01-23T1900,45,,0.6,14,2,66,74,63,细颗粒物(PM2.5)
湘潭市,昭山,113.0048,27.9153,2026-01-23T1900,40,53,0,29,2,48,67,57,细颗粒物(PM2.5)
湘西土家族苗族自治州,州政府,109.7298,28.3164,2026-01-23T1900,60,,0.6,30,4,44,66,82,细颗粒物(PM2.5)
湘西土家族苗族自治州,吉首市计生局,109.6957,28.2676,2026-01-23T1900,57,,0.8,53,9,28,65,78,细颗粒物(PM2.5)
襄阳市,襄城运动路,112.1555,32.0197,2026-01-23T1900,80,101,0.7,26,9,77,85,107,细颗粒物(PM2.5)
襄阳市,高新管委会,112.1829,32.1146,2026-01-23T1900,76,93,0.2,20,9,80,85,102,细颗粒物(PM2.5)
襄阳市,襄州航空路,112.2105,32.0903,2026-01-23T1900,78,90,0.6,23,8,79,88,104,细颗粒物(PM2.5)
襄阳市,襄城隆中路,112.0764,32.0089,2026-01-23T1900,69,104,0.8,20,11,85,86,93,细颗粒物(PM2.5)
襄阳市,高新台子湾,112.1154,32.103,2026-01-23T1900,60,103,0.5,33,17,64,73,82,细颗粒物(PM2.5)
襄阳市,铁院东路4号,112.1433,32.0581,2026-01-23T1900,83,96,0.5,33,8,60,73,110,细颗粒物(PM2.5)
孝感市,东城区,113.9062,30.9378,2026-01-23T1900,61,77,0.8,19,3,76,84,83,细颗粒物(PM2.5)
孝感市,天仙南路1号,113.946,30.8999,2026-01-23T1900,61,111,0.5,22,3,69,73,83,细颗粒物(PM2.5)
忻州市,开发区,112.7313,38.457,2026-01-23T1900,40,75,0.8,58,12,34,57,63,颗粒物(PM10)
忻州市,会展中心,112.7023,38.4932,2026-01-23T1900,47,83,1.2,61,11,30,58,67,颗粒物(PM10)
忻州市,市政府,112.7279,38.4157,2026-01-23T1900,38,81,1.0,73,8,20,64,66,颗粒物(PM10)
新乡市,环保西院,113.836,35.3104,2026-01-23T1900,168,254,1.9,59,12,44,73,218,细颗粒物(PM2.5)
新乡市,开发区,113.8847,35.2724,2026-01-23T1900,156,173,1.3,50,11,75,84,206,细颗粒物(PM2.5)
新乡市,环保东院,113.8836,35.3028,2026-01-23T1900,150,168,1.6,69,9,48,81,200,细颗粒物(PM2.5)
