area,positionname,longitude,latitude,timepoint,pm2_5,pm10,co,no2,so2,o3,o3_8h,aqi,primarypollutant
阿坝藏族羌族自治州,马师校,102.2503,31.8896,2026-01-24T1700,11,,0.4,11,4,70,58,22,
阿坝藏族羌族自治州,马尔康中学西区,102.2174,31.9016,2026-01-24T1700,16,,0.4,6,5,71,56,23,
阿克苏地区,电视台,80.2899,41.1684,2026-01-24T1700,103,530,0.2,4,12,55,35,430,颗粒物(PM10)
阿克苏地区,艺术中心,80.2592,41.1541,2026-01-24T1700,113,504,0.5,9,4,60,36,404,颗粒物(PM10)
阿拉善盟,蒙二幼,105.699,38.8409,2026-01-24T1700,49,112,0.7,18,11,71,74,81,颗粒物(PM10)
阿拉善盟,环保局新楼,105.7198,38.8508,2026-01-24T1700,39,147,0.7,15,10,66,84,99,颗粒物(PM10)
阿勒泰地区,市站,88.1266,47.8515,2026-01-24T1700,23,46,0.5,30,9,47,54,46,
阿勒泰地区,阿勒泰路33号,88.1198,47.7931,2026-01-24T1700,23,51,0.4,10,7,65,58,51,颗粒物(PM10)
阿里地区,阿里监测站,80.1171,32.4999,2026-01-24T1700,3,,0.5,2,6,116,109,37,
阿里地区,阿里藏医院,80.0906,32.5029,2026-01-24T1700,7,50,0.6,2,7,113,107,50,
安康市,汉滨区检察院,109.0088,32.6974,2026-01-24T1700,48,68,0.9,38,6,24,20,67,细颗粒物(PM2.5)
安康市,市邮政管理局,109.0324,32.6913,2026-01-24T1700,44,66,0.9,34,5,27,25,62,细颗粒物(PM2.5)
安庆市,环科院,117.0806,30.5181,2026-01-24T1700,57,80,0.6,24,8,80,62,78,细颗粒物(PM2.5)
安庆市,马山宾馆,117.0331,30.5118,2026-01-24T1700,53,64,0.7,27,7,86,68,73,细颗粒物(PM2.5)
安庆市,安庆大学,116.9897,30.6146,2026-01-24T1700,54,68,0.6,32,6,86,81,74,细颗粒物(PM2.5)
安庆市,市人大,117.0598,30.5351,2026-01-24T1700,57,62,0.6,20,9,85,69,78,细颗粒物(PM2.5)
安顺市,凤凰山,105.9408,26.2431,2026-01-24T1700,19,28,0.4,10,11,46,41,28,
安顺市,金钟山,105.9443,26.2567,2026-01-24T1700,22,32,0.6,11,12,46,41,32,
安顺市,娄家坡,105.8983,26.248,2026-01-24T1700,20,25,0.4,11,9,47,42,29,
安阳市,红庙街,114.3552,36.1017,2026-01-24T1700,123,124,0.7,30,2,88,62,162,细颗粒物(PM2.5)
安阳市,银杏小区,114.361,36.0681,2026-01-24T1700,147,,0.8,27,3,90,65,196,细颗粒物(PM2.5)
安阳市,信访局,114.3921,36.0879,2026-01-24T1700,141,,0.8,22,5,95,73,188,细颗粒物(PM2.5)
安阳市,左辅环卫站,114.4706,36.0634,2026-01-24T1700,112,127,0.7,18,4,101,81,147,细颗粒物(PM2.5)
安阳市,钢三路198号,114.2918,36.0769,2026-01-24T1700,146,175,0.7,28,4,84,60,195,细颗粒物(PM2.5)
鞍山市,深沟寺,123.0441,41.1201,2026-01-24T1700,14,29,0.6,14,6,62,63,29,
鞍山市,太阳城,123.011,41.0931,2026-01-24T1700,13,28,0.6,16,10,60,62,28,
鞍山市,太平,123.0483,41.1445,2026-01-24T1700,14,32,0.7,20,10,56,57,32,
鞍山市,铁西三道街,122.964,41.0968,2026-01-24T1700,12,28,0.6,26,12,54,56,28,
鞍山市,明达新区,123.0219,41.0822,2026-01-24T1700,12,27,0.6,14,9,64,67,27,
鞍山市,兴盛南路290号,122.944647,41.082639,2026-01-24T1700,18,49,1.0,40,20,48,59,49,
巴彦淖尔市,附二中,107.4206,40.7609,2026-01-24T1700,37,103,0.7,17,12,71,49,77,颗粒物(PM10)
巴彦淖尔市,市环保大楼,107.37,40.7372,2026-01-24T1700,41,118,0.8,22,12,68,50,84,颗粒物(PM10)
巴音郭楞蒙古自治州,孔雀公园,86.1476,41.7529,2026-01-24T1700,69,355,0.4,4,8,60,41,208,颗粒物(PM10)
巴音郭楞蒙古自治州,棉纺厂,86.1971,41.7166,2026-01-24T1700,62,415,/,3,/,62,40,293,颗粒物(PM10)
巴音郭楞蒙古自治州,经济开发区,86.236,41.7172,2026-01-24T1700,47,358,0.6,9,4,57,39,212,颗粒物(PM10)
巴中市,市五中,106.776805,31.852614,2026-01-24T1700,52,68,1.0,20,5,44,23,72,细颗粒物(PM2.5)
巴中市,圣泉水务公司,106.7419,31.8654,2026-01-24T1700,53,65,0.6,18,5,50,24,73,细颗粒物(PM2.5)
巴中市,市中心医院,106.7617,31.8343,2026-01-24T1700,48,56,0.8,18,8,52,28,67,细颗粒物(PM2.5)
白城市,洮北区环保局,122.7909,45.608,2026-01-24T1700,9,22,0.1,9,5,69,70,22,
白城市,市环保局,122.8741,45.5725,2026-01-24T1700,8,19,0.2,6,4,71,69,23,
白山市,喜丰,126.4219,41.9172,2026-01-24T1700,13,31,0.7,16,20,68,61,31,
白山市,环保局,126.4082,41.9416,2026-01-24T1700,10,27,0.6,15,14,68,60,27,
白银市,第三小学,104.1727,36.5448,2026-01-24T1700,66,87,0.9,39,52,84,59,89,细颗粒物(PM2.5)
白银市,动力公司,104.1467,36.5482,2026-01-24T1700,57,95,0.9,45,56,90,85,78,细颗粒物(PM2.5)
百色市,市监测站,106.6102,23.901,2026-01-24T1700,38,59,0.8,15,13,48,36,55,颗粒物(PM10)
百色市,市中心血站,106.6524,23.8842,2026-01-24T1700,48,59,0.8,14,11,50,40,67,细颗粒物(PM2.5)
百色市,龙景西路,106.6273,23.8798,2026-01-24T1700,42,68,0.7,16,14,48,30,59,"颗粒物(PM10),细颗粒物(PM2.5)"
蚌埠市,工人疗养院,117.396,32.9389,2026-01-24T1700,65,89,0.7,31,6,98,94,88,细颗粒物(PM2.5)
蚌埠市,百货大楼,117.3606,32.9428,2026-01-24T1700,68,89,0.7,26,8,100,95,92,细颗粒物(PM2.5)
蚌埠市,蚌埠学院,117.4183,32.8909,2026-01-24T1700,59,66,0.8,25,6,103,94,80,细颗粒物(PM2.5)
蚌埠市,淮上区政府,117.3534,32.9672,2026-01-24T1700,71,85,0.7,28,4,104,97,95,细颗粒物(PM2.5)
蚌埠市,高新区,117.3143,32.8977,2026-01-24T1700,71,85,0.7,21,8,103,95,95,细颗粒物(PM2.5)
蚌埠市,蚌埠田家炳中学,117.3091,32.9314,2026-01-24T1700,73,91,0.8,29,6,100,94,98,细颗粒物(PM2.5)
包头市,市环境监测站,109.8761,40.6533,2026-01-24T1700,38,91,1.0,45,16,55,38,71,颗粒物(PM10)
包头市,包头八中,109.9992,40.5843,2026-01-24T1700,59,112,1.4,47,27,53,41,81,颗粒物(PM10)
包头市,惠龙物流,109.8641,40.6288,2026-01-24T1700,36,86,2.1,43,27,62,42,68,颗粒物(PM10)
包头市,东河鸿龙湾,110.0376,40.5546,2026-01-24T1700,40,118,0.7,43,13,61,46,84,颗粒物(PM10)
包头市,滨河大厦,109.9154,40.5684,2026-01-24T1700,39,54,0.8,35,11,61,44,55,细颗粒物(PM2.5)
包头市,包头市委党校,109.9449,40.6259,2026-01-24T1700,69,74,1.0,41,16,61,40,93,细颗粒物(PM2.5)
包头市,昆区政府,109.8332,40.6577,2026-01-24T1700,41,88,1.2,48,22,59,41,69,颗粒物(PM10)
宝鸡市,竹园沟,107.0802,34.3129,2026-01-24T1700,102,105,0.6,22,8,110,60,134,细颗粒物(PM2.5)
宝鸡市,监测站,107.1429,34.3549,2026-01-24T1700,105,113,0.8,29,10,103,59,138,细颗粒物(PM2.5)
宝鸡市,技工学校,107.1172,34.3759,2026-01-24T1700,96,105,0.7,26,10,111,66,127,细颗粒物(PM2.5)
宝鸡市,文理学院,107.2025,34.3518,2026-01-24T1700,124,,0.7,20,8,108,64,163,细颗粒物(PM2.5)
宝鸡市,三迪小学,107.2396,34.3626,2026-01-24T1700,104,104,0.7,30,9,108,66,137,细颗粒物(PM2.5)
宝鸡市,滨河北路,107.1721,34.3558,2026-01-24T1700,93,112,0.7,23,11,100,60,123,细颗粒物(PM2.5)
宝鸡市,陈仓区北开路21号,107.3898,34.3601,2026-01-24T1700,97,119,0.5,34,10,108,70,128,细颗粒物(PM2.5)
保定市,游泳馆,115.4803,38.8568,2026-01-24T1700,149,150,1.1,55,10,56,45,199,细颗粒物(PM2.5)
保定市,华电二区,115.509,38.8895,2026-01-24T1700,133,141,1.3,50,6,46,32,176,细颗粒物(PM2.5)
保定市,接待中心,115.4588,38.9037,2026-01-24T1700,144,162,0.9,53,6,48,36,192,细颗粒物(PM2.5)
保定市,地表水厂,115.4484,38.8344,2026-01-24T1700,130,173,1.0,53,8,54,45,172,细颗粒物(PM2.5)
保定市,满城区生态环境分局,115.3136,38.9511,2026-01-24T1700,124,161,1.0,52,6,46,37,163,细颗粒物(PM2.5)
保定市,清苑区第二中学,115.4709,38.7628,2026-01-24T1700,157,202,1.0,56,11,54,40,207,细颗粒物(PM2.5)
保定市,徐水物探局,115.6231,39.0223,2026-01-24T1700,147,207,1.2,69,12,32,40,196,细颗粒物(PM2.5)
保定市,双鹰农机,115.4199,38.8665,2026-01-24T1700,144,169,1.0,37,10,76,55,192,细颗粒物(PM2.5)
保定市,植保所站,115.515,38.8589,2026-01-24T1700,144,164,1.0,56,3,50,36,192,细颗粒物(PM2.5)
保山市,市环境监测站,99.1589,25.1137,2026-01-24T1700,12,21,0.2,6,5,89,77,28,
保山市,市环保局,99.1616,25.1381,2026-01-24T1700,16,41,0.5,4,3,90,77,41,
北海市,海滩公园,109.1435,21.4085,2026-01-24T1700,71,91,,22,7,42,29,,
北海市,新市环保局,109.0983,21.466,2026-01-24T1700,58,58,1.3,19,4,42,30,79,细颗粒物(PM2.5)
北海市,北海工业园,109.1775,21.5232,2026-01-24T1700,76,90,0.9,19,6,39,26,102,细颗粒物(PM2.5)
北海市,龙潭自来水厂,109.1844,21.4396,2026-01-24T1700,65,66,1.2,18,7,42,29,88,细颗粒物(PM2.5)
北京市,万寿西宫,116.3611,39.8786,2026-01-24T1700,25,41,0.6,40,4,42,47,41,
北京市,东四,116.4174,39.9289,2026-01-24T1700,30,61,0.6,47,6,32,37,56,颗粒物(PM10)
北京市,天坛,116.4073,39.8858,2026-01-24T1700,33,61,1.0,53,4,29,37,56,颗粒物(PM10)
北京市,农展馆,116.4622,39.9364,2026-01-24T1700,34,68,0.6,38,6,36,45,59,颗粒物(PM10)
北京市,官园,116.3399,39.9293,2026-01-24T1700,26,44,0.6,31,5,44,40,44,
北京市,海淀万柳,116.2879,39.9613,2026-01-24T1700,23,43,0.6,33,4,40,34,43,
北京市,顺义新城,116.6635,40.1349,2026-01-24T1700,21,34,0.4,16,5,64,58,34,
北京市,怀柔镇,116.6275,40.327,2026-01-24T1700,9,18,0.4,11,4,64,58,20,
北京市,昌平镇,116.2295,40.217,2026-01-24T1700,14,34,0.4,23,2,49,36,34,
北京市,奥体中心,116.3968,39.982,2026-01-24T1700,30,52,0.7,56,6,35,43,51,颗粒物(PM10)
北京市,密云新城,116.8336,40.4095,2026-01-24T1700,7,13,0.3,5,2,71,64,23,
北京市,门头沟三家店,116.0879,39.9725,2026-01-24T1700,28,51,0.6,44,6,30,37,51,颗粒物(PM10)
北京市,丰台云岗,116.1507,39.8246,2026-01-24T1700,39,58,0.6,38,5,43,36,55,细颗粒物(PM2.5)
北京市,房山燕山,115.9578,39.7602,2026-01-24T1700,93,137,0.8,66,7,33,36,123,细颗粒物(PM2.5)
北京市,大兴旧宫,116.4669,39.7734,2026-01-24T1700,34,61,0.6,45,5,35,35,56,颗粒物(PM10)
北京市,延庆石河营,115.9859,40.4562,2026-01-24T1700,20,39,0.5,24,5,56,41,39,
北京市,怀柔新城,116.6151,40.3052,2026-01-24T1700,6,19,0.2,8,4,63,57,20,
北京市,丰台小屯,116.2542,39.8764,2026-01-24T1700,27,51,0.7,44,5,29,29,51,颗粒物(PM10)
北京市,密云镇,116.8399,40.3843,2026-01-24T1700,3,11,0.2,3,1,71,62,23,
北京市,延庆百泉,115.9423,40.4431,2026-01-24T1700,20,36,0.5,21,5,49,33,36,
北京市,通州新华,116.6598,39.9164,2026-01-24T1700,34,81,0.7,46,4,32,28,66,颗粒物(PM10)
北京市,石景山八角,116.1942,39.9158,2026-01-24T1700,25,57,0.5,39,4,36,32,54,颗粒物(PM10)
北京市,平谷新城,117.078628,40.151726,2026-01-24T1700,27,46,0.7,26,7,56,48,46,
本溪市,大峪,123.8274146,41.31234549,2026-01-24T1700,14,24,0.7,23,10,60,56,24,
本溪市,彩屯,123.7169,41.3094,2026-01-24T1700,32,53,0.8,29,10,56,60,52,颗粒物(PM10)
本溪市,东明,123.7672166,41.28649327,2026-01-24T1700,10,32,0.5,18,7,70,60,32,
本溪市,新立屯,123.799345,41.266614,2026-01-24T1700,15,25,0.6,29,12,50,61,25,
本溪市,威宁,123.829144,41.336777,2026-01-24T1700,12,36,0.6,27,8,52,51,36,
毕节市,八中,105.287,27.3133,2026-01-24T1700,33,,0.8,18,15,64,35,48,
毕节市,师专,105.3079,27.2987,2026-01-24T1700,30,40,0.9,19,21,63,36,43,
毕节市,工业大道,105.3688,27.3598,2026-01-24T1700,34,43,/,13,11,67,42,49,
滨州市,第二水厂,117.9961,37.3604,2026-01-24T1700,81,117,1.0,35,20,74,51,108,细颗粒物(PM2.5)
滨州市,北中新校,117.9789,37.3931,2026-01-24T1700,88,117,0.9,32,15,81,60,117,细颗粒物(PM2.5)
滨州市,中海酒店,117.9379,37.3959,2026-01-24T1700,95,110,0.8,16,18,89,29,125,细颗粒物(PM2.5)
滨州市,开发区一中,117.9381509,37.35547456,2026-01-24T1700,85,122,0.9,34,21,75,55,113,细颗粒物(PM2.5)
滨州市,金海六路,118.0914,37.6938,2026-01-24T1700,73,110,1.0,56,14,68,68,98,细颗粒物(PM2.5)
滨州市,滨州市西街道办事处,117.9955,37.3752,2026-01-24T1700,95,122,1.1,30,18,81,59,125,细颗粒物(PM2.5)
亳州市,污水处理厂,115.8071,33.8399,2026-01-24T1700,94,118,0.4,20,4,124,109,124,细颗粒物(PM2.5)
亳州市,三国揽胜宫,115.7789,33.8519,2026-01-24T1700,90,125,0.6,22,4,121,107,119,细颗粒物(PM2.5)
亳州市,亳州学院,115.7631,33.803,2026-01-24T1700,99,114,1.0,17,3,122,109,130,细颗粒物(PM2.5)
博尔塔拉蒙古自治州,市党校,82.0482,44.8553,2026-01-24T1700,53,98,0.9,17,4,71,72,74,颗粒物(PM10)
博尔塔拉蒙古自治州,市环保局,82.0805,44.8966,2026-01-24T1700,48,106,0.7,29,8,61,55,78,颗粒物(PM10)
沧州市,沧县城建局,116.8733,38.2922,2026-01-24T1700,147,168,1.1,42,15,80,67,196,细颗粒物(PM2.5)
沧州市,电视转播站,116.8462,38.3189,2026-01-24T1700,162,163,1.1,37,10,79,68,212,细颗粒物(PM2.5)
沧州市,市环保局,116.8588,38.3161,2026-01-24T1700,139,172,1.0,34,15,71,60,185,细颗粒物(PM2.5)
沧州市,河北水利电力学院,116.8011,38.294,2026-01-24T1700,167,173,1.0,39,14,71,57,217,细颗粒物(PM2.5)
昌都市,昌都监测站,97.1813,31.1289,2026-01-24T1700,7,64,0.3,2,4,99,64,57,颗粒物(PM10)
昌都市,昌都会议中心,97.1707,31.1428,2026-01-24T1700,3,13,0.2,1,3,95,62,30,
昌吉回族自治州,新区政务中心,87.2722,44.0298,2026-01-24T1700,24,101,0.7,24,16,70,42,76,颗粒物(PM10)
昌吉回族自治州,亚心广场,87.3069,44.0093,2026-01-24T1700,41,139,1.0,21,14,68,43,95,颗粒物(PM10)
昌吉回族自治州,财政所,87.2057,43.9289,2026-01-24T1700,44,84,0.5,6,10,78,65,67,颗粒物(PM10)
长春市,客车厂,125.2874,43.9024,2026-01-24T1700,44,60,0.5,32,14,55,60,62,细颗粒物(PM2.5)
长春市,邮电学院,125.2943,43.8508,2026-01-24T1700,37,67,0.4,30,12,54,58,59,颗粒物(PM10)
长春市,劳动公园,125.3648,43.8745,2026-01-24T1700,39,62,0.2,27,6,63,64,56,颗粒物(PM10)
长春市,园林处,125.3233,43.8781,2026-01-24T1700,40,56,0.5,17,9,64,60,57,细颗粒物(PM2.5)
长春市,净月潭,125.4604,43.7904,2026-01-24T1700,31,50,0.4,17,6,65,27,50,
长春市,经开区环卫处,125.38,43.8422,2026-01-24T1700,36,64,0.5,24,7,65,58,57,颗粒物(PM10)
长春市,高新区管委会,125.234,43.7761,2026-01-24T1700,33,54,0.4,18,8,72,70,52,颗粒物(PM10)
长春市,岱山公园,125.1695,43.83,2026-01-24T1700,38,52,0.4,16,6,68,67,54,细颗粒物(PM2.5)
长春市,北亚泰大街1068号,125.334645,43.916281,2026-01-24T1700,54,62,0.6,31,12,52,54,74,细颗粒物(PM2.5)
长沙市,经开区环保局,113.082,28.2421,2026-01-24T1700,27,34,0.6,10,4,78,54,39,
长沙市,高开区环保局,112.8873,28.2202,2026-01-24T1700,26,39,0.6,16,6,71,64,39,
长沙市,马坡岭,113.0785,28.2012,2026-01-24T1700,26,32,0.8,9,5,90,62,38,
长沙市,湖南师范大学,112.9448,28.1894,2026-01-24T1700,23,29,0.7,15,6,78,60,33,
长沙市,雨花区环保局,113.0177,28.1322,2026-01-24T1700,20,33,0.8,19,8,72,50,33,
长沙市,伍家岭,112.9795,28.2593,2026-01-24T1700,33,42,0.7,20,6,71,53,48,
长沙市,火车新站,113.002,28.1944,2026-01-24T1700,29,41,0.9,17,2,76,54,42,
长沙市,天心区环保局,112.9846,28.1177,2026-01-24T1700,28,33,0.6,19,7,79,61,40,
长沙市,湖南中医药大学,112.8906,28.1307,2026-01-24T1700,32,36,0.7,23,8,74,56,46,
长治市,清华站,113.1146,36.1547,2026-01-24T1700,19,37,0.5,9,10,93,61,37,
长治市,审计局,113.0887,36.2126,2026-01-24T1700,33,44,0.4,16,11,93,62,48,
长治市,长治八中,113.0845,36.1856,2026-01-24T1700,28,44,0.5,9,11,90,59,44,
长治市,德盛苑,113.1561,36.1912,2026-01-24T1700,40,50,0.7,18,11,90,79,57,细颗粒物(PM2.5)
长治市,向阳小学,113.0603,36.0464,2026-01-24T1700,19,47,0.6,18,11,93,78,47,
长治市,屯留一中,112.8788,36.315,2026-01-24T1700,10,40,0.3,7,6,96,75,40,
长治市,英华南巷50号,113.113092,36.199482,2026-01-24T1700,34,51,0.7,13,9,92,62,51,颗粒物(PM10)
长治市,学府街1号,113.23666,36.33435,2026-01-24T1700,109,,1.3,25,11,96,77,143,细颗粒物(PM2.5)
常德市,市二中,111.696,28.9725,2026-01-24T1700,74,86,1.0,20,8,69,42,99,细颗粒物(PM2.5)
常德市,武陵区永安,111.7152,29.0288,2026-01-24T1700,70,95,1.0,21,8,71,49,94,细颗粒物(PM2.5)
常德市,鼎城区玉霞,111.6891,28.9881,2026-01-24T1700,74,87,0.8,22,10,72,48,99,细颗粒物(PM2.5)
常德市,武陵区长庚,111.6651,29.0526,2026-01-24T1700,73,91,0.8,22,7,64,50,98,细颗粒物(PM2.5)
常州市,市监测站,119.9524,31.7586,2026-01-24T1700,79,119,1.0,50,10,82,77,105,细颗粒物(PM2.5)
常州市,武进监测站,119.9351,31.703,2026-01-24T1700,84,118,1.1,44,13,84,74,112,细颗粒物(PM2.5)
常州市,行政中心,119.9701,31.813,2026-01-24T1700,71,96,1.1,43,11,85,78,95,细颗粒物(PM2.5)
常州市,经开区,120.0434,31.7726,2026-01-24T1700,66,122,0.7,44,12,83,81,89,细颗粒物(PM2.5)
常州市,钟楼,119.8919,31.7892,2026-01-24T1700,77,116,1.2,48,14,81,78,103,细颗粒物(PM2.5)
常州市,武进经发区,119.8595,31.706,2026-01-24T1700,98,121,1.2,46,11,86,76,129,细颗粒物(PM2.5)
常州市,金坛城区,119.5812,31.7256,2026-01-24T1700,87,105,1.4,35,12,92,86,115,细颗粒物(PM2.5)
常州市,崇义南街5-H号,119.9551,31.863,2026-01-24T1700,58,88,0.9,37,9,88,80,79,细颗粒物(PM2.5)
朝阳市,西梁,120.4318,41.588,2026-01-24T1700,14,22,0.2,14,4,74,54,24,
朝阳市,河畔小区,120.452,41.565,2026-01-24T1700,15,22,0.4,11,4,74,54,24,
朝阳市,八里堡,120.4176,41.5648,2026-01-24T1700,17,29,0.3,13,7,70,52,29,
潮州市,市政府,116.6179,23.6608,2026-01-24T1700,34,53,0.4,16,5,115,89,52,颗粒物(PM10)
潮州市,金山,116.646,23.676,2026-01-24T1700,35,51,0.5,14,5,125,91,51,颗粒物(PM10)
郴州市,市职中,113.0116,25.8228,2026-01-24T1700,42,44,0.6,20,11,38,30,59,细颗粒物(PM2.5)
郴州市,市审计局,113.0381,25.8074,2026-01-24T1700,41,52,/,23,5,31,24,58,细颗粒物(PM2.5)
郴州市,市环保局,113.0348,25.7757,2026-01-24T1700,42,61,0.7,27,10,25,23,59,细颗粒物(PM2.5)
郴州市,好美居路49号,113.0138,25.8011,2026-01-24T1700,46,64,/,27,6,43,35,64,细颗粒物(PM2.5)
成都市,金泉两河,103.9727,30.7242,2026-01-24T1700,64,94,0.8,54,2,5,10,87,细颗粒物(PM2.5)
成都市,十里店,104.1423,30.6765,2026-01-24T1700,58,74,0.6,30,3,40,24,79,细颗粒物(PM2.5)
成都市,三瓦窑,104.0594,30.5765,2026-01-24T1700,47,68,0.7,19,4,52,26,65,细颗粒物(PM2.5)
成都市,沙河铺,104.1122,30.6306,2026-01-24T1700,52,82,0.8,36,2,40,29,72,细颗粒物(PM2.5)
成都市,大石西路,104.0219,30.6561,2026-01-24T1700,61,88,1.1,45,4,9,12,83,细颗粒物(PM2.5)
成都市,龙泉驿区区政府,104.2724,30.559,2026-01-24T1700,46,58,0.7,20,6,47,33,64,细颗粒物(PM2.5)
成都市,金博路,104.0028,30.6891,2026-01-24T1700,60,74,0.9,49,4,7,7,82,细颗粒物(PM2.5)
成都市,华阳,104.056,30.5228,2026-01-24T1700,41,66,0.7,19,3,53,33,58,"颗粒物(PM10),细颗粒物(PM2.5)"
成都市,青石路225号,104.387954,30.746684,2026-01-24T1700,39,74,0.8,21,5,48,29,62,颗粒物(PM10)
成都市,科学城,104.0788,30.4054,2026-01-24T1700,,,0.9,18,6,44,30,,
成都市,光华大道三段,103.8505,30.6946,2026-01-24T1700,82,100,0.9,47,3,18,28,109,细颗粒物(PM2.5)
成都市,八角井街185号,104.3257,30.6406,2026-01-24T1700,54,82,1.0,19,3,44,34,74,细颗粒物(PM2.5)
成都市,鲸龙路1057号,104.2433276,30.53529463,2026-01-24T1700,37,48,0.5,16,5,56,40,53,细颗粒物(PM2.5)
承德市,铁路,117.9531,40.908,2026-01-24T1700,22,33,0.4,17,7,55,46,33,
承德市,中国银行,117.9397,40.9763,2026-01-24T1700,11,39,0.5,22,3,56,53,39,
承德市,杏林街1号,117.9462,40.95,2026-01-24T1700,21,31,0.4,9,5,66,57,31,
承德市,滨河大街98号,117.7994,40.9605,2026-01-24T1700,26,47,0.4,13,5,59,44,47,
池州市,池州学院,117.4698,30.6617,2026-01-24T1700,38,48,0.8,22,8,86,74,54,细颗粒物(PM2.5)
池州市,展览馆,117.4918,30.6617,2026-01-24T1700,33,47,0.9,24,6,84,73,48,
池州市,第八中学,117.5626,30.695,2026-01-24T1700,,48,0.8,27,8,81,76,,
池州市,第十二中学,117.5037,30.6242,2026-01-24T1700,37,49,1.0,26,7,86,70,53,细颗粒物(PM2.5)
赤峰市,松山一中,118.9229,42.2816,2026-01-24T1700,6,29,0.6,11,2,68,55,29,
赤峰市,哈达街,118.9588,42.2733,2026-01-24T1700,12,21,0.5,11,4,65,52,21,
赤峰市,天义路,118.8792,42.2551,2026-01-24T1700,7,20,0.5,7,5,75,58,24,
赤峰市,银河街,119.2656,42.0356,2026-01-24T1700,12,37,0.5,5,11,72,58,37,
赤峰市,桥北物流园区,118.9359,42.3146,2026-01-24T1700,19,21,0.4,11,5,75,64,28,
崇左市,市环保局江州分局,107.3473,22.4137,2026-01-24T1700,43,47,0.9,19,4,26,28,60,细颗粒物(PM2.5)
崇左市,石景林东路7号,107.375,22.3736,2026-01-24T1700,46,,0.6,21,3,24,27,64,细颗粒物(PM2.5)
滁州市,市政府原办公楼,118.31131,32.3033,2026-01-24T1700,68,92,0.7,35,8,88,70,92,细颗粒物(PM2.5)
滁州市,图书馆,118.3268,32.2633,2026-01-24T1700,54,83,0.7,40,10,85,70,74,细颗粒物(PM2.5)
滁州市,银山路666号,118.3196,32.3335,2026-01-24T1700,87,,0.7,29,12,93,76,115,细颗粒物(PM2.5)
滁州市,黄山路555号,118.3426,32.2979,2026-01-24T1700,83,99,1.0,35,17,100,79,110,细颗粒物(PM2.5)
楚雄彝族自治州,市经济开发区,101.5379,25.0492,2026-01-24T1700,6,12,0.4,3,2,80,65,25,
楚雄彝族自治州,团结路562号,101.5536,25.0343,2026-01-24T1700,3,19,0.2,5,4,79,63,25,
达州市,市环境监测站,107.5087,31.2186,2026-01-24T1700,41,68,0.7,34,6,36,19,59,颗粒物(PM10)
达州市,凤凰小区,107.4988,31.2132,2026-01-24T1700,44,73,0.8,,5,46,4,,
达州市,达县机关宾馆,107.5081,31.1987,2026-01-24T1700,43,58,0.9,28,3,50,22,60,细颗粒物(PM2.5)
达州市,市政中心,107.4644,31.2124,2026-01-24T1700,44,69,0.8,29,6,50,24,62,细颗粒物(PM2.5)
大理白族自治州,大理市环境监测站,100.2168,25.5818,2026-01-24T1700,10,19,0.5,6,6,80,73,25,
大理白族自治州,大理古城,100.1542,25.7055,2026-01-24T1700,3,27,0.8,6,8,91,84,29,
大连市,甘井子,121.6119,38.974,2026-01-24T1700,12,28,0.2,23,8,80,74,28,
大连市,周水子,121.565,38.9509,2026-01-24T1700,12,32,0.3,24,14,63,64,32,
大连市,星海三站,121.5637,38.8849,2026-01-24T1700,10,29,0.7,22,8,64,62,29,
大连市,青泥洼桥,121.6301,38.9117,2026-01-24T1700,18,,0.4,28,9,58,53,26,
大连市,傅家庄,121.6248,38.8643,2026-01-24T1700,16,31,0.5,27,8,56,55,31,
大连市,七贤岭,121.5117,38.8636,2026-01-24T1700,21,34,0.6,26,9,53,62,34,
大连市,金州,121.7507,39.1339,2026-01-24T1700,32,43,0.4,23,8,74,79,46,
大连市,开发区,121.7811,39.0495,2026-01-24T1700,27,152,0.3,26,5,65,65,101,颗粒物(PM10)
大连市,双D港,121.9762,39.0631,2026-01-24T1700,29,36,0.5,12,9,80,78,42,
大连市,旅顺,121.2548,38.8188,2026-01-24T1700,28,40,0.7,23,12,56,60,40,
大庆市,大同区,124.8085,46.0381,2026-01-24T1700,22,36,0.7,9,5,67,68,36,
大庆市,龙凤区,125.1166,46.5255,2026-01-24T1700,14,32,0.3,17,8,60,59,32,
大庆市,红岗区,124.8894,46.4007,2026-01-24T1700,19,28,0.4,18,5,49,54,28,
大庆市,萨尔图区,125.1391,46.578,2026-01-24T1700,15,25,0.6,18,8,54,52,25,
大庆市,让胡路区,124.9026,46.6217,2026-01-24T1700,14,23,0.4,9,7,73,73,23,
大庆市,萨区政府监测点,125.127,46.6277,2026-01-24T1700,3,27,0.4,14,9,58,62,27,
大同市,云冈宾馆,113.2926,40.0759,2026-01-24T1700,29,54,0.8,27,9,63,42,52,颗粒物(PM10)
大同市,大同大学,113.3437,40.0921,2026-01-24T1700,43,48,0.9,31,14,61,51,60,细颗粒物(PM2.5)
大同市,安家小村,113.2637,40.129,2026-01-24T1700,28,42,1.0,21,10,71,45,42,
大同市,大同市卫生学校,113.3399,40.0586,2026-01-24T1700,30,68,0.8,34,9,65,48,59,颗粒物(PM10)
大同市,云冈站,113.1371,40.1122,2026-01-24T1700,46,106,1.0,40,14,47,46,78,颗粒物(PM10)
大同市,图书馆,113.1186,40.2556,2026-01-24T1700,24,67,0.9,17,6,77,55,59,颗粒物(PM10)
大同市,区一中,113.5931,40.0459,2026-01-24T1700,50,76,1.7,32,26,57,40,69,细颗粒物(PM2.5)
大同市,魏都大道141号,113.2798248,40.09972476,2026-01-24T1700,31,58,0.7,20,7,73,44,54,颗粒物(PM10)
大兴安岭地区,科技局,124.1068,50.4091,2026-01-24T1700,9,24,0.2,4,4,65,65,24,
大兴安岭地区,红旗社区,124.117,50.4279,2026-01-24T1700,8,,0.3,2,4,70,65,22,
丹东市,江湾东路,124.33,40.0625,2026-01-24T1700,12,27,0.5,19,6,59,60,27,
丹东市,临江后街,124.4242,40.1513,2026-01-24T1700,6,20,0.5,11,3,66,60,21,
丹东市,元宝山,124.3935,40.1461,2026-01-24T1700,6,19,0.1,9,8,67,59,21,
丹东市,民主桥,124.3634,40.1093,2026-01-24T1700,7,16,0.5,,,62,60,,
儋州市,第一中学子站,109.5726195,19.51688767,2026-01-24T1700,10,22,0.6,7,4,78,66,25,
儋州市,东坡学校子站,109.5567,19.5187,2026-01-24T1700,6,22,0.6,6,3,92,78,29,
德宏傣族景颇族自治州,德宏州监测站,98.5611,24.4273,2026-01-24T1700,24,26,0.5,9,6,96,81,35,
德宏傣族景颇族自治州,芒市人民政府综合楼,98.5887,24.4366,2026-01-24T1700,22,58,0.5,9,5,92,62,54,颗粒物(PM10)
德阳市,东山公园,104.424,31.1209,2026-01-24T1700,45,56,0.7,15,2,45,22,63,细颗粒物(PM2.5)
德阳市,西小区,104.3827,31.1318,2026-01-24T1700,40,59,0.7,17,3,56,20,57,细颗粒物(PM2.5)
德阳市,耐火材料厂,104.3553,31.1091,2026-01-24T1700,46,66,0.8,39,3,31,13,64,细颗粒物(PM2.5)
德阳市,市林业局,104.4144,31.1495,2026-01-24T1700,44,44,0.7,21,3,48,20,62,细颗粒物(PM2.5)
德州市,儿童乐园,116.3034,37.4675,2026-01-24T1700,124,153,1.2,34,13,112,98,163,细颗粒物(PM2.5)
德州市,监理站,116.2992,37.4449,2026-01-24T1700,132,163,1.0,39,13,120,95,175,细颗粒物(PM2.5)
德州市,九衢泉纯净水厂,116.2722,37.438,2026-01-24T1700,124,158,1.1,39,10,106,84,163,细颗粒物(PM2.5)
德州市,开发区人民医院,116.3693,37.44,2026-01-24T1700,114,153,0.7,37,13,120,110,149,细颗粒物(PM2.5)
德州市,陵城艺术中心,116.5687,37.3331,2026-01-24T1700,114,144,0.8,44,22,88,69,149,细颗粒物(PM2.5)
德州市,新河东路,116.352738,37.420875,2026-01-24T1700,114,139,1.1,46,15,106,79,149,细颗粒物(PM2.5)
迪庆藏族自治州,迪庆州站,99.7054,27.8319,2026-01-24T1700,14,31,0,4,4,79,72,31,
迪庆藏族自治州,质量技术监督局,99.7122,27.8129,2026-01-24T1700,6,24,0.4,5,4,82,74,26,
定西市,将台街,104.6092,35.5962,2026-01-24T1700,35,66,0.5,9,11,74,70,58,颗粒物(PM10)
定西市,正龙路62号,104.6159,35.5701,2026-01-24T1700,44,86,0.4,6,8,76,71,68,颗粒物(PM10)
东莞市,东城石井,113.7943,23.0132,2026-01-24T1700,44,64,0.8,28,9,153,105,62,细颗粒物(PM2.5)
东莞市,南城西平,113.7384,22.9659,2026-01-24T1700,53,61,0.8,39,12,133,96,73,细颗粒物(PM2.5)
东莞市,万江金泰,113.7283,23.041,2026-01-24T1700,52,76,0.8,34,11,125,95,72,细颗粒物(PM2.5)
东莞市,裕兴路,113.8666,23.1062,2026-01-24T1700,25,57,0.8,26,6,134,96,54,颗粒物(PM10)
东莞市,教育路1号,114.0076,22.9739,2026-01-24T1700,36,54,0.7,22,5,179,110,74,臭氧1小时(O3_1h)
东莞市,长怡路1号,113.7981,22.8124,2026-01-24T1700,48,87,0.8,69,9,116,101,69,颗粒物(PM10)
东营市,市环保局,118.6612,37.4313,2026-01-24T1700,139,175,1.3,54,15,66,64,185,细颗粒物(PM2.5)
东营市,开发区管委会,118.6903,37.4337,2026-01-24T1700,144,167,1.2,52,6,66,65,192,细颗粒物(PM2.5)
东营市,垦利区民丰路,118.5721,37.5654,2026-01-24T1700,132,171,1.1,54,14,68,58,175,细颗粒物(PM2.5)
东营市,河口城区,118.5063,37.8606,2026-01-24T1700,63,110,0.8,47,11,57,57,85,细颗粒物(PM2.5)
东营市,胜利站,118.4979,37.4623,2026-01-24T1700,136,,1.2,60,15,62,57,180,细颗粒物(PM2.5)
东营市,理想之城,118.5753,37.4405,2026-01-24T1700,132,173,1.4,60,12,56,53,175,细颗粒物(PM2.5)
鄂尔多斯市,综合楼,110.0024,39.8127,2026-01-24T1700,29,,0.6,37,11,69,60,,
鄂尔多斯市,巴音孟克林场办事处,109.9485,39.8259,2026-01-24T1700,31,,0.6,45,12,57,56,,
鄂尔多斯市,康泽苑,109.7734,39.5987,2026-01-24T1700,31,78,0.5,19,12,88,56,64,颗粒物(PM10)
鄂尔多斯市,华泰汽车城,109.8121,39.5987,2026-01-24T1700,28,70,0.6,18,9,92,53,60,颗粒物(PM10)
鄂尔多斯市,奥林花园,109.9734,39.7884,2026-01-24T1700,24,105,0.6,35,8,66,59,78,颗粒物(PM10)
鄂州市,市政府,114.894,30.3989,2026-01-24T1700,57,63,0.8,20,9,97,66,78,细颗粒物(PM2.5)
鄂州市,赵家坝,114.8986,30.3714,2026-01-24T1700,57,71,0.9,21,12,98,68,78,细颗粒物(PM2.5)
鄂州市,精准医疗中心,114.8093,30.4091,2026-01-24T1700,60,80,0.7,27,10,93,65,82,细颗粒物(PM2.5)
恩施土家族苗族自治州,湖北民院,109.4978,30.2979,2026-01-24T1700,62,72,0.9,23,6,34,25,84,细颗粒物(PM2.5)
恩施土家族苗族自治州,龙凤新区,109.5061,30.3771,2026-01-24T1700,56,66,0.8,25,7,36,26,77,细颗粒物(PM2.5)
防城港市,沙万,108.3411,21.6159,2026-01-24T1700,36,40,0.9,18,5,37,34,52,细颗粒物(PM2.5)
防城港市,防城档案局,108.3515,21.7733,2026-01-24T1700,47,,0.7,16,4,32,27,65,细颗粒物(PM2.5)
防城港市,大海花园,108.3506,21.6414,2026-01-24T1700,29,36,0.8,18,6,36,32,42,
佛山市,湾梁,113.1293,23.0065,2026-01-24T1700,44,73,/,42,/,76,56,62,"颗粒物(PM10),细颗粒物(PM2.5)"
佛山市,华材职中,113.1082,23.0477,2026-01-24T1700,60,78,0.7,39,8,83,56,82,细颗粒物(PM2.5)
佛山市,南海气象局,113.1439,23.045,2026-01-24T1700,48,76,/,48,/,76,56,67,细颗粒物(PM2.5)
佛山市,顺德苏岗,113.2879,22.8094,2026-01-24T1700,48,79,1.0,49,/,100,64,67,细颗粒物(PM2.5)
佛山市,高明孔堂,112.8384,22.8678,2026-01-24T1700,67,71,/,38,/,83,49,90,细颗粒物(PM2.5)
佛山市,三水监测站,112.8835,23.1584,2026-01-24T1700,48,63,0.8,40,7,65,44,67,细颗粒物(PM2.5)
佛山市,三水云东海,112.8668,23.185,2026-01-24T1700,48,66,/,48,/,61,43,67,细颗粒物(PM2.5)
佛山市,容桂街道办,113.2568,22.7629,2026-01-24T1700,68,102,/,61,/,89,56,92,细颗粒物(PM2.5)
福州市,师大,119.2681,26.0506,2026-01-24T1700,22,46,0.8,35,4,53,44,46,
福州市,五四北路,119.2983,26.1028,2026-01-24T1700,28,45,0.8,31,4,46,40,45,
福州市,杨桥西路,119.2648,26.0769,2026-01-24T1700,28,45,/,29,4,50,43,45,
福州市,九龙,119.5799,26.0937,2026-01-24T1700,13,26,0.6,18,4,88,67,28,
福州市,吴航,119.5188,25.9666,2026-01-24T1700,16,27,0.4,19,5,84,60,27,
福州市,路通桥巷6号,119.3106,26.0648,2026-01-24T1700,27,46,/,29,/,53,40,46,
抚顺市,望花区,123.7974,41.8494,2026-01-24T1700,8,16,0.5,12,4,74,61,24,
抚顺市,顺城区,123.9161,41.8827,2026-01-24T1700,12,21,0.5,18,7,68,57,22,
抚顺市,东洲区,124.0437,41.8615,2026-01-24T1700,8,24,0.5,14,8,68,55,24,
抚顺市,新抚区,123.9246,41.8638,2026-01-24T1700,9,23,0.3,20,6,68,63,23,
抚顺市,大伙房水库,124.0972,41.8961,2026-01-24T1700,8,24,0.5,17,9,62,57,24,
抚顺市,沈抚新城,123.708,41.8386,2026-01-24T1700,6,25,0.3,19,5,69,59,25,
抚州市,市站,116.3544,27.9833,2026-01-24T1700,41,59,0.9,18,8,77,58,58,细颗粒物(PM2.5)
抚州市,血防站,116.3562,27.9631,2026-01-24T1700,42,55,1.4,24,8,73,52,59,细颗粒物(PM2.5)
抚州市,采茶剧团,116.3561,28.0007,2026-01-24T1700,37,63,1.2,11,7,79,59,57,颗粒物(PM10)
抚州市,医学分院,116.3854,27.9648,2026-01-24T1700,42,62,1.1,18,10,76,60,59,细颗粒物(PM2.5)
阜新市,工业园区,121.6095,41.9978,2026-01-24T1700,3,26,0.4,8,6,67,68,26,
阜新市,长青街,121.6567,42.0188,2026-01-24T1700,3,14,0.2,6,6,78,76,25,
阜新市,农业园区,121.6672,42.07,2026-01-24T1700,3,22,0.2,6,5,66,66,22,
阜新市,玉龙新城,121.6343,42.0455,2026-01-24T1700,3,22,0.3,9,3,66,67,22,
阜阳市,市监测站,115.8276,32.8929,2026-01-24T1700,73,99,0.6,21,5,95,81,98,细颗粒物(PM2.5)
阜阳市,开发区,115.8551,32.8606,2026-01-24T1700,72,80,0.4,26,6,95,83,97,细颗粒物(PM2.5)
阜阳市,阜阳职业技术学院,115.783962,32.889217,2026-01-24T1700,,,,,,,106,,
阜阳市,市规划展馆,115.79,32.8614,2026-01-24T1700,73,81,0.5,22,6,102,90,98,细颗粒物(PM2.5)
阜阳市,枣园社区,115.835101,32.918568,2026-01-24T1700,80,91,0.6,20,6,94,85,107,细颗粒物(PM2.5)
甘南藏族自治州,州政府,102.9097,34.9841,2026-01-24T1700,10,17,0.4,8,10,70,56,22,
甘南藏族自治州,甘肃民族师范学院,102.8915,34.9618,2026-01-24T1700,13,30,0.2,5,8,72,56,30,
甘孜藏族自治州,水桥子,101.96,30.048,2026-01-24T1700,,,0.4,5,7,85,66,,
甘孜藏族自治州,州环保局,101.9534,29.9976,2026-01-24T1700,3,101,0.5,6,6,100,73,76,颗粒物(PM10)
赣州市,地委,114.9368,25.8663,2026-01-24T1700,,,0.9,30,8,39,40,,
赣州市,气象台,114.946,25.8483,2026-01-24T1700,30,59,0.6,34,6,42,35,55,颗粒物(PM10)
赣州市,市图书馆,114.932,25.8332,2026-01-24T1700,32,48,0.9,29,3,40,32,48,
赣州市,华坚鞋城,114.8905,25.8472,2026-01-24T1700,23,47,0.6,23,6,48,39,47,
赣州市,赣县区卫计委,115.0094,25.8614,2026-01-24T1700,37,55,0.7,24,7,31,23,53,"颗粒物(PM10),细颗粒物(PM2.5)"
固原市,监测站,106.2753,36.0057,2026-01-24T1700,73,89,0.5,17,8,92,63,98,细颗粒物(PM2.5)
固原市,新区,106.2384,36.0189,2026-01-24T1700,85,99,0.7,16,8,94,66,113,细颗粒物(PM2.5)
广安市,市委,106.6307,30.4577,2026-01-24T1700,47,62,0.9,18,11,54,42,65,细颗粒物(PM2.5)
广安市,友谊中学,106.6266,30.4662,2026-01-24T1700,43,48,0.8,23,8,52,40,60,细颗粒物(PM2.5)
广安市,广电花园,106.6386,30.4551,2026-01-24T1700,47,58,0.8,21,6,48,39,65,细颗粒物(PM2.5)
广安市,北辰小学,106.6347,30.4868,2026-01-24T1700,40,52,1.1,18,8,59,47,57,细颗粒物(PM2.5)
广元市,老城,105.8211,32.4444,2026-01-24T1700,56,70,0.8,26,2,38,23,77,细颗粒物(PM2.5)
广元市,监测站,105.8629,32.429,2026-01-24T1700,50,65,0.9,19,7,47,27,69,细颗粒物(PM2.5)
广元市,经开区,105.8047,32.4167,2026-01-24T1700,46,61,0.8,13,2,44,31,64,细颗粒物(PM2.5)
广州市,广雅中学,113.2346,23.1423,2026-01-24T1700,41,76,1.4,41,5,84,56,63,颗粒物(PM10)
广州市,市五中,113.2611,23.105,2026-01-24T1700,41,78,/,,10,113,72,,
广州市,广东商学院,113.3477,23.0916,2026-01-24T1700,80,,0.8,55,9,97,69,107,细颗粒物(PM2.5)
广州市,市八十六中,113.4332,23.105,2026-01-24T1700,48,72,/,52,10,106,69,67,细颗粒物(PM2.5)
广州市,番禺中学,113.3506,22.9488,2026-01-24T1700,51,82,0.8,45,4,112,68,70,细颗粒物(PM2.5)
广州市,花都师范,113.2147,23.3918,2026-01-24T1700,33,49,0.8,27,7,82,52,49,
广州市,市监测站,113.2599,23.1329,2026-01-24T1700,52,80,/,43,4,97,62,72,细颗粒物(PM2.5)
广州市,九龙镇镇龙,113.5618,23.3119,2026-01-24T1700,43,63,,30,,114,73,,
广州市,麓湖,113.2764,23.1544,2026-01-24T1700,,,0.9,40,10,,53,,
广州市,体育西,113.3209,23.1323,2026-01-24T1700,46,72,0.9,42,9,89,58,64,细颗粒物(PM2.5)
广州市,从化街口,113.5718,23.5493,2026-01-24T1700,33,43,0.5,16,17,105,69,48,
广州市,白云竹料,113.3463,23.369,2026-01-24T1700,34,52,0.8,30,6,106,68,51,颗粒物(PM10)
广州市,白云嘉禾,113.2981,23.2365,2026-01-24T1700,39,72,/,38,8,102,67,61,颗粒物(PM10)
广州市,黄埔科学城,113.4256,23.1716,2026-01-24T1700,39,61,0.5,45,9,110,70,56,颗粒物(PM10)
广州市,番禺大学城,113.3942,23.0485,2026-01-24T1700,50,88,0.8,45,8,112,77,69,"颗粒物(PM10),细颗粒物(PM2.5)"
广州市,南沙黄阁,113.4923,22.8169,2026-01-24T1700,45,,/,38,6,107,73,63,细颗粒物(PM2.5)
广州市,南沙街,113.534,22.7893,2026-01-24T1700,46,66,0.8,37,7,102,76,64,细颗粒物(PM2.5)
广州市,花都梯面,113.2905,23.5541,2026-01-24T1700,19,,/,11,6,58,41,,
广州市,从化良口,113.786,23.7479,2026-01-24T1700,34,38,/,14,10,104,67,49,
广州市,增城荔城,113.805,23.2614,2026-01-24T1700,30,36,0.6,16,6,122,85,43,
贵港市,江南子站,109.604387,23.066791,2026-01-24T1700,58,,1.0,25,4,20,23,79,细颗粒物(PM2.5)
贵港市,荷城子站,109.5669,23.1065,2026-01-24T1700,41,48,1.1,28,5,23,25,58,细颗粒物(PM2.5)
贵港市,新世纪学校,109.5886,23.1172,2026-01-24T1700,50,61,0.7,29,/,22,26,69,细颗粒物(PM2.5)
贵港市,中山路155-3号,109.5933,23.095,2026-01-24T1700,52,62,0.9,22,/,28,29,72,细颗粒物(PM2.5)
贵阳市,马鞍山,106.6863,26.6035,2026-01-24T1700,31,46,/,17,9,49,38,46,
贵阳市,鉴湖路,106.6241,26.6266,2026-01-24T1700,31,58,0.6,16,4,46,38,54,颗粒物(PM10)
贵阳市,燕子冲,106.7468,26.6344,2026-01-24T1700,39,,0.6,14,11,56,44,55,细颗粒物(PM2.5)
贵阳市,碧云窝,106.6556,26.4362,2026-01-24T1700,31,53,/,10,3,53,42,52,颗粒物(PM10)
贵阳市,红边门,106.6963,26.6063,2026-01-24T1700,34,53,/,21,9,49,37,52,颗粒物(PM10)
贵阳市,新华路,106.7162383,26.56964667,2026-01-24T1700,34,56,0.7,22,10,50,42,53,颗粒物(PM10)
贵阳市,太慈桥,106.6742,26.542,2026-01-24T1700,34,44,/,18,9,50,45,49,
贵阳市,花果园大街66号,106.688212,26.56952,2026-01-24T1700,40,44,/,21,7,41,34,57,细颗粒物(PM2.5)
贵阳市,漓江路57号,106.687268,26.516892,2026-01-24T1700,39,51,0.6,19,10,51,38,55,细颗粒物(PM2.5)
桂林市,龙隐路小学,110.3091,25.2705,2026-01-24T1700,44,,0.7,14,,37,40,,
桂林市,八中,110.2849361,25.22909545,2026-01-24T1700,50,52,0.4,14,8,39,37,69,细颗粒物(PM2.5)
桂林市,旅游学院,110.296,25.1254,2026-01-24T1700,46,62,0.5,15,9,46,41,64,细颗粒物(PM2.5)
桂林市,环湖路276号,110.1835,25.2444,2026-01-24T1700,39,56,0.8,15,8,40,37,55,细颗粒物(PM2.5)
桂林市,信义路13号,110.2803,25.2773,2026-01-24T1700,43,64,0.8,14,5,40,41,60,细颗粒物(PM2.5)
果洛藏族自治州,玛沁县大武镇,100.2262,34.4854,2026-01-24T1700,16,69,0.2,1,7,104,68,60,颗粒物(PM10)
哈尔滨市,松北商大,126.5557,45.8109,2026-01-24T1700,45,49,0.5,26,8,50,47,63,细颗粒物(PM2.5)
哈尔滨市,南岗学府路,126.6162,45.719,2026-01-24T1700,35,52,0.6,31,24,56,54,51,颗粒物(PM10)
哈尔滨市,太平宏伟公园,126.6894,45.7733,2026-01-24T1700,51,,0.5,23,21,57,59,70,细颗粒物(PM2.5)
哈尔滨市,道外承德广场,126.6361,45.7672,2026-01-24T1700,42,73,0.5,23,14,64,63,62,颗粒物(PM10)
哈尔滨市,动力和平路,126.644,45.7261,2026-01-24T1700,46,58,0.6,20,14,56,53,64,细颗粒物(PM2.5)
哈尔滨市,道里建国路,126.5933,45.7479,2026-01-24T1700,49,50,0.2,32,8,51,55,68,细颗粒物(PM2.5)
哈尔滨市,平房东轻厂,126.6127,45.6119,2026-01-24T1700,60,69,0.9,53,15,36,49,82,细颗粒物(PM2.5)
哈尔滨市,呼兰师专,126.5875,45.9827,2026-01-24T1700,40,40,0.5,21,7,52,52,57,细颗粒物(PM2.5)
哈尔滨市,省农科院,126.6299,45.6799,2026-01-24T1700,49,,0.6,15,14,56,50,68,细颗粒物(PM2.5)
哈尔滨市,华山路1号,126.6769,45.7379,2026-01-24T1700,38,51,0.4,24,15,55,54,54,细颗粒物(PM2.5)
哈尔滨市,解放大街52号,126.9717,45.5356,2026-01-24T1700,38,54,0.6,25,17,58,58,54,细颗粒物(PM2.5)
哈密市,地区监测站,93.5124,42.8176,2026-01-24T1700,29,117,0.1,12,12,55,39,84,颗粒物(PM10)
哈密市,哈密师范学校,93.5014,42.8312,2026-01-24T1700,27,81,,14,6,59,42,,
海北藏族自治州,海晏县西海镇,100.9016,36.9464,2026-01-24T1700,12,37,0.4,1,6,70,59,37,
海东市,平安区公安局北苑,102.074,36.5056,2026-01-24T1700,31,60,1.3,40,26,56,39,55,颗粒物(PM10)
海东市,滨河路,102.0984,36.5119,2026-01-24T1700,29,50,0.9,39,20,70,53,50,
海口市,海南大学,110.3189,20.0596,2026-01-24T1700,36,53,0.6,16,6,130,86,52,"颗粒物(PM10),细颗粒物(PM2.5)"
海口市,秀英海南医院,110.2827,20.0051,2026-01-24T1700,30,53,0.5,17,8,121,83,52,颗粒物(PM10)
海口市,海南师范大学,110.3391,19.9979,2026-01-24T1700,34,48,0.6,20,6,128,84,49,
海口市,龙华路环保局宿舍,110.3303,20.0359,2026-01-24T1700,34,52,0.9,18,/,128,83,51,颗粒物(PM10)
海口市,桂林洋子站,110.5111,19.9737,2026-01-24T1700,30,47,/,17,/,126,89,47,
海口市,长滨二路9号,110.1952,20.0451,2026-01-24T1700,34,49,/,13,/,124,81,49,
海南藏族自治州,共和县恰卜恰镇,100.6158,36.2985,2026-01-24T1700,9,23,0.6,11,12,65,53,23,
海西蒙古族藏族自治州,德令哈市,97.373,37.376,2026-01-24T1700,3,39,1.1,,15,76,88,,
邯郸市,矿院,114.492,36.5712,2026-01-24T1700,146,,0.7,20,5,102,69,195,细颗粒物(PM2.5)
邯郸市,丛台公园,114.4839,36.6136,2026-01-24T1700,154,165,0.8,23,4,101,71,204,细颗粒物(PM2.5)
邯郸市,香泉濮院小区,114.7893,36.5592,2026-01-24T1700,112,,0.8,22,3,110,83,147,细颗粒物(PM2.5)
邯郸市,峰峰矿区临水派出所,114.1998,36.4439,2026-01-24T1700,149,,1.0,24,8,103,72,199,细颗粒物(PM2.5)
邯郸市,建安街268号,114.5209,36.7697,2026-01-24T1700,210,,0.9,45,5,74,47,260,细颗粒物(PM2.5)
邯郸市,丛台东路558号,114.5488,36.6177,2026-01-24T1700,154,,0.9,16,3,108,77,204,细颗粒物(PM2.5)
汉中市,市监测站,107.0155,33.0707,2026-01-24T1700,59,75,0.9,26,6,44,24,80,细颗粒物(PM2.5)
汉中市,鑫源开发区,107.0083,33.114,2026-01-24T1700,58,65,0.8,20,4,47,28,79,细颗粒物(PM2.5)
汉中市,南郑大河坎水厂,107.0072,33.0323,2026-01-24T1700,55,62,0.9,25,6,41,22,75,细颗粒物(PM2.5)
杭州市,滨江,120.2073,30.2111,2026-01-24T1700,109,135,0.7,75,10,74,58,143,细颗粒物(PM2.5)
杭州市,西溪,120.0625,30.2737,2026-01-24T1700,94,115,0.8,64,11,76,64,124,细颗粒物(PM2.5)
杭州市,下沙,120.3417,30.315,2026-01-24T1700,106,128,0.5,61,12,93,72,139,细颗粒物(PM2.5)
杭州市,卧龙桥,120.1252,30.2465,2026-01-24T1700,89,125,0.6,74,13,69,66,118,细颗粒物(PM2.5)
杭州市,浙江农大,120.1902,30.2691,2026-01-24T1700,123,153,0.8,80,11,83,65,162,细颗粒物(PM2.5)
杭州市,和睦小学,120.1195,30.3121,2026-01-24T1700,100,155,0.9,63,9,83,62,132,细颗粒物(PM2.5)
杭州市,临平镇,120.3076,30.4146,2026-01-24T1700,99,134,0.9,55,10,92,63,130,细颗粒物(PM2.5)
杭州市,城厢镇,120.2753,30.1839,2026-01-24T1700,81,129,0.4,81,11,85,62,108,细颗粒物(PM2.5)
杭州市,云栖,120.0883,30.1808,2026-01-24T1700,72,118,0.6,76,6,64,60,97,细颗粒物(PM2.5)
杭州市,镇二中,119.9463,30.0496,2026-01-24T1700,88,104,0.8,72,7,59,54,117,细颗粒物(PM2.5)
杭州市,市府大楼,119.7184,30.2367,2026-01-24T1700,83,107,1.1,50,12,70,66,110,细颗粒物(PM2.5)
杭州市,消防大队,120.1554,30.2863,2026-01-24T1700,114,141,0.6,63,12,80,59,149,细颗粒物(PM2.5)
合肥市,明珠广场,117.1957,31.7845,2026-01-24T1700,58,90,0.9,25,8,85,71,79,细颗粒物(PM2.5)
合肥市,三里街,117.307,31.8765,2026-01-24T1700,61,75,0.8,30,7,86,60,83,细颗粒物(PM2.5)
合肥市,琥珀山庄,117.2587,31.8703,2026-01-24T1700,68,80,0.9,24,9,95,74,92,细颗粒物(PM2.5)
合肥市,庐阳区,117.2593,31.9376,2026-01-24T1700,56,85,0.9,35,11,92,69,77,细颗粒物(PM2.5)
合肥市,瑶海区,117.345251,31.861615,2026-01-24T1700,56,75,0.6,32,6,92,68,77,细颗粒物(PM2.5)
合肥市,包河区,117.3033,31.7967,2026-01-24T1700,56,78,0.8,31,8,96,72,77,细颗粒物(PM2.5)
合肥市,滨湖新区,117.278,31.7392,2026-01-24T1700,68,75,0.9,23,6,94,76,92,细颗粒物(PM2.5)
合肥市,高新区,117.1324,31.8395,2026-01-24T1700,60,85,0.9,38,6,89,78,82,细颗粒物(PM2.5)
合肥市,高教基地,117.3802,31.9148,2026-01-24T1700,68,80,0.8,31,11,94,70,92,细颗粒物(PM2.5)
合肥市,中国科学技术大学,117.2518,31.8404,2026-01-24T1700,53,80,0.9,24,10,98,76,73,细颗粒物(PM2.5)
和田地区,地区环保局,79.9241,37.0878,2026-01-24T1700,106,310,1.0,25,8,66,42,180,颗粒物(PM10)
和田地区,市环保局,79.9132,37.1137,2026-01-24T1700,127,354,1.5,21,6,64,32,206,颗粒物(PM10)
河池市,市环保站,108.0496,24.6957,2026-01-24T1700,33,52,0.8,11,13,62,47,51,颗粒物(PM10)
河池市,上任中路54号,108.0901,24.6945,2026-01-24T1700,40,46,0.7,10,21,56,42,57,细颗粒物(PM2.5)
河源市,东埔,114.6962,23.7538,2026-01-24T1700,23,25,0.4,14,6,101,70,33,
河源市,老城,114.6895,23.7232,2026-01-24T1700,,28,0.7,10,6,104,69,,
菏泽市,定陶老年大学,115.5562,35.089,2026-01-24T1700,92,117,0.5,30,4,112,102,122,细颗粒物(PM2.5)
菏泽市,黄河路600号,115.4239,35.2593,2026-01-24T1700,95,111,0.7,25,4,110,106,125,细颗粒物(PM2.5)
菏泽市,菏泽市人社局,115.5025,35.2727,2026-01-24T1700,99,107,0.7,22,8,100,94,130,细颗粒物(PM2.5)
菏泽市,永昌路1号,115.479691,35.244011,2026-01-24T1700,97,118,0.4,25,3,107,99,128,细颗粒物(PM2.5)
菏泽市,长城路999号,115.471542,35.280012,2026-01-24T1700,91,110,0.7,25,12,108,99,120,细颗粒物(PM2.5)
贺州市,环保小区,111.5264,24.4178,2026-01-24T1700,70,70,0.7,37,8,25,30,94,细颗粒物(PM2.5)
贺州市,政协大楼,111.561,24.4074,2026-01-24T1700,65,84,0.7,28,14,34,33,88,细颗粒物(PM2.5)
贺州市,西湾,111.4744,24.455,2026-01-24T1700,54,65,0.9,22,12,34,32,74,细颗粒物(PM2.5)
鹤壁市,市监测站,114.17,35.9019,2026-01-24T1700,92,97,0.9,25,3,90,70,122,细颗粒物(PM2.5)
鹤壁市,市交警支队,114.2953,35.7512,2026-01-24T1700,88,104,0.7,24,3,86,70,117,细颗粒物(PM2.5)
鹤壁市,迎宾馆,114.2877,35.7302,2026-01-24T1700,78,104,0.8,19,4,95,81,104,细颗粒物(PM2.5)
鹤壁市,大新区,114.2616,35.6824,2026-01-24T1700,86,,0.8,23,6,92,77,114,细颗粒物(PM2.5)
鹤壁市,南山宾馆,114.1573,35.9607,2026-01-24T1700,128,134,0.9,35,6,90,74,169,细颗粒物(PM2.5)
鹤岗市,哈啤分公司,130.2537,47.3416,2026-01-24T1700,29,40,0.4,19,7,64,76,42,
鹤岗市,斯达机电,130.2683,47.3087,2026-01-24T1700,11,34,0.4,10,5,69,70,34,
鹤岗市,东山纸板厂,130.3114,47.3388,2026-01-24T1700,49,52,0.6,38,9,44,67,68,细颗粒物(PM2.5)
黑河市,交通局,127.4832,50.2524,2026-01-24T1700,17,18,0.2,10,5,85,77,27,
黑河市,环保局,127.5146,50.2339,2026-01-24T1700,14,23,0.4,10,4,69,72,23,
衡水市,电机北厂,115.6839,37.754,2026-01-24T1700,192,209,1.0,37,10,90,65,242,细颗粒物(PM2.5)
衡水市,市监测站,115.6303,37.7318,2026-01-24T1700,178,186,1.0,31,8,96,73,228,细颗粒物(PM2.5)
衡水市,市城管局,115.6684,37.7216,2026-01-24T1700,160,199,1.1,37,9,95,67,210,细颗粒物(PM2.5)
衡水市,地表水厂,115.599,37.5491,2026-01-24T1700,184,,0.9,34,6,92,67,234,细颗粒物(PM2.5)
衡阳市,衡阳化工总厂,112.6209,26.9268,2026-01-24T1700,32,65,1.0,13,11,66,46,58,颗粒物(PM10)
衡阳市,珠晖区环保局,112.621,26.8957,2026-01-24T1700,34,54,0.9,14,7,61,44,52,颗粒物(PM10)
衡阳市,市委党校,112.628,26.8654,2026-01-24T1700,29,32,1.0,5,13,60,46,42,
衡阳市,市监测站,112.6007,26.8977,2026-01-24T1700,29,43,0.9,12,9,63,45,43,
衡阳市,真空机电公司,112.5658,26.9013,2026-01-24T1700,28,48,1.0,16,10,63,44,48,
衡阳市,师范学院,112.6703,26.8817,2026-01-24T1700,27,32,0.7,15,4,65,47,39,
红河哈尼族彝族自治州,州图书馆,103.3757,23.3679,2026-01-24T1700,14,26,0.6,5,6,72,65,26,
红河哈尼族彝族自治州,蒙自市朝阳路,103.401,23.3561,2026-01-24T1700,16,,0.6,3,7,74,64,24,
呼和浩特市,呼市一监,111.6506,40.7517,2026-01-24T1700,12,24,0.4,15,11,73,55,24,
呼和浩特市,如意水处理厂,111.7516,40.8369,2026-01-24T1700,10,19,0.4,16,10,80,60,25,
呼和浩特市,二十九中,111.727798,40.806187,2026-01-24T1700,8,15,0.2,16,12,78,56,25,
呼和浩特市,化肥厂生活区,111.717,40.7617,2026-01-24T1700,10,25,0.4,13,5,80,60,25,
呼和浩特市,海东办,111.6519,40.8389,2026-01-24T1700,11,17,0.4,19,6,74,51,24,
呼和浩特市,成吉思汗西街8号,111.591512,40.827312,2026-01-24T1700,11,27,0.5,27,5,65,46,27,
呼和浩特市,公园东路75号,111.6597,40.8077,2026-01-24T1700,12,24,0.4,21,5,71,53,24,
呼和浩特市,金海路35号,111.5427,40.7846,2026-01-24T1700,13,36,0.5,26,10,67,51,36,
呼伦贝尔市,国华电力东,119.7511,49.1576,2026-01-24T1700,16,20,0.4,15,7,65,64,23,
呼伦贝尔市,伊敏大街东7号,119.7569,49.2222,2026-01-24T1700,25,25,0.2,12,7,63,57,36,
湖州市,城西水厂,120.075,30.867,2026-01-24T1700,66,98,0.6,49,8,83,68,89,细颗粒物(PM2.5)
湖州市,仁皇山新区,120.083,30.8929,2026-01-24T1700,91,111,0.9,67,10,84,69,120,细颗粒物(PM2.5)
湖州市,吴兴区站,120.1846,30.8592,2026-01-24T1700,91,112,0.8,69,10,74,66,120,细颗粒物(PM2.5)
湖州市,南浔区站,120.4146,30.8538,2026-01-24T1700,73,94,0.8,45,12,83,78,98,细颗粒物(PM2.5)
葫芦岛市,龙港区,120.904878,40.721091,2026-01-24T1700,48,,0.6,26,18,65,57,67,细颗粒物(PM2.5)
葫芦岛市,化工街,120.8382,40.7521,2026-01-24T1700,32,34,0.5,24,17,65,50,46,
葫芦岛市,新区,120.8339,40.7078,2026-01-24T1700,26,40,0.7,22,20,69,54,40,
葫芦岛市,东城区,120.8697,40.7679,2026-01-24T1700,37,,1.0,30,55,68,52,53,细颗粒物(PM2.5)
怀化市,河西地税局,109.9297,27.5383,2026-01-24T1700,62,81,/,46,3,36,42,84,细颗粒物(PM2.5)
怀化市,市四医院,109.9783,27.5342,2026-01-24T1700,59,78,0.9,31,8,39,31,80,细颗粒物(PM2.5)
怀化市,监测楼,109.9971,27.5579,2026-01-24T1700,50,66,0.4,26,4,52,40,69,细颗粒物(PM2.5)
淮安市,钵池山,119.0566,33.5991,2026-01-24T1700,80,85,0.5,20,8,97,78,107,细颗粒物(PM2.5)
淮安市,北京南路,119.0083,33.578,2026-01-24T1700,75,85,0.6,24,9,88,72,100,细颗粒物(PM2.5)
淮安市,市监测站,118.9938,33.6083,2026-01-24T1700,70,80,0.8,27,10,95,78,94,细颗粒物(PM2.5)
淮安市,楚州区监测站,119.135,33.5038,2026-01-24T1700,80,81,0.4,17,10,99,76,107,细颗粒物(PM2.5)
淮安市,新华书店,118.8757,33.2897,2026-01-24T1700,67,72,0.7,19,9,87,81,90,细颗粒物(PM2.5)
淮安市,枚皋中路89号,119.119691,33.550006,2026-01-24T1700,73,88,0.4,20,10,113,91,98,细颗粒物(PM2.5)
淮安市,承德北路606号,119.028838,33.631911,2026-01-24T1700,82,102,0.6,20,9,97,77,109,细颗粒物(PM2.5)
淮北市,监测站,116.8005,33.9749,2026-01-24T1700,91,111,0.7,20,6,101,104,120,细颗粒物(PM2.5)
淮北市,烈山区政府,116.8094,33.9008,2026-01-24T1700,89,98,0.5,20,7,110,103,118,细颗粒物(PM2.5)
淮北市,市博物馆,116.7926,33.9534,2026-01-24T1700,92,111,0.7,17,10,104,101,122,细颗粒物(PM2.5)
淮北市,杜集区第一实验学校,116.8322,33.9884,2026-01-24T1700,101,115,0.8,16,8,,116,133,细颗粒物(PM2.5)
淮南市,潘集区政府,116.8304,32.7726,2026-01-24T1700,67,85,0.7,25,8,86,76,90,细颗粒物(PM2.5)
淮南市,谢家集区政府,116.8569,32.5949,2026-01-24T1700,51,79,0.8,26,9,86,77,70,细颗粒物(PM2.5)
淮南市,八公山区政府,116.8279,32.6333,2026-01-24T1700,58,76,0.7,24,8,90,80,79,细颗粒物(PM2.5)
淮南市,经济技术开发区消防队,117.0561,32.6536,2026-01-24T1700,53,78,0.8,27,7,88,77,73,细颗粒物(PM2.5)
淮南市,山南新区,117.011,32.5891,2026-01-24T1700,52,66,0.8,27,9,94,79,72,细颗粒物(PM2.5)
淮南市,国庆中路369号,117.003137,32.644456,2026-01-24T1700,61,92,0.6,30,10,80,68,83,细颗粒物(PM2.5)
黄冈市,职工中心,114.9021,30.474,2026-01-24T1700,56,70,0.7,24,10,99,75,77,细颗粒物(PM2.5)
黄冈市,红卫路,114.8858,30.4519,2026-01-24T1700,58,68,0.5,21,11,95,72,79,细颗粒物(PM2.5)
黄冈市,市林业局,114.9134,30.4446,2026-01-24T1700,57,65,0.8,24,4,95,71,78,细颗粒物(PM2.5)
黄南藏族自治州,同仁县隆务镇,102.02,35.5101,2026-01-24T1700,19,56,0.4,8,12,63,57,53,颗粒物(PM10)
黄山市,延安路89号,118.2905,29.6965,2026-01-24T1700,26,,0.6,13,4,76,59,38,
黄山市,黄山区政府5号楼,118.1369,30.2755,2026-01-24T1700,14,20,0.7,10,2,89,67,28,
黄山市,滨江东路7-2号,118.335445,29.720283,2026-01-24T1700,33,42,/,24,/,67,60,48,
黄石市,沈家营,115.0547,30.2332,2026-01-24T1700,48,80,1.5,15,12,72,53,67,细颗粒物(PM2.5)
黄石市,铁山,114.899,30.211,2026-01-24T1700,,60,,17,7,96,78,,
黄石市,团城山,115.0259,30.2108,2026-01-24T1700,55,70,0.8,20,7,99,69,75,细颗粒物(PM2.5)
黄石市,笔架山北路,115.0174,30.1591,2026-01-24T1700,59,87,1.1,13,12,87,66,80,细颗粒物(PM2.5)
黄石市,磁湖东路29号,115.078022,30.21118,2026-01-24T1700,66,79,1.1,27,7,95,64,89,细颗粒物(PM2.5)
惠州市,河南岸金山湖子站,114.4181,23.0528,2026-01-24T1700,26,33,0.7,30,4,103,71,38,
惠州市,下埔横江三路子站,114.4055,23.0824,2026-01-24T1700,22,30,0.8,16,6,125,82,40,
惠州市,惠阳区承修路船湖子站,114.4645,22.7832,2026-01-24T1700,34,47,0.7,24,7,145,90,49,
惠州市,大亚湾管委会子站,114.5316,22.7423,2026-01-24T1700,30,49,0.6,27,8,125,94,49,
惠州市,惠阳秋长,114.4334,22.8134,2026-01-24T1700,32,48,/,22,/,170,103,63,臭氧1小时(O3_1h)
惠州市,大亚湾霞涌,114.6521,22.7755,2026-01-24T1700,18,52,/,15,/,144,95,51,颗粒物(PM10)
惠州市,文华一路1号,114.4089,23.1147,2026-01-24T1700,21,33,/,24,/,121,87,38,
鸡西市,环保局,130.9618,45.2926,2026-01-24T1700,12,19,0.2,11,6,66,71,21,
鸡西市,第一中学,130.9294,45.2959,2026-01-24T1700,8,24,0.3,15,2,64,73,24,
鸡西市,欧美日汽修厂,131.0069,45.2988,2026-01-24T1700,14,19,0.1,6,11,70,72,22,
吉安市,红声器材厂,114.9753,27.0803,2026-01-24T1700,20,40,0.7,19,9,78,51,40,
吉安市,市环境监测站,114.9903,27.1313,2026-01-24T1700,27,34,/,16,7,74,47,39,
吉安市,青原区法院,115.009527,27.096792,2026-01-24T1700,23,38,0.8,18,12,69,42,38,
吉林市,哈达湾,126.54,43.8622,2026-01-24T1700,,,0.7,,8,71,69,,
吉林市,东局子,126.5843,43.8358,2026-01-24T1700,29,43,0.7,18,6,63,60,43,
吉林市,电力学院,126.5051,43.8243,2026-01-24T1700,36,48,0.6,18,8,70,70,52,细颗粒物(PM2.5)
吉林市,江北,126.6133,43.8971,2026-01-24T1700,29,47,0.6,16,9,67,62,47,
吉林市,江南公园,126.5549,43.8304,2026-01-24T1700,29,44,0.6,17,8,66,65,44,
吉林市,九站,126.4737,43.953,2026-01-24T1700,36,49,0.7,20,5,66,64,52,细颗粒物(PM2.5)
济南市,科干所,116.9866,36.6118,2026-01-24T1700,73,102,0.7,25,10,95,78,98,细颗粒物(PM2.5)
济南市,农科所,116.9379,36.6652,2026-01-24T1700,73,107,0.8,32,10,89,68,98,细颗粒物(PM2.5)
济南市,开发区,117.1265,36.6736,2026-01-24T1700,98,144,1.1,68,13,49,48,129,细颗粒物(PM2.5)
济南市,省种子仓库,117.0616,36.6865,2026-01-24T1700,97,149,1.5,64,15,51,48,128,细颗粒物(PM2.5)
济南市,机床二厂,116.9495185,36.644937,2026-01-24T1700,88,107,0.7,33,12,88,75,117,细颗粒物(PM2.5)
济南市,市监测站,117.0496,36.6629,2026-01-24T1700,93,137,1.0,50,12,64,56,123,细颗粒物(PM2.5)
济南市,长清党校,116.7674,36.5458,2026-01-24T1700,93,115,0.8,26,11,96,84,123,细颗粒物(PM2.5)
济南市,东山小学,117.5323,36.6865,2026-01-24T1700,103,139,0.9,36,13,77,87,135,细颗粒物(PM2.5)
济南市,泰兴公司,117.7181,36.205,2026-01-24T1700,102,124,1.0,35,12,96,74,134,细颗粒物(PM2.5)
济南市,莱芜战役纪念馆,117.6861,36.2172,2026-01-24T1700,100,119,1.0,32,11,99,72,132,细颗粒物(PM2.5)
济南市,济阳区政府,117.1673,36.9782,2026-01-24T1700,93,139,1.1,51,10,68,64,123,细颗粒物(PM2.5)
济南市,锦屏中学,117.1168,36.6299,2026-01-24T1700,88,139,1.3,,11,55,59,117,细颗粒物(PM2.5)
济南市,山财大街5号,117.7107,36.2385,2026-01-24T1700,81,117,0.9,43,14,105,82,108,细颗粒物(PM2.5)
济南市,无影山路12号,116.9744,36.6889,2026-01-24T1700,89,105,0.9,29,10,90,65,118,细颗粒物(PM2.5)
济宁市,火炬城,116.6229,35.4288,2026-01-24T1700,102,,0.7,18,4,109,94,134,细颗粒物(PM2.5)
济宁市,北湖一中,116.5808,35.3703,2026-01-24T1700,102,,0.8,23,5,115,100,134,细颗粒物(PM2.5)
济宁市,服务中心,116.8251,35.5592,2026-01-24T1700,68,116,0.5,15,6,101,86,92,细颗粒物(PM2.5)
济宁市,市第七中学,116.5907,35.4054,2026-01-24T1700,88,93,0.9,24,6,120,102,117,细颗粒物(PM2.5)
济宁市,任和路,116.6075,35.4566,2026-01-24T1700,85,104,0.8,23,6,117,103,113,细颗粒物(PM2.5)
济宁市,文体南路1号,116.5648,35.3921,2026-01-24T1700,91,108,0.7,24,5,120,104,120,细颗粒物(PM2.5)
佳木斯市,佳纺,130.2749,46.8028,2026-01-24T1700,52,,0.8,41,17,36,63,72,细颗粒物(PM2.5)
佳木斯市,环保局,130.3258,46.7975,2026-01-24T1700,34,,0.6,22,8,55,67,49,
佳木斯市,顺和街,130.363,46.806,2026-01-24T1700,27,27,0.5,23,8,52,61,39,
佳木斯市,长安路196号,130.3952,46.8268,2026-01-24T1700,24,30,0.6,21,5,62,71,35,
嘉兴市,清河小学,120.7439,30.778,2026-01-24T1700,103,136,0.8,56,12,83,65,135,细颗粒物(PM2.5)
嘉兴市,嘉兴学院,120.7261,30.7477,2026-01-24T1700,91,137,1.4,53,12,84,69,120,细颗粒物(PM2.5)
嘉兴市,南湖区残联,120.7845,30.7524,2026-01-24T1700,104,130,1.1,52,12,92,74,137,细颗粒物(PM2.5)
嘉兴市,秀洲住建,120.6915,30.7741,2026-01-24T1700,103,132,1.0,62,14,84,70,135,细颗粒物(PM2.5)
嘉峪关市,气象局,98.291,39.7705,2026-01-24T1700,129,720,0.4,6,10,67,66,500,颗粒物(PM10)
嘉峪关市,酒钢宾馆,98.2672,39.7978,2026-01-24T1700,144,764,0.3,6,23,68,66,500,颗粒物(PM10)
嘉峪关市,雄关区,98.2644,39.7723,2026-01-24T1700,86,581,0.3,10,7,57,56,481,颗粒物(PM10)
江门市,北街,113.1063,22.6058,2026-01-24T1700,52,78,/,48,/,129,84,72,细颗粒物(PM2.5)
江门市,西区,113.073,22.5835,2026-01-24T1700,61,93,/,39,/,144,86,83,细颗粒物(PM2.5)
江门市,圭峰西,113.0218,22.531,2026-01-24T1700,71,74,/,34,/,145,82,95,细颗粒物(PM2.5)
江门市,东湖,113.0826,22.5947,2026-01-24T1700,42,78,0.7,33,9,143,88,64,颗粒物(PM10)
江门市,江海富民,113.1077,22.5647,2026-01-24T1700,40,69,0.5,45,/,144,89,60,颗粒物(PM10)
江门市,新会银湖,113.0496,22.4669,2026-01-24T1700,62,,0.7,30,8,138,76,84,细颗粒物(PM2.5)
焦作市,马村街道办,113.3137,35.2643,2026-01-24T1700,119,,0.7,20,6,86,72,156,细颗粒物(PM2.5)
焦作市,焦作技师学院,113.2464,35.2374,2026-01-24T1700,95,108,0.8,24,7,87,74,125,细颗粒物(PM2.5)
焦作市,中站许衡医院,113.1656,35.2536,2026-01-24T1700,,,,,5,95,85,,
焦作市,原李万街道办,113.2456,35.18,2026-01-24T1700,105,108,0.8,25,7,87,71,138,细颗粒物(PM2.5)
焦作市,新安路1731号,113.234,35.219,2026-01-24T1700,105,135,0.8,22,7,91,77,138,细颗粒物(PM2.5)
焦作市,人民路3066号,113.2722,35.2121,2026-01-24T1700,103,127,1.0,24,6,86,70,135,细颗粒物(PM2.5)
揭阳市,新兴,116.3701,23.5345,2026-01-24T1700,35,60,0.9,32,10,136,90,55,颗粒物(PM10)
揭阳市,西马,116.3261,23.5442,2026-01-24T1700,28,68,0.7,19,6,134,88,59,颗粒物(PM10)
揭阳市,东兴,116.361,23.5627,2026-01-24T1700,43,63,/,26,11,145,91,60,细颗粒物(PM2.5)
揭阳市,渔湖,116.4151,23.5295,2026-01-24T1700,19,83,/,23,,133,91,,
揭阳市,曲溪,116.4028,23.5699,2026-01-24T1700,27,65,1.2,23,7,145,89,58,颗粒物(PM10)
金昌市,天庆家园,102.1691,38.5166,2026-01-24T1700,90,1121,0.7,8,6,74,62,500,颗粒物(PM10)
金昌市,金川区人防中心,102.1648,38.5369,2026-01-24T1700,102,1082,0.6,10,4,74,62,500,颗粒物(PM10)
金昌市,长春路96号,102.193042,38.531887,2026-01-24T1700,122,775,0.7,8,7,70,57,500,颗粒物(PM10)
金华市,十五中,119.6478,29.0773,2026-01-24T1700,38,60,0.4,41,4,88,55,55,颗粒物(PM10)
金华市,监测站,119.6859,29.1032,2026-01-24T1700,43,70,0.5,44,3,73,44,60,"颗粒物(PM10),细颗粒物(PM2.5)"
金华市,气象局,119.656,29.1132,2026-01-24T1700,24,63,0.4,50,4,70,43,57,颗粒物(PM10)
锦州市,南山,121.1114,41.0879,2026-01-24T1700,24,46,0.6,31,19,51,53,46,
锦州市,开发区,121.060361,40.842794,2026-01-24T1700,16,35,0.5,44,18,43,58,35,
锦州市,百股街道,121.1836,41.1118,2026-01-24T1700,30,46,0.6,34,17,51,60,46,
锦州市,天安街道,121.1176,41.1224,2026-01-24T1700,24,46,0.8,32,17,53,60,46,
锦州市,北湖公园,121.1303,41.1385,2026-01-24T1700,24,51,0.7,26,25,54,61,51,颗粒物(PM10)
晋城市,自来水公司,112.8496,35.5051,2026-01-24T1700,71,101,0.6,16,8,94,76,95,细颗粒物(PM2.5)
晋城市,市环保局,112.8509,35.4886,2026-01-24T1700,68,99,0.8,16,6,98,76,92,细颗粒物(PM2.5)
晋城市,泽州一中,112.8258,35.4804,2026-01-24T1700,,88,0.7,20,5,96,78,,
晋城市,前书院路,112.8246,35.5152,2026-01-24T1700,61,97,0.5,17,7,88,71,83,细颗粒物(PM2.5)
晋城市,祥云街666号,112.8864,35.4773,2026-01-24T1700,97,102,0.5,18,5,90,67,128,细颗粒物(PM2.5)
晋中市,榆次区政府,112.6992,37.6984,2026-01-24T1700,40,100,0.7,60,14,42,52,75,颗粒物(PM10)
晋中市,榆次三中,112.7195,37.683,2026-01-24T1700,54,102,0.8,55,16,48,54,76,颗粒物(PM10)
晋中市,广安街188号,112.7375,37.7215,2026-01-24T1700,47,108,0.5,54,19,51,54,79,颗粒物(PM10)
晋中市,迎宾街26号,112.7478,37.6954,2026-01-24T1700,47,100,0.8,52,17,56,59,75,颗粒物(PM10)
荆门市,竹园小学,112.2012,31.048,2026-01-24T1700,64,79,0.2,21,2,91,76,87,细颗粒物(PM2.5)
荆门市,掇刀,112.1968,30.9892,2026-01-24T1700,62,73,0.6,15,4,95,78,84,细颗粒物(PM2.5)
荆门市,西山林语,112.1849,31.0361,2026-01-24T1700,46,71,0.7,21,9,94,79,64,细颗粒物(PM2.5)
荆门市,龙泉中学南校,112.1631,31.0134,2026-01-24T1700,63,79,0.4,19,5,92,78,85,细颗粒物(PM2.5)
荆门市,新台西路6号,112.2213,31.0654,2026-01-24T1700,62,82,0.8,27,10,92,76,84,细颗粒物(PM2.5)
荆州市,市图书馆,112.2493,30.3198,2026-01-24T1700,60,,0.8,13,8,94,76,82,细颗粒物(PM2.5)
荆州市,市委党校,112.2009,30.3543,2026-01-24T1700,56,67,0.7,26,2,83,64,77,细颗粒物(PM2.5)
荆州市,管委会,112.2749,30.3124,2026-01-24T1700,60,,0.9,15,7,90,73,82,细颗粒物(PM2.5)
荆州市,学苑路85号,112.1722,30.3366,2026-01-24T1700,52,64,0.9,13,11,96,75,72,细颗粒物(PM2.5)
景德镇市,老干部活动中心,117.2114,29.2931,2026-01-24T1700,48,63,0.6,32,6,42,44,67,细颗粒物(PM2.5)
景德镇市,兽医站,117.1893,29.2789,2026-01-24T1700,45,69,0.7,38,4,50,40,63,细颗粒物(PM2.5)
景德镇市,陶研所,117.246,29.2958,2026-01-24T1700,43,,,26,,54,42,,
景德镇市,青少年活动中心,117.154766,29.256967,2026-01-24T1700,46,78,/,61,23,39,37,64,"颗粒物(PM10),细颗粒物(PM2.5)"
九江市,十里,115.9873,29.6816,2026-01-24T1700,54,57,0.8,28,7,69,49,74,细颗粒物(PM2.5)
九江市,茅山头,115.9583,29.7047,2026-01-24T1700,38,60,0.6,18,5,71,52,55,颗粒物(PM10)
九江市,西园,115.9877,29.7295,2026-01-24T1700,38,59,0.5,23,6,82,52,55,颗粒物(PM10)
九江市,综合工业园,115.9112,29.6038,2026-01-24T1700,50,,0.7,37,4,69,57,69,细颗粒物(PM2.5)
九江市,外国语学校,116.0254,29.6995,2026-01-24T1700,47,48,0.7,,11,66,52,,
九江市,莲花大道8号,116.010205,29.659402,2026-01-24T1700,52,59,0.5,12,5,65,41,72,细颗粒物(PM2.5)
酒泉市,玉门东路5号,98.495752,39.733935,2026-01-24T1700,102,,0.3,2,10,67,65,134,细颗粒物(PM2.5)
酒泉市,北大街108号,98.5099,39.7506,2026-01-24T1700,106,881,0.2,2,10,60,60,500,颗粒物(PM10)
喀什地区,巡警大队,76.0071,39.466,2026-01-24T1700,151,454,1.3,33,6,62,24,343,颗粒物(PM10)
喀什地区,吾办,75.9756,39.4693,2026-01-24T1700,178,433,1.4,45,8,57,25,317,颗粒物(PM10)
喀什地区,老干局,75.9485,39.4688,2026-01-24T1700,127,399,1.2,37,6,59,30,270,颗粒物(PM10)
开封市,肿瘤医院,114.3389,34.778,2026-01-24T1700,82,104,0.9,19,10,107,94,109,细颗粒物(PM2.5)
开封市,世纪星幼儿园,114.2884,34.7966,2026-01-24T1700,106,,0.8,20,5,104,94,139,细颗粒物(PM2.5)
开封市,龙亭公园,114.3434,34.8101,2026-01-24T1700,92,121,0.9,25,8,101,92,122,细颗粒物(PM2.5)
开封市,汴京公园,114.3645,34.7955,2026-01-24T1700,99,109,0.6,24,5,95,84,130,细颗粒物(PM2.5)
开封市,技师学院,114.2485,34.8306,2026-01-24T1700,89,90,0.7,22,7,113,104,118,细颗粒物(PM2.5)
开封市,祥符区生态环境局,114.4518,34.7503,2026-01-24T1700,94,125,0.6,22,4,108,92,124,细颗粒物(PM2.5)
克拉玛依市,长征新村,84.886,45.6029,2026-01-24T1700,57,90,0.5,13,10,76,72,78,细颗粒物(PM2.5)
克拉玛依市,南林小区,84.8894,45.5827,2026-01-24T1700,50,80,0.7,14,6,71,68,69,细颗粒物(PM2.5)
克拉玛依市,独山子区,84.896,44.3328,2026-01-24T1700,20,58,0.5,32,2,63,70,54,颗粒物(PM10)
克拉玛依市,乌尔禾区商贸楼,85.6888,46.0909,2026-01-24T1700,50,92,0.6,22,10,92,65,71,颗粒物(PM10)
克拉玛依市,白碱滩区新站,85.1045,45.6895,2026-01-24T1700,60,91,0.8,22,12,71,63,82,细颗粒物(PM2.5)
克孜勒苏柯尔克孜自治州,市人民政府,76.1457,39.7143,2026-01-24T1700,103,374,0.5,12,4,74,40,235,颗粒物(PM10)
克孜勒苏柯尔克孜自治州,克州文化中心,76.1654,39.7157,2026-01-24T1700,113,350,0.7,11,5,72,39,200,颗粒物(PM10)
昆明市,呈贡新区,102.8203,24.889,2026-01-24T1700,3,34,0.2,6,4,85,81,34,
昆明市,龙泉镇,102.7253,25.0904,2026-01-24T1700,3,12,0.3,8,3,87,78,28,
昆明市,东风东路,102.7267,25.0378,2026-01-24T1700,11,17,0.6,12,5,84,,27,
昆明市,金鼎山,102.6744,25.0671,2026-01-24T1700,3,32,0.3,8,3,85,78,32,
昆明市,碧鸡广场,102.6643,25.0401,2026-01-24T1700,,,,,,,85,,
昆明市,官渡区博物馆,102.7491,25.012,2026-01-24T1700,3,25,0.2,10,4,86,85,27,
昆明市,青年创业园,102.8016,24.8336,2026-01-24T1700,10,14,0.2,2,6,88,86,28,
昆明市,昆明学院,102.8,24.9787,2026-01-24T1700,3,13,0.3,6,3,90,86,29,
昆明市,晋宁区生态环境分局,102.5969,24.6738,2026-01-24T1700,7,17,0.5,1,3,88,84,28,
昆明市,云天化总部,102.6673,24.9861,2026-01-24T1700,3,22,0.2,10,7,87,85,28,
拉萨市,八廓街,91.132,29.6515,2026-01-24T1700,7,17,0.4,5,7,98,74,31,
拉萨市,市环保局,91.1221,29.6748,2026-01-24T1700,8,13,0.6,7,8,94,73,30,
拉萨市,区监测站,91.0874,29.6476,2026-01-24T1700,6,6,0.6,6,4,93,71,30,
拉萨市,西藏大学,91.1774,29.6541,2026-01-24T1700,3,7,0.4,8,5,96,77,30,
拉萨市,区辐射站,90.9798,29.6586,2026-01-24T1700,6,10,0.3,7,2,93,69,30,
拉萨市,拉萨火车站,91.0831,29.6292,2026-01-24T1700,3,6,0.2,4,4,92,77,29,
来宾市,来宾技工学校,109.2203,23.7252,2026-01-24T1700,46,58,0.5,15,8,56,47,64,细颗粒物(PM2.5)
来宾市,兴宾区政府,109.1781,23.7293,2026-01-24T1700,48,69,0.7,20,6,50,49,67,细颗粒物(PM2.5)
来宾市,中南小学,109.2312,23.7428,2026-01-24T1700,44,53,0.8,15,6,55,46,62,细颗粒物(PM2.5)
兰州市,铁路设计院,103.8309,36.0467,2026-01-24T1700,,,,,,,,,
兰州市,百合公园,103.7439,36.0841,2026-01-24T1700,57,87,0.8,57,18,75,44,78,细颗粒物(PM2.5)
兰州市,和平,103.9613,35.9985,2026-01-24T1700,65,81,1.1,36,25,102,63,88,细颗粒物(PM2.5)
兰州市,庄浪东路808号,103.629272,36.093822,2026-01-24T1700,66,106,1.1,53,27,94,63,89,细颗粒物(PM2.5)
兰州市,安宁西路88号,103.7251,36.104344,2026-01-24T1700,53,91,1.2,69,26,84,57,73,细颗粒物(PM2.5)
兰州市,北滨河东路1号,103.846982,36.067567,2026-01-24T1700,52,89,1.4,74,21,76,46,72,细颗粒物(PM2.5)
廊坊市,药材公司,116.6712,39.5109,2026-01-24T1700,148,170,1.1,65,8,44,25,198,细颗粒物(PM2.5)
廊坊市,开发区,116.7215,39.5592,2026-01-24T1700,151,180,1.2,70,8,44,27,201,细颗粒物(PM2.5)
廊坊市,北华航天学院,116.7246,39.5273,2026-01-24T1700,148,176,1.1,64,8,45,24,198,细颗粒物(PM2.5)
廊坊市,河北工业大学,116.7022,39.5454,2026-01-24T1700,144,192,1.2,65,6,41,26,192,细颗粒物(PM2.5)
乐山市,牛耳桥,103.7629,29.5844,2026-01-24T1700,,,0.9,22,6,39,26,,
乐山市,市第三水厂,103.7501,29.6002,2026-01-24T1700,51,61,0.8,22,6,45,30,70,细颗粒物(PM2.5)
乐山市,市监测站,103.7571,29.5664,2026-01-24T1700,50,57,0.8,26,6,38,27,69,细颗粒物(PM2.5)
乐山市,理工大学,103.7313,29.563,2026-01-24T1700,59,63,0.7,21,6,28,27,80,细颗粒物(PM2.5)
丽江市,丽江古城,100.2497,26.8802,2026-01-24T1700,6,17,0.4,7,9,85,78,27,
丽江市,市中心,100.2203,26.8906,2026-01-24T1700,3,14,0.4,10,6,94,79,30,
丽水市,监测站大楼,119.9141,28.4513,2026-01-24T1700,28,42,0.5,15,5,77,57,42,
丽水市,莲都小学,119.93,28.4589,2026-01-24T1700,18,32,/,19,/,77,56,32,
丽水市,余庄前,119.8794,28.4232,2026-01-24T1700,21,30,0.4,15,5,86,52,30,
连云港市,市环境监测站,119.1759,34.5885,2026-01-24T1700,73,90,0.6,18,12,101,79,98,细颗粒物(PM2.5)
连云港市,德源药业,119.3577,34.6971,2026-01-24T1700,73,110,0.4,39,6,84,69,98,细颗粒物(PM2.5)
连云港市,新城一中,119.178,34.8442,2026-01-24T1700,99,126,0.8,45,12,87,63,130,细颗粒物(PM2.5)
连云港市,胡沟管理处,119.3607,34.7519,2026-01-24T1700,68,100,0.8,53,14,68,52,92,细颗粒物(PM2.5)
连云港市,矿山设计院,119.1478,34.5913,2026-01-24T1700,66,88,0.8,17,11,101,77,89,细颗粒物(PM2.5)
连云港市,工贸学校,119.2414,34.6539,2026-01-24T1700,87,,0.7,18,14,103,82,115,细颗粒物(PM2.5)
连云港市,连云街道,119.4171,34.734,2026-01-24T1700,86,117,0.7,28,6,98,50,114,细颗粒物(PM2.5)
凉山彝族自治州,西昌市政府,102.2629,27.8981,2026-01-24T1700,22,49,0.4,37,11,83,66,49,
凉山彝族自治州,凉山州政府,102.2686,27.885,2026-01-24T1700,29,35,0.3,10,9,90,71,42,
凉山彝族自治州,凯乐南路30号,102.2342,27.8859,2026-01-24T1700,19,43,0.6,8,17,86,65,43,
辽阳市,宏伟区,123.1978,41.2036,2026-01-24T1700,11,35,0.3,17,11,53,60,35,
辽阳市,新华园,123.1684,41.2497,2026-01-24T1700,8,28,0.3,14,8,67,63,28,
辽阳市,滨河路,123.2355,41.2663,2026-01-24T1700,14,31,0.3,14,5,64,62,31,
辽阳市,铁西路150号,123.153,41.2874,2026-01-24T1700,8,20,0.6,12,7,69,66,22,
辽源市,环保局,125.1359,42.8845,2026-01-24T1700,20,34,0.6,13,5,68,67,34,
辽源市,安宁大街333号,125.0998,42.9134,2026-01-24T1700,32,47,0.7,13,10,59,66,47,
聊城市,区政府,115.9789,36.4372,2026-01-24T1700,86,132,1.0,31,13,99,89,114,细颗粒物(PM2.5)
聊城市,监控中心,115.9772,36.4986,2026-01-24T1700,100,129,0.8,29,9,102,97,132,细颗粒物(PM2.5)
聊城市,九州社区,116.0443,36.436,2026-01-24T1700,99,126,0.7,15,4,112,102,130,细颗粒物(PM2.5)
聊城市,星美广场,116.0564,36.4609,2026-01-24T1700,100,140,0.9,21,4,100,97,132,细颗粒物(PM2.5)
聊城市,利民路,116.0091,36.4495,2026-01-24T1700,99,127,0.9,26,10,96,86,130,细颗粒物(PM2.5)
林芝市,林芝监测站,94.3683,29.6373,2026-01-24T1700,8,20,0.2,1,3,89,80,28,
林芝市,林芝人民医院,94.3616,29.6634,2026-01-24T1700,8,22,0.1,1,7,94,76,30,
临沧市,市环保局,100.0779,23.8981,2026-01-24T1700,19,22,0.3,,8,93,70,,
临沧市,市气象局,100.0894,23.882,2026-01-24T1700,16,38,0.2,6,10,96,72,38,
临汾市,临钢医院,111.5552,36.0791,2026-01-24T1700,55,96,1.1,28,13,87,66,75,细颗粒物(PM2.5)
临汾市,技工学校,111.4984,36.0734,2026-01-24T1700,64,80,1.1,32,12,88,66,87,细颗粒物(PM2.5)
临汾市,市委,111.5017,36.0857,2026-01-24T1700,48,88,1.2,25,15,95,71,69,颗粒物(PM10)
临汾市,唐尧大酒店,111.5048,36.1015,2026-01-24T1700,51,83,1.1,31,11,95,71,70,细颗粒物(PM2.5)
临汾市,启星学校,111.4879,36.053,2026-01-24T1700,48,82,1.0,40,16,94,70,67,细颗粒物(PM2.5)
临夏回族自治州,滨河东路1号,103.2464,35.6123,2026-01-24T1700,44,55,0.8,20,15,73,60,62,细颗粒物(PM2.5)
临夏回族自治州,新华街21号,103.207136,35.599807,2026-01-24T1700,33,69,0.6,16,14,92,57,60,颗粒物(PM10)
临沂市,沂河小区,118.3429,35.0532,2026-01-24T1700,106,117,0.8,25,14,98,72,139,细颗粒物(PM2.5)
临沂市,鲁南制药厂,118.2962,35.0568,2026-01-24T1700,101,119,0.8,33,17,91,74,133,细颗粒物(PM2.5)
临沂市,新光毛纺厂,118.2793,34.9976,2026-01-24T1700,101,114,1.0,35,15,94,79,133,细颗粒物(PM2.5)
临沂市,河东保险公司,118.3955,35.0889,2026-01-24T1700,87,114,0.9,31,14,102,75,115,细颗粒物(PM2.5)
临沂市,十里堡居委,118.3563,35.0215,2026-01-24T1700,85,119,0.9,29,15,98,76,113,细颗粒物(PM2.5)
临沂市,南坊新区,118.359,35.1067,2026-01-24T1700,83,107,1.0,31,13,103,75,110,细颗粒物(PM2.5)
临沂市,皇山花园小区,118.3915,35.0297,2026-01-24T1700,90,114,1.0,34,16,104,77,119,细颗粒物(PM2.5)
柳州市,柳东小学,109.4854,24.3898,2026-01-24T1700,33,42,0.8,19,15,58,48,48,
柳州市,环保监测站,109.4109,24.3304,2026-01-24T1700,,,,,,,54,,
柳州市,河西水厂,109.3886,24.3408,2026-01-24T1700,36,56,0.6,26,6,55,49,53,颗粒物(PM10)
柳州市,市四中,109.4263,24.2951,2026-01-24T1700,,,,24,15,52,46,,
柳州市,市九中,109.396,24.3658,2026-01-24T1700,31,44,0.7,22,14,56,49,45,
柳州市,古亭山,109.4912,24.3164,2026-01-24T1700,41,49,0.6,22,12,56,48,58,细颗粒物(PM2.5)
柳州市,市二中,109.5422,24.3994,2026-01-24T1700,42,48,0.7,26,13,56,50,59,细颗粒物(PM2.5)
六安市,监测大楼,116.5078,31.7369,2026-01-24T1700,59,59,0.5,22,5,90,72,80,细颗粒物(PM2.5)
六安市,皖西学院,116.4738,31.7642,2026-01-24T1700,61,73,0.5,22,7,100,80,83,细颗粒物(PM2.5)
六安市,朝阳厂,116.4997,31.7904,2026-01-24T1700,60,64,0.7,33,8,87,70,82,细颗粒物(PM2.5)
六安市,开发区,116.5566,31.7885,2026-01-24T1700,55,68,,21,6,92,77,,
六盘水市,黄土坡,104.8293,26.592,2026-01-24T1700,31,41,0.8,19,5,32,42,45,
六盘水市,民中,104.8481,26.5898,2026-01-24T1700,31,37,0.8,16,3,33,41,45,
六盘水市,双水,104.9541,26.5506,2026-01-24T1700,13,24,0.6,12,4,35,48,24,
六盘水市,钟山大道中段564号,104.8899,26.5685,2026-01-24T1700,31,34,0.9,12,4,33,43,45,
龙岩市,龙岩市监测站,117.022,25.1031,2026-01-24T1700,18,20,0.5,14,7,100,82,32,
龙岩市,闽西职业技术学院,117.0257,25.0662,2026-01-24T1700,14,20,0.8,11,6,110,84,35,
龙岩市,龙岩学院,117.0195,25.0306,2026-01-24T1700,14,28,/,12,8,108,80,34,
陇南市,滨江中学,104.9344,33.3827,2026-01-24T1700,27,70,0.9,14,4,50,39,60,颗粒物(PM10)
陇南市,市总工会,104.9551,33.3709,2026-01-24T1700,32,67,0.8,12,7,51,38,59,颗粒物(PM10)
娄底市,市监测站,111.9984,27.7346,2026-01-24T1700,54,58,0.6,,8,83,56,,
娄底市,市政府,111.9888,27.7035,2026-01-24T1700,52,67,0.7,14,5,77,56,72,细颗粒物(PM2.5)
娄底市,涟钢职大,111.9812,27.7591,2026-01-24T1700,41,55,0.6,12,6,84,54,58,细颗粒物(PM2.5)
娄底市,娄底体校,112.0303,27.7457,2026-01-24T1700,,,,,,,21,,
泸州市,小市上码头,105.4427,28.9063,2026-01-24T1700,53,71,1.1,30,5,32,21,73,细颗粒物(PM2.5)
泸州市,兰田宪桥,105.4241,28.8573,2026-01-24T1700,49,63,0.8,,9,33,7,,
泸州市,市环监站,105.4378,28.8833,2026-01-24T1700,46,67,1.0,27,10,28,18,64,细颗粒物(PM2.5)
泸州市,纳溪中医医院,105.3689,28.7783,2026-01-24T1700,68,91,1.0,29,9,19,13,92,细颗粒物(PM2.5)
吕梁市,环保局,111.1447,37.5212,2026-01-24T1700,35,79,,,10,,38,,
吕梁市,自来水公司,111.1285,37.5338,2026-01-24T1700,35,58,0.6,21,8,75,48,54,颗粒物(PM10)
吕梁市,马茂庄小学,111.1225,37.5093,2026-01-24T1700,38,101,0.8,29,10,74,54,76,颗粒物(PM10)
洛阳市,市委党校,112.3934,34.6517,2026-01-24T1700,174,212,1.4,56,12,82,64,224,细颗粒物(PM2.5)
洛阳市,河南林校,112.494,34.6883,2026-01-24T1700,230,,1.4,68,10,73,68,280,细颗粒物(PM2.5)
洛阳市,开发区管委会,112.3843,34.623,2026-01-24T1700,217,249,1.1,49,13,92,72,267,细颗粒物(PM2.5)
洛阳市,市委新办公区,112.4263,34.6249,2026-01-24T1700,192,259,1.2,53,10,89,68,242,细颗粒物(PM2.5)
洛阳市,伊滨,112.6005,34.6323,2026-01-24T1700,218,270,1.1,70,9,80,59,268,细颗粒物(PM2.5)
洛阳市,中移产业园,112.495,34.6338,2026-01-24T1700,209,218,1.4,64,10,82,60,259,细颗粒物(PM2.5)
洛阳市,吉利监测站,112.5736,34.8993,2026-01-24T1700,197,201,1.3,52,9,75,75,247,细颗粒物(PM2.5)
洛阳市,河科大西苑校区,112.3678,34.6623,2026-01-24T1700,182,223,1.2,61,10,87,69,232,细颗粒物(PM2.5)
洛阳市,英才小学,112.4387,34.678,2026-01-24T1700,202,234,1.4,67,10,80,69,252,细颗粒物(PM2.5)
洛阳市,春都路1号院,112.460027,34.694929,2026-01-24T1700,183,263,1.3,59,8,68,63,233,细颗粒物(PM2.5)
漯河市,三五一五工厂,114.051,33.5721,2026-01-24T1700,107,128,1.1,16,7,104,84,140,细颗粒物(PM2.5)
漯河市,漯河大学,114.0055,33.5698,2026-01-24T1700,95,120,0.7,19,6,109,94,125,细颗粒物(PM2.5)
漯河市,市水利局,114.0134,33.5826,2026-01-24T1700,102,114,0.9,13,4,88,76,134,细颗粒物(PM2.5)
漯河市,市广电局,114.0261,33.5697,2026-01-24T1700,101,112,0.8,12,7,99,81,133,细颗粒物(PM2.5)
漯河市,市图书馆,113.9691,33.568,2026-01-24T1700,88,133,0.8,24,7,97,81,117,细颗粒物(PM2.5)
漯河市,韶山路11号,114.089259,33.588274,2026-01-24T1700,92,121,0.8,18,8,97,79,122,细颗粒物(PM2.5)
马鞍山市,湖东路四小,118.5084,31.6838,2026-01-24T1700,59,82,0.8,31,7,89,70,80,细颗粒物(PM2.5)
马鞍山市,开发区,118.5019,31.6449,2026-01-24T1700,75,78,0.8,31,10,90,74,100,细颗粒物(PM2.5)
马鞍山市,雨山,118.4914,31.681,2026-01-24T1700,65,90,0.8,35,12,87,71,88,细颗粒物(PM2.5)
马鞍山市,慈湖高新区,118.527362,31.722269,2026-01-24T1700,74,97,0.8,33,7,93,72,99,细颗粒物(PM2.5)
茂名市,电白南海,111.0285,21.469,2026-01-24T1700,23,46,0.9,20,10,124,74,46,
茂名市,茂石化七小,110.9294,21.6533,2026-01-24T1700,41,70,0.8,21,8,116,55,60,颗粒物(PM10)
茂名市,健康路,110.9108,21.6688,2026-01-24T1700,41,68,0.8,26,10,125,63,59,颗粒物(PM10)
茂名市,高岭,110.8592,21.6826,2026-01-24T1700,39,83,/,23,11,122,53,67,颗粒物(PM10)
茂名市,电白水东,111.0101,21.5165,2026-01-24T1700,24,48,/,13,7,100,65,48,
眉山市,气象局,103.8414,30.0871,2026-01-24T1700,70,103,0.9,27,14,28,22,94,细颗粒物(PM2.5)
眉山市,区人社局,103.829,30.0563,2026-01-24T1700,70,86,0.9,29,9,21,22,94,细颗粒物(PM2.5)
眉山市,眉职院,103.8836,30.0695,2026-01-24T1700,65,90,1.0,13,1,36,27,88,细颗粒物(PM2.5)
梅州市,梅江月梅,116.1248,24.3307,2026-01-24T1700,26,32,/,18,/,99,54,38,
梅州市,梅县新城,116.0798,24.2719,2026-01-24T1700,16,24,0.5,15,8,99,60,31,
梅州市,梅龙,116.1234,24.2994,2026-01-24T1700,16,27,0.8,14,8,88,51,28,
绵阳市,富乐山,104.7775,31.4741,2026-01-24T1700,50,64,0.6,23,8,35,22,69,细颗粒物(PM2.5)
绵阳市,高新区自来水公司,104.6698,31.4668,2026-01-24T1700,56,68,0.9,25,9,30,16,77,细颗粒物(PM2.5)
绵阳市,西科大附属小学,104.6899,31.5324,2026-01-24T1700,55,77,0.8,37,8,24,13,75,细颗粒物(PM2.5)
绵阳市,安州区旅游局,104.5647,31.5343,2026-01-24T1700,61,78,0.7,38,7,16,10,83,细颗粒物(PM2.5)
绵阳市,科技城新区公安局,104.7092,31.4972,2026-01-24T1700,41,65,0.8,29,6,42,20,58,"颗粒物(PM10),细颗粒物(PM2.5)"
绵阳市,绵阳市气象局,104.765114,31.453094,2026-01-24T1700,53,70,0.8,26,4,25,13,73,细颗粒物(PM2.5)
牡丹江市,环保大楼,129.61,44.561,2026-01-24T1700,16,29,0.2,10,2,72,72,29,
牡丹江市,机车工厂,129.6364,44.6075,2026-01-24T1700,52,,0.6,8,8,65,68,72,细颗粒物(PM2.5)
牡丹江市,第一中学,129.6386,44.5462,2026-01-24T1700,12,41,0.2,8,3,70,71,41,
牡丹江市,东晓云街98号,129.5992,44.5964,2026-01-24T1700,14,26,0.4,8,3,71,73,26,
内江市,市监测站,105.0703,29.61,2026-01-24T1700,51,,0.7,16,5,58,38,70,细颗粒物(PM2.5)
内江市,内江二中,105.0657,29.5807,2026-01-24T1700,36,55,0.4,24,5,52,29,53,颗粒物(PM10)
内江市,内江日报社,105.0407,29.5828,2026-01-24T1700,42,42,0.8,32,7,53,29,59,细颗粒物(PM2.5)
内江市,玉峰路西段888号,105.0433,29.6105,2026-01-24T1700,38,46,1.1,,3,59,37,,
那曲市,那曲监测站,92.0653,31.4846,2026-01-24T1700,9,39,0.5,5,6,90,79,39,
那曲市,那曲市委宣传部,92.0515,31.4787,2026-01-24T1700,3,24,0.3,1,4,94,86,30,
南昌市,省林业公司,115.8887,28.7006,2026-01-24T1700,61,63,0.5,36,6,53,34,83,细颗粒物(PM2.5)
南昌市,林科所,115.813,28.7443,2026-01-24T1700,39,53,0.5,18,7,73,48,55,细颗粒物(PM2.5)
南昌市,建工学校,115.8518,28.687,2026-01-24T1700,52,68,0.8,37,10,55,34,72,细颗粒物(PM2.5)
南昌市,象湖,115.8926,28.6425,2026-01-24T1700,48,68,0.7,22,11,59,33,67,细颗粒物(PM2.5)
南昌市,机电学校,115.9084,28.6062,2026-01-24T1700,56,78,0.5,24,8,64,40,77,细颗粒物(PM2.5)
南昌市,外国语学校,115.9718,28.7032,2026-01-24T1700,61,80,0.7,26,21,61,42,83,细颗粒物(PM2.5)
南昌市,工业二路,115.7923,28.6873,2026-01-24T1700,50,61,0.6,14,9,78,50,69,细颗粒物(PM2.5)
南昌市,南京东路235号,115.931587,28.686774,2026-01-24T1700,62,63,0.6,21,10,61,41,84,细颗粒物(PM2.5)
南充市,南充市委,106.0791,30.8022,2026-01-24T1700,43,57,0.7,23,5,39,22,60,细颗粒物(PM2.5)
南充市,南充炼油厂,106.1038,30.8215,2026-01-24T1700,49,61,0.7,21,6,38,22,68,细颗粒物(PM2.5)
南充市,梨树横街98号,106.108336,30.788436,2026-01-24T1700,33,55,0.7,20,6,50,28,53,颗粒物(PM10)
南充市,清泉寺北路188号,106.1172,30.843,2026-01-24T1700,42,,,15,8,50,30,,
南充市,同庆路1号,106.067,30.7616,2026-01-24T1700,44,49,0.8,30,7,43,24,62,细颗粒物(PM2.5)
南京市,迈皋桥,118.8033,32.1085,2026-01-24T1700,53,71,0.5,27,7,93,81,73,细颗粒物(PM2.5)
南京市,草场门,118.7487,32.057,2026-01-24T1700,51,68,0.9,28,3,71,64,70,细颗粒物(PM2.5)
南京市,中华门,118.770105,32.004342,2026-01-24T1700,51,73,0.8,18,4,100,83,70,细颗粒物(PM2.5)
南京市,瑞金路,118.8059,32.0329,2026-01-24T1700,48,68,0.6,2,4,93,80,67,细颗粒物(PM2.5)
南京市,玄武湖,118.7946,32.0774,2026-01-24T1700,50,64,1.0,21,4,98,82,69,细颗粒物(PM2.5)
南京市,浦口,118.6415,32.0964,2026-01-24T1700,66,91,0.6,34,10,88,71,89,细颗粒物(PM2.5)
南京市,奥体中心,118.730129,32.000956,2026-01-24T1700,58,73,0.8,21,14,109,90,79,细颗粒物(PM2.5)
南京市,仙林大学城,118.9072,32.1047,2026-01-24T1700,58,78,1.0,21,8,100,84,79,细颗粒物(PM2.5)
南京市,江宁彩虹桥,118.8443,31.919,2026-01-24T1700,66,99,1.0,30,6,112,99,89,细颗粒物(PM2.5)
南京市,六合雄州,118.8497,32.3599,2026-01-24T1700,61,93,0.8,36,13,98,80,83,细颗粒物(PM2.5)
南京市,新模范马路66号,118.7641,32.0841,2026-01-24T1700,43,68,0.3,10,4,125,106,60,细颗粒物(PM2.5)
南京市,汶溪路181号,118.8707617,31.34017673,2026-01-24T1700,67,73,1.1,36,10,88,70,90,细颗粒物(PM2.5)
南京市,中山西路1号,119.019,31.6512,2026-01-24T1700,67,85,1.3,30,4,82,75,90,细颗粒物(PM2.5)
南宁市,二十一中,108.3098,22.788,2026-01-24T1700,44,47,0.9,28,3,26,20,62,细颗粒物(PM2.5)
南宁市,北湖,108.3135,22.8529,2026-01-24T1700,53,,0.8,36,2,12,12,73,细颗粒物(PM2.5)
南宁市,市监测站,108.3205,22.8222,2026-01-24T1700,37,47,0.9,31,6,20,13,53,细颗粒物(PM2.5)
南宁市,大自然花园,108.3828,22.8038,2026-01-24T1700,35,48,0.8,13,5,35,28,50,
南宁市,区农职院,108.2397,22.8462,2026-01-24T1700,54,64,0.7,48,8,6,23,74,细颗粒物(PM2.5)
南宁市,英华嘉园,108.3285,22.7356,2026-01-24T1700,69,,0.7,20,3,27,24,93,细颗粒物(PM2.5)
南宁市,红星社区,108.4829,22.762,2026-01-24T1700,40,49,0.8,22,3,39,36,57,细颗粒物(PM2.5)
南宁市,起凤路9号,108.2927,23.1477,2026-01-24T1700,32,41,0.9,17,1,28,31,46,
南宁市,乐贤路16号,108.2177,22.7774,2026-01-24T1700,74,,0.8,41,3,9,19,99,细颗粒物(PM2.5)
南平市,南平市监测站,118.1682,26.6371,2026-01-24T1700,26,32,0.6,11,4,68,54,38,
南平市,南平七中,118.1757,26.6276,2026-01-24T1700,25,31,0.4,11,3,72,56,36,
南通市,狼山街道,120.9056,31.9669,2026-01-24T1700,67,91,0.6,96,6,40,79,90,细颗粒物(PM2.5)
南通市,城中,120.8635,32.0231,2026-01-24T1700,48,70,0.5,49,6,80,82,67,细颗粒物(PM2.5)
南通市,星湖花园,120.9376,31.9301,2026-01-24T1700,63,92,0.5,88,7,51,86,85,细颗粒物(PM2.5)
南通市,紫琅学院,120.8053,32.046,2026-01-24T1700,51,76,0.6,36,6,88,84,70,细颗粒物(PM2.5)
南通市,通州监测站,121.0631,32.0644,2026-01-24T1700,68,88,1.1,29,7,106,97,92,细颗粒物(PM2.5)
南通市,环境教育馆,120.9348,31.9874,2026-01-24T1700,55,58,0.7,37,5,88,86,75,细颗粒物(PM2.5)
南通市,洪江路,120.8692,31.9885,2026-01-24T1700,54,79,0.6,64,5,49,79,74,细颗粒物(PM2.5)
南阳市,瓦房庄,112.5338,33.0086,2026-01-24T1700,74,87,0.8,12,7,87,70,99,细颗粒物(PM2.5)
南阳市,汉画馆,112.5002,32.9734,2026-01-24T1700,79,90,0.7,17,8,85,67,105,细颗粒物(PM2.5)
南阳市,气象站,112.5778,33.0144,2026-01-24T1700,73,90,0.8,11,5,94,70,98,细颗粒物(PM2.5)
南阳市,理工学院,112.548,32.9687,2026-01-24T1700,55,82,0.8,11,6,92,68,75,细颗粒物(PM2.5)
南阳市,卧龙区政府,112.5233,32.9921,2026-01-24T1700,77,102,0.9,12,6,86,66,103,细颗粒物(PM2.5)
宁波市,区环保大楼,121.8352,29.9111,2026-01-24T1700,63,96,0.4,57,10,81,68,85,细颗粒物(PM2.5)
宁波市,万里学院,121.5595,29.8208,2026-01-24T1700,61,85,0.6,42,9,87,64,83,细颗粒物(PM2.5)
宁波市,龙赛医院,121.713,29.9564,2026-01-24T1700,62,82,0.6,34,6,113,78,84,细颗粒物(PM2.5)
宁波市,太古小学,121.5855,29.8635,2026-01-24T1700,70,98,0.7,39,8,96,72,94,细颗粒物(PM2.5)
宁波市,市环境监测中心,121.5239,29.8673,2026-01-24T1700,70,90,0.8,40,14,91,74,94,细颗粒物(PM2.5)
宁波市,万里国际学校,121.6156,29.9015,2026-01-24T1700,71,94,0.8,44,8,102,73,95,细颗粒物(PM2.5)
宁波市,白沙活动中心,121.5593,29.8976,2026-01-24T1700,67,81,0.5,50,12,86,79,90,细颗粒物(PM2.5)
宁波市,中科路88号,121.8962,29.7529,2026-01-24T1700,61,73,0.5,27,7,120,88,83,细颗粒物(PM2.5)
宁德市,宁德市监测站,119.5387,26.6611,2026-01-24T1700,44,,1.0,35,9,55,40,,
宁德市,宁德一中,119.5231,26.6562,2026-01-24T1700,34,49,0.9,,8,64,50,,
怒江傈僳族自治州,州监测站,98.859,25.8541,2026-01-24T1700,19,31,0.4,6,6,89,65,31,
怒江傈僳族自治州,泸水一中,98.8607,25.8168,2026-01-24T1700,31,40,0.5,9,4,80,56,45,
攀枝花市,弄弄坪,101.6891,26.571,2026-01-24T1700,41,60,0.7,16,22,122,75,58,细颗粒物(PM2.5)
攀枝花市,河门口,101.577,26.5914,2026-01-24T1700,40,58,1.7,16,28,125,79,57,细颗粒物(PM2.5)
攀枝花市,仁和,101.7365,26.4986,2026-01-24T1700,25,39,0.7,15,14,109,84,39,
攀枝花市,四十中小,101.7222,26.567,2026-01-24T1700,51,95,1.0,19,24,118,76,73,颗粒物(PM10)
盘锦市,开发区,122.0303,41.1489,2026-01-24T1700,66,125,0.6,27,7,77,75,89,细颗粒物(PM2.5)
盘锦市,兴隆台,122.0486,41.0883,2026-01-24T1700,84,117,0.9,28,10,69,68,112,细颗粒物(PM2.5)
盘锦市,新生街道,121.8297,41.1026,2026-01-24T1700,94,,0.6,28,12,77,70,124,细颗粒物(PM2.5)
平顶山市,新华旅馆,113.3257,33.7423,2026-01-24T1700,89,109,0.9,23,10,89,69,118,细颗粒物(PM2.5)
平顶山市,规划设计院,113.2917,33.737,2026-01-24T1700,96,132,0.8,19,10,85,70,127,细颗粒物(PM2.5)
平顶山市,平顶山工学院,113.182,33.7738,2026-01-24T1700,80,93,0.7,14,7,96,77,107,细颗粒物(PM2.5)
平顶山市,石龙区,112.8736,33.9068,2026-01-24T1700,85,108,0.7,12,6,94,70,113,细颗粒物(PM2.5)
平顶山市,姚电大道23号,113.284,33.7139,2026-01-24T1700,102,125,0.5,22,7,91,73,134,细颗粒物(PM2.5)
平凉市,聚贤嘉苑,106.6633,35.5338,2026-01-24T1700,56,82,0.7,16,26,95,64,77,细颗粒物(PM2.5)
平凉市,博物馆,106.7021,35.5307,2026-01-24T1700,73,93,0.9,17,14,92,65,98,细颗粒物(PM2.5)
萍乡市,中医院,113.8384,27.6436,2026-01-24T1700,45,63,1.0,28,7,90,54,63,细颗粒物(PM2.5)
萍乡市,市环保局,113.8677,27.6438,2026-01-24T1700,43,55,1.2,21,17,94,50,60,细颗粒物(PM2.5)
萍乡市,安源区政府,113.8663,27.6202,2026-01-24T1700,55,61,1.3,28,12,72,40,75,细颗粒物(PM2.5)
萍乡市,联洪村委会,113.8686,27.6668,2026-01-24T1700,44,62,1.2,16,4,90,47,62,细颗粒物(PM2.5)
莆田市,荔城区仓后路,119.0142,25.4324,2026-01-24T1700,21,35,/,21,/,67,64,35,
莆田市,莆田市监测站,119.0016,25.4553,2026-01-24T1700,18,35,0.6,18,3,71,68,35,
莆田市,涵江区六中,119.112,25.4561,2026-01-24T1700,22,42,0.6,20,/,67,64,42,
莆田市,秀屿区政府,119.1014,25.3215,2026-01-24T1700,25,48,0.6,20,5,75,73,48,
濮阳市,环保局,115.0312,35.7636,2026-01-24T1700,87,87,0.7,37,7,92,80,115,细颗粒物(PM2.5)
濮阳市,濮水河管理处,115,35.7667,2026-01-24T1700,83,113,0.7,22,7,106,92,110,细颗粒物(PM2.5)
濮阳市,中原东路68号,115.0552,35.7816,2026-01-24T1700,90,104,0.7,23,7,101,87,119,细颗粒物(PM2.5)
濮阳市,任丘路479号,115.0923632,35.76857718,2026-01-24T1700,87,108,1.0,26,6,98,84,115,细颗粒物(PM2.5)
普洱市,市环保局,100.9801,22.7634,2026-01-24T1700,14,45,0.3,7,4,89,76,45,
普洱市,普洱第二中学,100.9763,22.8237,2026-01-24T1700,17,40,0.2,6,5,94,80,40,
七台河市,中波台,131.0413,45.7795,2026-01-24T1700,7,12,0.3,7,6,73,71,23,
七台河市,人民广场,131.0136,45.7688,2026-01-24T1700,8,12,0.5,14,6,70,72,22,
七台河市,新建矿广场,130.8639,45.8144,2026-01-24T1700,20,39,0.4,21,7,50,62,39,
齐齐哈尔市,安居小区,123.9307,47.3641,2026-01-24T1700,8,29,0.8,12,6,61,64,29,
齐齐哈尔市,中心广场,123.9497,47.3389,2026-01-24T1700,3,16,0.4,13,4,61,62,20,
齐齐哈尔市,农牧车辆厂,123.9483,47.3229,2026-01-24T1700,6,19,0.3,8,4,64,65,20,
齐齐哈尔市,市环境监测站,123.9442,47.2994,2026-01-24T1700,3,13,0.4,12,4,62,65,20,
齐齐哈尔市,富区青少年活动中心,123.6341,47.2079,2026-01-24T1700,11,42,0.6,13,4,60,66,42,
黔东南苗族侗族自治州,市环境监测站,107.9765,26.5724,2026-01-24T1700,51,66,0.9,31,7,34,28,70,细颗粒物(PM2.5)
黔东南苗族侗族自治州,凯里学院,107.8909,26.531,2026-01-24T1700,21,24,0.7,10,2,59,41,30,
黔南布依族苗族自治州,小围寨,107.5223,26.2371,2026-01-24T1700,29,36,0.8,6,7,57,43,42,
黔南布依族苗族自治州,沙坝,107.5175,26.2977,2026-01-24T1700,34,48,0.8,11,5,59,46,49,
黔西南布依族苗族自治州,场坝街,104.9022,25.0943,2026-01-24T1700,15,36,0.8,9,2,28,29,36,
黔西南布依族苗族自治州,坪东大道,104.8812,25.0994,2026-01-24T1700,21,,0.9,8,5,29,29,30,
钦州市,市环保站,108.6238,21.9667,2026-01-24T1700,44,68,1.2,22,2,26,26,62,细颗粒物(PM2.5)
钦州市,沙埠小学,108.655,21.9481,2026-01-24T1700,36,58,0.5,21,3,31,24,54,颗粒物(PM10)
钦州市,港区一小,108.5989,21.7435,2026-01-24T1700,51,54,0.9,35,4,16,17,70,细颗粒物(PM2.5)
钦州市,北职校,108.5959,21.9634,2026-01-24T1700,52,55,1.5,22,2,25,28,72,细颗粒物(PM2.5)
秦皇岛市,建设大厦,119.5247,39.9346,2026-01-24T1700,27,48,0.5,19,9,51,40,48,
秦皇岛市,文明里,119.5979,39.938,2026-01-24T1700,26,50,0.1,22,12,59,46,50,
秦皇岛市,南园路157号,119.7458,39.9952,2026-01-24T1700,26,51,0.3,16,8,66,56,51,颗粒物(PM10)
秦皇岛市,翠岛大街1号,119.5131,39.8858,2026-01-24T1700,26,54,0.4,22,10,54,40,52,颗粒物(PM10)
秦皇岛市,北戴河轮滑馆,119.509013,39.825305,2026-01-24T1700,29,44,0.4,28,6,52,41,44,
青岛市,市南区东部子站,120.404,36.0625,2026-01-24T1700,73,92,0.7,48,12,62,63,98,细颗粒物(PM2.5)
青岛市,四方区子站,120.362344,36.10282,2026-01-24T1700,61,70,0.9,24,6,84,71,83,细颗粒物(PM2.5)
青岛市,市南区西部子站,120.294373,36.054183,2026-01-24T1700,54,73,0.6,29,6,92,61,74,细颗粒物(PM2.5)
青岛市,崂山区子站,120.4581,36.0858,2026-01-24T1700,61,88,0.7,42,13,70,66,83,细颗粒物(PM2.5)
青岛市,城阳区子站,120.3945,36.3083,2026-01-24T1700,34,58,0.6,29,8,82,64,54,颗粒物(PM10)
青岛市,市北区南部,120.3454,36.0735,2026-01-24T1700,58,92,0.8,33,4,76,72,79,细颗粒物(PM2.5)
青岛市,李沧区北部,120.3897,36.18,2026-01-24T1700,41,53,1.1,51,9,82,62,58,细颗粒物(PM2.5)
青岛市,盟旺路653号,120.5222,36.4089,2026-01-24T1700,44,80,0.8,27,4,82,64,65,颗粒物(PM10)
青岛市,珠江路669号,120.196923,35.954556,2026-01-24T1700,71,78,0.9,24,6,102,88,95,细颗粒物(PM2.5)
青岛市,黄岛区人民政府广场,120.0424,35.8656,2026-01-24T1700,80,107,1.0,34,11,95,80,107,细颗粒物(PM2.5)
清远市,凤城街办,113.0218,23.7086,2026-01-24T1700,24,37,/,25,/,69,45,37,
清远市,技师学院,113.0479,23.6343,2026-01-24T1700,17,26,0.7,21,5,78,52,26,
清远市,清新太和,112.9898,23.7403,2026-01-24T1700,24,32,0.6,20,12,72,46,35,
清远市,清城东城,113.076,23.72,2026-01-24T1700,26,42,/,28,/,70,51,42,
庆阳市,庆阳五中,107.6325,35.7357,2026-01-24T1700,35,56,0.5,16,6,101,86,53,颗粒物(PM10)
庆阳市,市环保局,107.6361,35.7067,2026-01-24T1700,42,49,0.3,13,8,105,89,59,细颗粒物(PM2.5)
曲靖市,环境监测站,103.7897,25.5036,2026-01-24T1700,8,32,0.4,7,4,104,91,33,
曲靖市,烟厂办公区,103.8013,25.5357,2026-01-24T1700,8,27,0.1,7,4,103,85,33,
曲靖市,南苑二区,103.7926,25.4651,2026-01-24T1700,12,17,0.3,4,4,98,85,31,
曲靖市,曲靖师范学院,103.7442,25.5259,2026-01-24T1700,8,28,0.2,7,3,105,89,33,
衢州市,环保大楼,118.8694,28.94,2026-01-24T1700,68,83,/,34,/,83,53,92,细颗粒物(PM2.5)
衢州市,衢州学院,118.8622,28.9809,2026-01-24T1700,65,84,0.7,28,6,86,54,88,细颗粒物(PM2.5)
衢州市,衢州三中,118.9646,28.9832,2026-01-24T1700,71,93,0.8,33,6,79,51,95,细颗粒物(PM2.5)
泉州市,涂山街,118.5818,24.9116,2026-01-24T1700,20,41,0.6,18,4,78,73,41,
泉州市,津头埔,118.597,24.8976,2026-01-24T1700,20,39,0.4,15,5,78,70,39,
泉州市,万安,118.6669,24.9422,2026-01-24T1700,21,42,0.6,18,4,72,68,42,
泉州市,霞新路6号,118.6355,24.9148,2026-01-24T1700,19,31,0.5,17,/,75,76,31,
日喀则市,日喀则监测站,88.8873,29.2723,2026-01-24T1700,3,9,0.2,2,9,91,71,29,
日喀则市,林业技术推广中心,88.8775,29.2425,2026-01-24T1700,3,12,0.3,4,9,93,77,30,
日照市,监测站,119.4711,35.421,2026-01-24T1700,77,132,0.9,55,12,75,68,103,细颗粒物(PM2.5)
日照市,市政府广场,119.523,35.4216,2026-01-24T1700,74,105,0.6,40,11,90,69,99,细颗粒物(PM2.5)
日照市,港务局,119.5511,35.4113,2026-01-24T1700,83,112,0.7,34,9,93,64,110,细颗粒物(PM2.5)
日照市,职业技术学院,119.5326,35.4627,2026-01-24T1700,61,107,0.9,41,9,91,69,83,细颗粒物(PM2.5)
日照市,岚山环保分局,119.3267,35.1043,2026-01-24T1700,74,114,0.9,34,14,98,82,99,细颗粒物(PM2.5)
三门峡市,市政府,111.1922,34.7752,2026-01-24T1700,145,,1.2,24,11,98,88,193,细颗粒物(PM2.5)
三门峡市,开发区,111.1588,34.794,2026-01-24T1700,130,175,0.7,26,10,90,79,172,细颗粒物(PM2.5)
三门峡市,三门峡市第一小学,111.1911,34.7829,2026-01-24T1700,132,,0.8,28,11,96,83,175,细颗粒物(PM2.5)
三门峡市,富达温泉假日酒店,111.1031,34.719,2026-01-24T1700,106,115,0.8,17,6,90,78,139,细颗粒物(PM2.5)
三明市,三钢,117.621,26.2626,2026-01-24T1700,,,,,,,36,,
三明市,三明二中,117.6352,26.2714,2026-01-24T1700,18,31,1.6,19,7,88,61,31,
三明市,三元区政府,117.6028,26.2377,2026-01-24T1700,29,42,1.1,20,8,92,60,42,
三亚市,河西子站,109.4962,18.2682,2026-01-24T1700,9,24,0.5,10,3,88,88,28,
三亚市,君悦子站,109.7348,18.3443,2026-01-24T1700,9,41,0.4,6,5,93,84,41,
三亚市,城东小学站,109.1714,18.3739,2026-01-24T1700,7,53,/,13,/,84,86,52,颗粒物(PM10)
山南市,山南监测站,91.7592,29.234,2026-01-24T1700,6,10,0.2,2,4,91,73,29,
山南市,山南人民医院,91.7701,29.2436,2026-01-24T1700,3,8,0.4,2,5,92,73,29,
汕头市,金平子站,116.6795,23.3666,2026-01-24T1700,17,21,0.7,17,4,107,90,34,
汕头市,龙湖子站,116.7248,23.3632,2026-01-24T1700,20,32,/,12,10,111,91,35,
汕头市,濠江子站,116.7257,23.2774,2026-01-24T1700,22,30,/,16,7,109,94,35,
汕头市,澄海子站,116.7518,23.4712,2026-01-24T1700,19,56,0.5,11,7,107,91,53,颗粒物(PM10)
汕头市,潮阳子站,116.6088,23.2539,2026-01-24T1700,12,28,0.5,9,6,111,92,35,
汕头市,潮南峡山,116.4539,23.2684,2026-01-24T1700,19,33,0.6,13,7,118,101,37,
汕头市,潮南子站,116.4069,23.2533,2026-01-24T1700,22,48,/,18,8,110,93,48,
汕尾市,市环保局,115.3653,22.7751,2026-01-24T1700,25,40,0.7,14,8,137,114,43,
汕尾市,新城中学,115.362,22.7926,2026-01-24T1700,28,53,0.6,14,7,138,116,52,颗粒物(PM10)
商洛市,监测站,109.9155,33.8714,2026-01-24T1700,32,48,0.6,17,5,66,50,48,
商洛市,商州区中学,109.9647,33.8486,2026-01-24T1700,33,58,0.6,11,5,66,53,54,颗粒物(PM10)
商丘市,环境监测站,115.6701,34.4283,2026-01-24T1700,98,98,0.7,15,3,124,111,129,细颗粒物(PM2.5)
商丘市,粮食局,115.6458,34.4047,2026-01-24T1700,89,89,0.9,15,4,112,102,118,细颗粒物(PM2.5)
商丘市,梁园区档案局,115.6069,34.4465,2026-01-24T1700,91,,0.8,17,1,116,106,120,细颗粒物(PM2.5)
商丘市,北海东路185号,115.6701,34.3767,2026-01-24T1700,103,136,,13,,118,103,135,细颗粒物(PM2.5)
商丘市,中山大街3号,115.6172,34.3704,2026-01-24T1700,99,118,0.6,19,5,116,102,130,细颗粒物(PM2.5)
上海市,普陀,121.401,31.2382,2026-01-24T1700,53,70,0.9,49,8,72,77,73,细颗粒物(PM2.5)
上海市,十五厂,121.4774,31.2043,2026-01-24T1700,54,76,0.7,42,8,92,81,74,细颗粒物(PM2.5)
上海市,虹口,121.4673,31.3011,2026-01-24T1700,48,73,0.4,35,8,83,78,67,细颗粒物(PM2.5)
上海市,静安监测站,121.4253,31.226,2026-01-24T1700,52,67,0.4,48,8,83,81,72,细颗粒物(PM2.5)
上海市,浦东川沙,121.7029,31.1905,2026-01-24T1700,62,67,0.6,29,7,88,81,84,细颗粒物(PM2.5)
上海市,浦东新区监测站,121.5339,31.229,2026-01-24T1700,60,75,0.7,33,6,95,79,82,细颗粒物(PM2.5)
上海市,浦东张江,121.5776,31.2038,2026-01-24T1700,59,79,0.6,33,7,100,90,80,细颗粒物(PM2.5)
上海市,宝山庙行,121.4242,31.3303,2026-01-24T1700,54,79,0.5,39,10,74,76,74,细颗粒物(PM2.5)
上海市,崇明上实东滩,121.8789,31.4662,2026-01-24T1700,45,57,0,8,5,113,103,63,细颗粒物(PM2.5)
上海市,嘉定南翔,121.316,31.2839,2026-01-24T1700,51,69,0.7,34,6,81,72,70,细颗粒物(PM2.5)
上海市,金山新城,121.3357,30.7455,2026-01-24T1700,74,74,0.6,22,10,114,81,99,细颗粒物(PM2.5)
上海市,闵行浦江,121.4996,31.0741,2026-01-24T1700,64,74,0.7,26,8,94,81,87,细颗粒物(PM2.5)
上海市,青浦徐泾,121.2886,31.1663,2026-01-24T1700,66,98,0.8,41,7,86,72,89,细颗粒物(PM2.5)
上海市,松江图书馆,121.2193,31.0382,2026-01-24T1700,66,97,0.8,33,8,103,70,89,细颗粒物(PM2.5)
上海市,长宁仙霞,121.3904,31.206,2026-01-24T1700,56,66,0.2,43,9,75,77,77,细颗粒物(PM2.5)
上海市,浦东惠南,121.7964,31.0507,2026-01-24T1700,54,71,0.6,,6,100,95,,
上海市,奉贤南桥新城,121.4891,30.925,2026-01-24T1700,68,92,0.6,25,3,107,88,92,细颗粒物(PM2.5)
上海市,冠生园路458号,121.417401,31.16637,2026-01-24T1700,55,73,0.8,46,6,78,74,75,细颗粒物(PM2.5)
上海市,宁武路151号,121.541914,31.268301,2026-01-24T1700,61,88,0.8,46,6,76,74,83,细颗粒物(PM2.5)
上饶市,市监测站,117.9758,28.4439,2026-01-24T1700,16,34,/,18,7,97,73,34,
上饶市,凤凰光学,117.9521,28.4637,2026-01-24T1700,18,39,0.7,19,10,87,62,39,
上饶市,双创科技城,117.897,28.4316,2026-01-24T1700,35,50,0.9,27,6,100,74,50,
上饶市,裕丰大道,118.190438,28.444845,2026-01-24T1700,40,53,0.8,34,10,83,65,57,细颗粒物(PM2.5)
韶关市,市八中,113.5821,24.7733,2026-01-24T1700,33,47,0.6,19,9,76,55,48,
韶关市,园林处,113.5916,24.7973,2026-01-24T1700,34,34,/,19,9,80,59,49,
韶关市,曲江监测站,113.5971,24.6864,2026-01-24T1700,38,46,0.7,21,16,75,56,54,细颗粒物(PM2.5)
韶关市,大学路288号,113.6668,24.7756,2026-01-24T1700,27,41,/,16,9,77,55,41,
韶关市,碧湖山庄,113.5556,24.8082,2026-01-24T1700,30,43,0.3,16,10,78,56,43,
邵阳市,市化工厂,111.5277,27.2442,2026-01-24T1700,39,53,0.6,13,7,65,50,55,细颗粒物(PM2.5)
邵阳市,市环保局,111.4327,27.2276,2026-01-24T1700,52,60,0.9,25,9,54,40,72,细颗粒物(PM2.5)
邵阳市,北塔二期4-26地块,111.446,27.2472,2026-01-24T1700,60,80,1.2,,8,54,41,,
邵阳市,邵水西路287号,111.4739,27.2282,2026-01-24T1700,54,63,1.0,22,11,61,41,74,细颗粒物(PM2.5)
绍兴市,城东开发委,120.6053,29.9927,2026-01-24T1700,87,107,0.8,52,11,84,70,115,细颗粒物(PM2.5)
绍兴市,树下王站,120.5482,30.0003,2026-01-24T1700,89,114,0.9,50,10,87,68,118,细颗粒物(PM2.5)
绍兴市,绍兴中专,120.5685,29.936,2026-01-24T1700,88,111,0.6,54,10,83,66,117,细颗粒物(PM2.5)
绍兴市,柯桥区政府,120.4905,30.086,2026-01-24T1700,95,125,0.8,67,9,78,64,125,细颗粒物(PM2.5)
绍兴市,重华小学,120.8751,30.0249,2026-01-24T1700,94,113,0.7,68,12,69,66,124,细颗粒物(PM2.5)
绍兴市,上虞中学,120.837,30.0137,2026-01-24T1700,89,108,0.8,61,11,76,65,118,细颗粒物(PM2.5)
绍兴市,柯桥妇保,120.4715,30.0414,2026-01-24T1700,80,100,0.6,50,8,86,64,107,细颗粒物(PM2.5)
绍兴市,袍江中学,120.6156,30.0762,2026-01-24T1700,94,129,1.0,62,11,74,62,124,细颗粒物(PM2.5)
深圳市,通心岭子站,114.0948,22.5506,2026-01-24T1700,76,104,0.9,67,8,153,91,102,细颗粒物(PM2.5)
深圳市,洪湖,114.1153,22.5713,2026-01-24T1700,73,116,1.0,77,10,148,90,98,细颗粒物(PM2.5)
深圳市,华侨城,113.9823,22.5398,2026-01-24T1700,89,142,/,80,/,150,86,118,细颗粒物(PM2.5)
深圳市,南海子站,113.9181,22.517,2026-01-24T1700,68,99,1.0,53,8,166,96,92,细颗粒物(PM2.5)
深圳市,盐田,114.2345,22.565,2026-01-24T1700,36,44,0.7,47,10,118,93,52,细颗粒物(PM2.5)
深圳市,南澳,114.4911,22.5381,2026-01-24T1700,25,33,/,16,/,136,105,43,
深圳市,葵涌,114.41,22.6346,2026-01-24T1700,28,40,0.7,32,9,112,95,40,
深圳市,梅沙,114.2967,22.5978,2026-01-24T1700,24,42,/,18,/,131,109,42,
深圳市,观澜,114.0563,22.7353,2026-01-24T1700,58,102,0.9,45,8,197,131,97,臭氧1小时(O3_1h)
深圳市,莲花,114.0614,22.556,2026-01-24T1700,73,111,/,67,/,149,86,98,细颗粒物(PM2.5)
深圳市,民治,114.0144,22.6163,2026-01-24T1700,80,112,/,55,/,180,98,107,细颗粒物(PM2.5)
深圳市,横岗,114.1756,22.6421,2026-01-24T1700,48,81,/,48,/,128,77,67,细颗粒物(PM2.5)
深圳市,坪山,114.344,22.7115,2026-01-24T1700,32,51,0.8,29,10,144,93,51,颗粒物(PM10)
深圳市,西乡,113.8952,22.586,2026-01-24T1700,74,104,0.9,55,9,168,103,99,细颗粒物(PM2.5)
深圳市,黄阁路,114.214113,22.713717,2026-01-24T1700,46,70,0.9,34,7,208,110,104,臭氧1小时(O3_1h)
沈阳市,浑南东路,123.5058,41.7084,2026-01-24T1700,7,33,0.4,21,10,52,56,33,
沈阳市,新秀街,123.4238,41.6992,2026-01-24T1700,21,45,0.7,35,23,42,59,45,
沈阳市,东陵路,123.5903,41.8412,2026-01-24T1700,6,20,0.5,14,5,65,62,21,
沈阳市,陵东街,123.4267,41.8466,2026-01-24T1700,13,24,0.6,30,10,45,64,24,
沈阳市,文化路,123.4116,41.7654,2026-01-24T1700,6,32,0.9,28,24,52,64,32,
沈阳市,小河沿,123.4673,41.787,2026-01-24T1700,13,29,0.7,21,9,66,72,29,
沈阳市,太原街,123.4019,41.7978,2026-01-24T1700,8,26,0.6,22,9,58,65,26,
沈阳市,京沈街,123.3778,41.9233,2026-01-24T1700,7,25,0.4,19,7,68,73,25,
沈阳市,沈辽西路,123.2429,41.7341,2026-01-24T1700,13,33,0.7,28,17,47,56,33,
沈阳市,裕农路,123.5951,41.9085,2026-01-24T1700,9,16,0.5,14,3,79,82,25,
十堰市,滨河新村,110.78,32.6494,2026-01-24T1700,75,,0.7,22,/,62,50,100,细颗粒物(PM2.5)
十堰市,刘家沟,110.7305,32.6408,2026-01-24T1700,89,106,/,29,/,70,55,118,细颗粒物(PM2.5)
十堰市,铁二处,110.8843,32.5712,2026-01-24T1700,86,92,1.0,22,8,61,42,114,细颗粒物(PM2.5)
十堰市,郧阳区金沙路,110.8053,32.8401,2026-01-24T1700,75,79,1.0,19,6,63,45,100,细颗粒物(PM2.5)
石河子市,艾青诗歌馆,86.0391,44.298,2026-01-24T1700,96,158,1.2,42,11,48,52,127,细颗粒物(PM2.5)
石河子市,南区管委会,86.047,44.2331,2026-01-24T1700,91,137,1.3,40,12,64,70,120,细颗粒物(PM2.5)
石河子市,世纪广场,86.0791,44.3018,2026-01-24T1700,91,135,1.3,35,15,66,48,120,细颗粒物(PM2.5)
石河子市,城南景苑小区,86.0126,44.2349,2026-01-24T1700,96,183,1.0,30,13,78,76,127,细颗粒物(PM2.5)
石家庄市,高新区,114.5919,38.0328,2026-01-24T1700,178,202,1.3,39,9,77,48,228,细颗粒物(PM2.5)
石家庄市,西南高教,114.4556,38.0136,2026-01-24T1700,196,243,1.5,54,11,70,45,246,细颗粒物(PM2.5)
石家庄市,世纪公园,114.533,38.0177,2026-01-24T1700,176,214,1.4,47,11,70,49,226,细颗粒物(PM2.5)
石家庄市,人民会堂,114.5105,38.0489,2026-01-24T1700,185,230,1.5,46,7,68,41,235,细颗粒物(PM2.5)
石家庄市,鹿泉一中,114.2887,38.0905,2026-01-24T1700,167,204,1.7,52,12,56,36,217,细颗粒物(PM2.5)
石家庄市,栾城区星河路,114.6491,37.9014,2026-01-24T1700,202,206,1.1,46,9,82,50,252,细颗粒物(PM2.5)
石家庄市,裕华西路63号,114.4563,38.0365,2026-01-24T1700,200,202,1.8,49,10,68,41,250,细颗粒物(PM2.5)
石家庄市,和平路363号,114.5586,38.0581,2026-01-24T1700,213,,1.4,46,7,70,44,263,细颗粒物(PM2.5)
石家庄市,廉州西路160号,114.8347,38.0213,2026-01-24T1700,205,,1.1,26,4,67,32,255,细颗粒物(PM2.5)
石家庄市,北城路41号,114.4498,38.0729,2026-01-24T1700,164,222,1.5,53,9,71,45,214,细颗粒物(PM2.5)
石家庄市,矿区区委大楼,114.0494,38.059,2026-01-24T1700,147,229,1.9,75,20,37,29,196,细颗粒物(PM2.5)
石嘴山市,大武口朝阳西街,106.3668,39.0145,2026-01-24T1700,46,72,0.4,19,16,86,66,64,细颗粒物(PM2.5)
石嘴山市,惠农南大街,106.7713,39.2278,2026-01-24T1700,36,88,0.5,20,12,84,70,69,颗粒物(PM10)
石嘴山市,红果子镇惠新街,106.7074,39.1332,2026-01-24T1700,30,92,0.4,20,7,87,74,71,颗粒物(PM10)
石嘴山市,妇女儿童医院,106.3495,38.9837,2026-01-24T1700,28,73,0.7,20,14,96,72,62,颗粒物(PM10)
石嘴山市,石大公路,106.7495,39.2068,2026-01-24T1700,36,88,0.6,15,6,82,68,69,颗粒物(PM10)
双鸭山市,双合村,131.1509,46.6936,2026-01-24T1700,19,20,0.5,10,6,64,68,28,
双鸭山市,南小市,131.1651,46.6191,2026-01-24T1700,36,,0.3,18,7,55,60,52,细颗粒物(PM2.5)
双鸭山市,环保局,131.1526,46.6554,2026-01-24T1700,21,33,0.3,18,4,60,65,33,
朔州市,平朔,112.4399,39.3521,2026-01-24T1700,49,88,0.6,28,16,61,44,69,颗粒物(PM10)
朔州市,朔唯,112.4574,39.362,2026-01-24T1700,,106,/,,15,49,36,,
朔州市,区政府,112.426,39.3199,2026-01-24T1700,52,106,0.4,29,12,56,54,78,颗粒物(PM10)
朔州市,市环保局,112.4075,39.3277,2026-01-24T1700,52,96,/,34,10,58,49,73,颗粒物(PM10)
朔州市,市二中,112.4273,39.3682,2026-01-24T1700,54,98,/,28,13,67,46,74,"颗粒物(PM10),细颗粒物(PM2.5)"
朔州市,一水厂,112.2938,39.5296,2026-01-24T1700,46,103,0.9,43,21,51,46,77,颗粒物(PM10)
四平市,境园,124.3744,43.1842,2026-01-24T1700,20,50,0.3,22,10,52,56,50,
四平市,植物园,124.4029,43.1411,2026-01-24T1700,26,47,0.4,28,6,48,56,47,
四平市,世纪城,124.3286,43.1726,2026-01-24T1700,23,56,0.3,22,10,57,60,53,颗粒物(PM10)
松原市,江南,124.8007,45.1213,2026-01-24T1700,14,37,0.5,15,9,57,59,37,
松原市,江北,124.7967,45.1721,2026-01-24T1700,10,10,0.3,6,9,63,61,20,
苏州市,轧钢厂,120.5974,31.3247,2026-01-24T1700,54,83,0.8,33,8,80,73,74,细颗粒物(PM2.5)
苏州市,吴中区,120.6329,31.2741,2026-01-24T1700,59,83,0.7,41,8,70,63,80,细颗粒物(PM2.5)
苏州市,苏州新区,120.5566,31.3049,2026-01-24T1700,53,74,0.7,45,9,72,71,73,细颗粒物(PM2.5)
苏州市,苏州工业园区,120.668709,31.312523,2026-01-24T1700,49,70,0.7,36,8,87,82,68,细颗粒物(PM2.5)
苏州市,相城区,120.6408,31.3707,2026-01-24T1700,45,71,0.5,32,5,89,82,63,细颗粒物(PM2.5)
苏州市,方洲路,120.7431,31.3188,2026-01-24T1700,61,78,0.7,43,9,84,80,83,细颗粒物(PM2.5)
苏州市,木渎中学,120.4979,31.2777,2026-01-24T1700,74,95,0.9,48,9,76,74,99,细颗粒物(PM2.5)
苏州市,越秀幼儿园,120.642,31.1733,2026-01-24T1700,54,86,0.8,44,7,79,70,74,细颗粒物(PM2.5)
苏州市,高铁新城,120.6502,31.4117,2026-01-24T1700,52,74,0.6,32,5,79,83,72,细颗粒物(PM2.5)
苏州市,学森路9号,120.4282,31.3228,2026-01-24T1700,71,118,0.8,58,13,76,69,95,细颗粒物(PM2.5)
宿迁市,宿迁学院,118.2924,33.933,2026-01-24T1700,81,105,0.7,21,5,103,94,108,细颗粒物(PM2.5)
宿迁市,宿迁中学,118.2321,33.9572,2026-01-24T1700,78,96,0.8,18,7,102,94,104,细颗粒物(PM2.5)
宿迁市,市供电局,118.2781,33.9658,2026-01-24T1700,82,102,0.8,18,5,102,94,109,细颗粒物(PM2.5)
宿迁市,宿豫区政府,118.3243,33.95,2026-01-24T1700,,,0.7,25,8,106,93,,
宿迁市,春华路,118.352,33.7886,2026-01-24T1700,93,,0.5,20,5,98,90,123,细颗粒物(PM2.5)
宿州市,远航博物馆,116.9508,33.666,2026-01-24T1700,75,90,0.6,23,4,103,94,100,细颗粒物(PM2.5)
宿州市,社会福利中心,116.9708,33.5911,2026-01-24T1700,79,104,0.6,24,8,93,88,105,细颗粒物(PM2.5)
宿州市,皖北煤电集团,116.9647,33.6252,2026-01-24T1700,76,100,0.8,32,6,100,96,102,细颗粒物(PM2.5)
宿州市,中兴路,116.9929,33.6412,2026-01-24T1700,82,109,0.5,24,7,98,92,109,细颗粒物(PM2.5)
绥化市,人和东街,126.9783,46.6365,2026-01-24T1700,47,53,0.7,24,4,60,64,65,细颗粒物(PM2.5)
绥化市,党政办公中心,126.964,46.6527,2026-01-24T1700,36,47,0.5,20,2,62,61,52,细颗粒物(PM2.5)
随州市,市委党校,113.3587,31.7275,2026-01-24T1700,53,70,0.7,22,4,98,78,73,细颗粒物(PM2.5)
随州市,市林业局,113.3745,31.6926,2026-01-24T1700,46,59,0.7,16,5,97,74,64,细颗粒物(PM2.5)
随州市,市立交桥水厂,113.3984,31.7309,2026-01-24T1700,74,80,0.4,20,8,93,75,99,细颗粒物(PM2.5)
遂宁市,市监测站,105.5581,30.5231,2026-01-24T1700,25,46,0.8,19,,53,23,,
遂宁市,美宁食品公司,105.5917,30.4727,2026-01-24T1700,39,49,0.6,13,13,55,35,55,细颗粒物(PM2.5)
遂宁市,环岛商务中心9号楼,105.5911,30.5368,2026-01-24T1700,36,43,0.7,17,11,58,30,52,细颗粒物(PM2.5)
塔城地区,东门外小游园,82.9993,46.7432,2026-01-24T1700,18,67,0.3,11,7,71,67,59,颗粒物(PM10)
塔城地区,文化广场,82.9716,46.7464,2026-01-24T1700,25,53,0.6,13,8,65,65,52,颗粒物(PM10)
台州市,黄岩环保大楼,121.2727,28.6461,2026-01-24T1700,65,99,/,39,/,91,63,88,细颗粒物(PM2.5)
台州市,台州环保大楼,121.4188,28.6545,2026-01-24T1700,88,109,0.6,46,/,101,72,117,细颗粒物(PM2.5)
台州市,路桥田洋王,121.3768,28.5772,2026-01-24T1700,80,102,0.6,30,6,110,76,107,细颗粒物(PM2.5)
台州市,台州科技职业学院,121.25678,28.66823971,2026-01-24T1700,76,118,0.5,45,6,81,53,102,细颗粒物(PM2.5)
太原市,尖草坪,112.5138,37.8916,2026-01-24T1700,36,74,0.4,31,10,77,62,62,颗粒物(PM10)
太原市,晋源,112.4691,37.7125,2026-01-24T1700,42,78,1.1,38,14,66,60,64,颗粒物(PM10)
太原市,小店,112.5595,37.7391,2026-01-24T1700,37,87,0.8,46,14,58,51,69,颗粒物(PM10)
太原市,坞城,112.5705,37.8199,2026-01-24T1700,41,96,1.2,48,17,57,47,73,颗粒物(PM10)
太原市,南寨,112.5495,37.9853,2026-01-24T1700,34,66,0.7,35,8,84,62,58,颗粒物(PM10)
太原市,金胜,112.4702,37.7821,2026-01-24T1700,51,106,1.6,49,22,62,61,78,颗粒物(PM10)
太原市,育英中学,112.5608,37.8807,2026-01-24T1700,39,80,1.3,41,15,62,52,65,颗粒物(PM10)
太原市,西矿街336号,112.449,37.8509,2026-01-24T1700,37,84,1.0,38,16,67,54,67,颗粒物(PM10)
太原市,迎宾北路9号,112.4792,37.9393,2026-01-24T1700,42,67,0.5,31,10,73,59,59,"颗粒物(PM10),细颗粒物(PM2.5)"
太原市,迎泽大街248号,112.551,37.8575,2026-01-24T1700,36,84,1.2,43,16,59,51,67,颗粒物(PM10)
泰安市,监测站,117.1436,36.1938,2026-01-24T1700,59,100,0.8,28,8,88,70,80,细颗粒物(PM2.5)
泰安市,人口学校,117.0905,36.2002,2026-01-24T1700,84,102,0.6,28,10,96,80,112,细颗粒物(PM2.5)
泰安市,电力学校,117.0992,36.1757,2026-01-24T1700,73,73,0.7,29,9,101,73,98,细颗粒物(PM2.5)
泰安市,国网新校,117.1812,36.2273,2026-01-24T1700,83,107,0.8,33,10,88,73,110,细颗粒物(PM2.5)
泰安市,交通技校,117.0315,36.2017,2026-01-24T1700,76,88,0.8,19,5,104,81,102,细颗粒物(PM2.5)
泰安市,山东第一医科大学,117.083,36.13,2026-01-24T1700,56,85,0.5,14,5,108,71,77,细颗粒物(PM2.5)
泰州市,公园路,119.9042,32.488,2026-01-24T1700,44,56,0.1,18,6,110,101,62,细颗粒物(PM2.5)
泰州市,莲花,119.9189,32.4626,2026-01-24T1700,44,51,0.3,34,11,129,112,62,细颗粒物(PM2.5)
泰州市,留学生创业园,119.8877,32.4636,2026-01-24T1700,54,64,0.2,14,11,114,102,74,细颗粒物(PM2.5)
泰州市,王营,119.8767,32.3291,2026-01-24T1700,41,69,0.6,15,8,115,105,60,颗粒物(PM10)
泰州市,姜堰区政府广场,120.1226,32.515,2026-01-24T1700,54,68,0.6,19,7,100,92,74,细颗粒物(PM2.5)
泰州市,周山河街区,119.9186,32.4322,2026-01-24T1700,50,66,0.4,13,11,112,102,69,细颗粒物(PM2.5)
唐山市,十二中,118.1707,39.6505,2026-01-24T1700,114,150,1.0,55,10,60,36,149,细颗粒物(PM2.5)
唐山市,小山,118.1868,39.6219,2026-01-24T1700,132,152,1.0,60,14,75,42,175,细颗粒物(PM2.5)
唐山市,冀东油田职工医院,118.4357,39.277,2026-01-24T1700,115,145,1.5,71,19,47,44,150,细颗粒物(PM2.5)
唐山市,正泰大街热力站,118.0927,39.5807,2026-01-24T1700,136,174,1.1,43,8,77,41,180,细颗粒物(PM2.5)
唐山市,丰润区政府,118.1561,39.8322,2026-01-24T1700,68,97,0.8,48,10,44,38,92,细颗粒物(PM2.5)
唐山市,金山小学,118.436906,39.73802,2026-01-24T1700,95,157,1.3,61,22,41,46,125,细颗粒物(PM2.5)
唐山市,政府服务中心,118.2449,39.6693,2026-01-24T1700,102,146,1.0,76,15,37,27,134,细颗粒物(PM2.5)
唐山市,消防缸窑路中队,118.2043,39.6703,2026-01-24T1700,102,130,1.1,64,13,61,40,134,细颗粒物(PM2.5)
唐山市,路南电大,118.1432,39.6203,2026-01-24T1700,136,174,1.0,59,8,64,35,180,细颗粒物(PM2.5)
唐山市,光明北路515号,118.1267,39.6579,2026-01-24T1700,121,186,0.9,49,14,51,25,159,细颗粒物(PM2.5)
唐山市,友谊北路34号,118.130859,39.636026,2026-01-24T1700,132,167,1.0,62,8,68,40,175,细颗粒物(PM2.5)
天津市,勤俭道,117.1446,39.1659,2026-01-24T1700,137,173,1.1,46,14,80,68,182,细颗粒物(PM2.5)
天津市,前进道,117.2016,39.0928,2026-01-24T1700,143,179,1.1,46,11,76,66,190,细颗粒物(PM2.5)
天津市,淮河道,117.1837,39.2134,2026-01-24T1700,141,184,0.9,50,11,64,62,188,细颗粒物(PM2.5)
天津市,跃进路,117.308261,39.088386,2026-01-24T1700,137,191,1.0,54,12,68,51,182,细颗粒物(PM2.5)
天津市,第四大街,117.707,39.0344,2026-01-24T1700,135,201,1.6,135,16,2,19,179,细颗粒物(PM2.5)
天津市,永明路,117.4573,38.8395,2026-01-24T1700,124,150,0.8,48,15,69,47,163,细颗粒物(PM2.5)
天津市,汉北路,117.7641,39.1588,2026-01-24T1700,123,179,1.0,93,14,21,14,162,细颗粒物(PM2.5)
天津市,河西一经路,117.7917,39.2473,2026-01-24T1700,114,173,1.2,97,9,22,28,149,细颗粒物(PM2.5)
天津市,津沽路,117.3747,38.9845,2026-01-24T1700,135,159,1.5,82,16,38,52,179,细颗粒物(PM2.5)
天津市,宾水西道,117.159,39.0844,2026-01-24T1700,142,147,1.1,47,13,72,57,189,细颗粒物(PM2.5)
天津市,大理道,117.194,39.1069,2026-01-24T1700,134,160,1.0,48,12,74,61,178,细颗粒物(PM2.5)
天津市,中山北路,117.2096,39.1698,2026-01-24T1700,124,144,1.1,57,10,60,58,163,细颗粒物(PM2.5)
天津市,西四道,117.385,39.1483,2026-01-24T1700,138,182,1.0,70,14,47,35,183,细颗粒物(PM2.5)
天津市,雍阳西道,117.0362,39.3827,2026-01-24T1700,155,218,1.2,68,14,49,27,205,细颗粒物(PM2.5)
天津市,辛老路,117.0291,39.0612,2026-01-24T1700,128,168,0.7,43,14,79,53,169,细颗粒物(PM2.5)
天津市,地纬路,116.9638,38.9374,2026-01-24T1700,135,173,1.0,50,14,70,50,179,细颗粒物(PM2.5)
天津市,北环路,117.4065,40.0583,2026-01-24T1700,51,72,1.1,34,10,57,54,70,细颗粒物(PM2.5)
天津市,建设路,117.3041,39.7167,2026-01-24T1700,118,168,1.2,67,12,29,20,155,细颗粒物(PM2.5)
天津市,滨水东路,117.8201,39.3519,2026-01-24T1700,127,130,1.3,125,14,9,39,168,细颗粒物(PM2.5)
天津市,光华路,117.24369,39.102911,2026-01-24T1700,125,181,0.8,44,12,79,63,165,细颗粒物(PM2.5)
天水市,公园小学,105.72058,34.57859,2026-01-24T1700,25,42,0.6,15,16,63,53,42,
天水市,麦积国土局,105.89428,34.55353,2026-01-24T1700,33,45,0.5,14,3,66,47,48,
铁岭市,水上乐园,123.865,42.292,2026-01-24T1700,16,34,0.5,37,8,52,64,34,
铁岭市,金沙江路北,123.7158,42.2218,2026-01-24T1700,9,24,0.5,22,8,60,62,24,
铁岭市,新华街20号,123.835,42.2853,2026-01-24T1700,16,32,0.3,20,11,74,73,32,
通化市,光明,125.9359,41.7174,2026-01-24T1700,6,30,0.2,11,10,70,59,30,
通化市,铁路,125.9446,41.7323,2026-01-24T1700,7,18,0,12,7,63,50,20,
通辽市,艺术职业学校,122.253,43.6801,2026-01-24T1700,7,32,0.4,10,6,77,78,32,
通辽市,老干部活动中心,122.2584,43.6333,2026-01-24T1700,14,43,0.4,9,4,70,73,43,
通辽市,东方明珠社区,122.2923,43.6189,2026-01-24T1700,21,48,0.4,16,6,63,66,48,
铜川市,王益区政府,109.0696,35.0699,2026-01-24T1700,52,76,1.0,19,7,100,74,72,细颗粒物(PM2.5)
铜川市,新区管委会,108.9345,34.9059,2026-01-24T1700,103,117,1.6,32,14,99,73,135,细颗粒物(PM2.5)
铜川市,大唐三路,108.949652,34.870529,2026-01-24T1700,108,145,1.5,32,14,96,74,142,细颗粒物(PM2.5)
铜陵市,市第四中学,117.8176,30.9412,2026-01-24T1700,35,83,0.9,29,19,77,62,67,颗粒物(PM10)
铜陵市,市新民污水厂,117.7806,30.9413,2026-01-24T1700,38,60,0.6,21,9,83,63,55,颗粒物(PM10)
铜陵市,车站新区,117.846,30.9414,2026-01-24T1700,49,80,0.9,35,16,71,63,68,细颗粒物(PM2.5)
铜陵市,市职教基地,117.8472,30.9699,2026-01-24T1700,43,64,0.7,28,10,74,70,60,细颗粒物(PM2.5)
铜仁市,铜仁卫校,109.1839,27.7344,2026-01-24T1700,44,65,0.7,18,2,71,60,62,细颗粒物(PM2.5)
铜仁市,铜仁七中,109.1752,27.6945,2026-01-24T1700,56,61,0.9,28,8,55,47,77,细颗粒物(PM2.5)
吐鲁番市,市环保局,89.1905,42.9419,2026-01-24T1700,56,251,1.1,21,4,44,36,151,颗粒物(PM10)
吐鲁番市,地区环保局,89.1674,42.9558,2026-01-24T1700,54,247,1.0,17,5,52,40,149,颗粒物(PM10)
威海市,华夏技校,122.121,37.4231,2026-01-24T1700,35,56,0.5,37,/,57,68,53,颗粒物(PM10)
威海市,山大分校,122.0508,37.5236,2026-01-24T1700,44,56,/,41,/,55,64,62,细颗粒物(PM2.5)
威海市,市监测站,122.1067,37.5067,2026-01-24T1700,54,83,0.6,41,6,53,62,74,细颗粒物(PM2.5)
威海市,文登开发区,122.0693,37.2175,2026-01-24T1700,24,56,/,19,/,70,68,53,颗粒物(PM10)
威海市,临港区管委会,122.1379,37.3414,2026-01-24T1700,28,51,0.8,35,5,60,66,51,颗粒物(PM10)
潍坊市,环保局,119.1436,36.7022,2026-01-24T1700,83,127,1.1,44,13,74,74,110,细颗粒物(PM2.5)
潍坊市,坊子邮政,119.1638,36.6524,2026-01-24T1700,92,129,1.2,37,15,80,76,122,细颗粒物(PM2.5)
潍坊市,潍坊七中,119.0587,36.7209,2026-01-24T1700,90,127,1.0,44,12,69,78,119,细颗粒物(PM2.5)
潍坊市,高新实验学校,119.1978,36.6871,2026-01-24T1700,83,114,1.0,35,10,82,77,110,细颗粒物(PM2.5)
潍坊市,潍坊学院,119.1758,36.7139,2026-01-24T1700,83,119,1.1,41,13,80,76,110,细颗粒物(PM2.5)
潍坊市,寒亭区实验一小,119.2046,36.7696,2026-01-24T1700,75,102,1.0,41,13,81,73,100,细颗粒物(PM2.5)
渭南市,体育馆,109.4605,34.4927,2026-01-24T1700,110,158,1.3,33,10,90,61,144,细颗粒物(PM2.5)
渭南市,高新一小,109.4257,34.5067,2026-01-24T1700,114,138,1.5,30,9,85,60,149,细颗粒物(PM2.5)
渭南市,渭花路4号,109.505065,34.492137,2026-01-24T1700,,,,,,,56,,
温州市,瓯海,120.6342,28.0088,2026-01-24T1700,38,53,0.4,24,8,89,57,54,细颗粒物(PM2.5)
温州市,南浦,120.6747,27.9881,2026-01-24T1700,41,62,0.5,26,7,95,65,58,细颗粒物(PM2.5)
温州市,龙湾,120.76,27.9745,2026-01-24T1700,39,78,0.4,35,7,85,63,64,颗粒物(PM10)
温州市,茶山,120.6985,27.9252,2026-01-24T1700,35,58,/,23,/,99,70,54,颗粒物(PM10)
温州市,鹿城惠民路,120.6935,28.0114,2026-01-24T1700,29,62,0.1,24,/,97,62,56,颗粒物(PM10)
文山壮族苗族自治州,州水务局,104.2533,23.3595,2026-01-24T1700,10,17,0.5,5,7,57,38,18,
文山壮族苗族自治州,市便民服务中心,104.2319,23.3892,2026-01-24T1700,14,25,0.5,6,7,58,44,25,
乌海市,市林业局,106.8172,39.6972,2026-01-24T1700,40,163,0.5,20,10,91,50,107,颗粒物(PM10)
乌海市,中海勃湾学校,106.7907,39.6666,2026-01-24T1700,34,118,0.5,32,13,76,49,84,颗粒物(PM10)
乌海市,海北新区,106.8129,39.7274,2026-01-24T1700,15,167,0.5,20,19,89,44,109,颗粒物(PM10)
乌海市,海拉北路,106.8212,39.6741,2026-01-24T1700,29,153,0.5,23,13,78,36,102,颗粒物(PM10)
乌兰察布市,集宁新区,113.1306,40.9924,2026-01-24T1700,16,33,0.4,10,20,85,60,33,
乌兰察布市,光明街小学,113.1076,41.0385,2026-01-24T1700,15,40,0.5,1,,82,10,,
乌兰察布市,北京八中,113.1383,40.9513,2026-01-24T1700,15,30,0.6,12,16,77,47,30,
乌兰察布市,市委党校,113.1776,40.9779,2026-01-24T1700,11,20,0.3,8,12,87,62,28,
乌鲁木齐市,监测站,87.5796,43.8299,2026-01-24T1700,16,44,1.1,68,5,30,24,44,
乌鲁木齐市,收费所,87.6044,43.7679,2026-01-24T1700,24,68,0.8,47,7,44,46,59,颗粒物(PM10)
乌鲁木齐市,铁路局,87.5529,43.8704,2026-01-24T1700,57,133,0.6,60,5,57,29,92,颗粒物(PM10)
乌鲁木齐市,三十一中学,87.6408,43.8258,2026-01-24T1700,59,86,0.6,65,3,48,62,80,细颗粒物(PM2.5)
乌鲁木齐市,米东区环保局,87.7218,44.1747,2026-01-24T1700,100,148,1.0,52,8,68,56,132,细颗粒物(PM2.5)
乌鲁木齐市,培训基地,87.4652,43.4569,2026-01-24T1700,3,24,0.5,7,5,86,88,27,
乌鲁木齐市,达坂城区环保局,88.3088,43.3637,2026-01-24T1700,19,66,0.4,14,2,63,74,58,颗粒物(PM10)
乌鲁木齐市,红光山片区,87.6132,43.8791,2026-01-24T1700,59,114,0.5,43,4,54,41,82,颗粒物(PM10)
乌鲁木齐市,新师大温泉校区,87.7008,43.8003,2026-01-24T1700,42,65,0.7,37,7,60,72,59,细颗粒物(PM2.5)
乌鲁木齐市,大绿谷,87.4892,43.84,2026-01-24T1700,48,110,0.7,41,5,57,44,80,颗粒物(PM10)
无锡市,雪浪,120.2693,31.4864,2026-01-24T1700,53,78,0.8,45,9,84,78,73,细颗粒物(PM2.5)
无锡市,黄巷,120.2761,31.621,2026-01-24T1700,66,93,0.9,42,8,78,70,89,细颗粒物(PM2.5)
无锡市,漆塘,120.2422,31.5037,2026-01-24T1700,58,103,0.5,42,12,86,81,79,细颗粒物(PM2.5)
无锡市,东亭,120.3489,31.5865,2026-01-24T1700,53,75,0.7,42,11,72,75,73,细颗粒物(PM2.5)
无锡市,旺庄,120.3538,31.5474,2026-01-24T1700,56,98,0.7,43,8,79,78,77,细颗粒物(PM2.5)
无锡市,荣巷,120.2447,31.5633,2026-01-24T1700,56,70,0.8,35,10,94,77,77,细颗粒物(PM2.5)
无锡市,堰桥,120.2986,31.6816,2026-01-24T1700,51,85,0.8,40,8,86,86,70,细颗粒物(PM2.5)
无锡市,清舒道1号,120.3138,31.4927,2026-01-24T1700,61,77,0.9,40,13,89,78,83,细颗粒物(PM2.5)
无锡市,健康路105号,120.2925,31.5685,2026-01-24T1700,56,82,0.9,48,9,79,73,77,细颗粒物(PM2.5)
吴忠市,教育园区,106.1535,37.9648,2026-01-24T1700,50,132,0.6,22,11,79,60,91,颗粒物(PM10)
吴忠市,新区二泵站,106.1851,37.9957,2026-01-24T1700,48,177,0.6,22,9,75,56,114,颗粒物(PM10)
吴忠市,文卫南街,106.2176,37.9832,2026-01-24T1700,35,122,0.6,19,9,79,58,86,颗粒物(PM10)
芜湖市,监测站,118.3603,31.3515,2026-01-24T1700,67,78,1.0,22,10,97,71,90,细颗粒物(PM2.5)
芜湖市,科创中心,118.3716,31.4135,2026-01-24T1700,64,94,0.9,34,8,90,69,87,细颗粒物(PM2.5)
芜湖市,四水厂,118.3671,31.3132,2026-01-24T1700,67,89,0.6,23,11,100,76,90,细颗粒物(PM2.5)
芜湖市,市气象局,118.4209,31.3704,2026-01-24T1700,64,71,0.6,32,11,96,70,87,细颗粒物(PM2.5)
芜湖市,清苑社区,118.4783,31.3226,2026-01-24T1700,70,79,0.7,29,12,100,78,94,细颗粒物(PM2.5)
芜湖市,扬子职业技术学院,118.2746,31.2326,2026-01-24T1700,64,75,0.8,26,10,104,78,87,细颗粒物(PM2.5)
芜湖市,湾沚区人民法院,118.5726,31.1371,2026-01-24T1700,37,47,0.9,19,9,105,86,53,细颗粒物(PM2.5)
梧州市,市十一中,111.3126,23.4772,2026-01-24T1700,32,40,0.5,20,9,28,24,46,
梧州市,龙新,111.26,23.4794,2026-01-24T1700,36,70,,,12,28,29,,
梧州市,政贤路18号,111.2416,23.4155,2026-01-24T1700,44,65,0.7,25,9,28,19,62,细颗粒物(PM2.5)
五家渠市,农水大厦,87.5352,44.1606,2026-01-24T1700,103,165,1.1,32,7,58,42,135,细颗粒物(PM2.5)
五家渠市,经开区管委会,87.5461,44.1909,2026-01-24T1700,,,1.4,45,6,62,48,,
五家渠市,建设西街760号,87.055284,43.999117,2026-01-24T1700,39,90,0.6,9,8,84,72,70,颗粒物(PM10)
武汉市,东湖梨园,114.3676,30.5584,2026-01-24T1700,39,54,1.0,25,7,87,66,55,细颗粒物(PM2.5)
武汉市,汉阳月湖,114.2527,30.5578,2026-01-24T1700,39,51,0.7,16,5,92,75,55,细颗粒物(PM2.5)
武汉市,汉口花桥,114.2819,30.6189,2026-01-24T1700,44,60,1.0,26,9,82,66,62,细颗粒物(PM2.5)
武汉市,武昌紫阳,114.3024,30.5332,2026-01-24T1700,47,49,0.9,21,7,85,67,65,细颗粒物(PM2.5)
武汉市,青山钢花,114.3646,30.6217,2026-01-24T1700,44,56,0.8,29,6,93,74,62,细颗粒物(PM2.5)
武汉市,沌口新区,114.156697,30.482592,2026-01-24T1700,34,48,0.6,12,7,93,72,49,
武汉市,汉口江滩,114.3013,30.5944,2026-01-24T1700,65,,0.8,25,,87,69,,
武汉市,吴家山,114.1285,30.6339,2026-01-24T1700,56,73,0.9,31,5,84,56,77,细颗粒物(PM2.5)
武汉市,民族大道182号,114.3876,30.4908,2026-01-24T1700,42,43,0.4,20,6,98,72,59,细颗粒物(PM2.5)
武威市,监测站,102.6203,37.925,2026-01-24T1700,62,338,0.8,15,16,77,59,194,颗粒物(PM10)
武威市,钟楼街149号,102.6447,37.9293,2026-01-24T1700,64,366,0.7,14,13,76,61,223,颗粒物(PM10)
西安市,兴庆小区,108.9931,34.2629,2026-01-24T1700,104,,1.1,29,7,86,58,137,细颗粒物(PM2.5)
西安市,纺织城,109.0595,34.2569,2026-01-24T1700,113,140,1.2,32,6,86,53,148,细颗粒物(PM2.5)
西安市,小寨,108.9377,34.2178,2026-01-24T1700,100,139,1.1,28,12,95,63,132,细颗粒物(PM2.5)
西安市,市人民体育场,108.9522,34.2739,2026-01-24T1700,119,133,1.1,29,5,88,68,156,细颗粒物(PM2.5)
西安市,高新西区,108.8923,34.2322,2026-01-24T1700,99,137,1.1,28,7,94,61,130,细颗粒物(PM2.5)
西安市,经开区,108.9386,34.3446,2026-01-24T1700,124,143,1.4,32,7,80,62,163,细颗粒物(PM2.5)
西安市,长安区,108.894,34.1557,2026-01-24T1700,155,195,1.4,47,7,83,54,205,细颗粒物(PM2.5)
西安市,临潼区,109.213,34.3748,2026-01-24T1700,115,133,1.5,31,9,81,56,150,细颗粒物(PM2.5)
西安市,广运潭,109.0508,34.321,2026-01-24T1700,131,138,1.1,28,6,83,57,173,细颗粒物(PM2.5)
西安市,无线电监控中心,109.1019,34.5302,2026-01-24T1700,120,,1.6,30,12,84,62,158,细颗粒物(PM2.5)
西安市,行知小学,108.8869,34.2662,2026-01-24T1700,108,142,1.1,37,10,84,61,142,细颗粒物(PM2.5)
西安市,西苑北路977号,108.596239,34.118792,2026-01-24T1700,153,172,1.1,,6,92,67,203,细颗粒物(PM2.5)
西安市,曲江池东路988号,108.9817,34.2035,2026-01-24T1700,102,146,1.2,26,7,96,64,134,细颗粒物(PM2.5)
西宁市,城北区政府,101.7775,36.643,2026-01-24T1700,18,45,1.4,44,16,52,60,45,
西宁市,世纪职校,101.8304,36.5785,2026-01-24T1700,46,48,1.9,61,25,53,45,64,细颗粒物(PM2.5)
西宁市,海晏路105号,101.6769,36.6535,2026-01-24T1700,23,43,0.5,34,11,39,33,43,
西双版纳傣族自治州,景洪市江南,100.8018,21.9995,2026-01-24T1700,24,35,0.5,6,4,88,63,35,
西双版纳傣族自治州,景洪市江北,100.7995,22.0238,2026-01-24T1700,18,28,0.3,5,,95,74,,
锡林郭勒盟,市环保监测站,116.1048,43.9318,2026-01-24T1700,7,12,0.3,9,6,61,61,20,
锡林郭勒盟,市政府,116.0778,43.9312,2026-01-24T1700,17,,0.3,8,5,67,68,25,
厦门市,洪文,118.1519,24.4768,2026-01-24T1700,18,33,0.4,9,4,103,83,33,
厦门市,鼓浪屿,118.0671,24.4447,2026-01-24T1700,16,28,/,6,2,107,79,34,
厦门市,湖里中学,118.0937,24.5054,2026-01-24T1700,20,35,0.4,12,2,99,83,35,
厦门市,集美中学,118.0961,24.5689,2026-01-24T1700,14,32,0.3,18,2,99,80,32,
厦门市,同安二实小,118.1502,24.7246,2026-01-24T1700,18,26,0.4,17,4,100,83,32,
咸宁市,长江产业园,114.3379,29.8683,2026-01-24T1700,30,46,0.2,20,6,94,77,46,
咸宁市,双鹤路18号,114.3182,29.8447,2026-01-24T1700,27,47,0.3,23,4,94,80,47,
咸宁市,碧桂路,114.284,29.8595,2026-01-24T1700,32,47,0.5,20,6,92,81,47,
咸阳市,实验中学,108.6726,34.315,2026-01-24T1700,114,122,1.1,30,12,97,67,149,细颗粒物(PM2.5)
咸阳市,师范学院,108.7226,34.3622,2026-01-24T1700,110,112,1.1,30,10,94,71,144,细颗粒物(PM2.5)
咸阳市,奥体中心,108.6394,34.408,2026-01-24T1700,97,119,1.1,23,10,97,72,128,细颗粒物(PM2.5)
咸阳市,五陵塬路2号,108.6601,34.3767,2026-01-24T1700,110,134,1.1,34,10,94,70,144,细颗粒物(PM2.5)
咸阳市,胭脂路9号,108.6372,34.3031,2026-01-24T1700,97,130,0.9,32,11,94,64,128,细颗粒物(PM2.5)
湘潭市,板塘,112.9508,27.8626,2026-01-24T1700,27,27,0.6,19,2,57,44,39,
湘潭市,市监测站,112.9114,27.8404,2026-01-24T1700,28,,1.1,13,4,72,53,40,
湘潭市,江麓,112.8935,27.8729,2026-01-24T1700,29,37,0.8,11,,80,64,,
湘潭市,岳塘,112.9227,27.8159,2026-01-24T1700,26,35,1.1,18,3,81,59,38,
湘潭市,科大,112.9073,27.9118,2026-01-24T1700,18,27,0.5,11,3,81,64,27,
湘潭市,昭山,113.0048,27.9153,2026-01-24T1700,26,39,0.1,21,3,81,58,39,
湘西土家族苗族自治州,州政府,109.7298,28.3164,2026-01-24T1700,58,65,0.1,22,4,56,46,79,细颗粒物(PM2.5)
湘西土家族苗族自治州,吉首市计生局,109.6957,28.2676,2026-01-24T1700,53,69,0.5,22,9,56,41,73,细颗粒物(PM2.5)
襄阳市,襄城运动路,112.1555,32.0197,2026-01-24T1700,72,97,0.6,16,9,101,75,97,细颗粒物(PM2.5)
襄阳市,高新管委会,112.1829,32.1146,2026-01-24T1700,76,91,0.3,17,9,97,70,102,细颗粒物(PM2.5)
襄阳市,襄州航空路,112.2105,32.0903,2026-01-24T1700,66,88,0.7,20,9,98,74,89,细颗粒物(PM2.5)
襄阳市,襄城隆中路,112.0764,32.0089,2026-01-24T1700,58,101,0.8,15,11,100,74,79,细颗粒物(PM2.5)
襄阳市,高新台子湾,112.1154,32.103,2026-01-24T1700,56,102,0.6,18,2,92,60,77,细颗粒物(PM2.5)
襄阳市,铁院东路4号,112.1433,32.0581,2026-01-24T1700,66,96,0.5,17,8,88,65,89,细颗粒物(PM2.5)
孝感市,东城区,113.9062,30.9378,2026-01-24T1700,69,83,1.2,35,4,89,71,93,细颗粒物(PM2.5)
孝感市,天仙南路1号,113.946,30.8999,2026-01-24T1700,75,112,1.1,30,5,83,59,100,细颗粒物(PM2.5)
忻州市,开发区,112.7313,38.457,2026-01-24T1700,59,93,0.7,32,14,66,42,80,细颗粒物(PM2.5)
忻州市,会展中心,112.7023,38.4932,2026-01-24T1700,63,103,0.9,35,12,64,45,85,细颗粒物(PM2.5)
忻州市,市政府,112.7279,38.4157,2026-01-24T1700,55,93,0.9,45,24,56,41,75,细颗粒物(PM2.5)
新乡市,环保西院,113.836,35.3104,2026-01-24T1700,79,104,0.8,16,8,91,72,105,细颗粒物(PM2.5)
新乡市,开发区,113.8847,35.2724,2026-01-24T1700,88,94,0.6,23,7,97,78,117,细颗粒物(PM2.5)
新乡市,环保东院,113.8836,35.3028,2026-01-24T1700,82,96,0.7,21,,96,81,109,细颗粒物(PM2.5)
新乡市,市委党校,113.9194,35.2847,2026-01-24T1700,82,82,0.5,29,8,104,83,109,细颗粒物(PM2.5)
