area,positionname,longitude,latitude,timepoint,pm2_5,pm10,co,no2,so2,o3,o3_8h,aqi,primarypollutant
阿里地区,阿里监测站,80.1171,32.4999,2026-03-03T1100,13,22,0.4,14,8,69,74,22,
阿里地区,阿里藏医院,80.0906,32.5029,2026-03-03T1100,3,26,0.6,19,12,68,78,26,
安康市,汉滨区检察院,109.0088,32.6974,2026-03-03T1100,14,18,0.9,11,4,39,30,20,
安康市,市邮政管理局,109.0324,32.6913,2026-03-03T1100,18,24,0.8,11,5,40,28,26,
安庆市,环科院,117.0806,30.5181,2026-03-03T1100,40,55,0.7,11,6,53,50,60,细颗粒物(PM2.5)
安庆市,马山宾馆,117.0331,30.5118,2026-03-03T1100,45,55,0.7,14,5,51,51,70,细颗粒物(PM2.5)
安庆市,安庆大学,116.9897,30.6146,2026-03-03T1100,42,53,0.6,8,4,59,53,64,细颗粒物(PM2.5)
安庆市,市人大,117.0598,30.5351,2026-03-03T1100,44,60,0.8,14,5,52,51,68,细颗粒物(PM2.5)
安顺市,凤凰山,105.9408,26.2431,2026-03-03T1100,23,24,0.7,7,11,43,45,33,
安顺市,金钟山,105.9443,26.2567,2026-03-03T1100,23,25,0.7,5,11,40,42,33,
安顺市,娄家坡,105.8983,26.248,2026-03-03T1100,24,26,0.6,7,16,39,41,35,
安阳市,红庙街,114.3552,36.1017,2026-03-03T1100,117,NA,0.9,19,NA,65,82,153,细颗粒物(PM2.5)
安阳市,银杏小区,114.361,36.0681,2026-03-03T1100,126,NA,0.9,19,2,66,83,166,细颗粒物(PM2.5)
安阳市,信访局,114.3921,36.0879,2026-03-03T1100,117,NA,0.9,18,3,69,89,153,细颗粒物(PM2.5)
安阳市,左辅环卫站,114.4706,36.0634,2026-03-03T1100,124,NA,0.7,13,NA,68,76,163,细颗粒物(PM2.5)
安阳市,钢三路198号,114.2918,36.0769,2026-03-03T1100,113,132,0.8,21,2,63,70,149,细颗粒物(PM2.5)
鞍山市,深沟寺,123.0441,41.1201,2026-03-03T1100,352,480,3.2,83,28,21,23,402,细颗粒物(PM2.5)
鞍山市,太阳城,123.011,41.0931,2026-03-03T1100,382,467,3.5,81,28,14,18,422,细颗粒物(PM2.5)
鞍山市,太平,123.0483,41.1445,2026-03-03T1100,338,433,3.5,78,34,13,22,388,细颗粒物(PM2.5)
鞍山市,铁西三道街,122.964,41.0968,2026-03-03T1100,425,592,3.4,90,28,19,24,492,颗粒物(PM10)
鞍山市,明达新区,123.0219,41.0822,2026-03-03T1100,386,487,2.9,71,34,17,22,424,细颗粒物(PM2.5)
鞍山市,兴盛南路290号,122.944647,41.082639,2026-03-03T1100,432,548,3.4,95,27,8,13,455,细颗粒物(PM2.5)
巴彦淖尔市,附二中,107.4206,40.7609,2026-03-03T1100,14,78,0.4,4,8,76,70,70,颗粒物(PM10)
巴彦淖尔市,市环保大楼,107.37,40.7372,2026-03-03T1100,30,90,0.4,6,6,78,73,79,颗粒物(PM10)
巴音郭楞蒙古自治州,孔雀公园,86.1476,41.7529,2026-03-03T1100,21,79,0.3,10,10,72,77,71,颗粒物(PM10)
巴音郭楞蒙古自治州,棉纺厂,86.1971,41.7166,2026-03-03T1100,22,88,/,10,/,73,77,78,颗粒物(PM10)
巴音郭楞蒙古自治州,经济开发区,86.236,41.7172,2026-03-03T1100,17,59,0.7,9,7,64,70,57,颗粒物(PM10)
德州市,监理站,116.2992,37.4449,2026-03-03T1100,142,188,1.1,38,4,30,44,189,细颗粒物(PM2.5)
德州市,九衢泉纯净水厂,116.2722,37.438,2026-03-03T1100,137,161,1.0,36,2,26,32,182,细颗粒物(PM2.5)
德州市,开发区人民医院,116.3693,37.44,2026-03-03T1100,144,173,0.8,25,10,29,38,192,细颗粒物(PM2.5)
德州市,陵城艺术中心,116.5687,37.3331,2026-03-03T1100,137,153,1.2,20,9,39,47,182,细颗粒物(PM2.5)
德州市,新河东路,116.352738,37.420875,2026-03-03T1100,128,161,1.0,26,9,30,35,169,细颗粒物(PM2.5)
迪庆藏族自治州,迪庆州站,99.7054,27.8319,2026-03-03T1100,34,NA,0.7,14,6,85,88,49,
迪庆藏族自治州,质量技术监督局,99.7122,27.8129,2026-03-03T1100,36,46,0.7,17,7,87,92,52,细颗粒物(PM2.5)
定西市,将台街,104.6092,35.5962,2026-03-03T1100,35,103,1.1,10,15,60,28,88,颗粒物(PM10)
定西市,正龙路62号,104.6159,35.5701,2026-03-03T1100,35,94,0.7,6,10,NA,33,NA,NA
定州市,交通局,114.9883,38.5232,2026-03-03T1100,104,122,1.0,NA,NA,69,87,140,细颗粒物(PM2.5)
定州市,第五中学,115.0045,38.5136,2026-03-03T1100,98,136,1.0,11,6,71,83,135,细颗粒物(PM2.5)
东莞市,东城石井,113.7943,23.0132,2026-03-03T1100,6,12,0.8,14,6,30,23,12,
东莞市,南城西平,113.7384,22.9659,2026-03-03T1100,3,9,0.8,NA,NA,28,17,NA,NA
东莞市,万江金泰,113.7283,23.041,2026-03-03T1100,3,8,1.0,10,5,29,23,10,
东莞市,裕兴路,113.8666,23.1062,2026-03-03T1100,3,8,1.0,9,7,32,27,10,
东莞市,教育路1号,114.0076,22.9739,2026-03-03T1100,3,11,0.8,14,4,30,26,11,
东莞市,长怡路1号,113.7981,22.8124,2026-03-03T1100,3,14,0.8,13,5,29,24,14,
东营市,市环保局,118.6612,37.4313,2026-03-03T1100,88,102,0.9,21,6,52,57,126,细颗粒物(PM2.5)
东营市,开发区管委会,118.6903,37.4337,2026-03-03T1100,101,NA,0.8,34,6,45,59,138,细颗粒物(PM2.5)
东营市,垦利区民丰路,118.5721,37.5654,2026-03-03T1100,118,127,0.9,35,10,39,53,155,细颗粒物(PM2.5)
东营市,河口城区,118.5063,37.8606,2026-03-03T1100,111,139,1.4,26,4,35,42,147,细颗粒物(PM2.5)
东营市,胜利站,118.4979,37.4623,2026-03-03T1100,99,131,1.0,26,6,42,49,136,细颗粒物(PM2.5)
东营市,理想之城,118.5753,37.4405,2026-03-03T1100,92,117,1.0,24,3,49,60,130,细颗粒物(PM2.5)
鄂尔多斯市,综合楼,110.0024,39.8127,2026-03-03T1100,36,256,0.4,16,9,74,80,153,颗粒物(PM10)
鄂尔多斯市,巴音孟克林场办事处,109.9485,39.8259,2026-03-03T1100,39,215,0.3,10,5,NA,81,137,颗粒物(PM10)
鄂尔多斯市,康泽苑,109.7734,39.5987,2026-03-03T1100,23,239,0.4,11,9,82,87,146,颗粒物(PM10)
惠州市,文华一路1号,114.4089,23.1147,2026-03-03T1100,6,9,/,8,/,38,32,12,
鸡西市,环保局,130.9618,45.2926,2026-03-03T1100,25,65,0.1,16,22,NA,32,NA,NA
鸡西市,第一中学,130.9294,45.2959,2026-03-03T1100,23,57,0.4,18,23,62,38,55,颗粒物(PM10)
鸡西市,欧美日汽修厂,131.0069,45.2988,2026-03-03T1100,19,35,0.7,9,11,71,33,35,
吉安市,红声器材厂,114.9753,27.0803,2026-03-03T1100,21,28,0.3,14,11,30,32,30,
吉安市,市环境监测站,114.9903,27.1313,2026-03-03T1100,19,24,/,10,7,38,40,28,
吉安市,青原区法院,115.009527,27.096792,2026-03-03T1100,21,28,0.7,14,8,38,36,30,
吉林市,哈达湾,126.54,43.8622,2026-03-03T1100,20,32,0.8,8,8,78,76,32,
吉林市,东局子,126.5843,43.8358,2026-03-03T1100,20,27,0.6,8,4,78,75,29,
吉林市,电力学院,126.5051,43.8243,2026-03-03T1100,19,24,0.5,7,6,79,78,28,
吉林市,江北,126.6133,43.8971,2026-03-03T1100,17,33,0.5,14,7,74,70,33,
吉林市,江南公园,126.5549,43.8304,2026-03-03T1100,18,30,0.5,8,8,76,75,30,
吉林市,九站,126.4737,43.953,2026-03-03T1100,21,35,0.8,12,14,NA,64,NA,NA
济南市,科干所,116.9866,36.6118,2026-03-03T1100,68,78,1.0,24,4,43,30,108,细颗粒物(PM2.5)
济南市,农科所,116.9379,36.6652,2026-03-03T1100,109,127,0.9,28,6,27,19,145,细颗粒物(PM2.5)
济南市,开发区,117.1265,36.6736,2026-03-03T1100,132,154,1.0,35,3,17,24,175,细颗粒物(PM2.5)
济南市,省种子仓库,117.0616,36.6865,2026-03-03T1100,136,180,0.8,34,3,20,23,180,细颗粒物(PM2.5)
济南市,机床二厂,116.9495185,36.644937,2026-03-03T1100,96,103,0.8,23,4,38,33,133,细颗粒物(PM2.5)
济南市,市监测站,117.0496,36.6629,2026-03-03T1100,143,178,0.9,39,3,13,22,190,细颗粒物(PM2.5)
济南市,长清党校,116.7674,36.5458,2026-03-03T1100,76,100,0.8,13,3,50,34,115,细颗粒物(PM2.5)
济南市,东山小学,117.5323,36.6865,2026-03-03T1100,69,85,0.8,26,2,41,31,109,细颗粒物(PM2.5)
济南市,泰兴公司,117.7181,36.205,2026-03-03T1100,45,58,1.1,22,6,77,NA,70,细颗粒物(PM2.5)
济南市,莱芜战役纪念馆,117.6861,36.2172,2026-03-03T1100,52,70,1.2,26,4,74,45,84,细颗粒物(PM2.5)
济南市,济阳区政府,117.1673,36.9782,2026-03-03T1100,94,105,0.5,20,4,36,36,131,细颗粒物(PM2.5)
济南市,锦屏中学,117.1168,36.6299,2026-03-03T1100,NA,NA,NA,NA,NA,NA,48,NA,NA
济南市,山财大街5号,117.7107,36.2385,2026-03-03T1100,42,56,1.1,32,9,68,45,64,细颗粒物(PM2.5)
济南市,无影山路12号,116.9744,36.6889,2026-03-03T1100,135,166,0.9,34,4,13,14,179,细颗粒物(PM2.5)
济宁市,火炬城,116.6229,35.4288,2026-03-03T1100,93,NA,0.9,21,3,47,34,130,细颗粒物(PM2.5)
济宁市,北湖一中,116.5808,35.3703,2026-03-03T1100,94,NA,0.8,22,4,43,38,131,细颗粒物(PM2.5)
绵阳市,绵阳市气象局,104.765114,31.453094,2026-03-03T1100,10,17,1.2,11,8,40,26,17,
牡丹江市,环保大楼,129.61,44.561,2026-03-03T1100,NA,78,NA,13,3,71,68,NA,NA
牡丹江市,机车工厂,129.6364,44.6075,2026-03-03T1100,3,32,0.4,6,7,75,63,32,
牡丹江市,第一中学,129.6386,44.5462,2026-03-03T1100,8,36,0.4,8,4,76,68,36,
牡丹江市,东晓云街98号,129.5992,44.5964,2026-03-03T1100,6,29,0.5,9,8,79,73,29,
内江市,市监测站,105.0703,29.61,2026-03-03T1100,33,44,0.6,14,5,38,24,48,
内江市,内江二中,105.0657,29.5807,2026-03-03T1100,27,47,0.6,24,7,34,20,47,
内江市,内江日报社,105.0407,29.5828,2026-03-03T1100,24,31,0.5,24,4,30,23,35,
内江市,玉峰路西段888号,105.0433,29.6105,2026-03-03T1100,28,31,0.5,16,5,38,22,40,
那曲市,那曲监测站,92.0653,31.4846,2026-03-03T1100,69,82,1.3,35,14,56,44,109,细颗粒物(PM2.5)
那曲市,那曲市委宣传部,92.0515,31.4787,2026-03-03T1100,17,36,0.8,14,8,55,44,36,
南昌市,省林业公司,115.8887,28.7006,2026-03-03T1100,18,19,0.6,12,4,68,48,26,
南昌市,林科所,115.813,28.7443,2026-03-03T1100,11,17,1.1,13,7,64,52,20,
南昌市,建工学校,115.8518,28.687,2026-03-03T1100,18,34,0.5,13,7,60,46,34,
南昌市,象湖,115.8926,28.6425,2026-03-03T1100,21,NA,0.9,14,8,61,46,30,
南昌市,机电学校,115.9084,28.6062,2026-03-03T1100,13,30,0.5,11,5,66,51,30,
南昌市,外国语学校,115.9718,28.7032,2026-03-03T1100,20,24,0.7,14,7,65,49,29,
南昌市,工业二路,115.7923,28.6873,2026-03-03T1100,12,24,0.6,15,4,67,56,24,
南昌市,南京东路235号,115.931587,28.686774,2026-03-03T1100,18,34,0.6,9,NA,66,52,NA,NA
南充市,南充市委,106.0791,30.8022,2026-03-03T1100,16,25,0.5,16,7,29,18,25,
南充市,南充炼油厂,106.1038,30.8215,2026-03-03T1100,17,30,0.6,11,5,30,16,30,
南充市,梨树横街98号,106.108336,30.788436,2026-03-03T1100,17,24,0.4,12,6,35,24,25,
南充市,清泉寺北路188号,106.1172,30.843,2026-03-03T1100,18,25,NA,NA,6,33,28,NA,NA
南充市,同庆路1号,106.067,30.7616,2026-03-03T1100,21,26,0.7,22,7,25,21,30,
南京市,迈皋桥,118.8033,32.1085,2026-03-03T1100,48,63,0.4,2,4,64,75,76,细颗粒物(PM2.5)
南京市,草场门,118.7487,32.057,2026-03-03T1100,51,66,0.6,24,7,60,72,82,细颗粒物(PM2.5)
南京市,中华门,118.770105,32.004342,2026-03-03T1100,47,56,0.5,9,5,60,65,74,细颗粒物(PM2.5)
南京市,瑞金路,118.8059,32.0329,2026-03-03T1100,55,56,0.8,28,3,64,64,90,细颗粒物(PM2.5)
南京市,玄武湖,118.7946,32.0774,2026-03-03T1100,46,58,0.5,23,6,58,61,72,细颗粒物(PM2.5)
南京市,浦口,118.6415,32.0964,2026-03-03T1100,51,63,0.7,16,4,56,58,82,细颗粒物(PM2.5)
南京市,奥体中心,118.730129,32.000956,2026-03-03T1100,45,61,0.6,22,7,59,70,70,细颗粒物(PM2.5)
南京市,仙林大学城,118.9072,32.1047,2026-03-03T1100,42,51,0.7,14,5,NA,63,NA,NA
南京市,江宁彩虹桥,118.8443,31.919,2026-03-03T1100,39,59,0.7,14,4,75,75,58,细颗粒物(PM2.5)
双鸭山市,南小市,131.1651,46.6191,2026-03-03T1100,7,27,0.4,5,4,68,35,27,
双鸭山市,环保局,131.1526,46.6554,2026-03-03T1100,10,28,0.4,10,6,68,29,28,
朔州市,平朔,112.4399,39.3521,2026-03-03T1100,56,214,0.1,8,4,73,59,137,颗粒物(PM10)
朔州市,朔唯,112.4574,39.362,2026-03-03T1100,47,200,/,5,6,74,57,131,颗粒物(PM10)
朔州市,区政府,112.426,39.3199,2026-03-03T1100,NA,NA,NA,5,5,NA,60,NA,NA
朔州市,市环保局,112.4075,39.3277,2026-03-03T1100,44,202,/,14,4,74,61,132,颗粒物(PM10)
朔州市,市二中,112.4273,39.3682,2026-03-03T1100,50,206,/,2,7,81,62,134,颗粒物(PM10)
朔州市,一水厂,112.2938,39.5296,2026-03-03T1100,52,247,0.4,6,2,82,60,149,颗粒物(PM10)
四平市,境园,124.3744,43.1842,2026-03-03T1100,169,250,1.0,28,9,39,20,219,细颗粒物(PM2.5)
四平市,植物园,124.4029,43.1411,2026-03-03T1100,186,281,1.1,32,12,57,37,236,细颗粒物(PM2.5)
四平市,世纪城,124.3286,43.1726,2026-03-03T1100,169,247,0.8,26,9,35,20,219,细颗粒物(PM2.5)
松原市,江南,124.8007,45.1213,2026-03-03T1100,64,104,0.5,24,1,26,42,104,细颗粒物(PM2.5)
松原市,江北,124.7967,45.1721,2026-03-03T1100,57,89,0.6,24,1,34,35,94,细颗粒物(PM2.5)
苏州市,轧钢厂,120.5974,31.3247,2026-03-03T1100,39,54,1.1,24,8,45,66,58,细颗粒物(PM2.5)
苏州市,吴中区,120.6329,31.2741,2026-03-03T1100,40,56,1.1,NA,8,NA,58,NA,NA
苏州市,苏州新区,120.5566,31.3049,2026-03-03T1100,45,53,0.9,23,7,48,68,70,细颗粒物(PM2.5)
苏州市,苏州工业园区,120.668709,31.312523,2026-03-03T1100,42,52,1.0,26,6,54,66,64,细颗粒物(PM2.5)
苏州市,相城区,120.6408,31.3707,2026-03-03T1100,40,54,1.1,23,6,NA,69,NA,NA
苏州市,方洲路,120.7431,31.3188,2026-03-03T1100,34,45,1.1,14,8,65,66,49,
苏州市,木渎中学,120.4979,31.2777,2026-03-03T1100,16,64,0.8,20,6,51,68,60,颗粒物(PM10)
苏州市,越秀幼儿园,120.642,31.1733,2026-03-03T1100,33,39,0.9,14,4,64,70,48,
苏州市,高铁新城,120.6502,31.4117,2026-03-03T1100,54,65,1.1,29,6,41,67,88,细颗粒物(PM2.5)
苏州市,学森路9号,120.4282,31.3228,2026-03-03T1100,48,58,0.8,28,NA,NA,61,NA,NA
宿迁市,宿迁学院,118.2924,33.933,2026-03-03T1100,29,47,0.4,17,6,77,54,47,
宿迁市,宿迁中学,118.2321,33.9572,2026-03-03T1100,27,32,0.4,4,3,89,63,39,
宿迁市,市供电局,118.2781,33.9658,2026-03-03T1100,24,29,0.4,3,4,87,61,35,
宿迁市,宿豫区政府,118.3243,33.95,2026-03-03T1100,34,36,0.4,9,7,82,59,49,
宿迁市,春华路,118.352,33.7886,2026-03-03T1100,42,47,0.8,8,4,73,52,64,细颗粒物(PM2.5)
宿州市,远航博物馆,116.9508,33.666,2026-03-03T1100,87,90,0.9,15,2,64,44,125,细颗粒物(PM2.5)
新乡市,环保东院,113.8836,35.3028,2026-03-03T1100,87,93,0.8,26,5,64,83,125,细颗粒物(PM2.5)
新乡市,市委党校,113.9194,35.2847,2026-03-03T1100,91,NA,NA,24,6,64,89,129,细颗粒物(PM2.5)
新乡市,市政府,113.9189,35.3042,2026-03-03T1100,104,113,0.8,25,4,67,89,140,细颗粒物(PM2.5)
新乡市,行政服务中心,113.9002,35.372,2026-03-03T1100,98,NA,0.9,22,7,65,73,135,细颗粒物(PM2.5)
新乡市,建设东路46号,113.916569,35.331547,2026-03-03T1100,88,93,0.6,18,9,67,80,126,细颗粒物(PM2.5)
新余市,飞宇,114.9887,27.8433,2026-03-03T1100,17,23,0,11,4,56,45,25,
新余市,第二水厂,114.9234,27.8248,2026-03-03T1100,16,18,0,4,9,54,46,23,
新余市,市气象局,114.931,27.8037,2026-03-03T1100,19,22,0,6,8,46,39,28,
新余市,新钢沁园村,114.9148,27.8069,2026-03-03T1100,18,27,0.6,11,10,52,46,27,
信阳市,平桥分局,114.1096,32.1059,2026-03-03T1100,34,39,0.6,12,5,68,70,49,
信阳市,南湾水厂,113.9956,32.1272,2026-03-03T1100,29,45,0.4,16,3,68,62,45,
信阳市,市酿酒公司,114.078,32.1194,2026-03-03T1100,38,48,0.6,12,4,64,64,56,细颗粒物(PM2.5)
信阳市,审计局,114.0712,32.1393,2026-03-03T1100,37,55,0.4,13,6,68,69,54,"颗粒物(PM10),细颗粒物(PM2.5)"
兴安盟,洮儿河南路,122.0921,46.065,2026-03-03T1100,24,27,0.4,6,3,70,64,35,
兴安盟,科尔沁北路63号,122.0383,46.0691,2026-03-03T1100,10,32,0.5,4,5,76,73,32,
邢台市,达活泉,114.4687,37.0883,2026-03-03T1100,125,150,1.2,20,4,46,60,165,细颗粒物(PM2.5)
邢台市,邢师高专,114.4954,37.0309,2026-03-03T1100,104,151,1.0,21,4,58,72,140,细颗粒物(PM2.5)
邢台市,路桥公司,114.5281,37.0857,2026-03-03T1100,129,130,0.9,22,1,53,67,170,细颗粒物(PM2.5)
邢台市,市环保局,114.4721,37.0713,2026-03-03T1100,129,148,1.1,17,4,51,68,170,细颗粒物(PM2.5)
邢台市,襄都区政府南院,114.5558,37.0578,2026-03-03T1100,133,139,0.9,25,3,57,68,176,细颗粒物(PM2.5)
徐州市,新城区,117.257,34.2161,2026-03-03T1100,62,76,0.7,17,8,62,36,102,细颗粒物(PM2.5)
徐州市,农科院,117.2933,34.2796,2026-03-03T1100,57,NA,0.6,18,9,69,34,94,细颗粒物(PM2.5)
徐州市,鼓楼区政府,117.1812,34.29,2026-03-03T1100,118,NA,1.3,25,8,41,37,155,细颗粒物(PM2.5)
徐州市,铜山区招生办,117.1693,34.1781,2026-03-03T1100,85,102,0.7,28,4,57,42,123,细颗粒物(PM2.5)
徐州市,大泉街道,117.4619,34.4368,2026-03-03T1100,48,70,0.6,21,9,64,36,76,细颗粒物(PM2.5)
徐州市,纺织东路16号,117.1553,34.2567,2026-03-03T1100,108,129,0.8,22,6,49,42,144,细颗粒物(PM2.5)
徐州市,解放南路202号,117.194237,34.229354,2026-03-03T1100,109,111,1.3,17,8,59,49,145,细颗粒物(PM2.5)
阿坝藏族羌族自治州,马师校,102.2503,31.8896,2026-03-03T1100,10,20,0.4,6,5,59,47,20,
阿坝藏族羌族自治州,马尔康中学西区,102.2174,31.9016,2026-03-03T1100,11,15,0.4,8,6,60,53,19,
阿克苏地区,电视台,80.2899,41.1684,2026-03-03T1100,93,405,1.4,30,10,36,69,279,颗粒物(PM10)
阿克苏地区,艺术中心,80.2592,41.1541,2026-03-03T1100,88,377,0.9,32,9,42,78,239,颗粒物(PM10)
阿拉善盟,蒙二幼,105.699,38.8409,2026-03-03T1100,8,66,0.5,10,13,76,71,62,颗粒物(PM10)
阿拉善盟,环保局新楼,105.7198,38.8508,2026-03-03T1100,14,76,0.6,NA,NA,76,74,NA,NA
阿勒泰地区,市站,88.1266,47.8515,2026-03-03T1100,3,6,0.3,19,4,86,89,27,
阿勒泰地区,阿勒泰路33号,88.1198,47.7931,2026-03-03T1100,3,16,0.3,36,7,59,83,19,
巴中市,市五中,106.776805,31.852614,2026-03-03T1100,19,21,1.2,23,8,20,15,28,
巴中市,圣泉水务公司,106.7419,31.8654,2026-03-03T1100,13,14,1.0,16,9,18,23,19,
巴中市,市中心医院,106.7617,31.8343,2026-03-03T1100,20,32,1.1,NA,NA,17,6,NA,NA
白城市,洮北区环保局,122.7909,45.608,2026-03-03T1100,20,25,0.3,9,7,64,64,29,
白城市,市环保局,122.8741,45.5725,2026-03-03T1100,24,29,0.4,8,5,65,63,35,
白山市,喜丰,126.4219,41.9172,2026-03-03T1100,11,42,0.8,7,13,78,66,42,
白山市,环保局,126.4082,41.9416,2026-03-03T1100,12,37,0.7,12,13,76,64,37,
白银市,第三小学,104.1727,36.5448,2026-03-03T1100,62,222,0.4,8,18,77,70,140,颗粒物(PM10)
白银市,动力公司,104.1467,36.5482,2026-03-03T1100,64,223,0.7,8,19,75,63,140,颗粒物(PM10)
百色市,市监测站,106.6102,23.901,2026-03-03T1100,3,6,0.6,8,9,41,34,13,
百色市,市中心血站,106.6524,23.8842,2026-03-03T1100,3,12,0.8,14,8,38,35,12,
百色市,龙景西路,106.6273,23.8798,2026-03-03T1100,3,6,0.6,7,9,31,26,10,
蚌埠市,工人疗养院,117.396,32.9389,2026-03-03T1100,64,74,0.8,17,3,66,40,104,细颗粒物(PM2.5)
蚌埠市,百货大楼,117.3606,32.9428,2026-03-03T1100,NA,NA,0.7,10,5,NA,35,NA,NA
蚌埠市,蚌埠学院,117.4183,32.8909,2026-03-03T1100,57,NA,0.7,13,4,70,42,94,细颗粒物(PM2.5)
蚌埠市,淮上区政府,117.3534,32.9672,2026-03-03T1100,61,NA,0.7,11,4,72,39,101,细颗粒物(PM2.5)
蚌埠市,高新区,117.3143,32.8977,2026-03-03T1100,63,NA,0.7,15,7,64,37,103,细颗粒物(PM2.5)
蚌埠市,蚌埠田家炳中学,117.3091,32.9314,2026-03-03T1100,56,71,0.7,12,3,68,36,92,细颗粒物(PM2.5)
包头市,市环境监测站,109.8761,40.6533,2026-03-03T1100,13,89,0.4,11,6,81,86,78,颗粒物(PM10)
包头市,包头八中,109.9992,40.5843,2026-03-03T1100,12,90,0.2,6,6,86,80,79,颗粒物(PM10)
包头市,惠龙物流,109.8641,40.6288,2026-03-03T1100,12,NA,NA,NA,9,84,88,NA,NA
包头市,东河鸿龙湾,110.0376,40.5546,2026-03-03T1100,18,111,0.6,10,11,86,78,94,颗粒物(PM10)
包头市,滨河大厦,109.9154,40.5684,2026-03-03T1100,NA,NA,0.4,9,6,NA,82,NA,NA
包头市,包头市委党校,109.9449,40.6259,2026-03-03T1100,14,72,0.5,6,7,88,83,66,颗粒物(PM10)
包头市,昆区政府,109.8332,40.6577,2026-03-03T1100,17,81,0.5,10,8,86,88,73,颗粒物(PM10)
宝鸡市,竹园沟,107.0802,34.3129,2026-03-03T1100,38,NA,0.8,11,7,20,10,56,细颗粒物(PM2.5)
宝鸡市,监测站,107.1429,34.3549,2026-03-03T1100,40,45,0.7,19,7,13,9,60,细颗粒物(PM2.5)
宝鸡市,技工学校,107.1172,34.3759,2026-03-03T1100,37,57,NA,20,NA,13,17,NA,NA
宝鸡市,文理学院,107.2025,34.3518,2026-03-03T1100,37,45,0.9,22,5,14,12,54,细颗粒物(PM2.5)
宝鸡市,三迪小学,107.2396,34.3626,2026-03-03T1100,42,52,1.0,28,6,11,14,64,细颗粒物(PM2.5)
宝鸡市,滨河北路,107.1721,34.3558,2026-03-03T1100,40,46,0.9,26,8,12,13,60,细颗粒物(PM2.5)
宝鸡市,陈仓区北开路21号,107.3898,34.3601,2026-03-03T1100,51,57,0.9,33,7,10,12,82,细颗粒物(PM2.5)
保定市,游泳馆,115.4803,38.8568,2026-03-03T1100,118,NA,0.7,22,2,71,77,155,细颗粒物(PM2.5)
保定市,华电二区,115.509,38.8895,2026-03-03T1100,100,NA,1.1,20,3,70,76,137,细颗粒物(PM2.5)
保定市,接待中心,115.4588,38.9037,2026-03-03T1100,97,120,0.7,10,2,65,72,134,细颗粒物(PM2.5)
保定市,地表水厂,115.4484,38.8344,2026-03-03T1100,106,125,NA,NA,4,70,89,142,细颗粒物(PM2.5)
保定市,满城区生态环境分局,115.3136,38.9511,2026-03-03T1100,100,117,0.5,22,4,55,70,137,细颗粒物(PM2.5)
保定市,清苑区第二中学,115.4709,38.7628,2026-03-03T1100,95,106,0.8,20,5,71,70,132,细颗粒物(PM2.5)
保定市,徐水物探局,115.6231,39.0223,2026-03-03T1100,116,126,0.8,18,3,64,64,152,细颗粒物(PM2.5)
保定市,双鹰农机,115.4199,38.8665,2026-03-03T1100,108,119,0.9,18,2,77,78,144,细颗粒物(PM2.5)
保定市,植保所站,115.515,38.8589,2026-03-03T1100,96,111,0.8,32,3,61,74,133,细颗粒物(PM2.5)
保山市,市环境监测站,99.1589,25.1137,2026-03-03T1100,36,68,0.2,16,1,82,77,63,颗粒物(PM10)
保山市,市环保局,99.1616,25.1381,2026-03-03T1100,37,70,0.6,15,4,81,92,65,颗粒物(PM10)
北海市,海滩公园,109.1435,21.4085,2026-03-03T1100,12,NA,1.4,9,2,42,33,18,
北海市,新市环保局,109.0983,21.466,2026-03-03T1100,10,10,0.6,9,6,43,34,15,
北海市,北海工业园,109.1775,21.5232,2026-03-03T1100,11,13,0.8,7,6,39,31,16,
北海市,龙潭自来水厂,109.1844,21.4396,2026-03-03T1100,11,17,1.5,5,7,NA,28,NA,NA
北京市,万寿西宫,116.3611,39.8786,2026-03-03T1100,126,135,1.2,26,2,49,45,166,细颗粒物(PM2.5)
北京市,东四,116.4174,39.9289,2026-03-03T1100,123,140,1.3,28,5,46,44,162,细颗粒物(PM2.5)
北京市,天坛,116.4073,39.8858,2026-03-03T1100,114,128,1.5,29,2,49,44,150,细颗粒物(PM2.5)
北京市,农展馆,116.4622,39.9364,2026-03-03T1100,122,127,1.3,24,5,51,53,160,细颗粒物(PM2.5)
北京市,官园,116.3399,39.9293,2026-03-03T1100,116,125,1.3,24,6,45,44,152,细颗粒物(PM2.5)
北京市,海淀万柳,116.2879,39.9613,2026-03-03T1100,100,106,1.1,25,3,45,43,137,细颗粒物(PM2.5)
北京市,顺义新城,116.6635,40.1349,2026-03-03T1100,114,126,1.3,16,5,69,46,150,细颗粒物(PM2.5)
北京市,怀柔镇,116.6275,40.327,2026-03-03T1100,98,109,1.3,20,4,38,31,135,细颗粒物(PM2.5)
北京市,昌平镇,116.2295,40.217,2026-03-03T1100,109,117,1.3,28,3,46,45,145,细颗粒物(PM2.5)
北京市,奥体中心,116.3968,39.982,2026-03-03T1100,103,120,1.3,19,5,47,43,140,细颗粒物(PM2.5)
北京市,密云新城,116.8336,40.4095,2026-03-03T1100,100,112,1.0,14,2,40,32,137,细颗粒物(PM2.5)
北京市,门头沟三家店,116.0879,39.9725,2026-03-03T1100,116,139,1.1,26,3,46,43,152,细颗粒物(PM2.5)
北京市,丰台云岗,116.1507,39.8246,2026-03-03T1100,119,142,1.1,22,3,53,52,156,细颗粒物(PM2.5)
北京市,房山燕山,115.9578,39.7602,2026-03-03T1100,117,131,1.1,18,3,48,45,153,细颗粒物(PM2.5)
北京市,大兴旧宫,116.4669,39.7734,2026-03-03T1100,108,125,1.0,21,4,57,52,144,细颗粒物(PM2.5)
北京市,延庆石河营,115.9859,40.4562,2026-03-03T1100,20,44,0.4,12,2,69,42,44,
北京市,怀柔新城,116.6151,40.3052,2026-03-03T1100,102,109,1.1,20,3,42,34,139,细颗粒物(PM2.5)
北京市,丰台小屯,116.2542,39.8764,2026-03-03T1100,126,141,1.0,28,4,46,40,166,细颗粒物(PM2.5)
北京市,密云镇,116.8399,40.3843,2026-03-03T1100,88,110,1.1,12,3,41,38,126,细颗粒物(PM2.5)
北京市,延庆百泉,115.9423,40.4431,2026-03-03T1100,18,38,0.4,12,1,66,32,38,
北京市,通州新华,116.6598,39.9164,2026-03-03T1100,112,120,1.2,27,2,55,49,148,细颗粒物(PM2.5)
北京市,石景山八角,116.1942,39.9158,2026-03-03T1100,111,140,0.9,21,8,46,44,147,细颗粒物(PM2.5)
北京市,平谷新城,117.078628,40.151726,2026-03-03T1100,97,107,0.9,20,2,48,36,134,细颗粒物(PM2.5)
本溪市,大峪,123.8274146,41.31234549,2026-03-03T1100,152,190,2.0,56,12,17,9,202,细颗粒物(PM2.5)
本溪市,彩屯,123.7169,41.3094,2026-03-03T1100,200,223,2.1,36,10,36,19,250,细颗粒物(PM2.5)
本溪市,东明,123.7672166,41.28649327,2026-03-03T1100,151,NA,2.6,38,12,32,17,201,细颗粒物(PM2.5)
本溪市,新立屯,123.799345,41.266614,2026-03-03T1100,67,NA,1.2,30,7,45,32,107,细颗粒物(PM2.5)
本溪市,威宁,123.829144,41.336777,2026-03-03T1100,203,266,2.2,55,7,13,9,253,细颗粒物(PM2.5)
毕节市,八中,105.287,27.3133,2026-03-03T1100,3,6,0.8,10,9,11,19,8,
毕节市,师专,105.3079,27.2987,2026-03-03T1100,NA,NA,NA,NA,NA,NA,NA,NA,NA
毕节市,工业大道,105.3688,27.3598,2026-03-03T1100,3,7,/,10,10,16,22,7,
滨州市,第二水厂,117.9961,37.3604,2026-03-03T1100,114,139,0.8,27,8,31,48,150,细颗粒物(PM2.5)
滨州市,北中新校,117.9789,37.3931,2026-03-03T1100,119,146,0.8,34,9,32,49,156,细颗粒物(PM2.5)
滨州市,中海酒店,117.9379,37.3959,2026-03-03T1100,110,134,0.9,29,7,42,47,146,细颗粒物(PM2.5)
滨州市,开发区一中,117.9381509,37.35547456,2026-03-03T1100,110,149,0.9,30,NA,31,49,146,细颗粒物(PM2.5)
滨州市,金海六路,118.0914,37.6938,2026-03-03T1100,125,149,1.3,32,5,50,30,165,细颗粒物(PM2.5)
滨州市,滨州市西街道办事处,117.9955,37.3752,2026-03-03T1100,114,144,0.6,23,11,36,56,150,细颗粒物(PM2.5)
亳州市,污水处理厂,115.8071,33.8399,2026-03-03T1100,69,72,0.3,15,3,59,64,109,细颗粒物(PM2.5)
亳州市,三国揽胜宫,115.7789,33.8519,2026-03-03T1100,76,91,0.5,10,4,58,61,115,细颗粒物(PM2.5)
亳州市,亳州学院,115.7631,33.803,2026-03-03T1100,63,87,0.5,13,3,62,65,103,细颗粒物(PM2.5)
博尔塔拉蒙古自治州,市党校,82.0482,44.8553,2026-03-03T1100,26,70,0.6,25,3,48,62,65,颗粒物(PM10)
博尔塔拉蒙古自治州,市环保局,82.0805,44.8966,2026-03-03T1100,24,58,0.8,23,3,47,62,56,颗粒物(PM10)
沧州市,沧县城建局,116.8733,38.2922,2026-03-03T1100,112,132,0.9,23,6,49,48,148,细颗粒物(PM2.5)
沧州市,电视转播站,116.8462,38.3189,2026-03-03T1100,135,NA,0.7,28,2,48,48,179,细颗粒物(PM2.5)
沧州市,市环保局,116.8588,38.3161,2026-03-03T1100,101,122,0.7,24,3,46,47,138,细颗粒物(PM2.5)
沧州市,河北水利电力学院,116.8011,38.294,2026-03-03T1100,132,149,0.8,21,5,46,45,175,细颗粒物(PM2.5)
昌都市,昌都监测站,97.1813,31.1289,2026-03-03T1100,19,42,0.8,17,4,66,61,42,
昌都市,昌都会议中心,97.1707,31.1428,2026-03-03T1100,8,18,0.6,5,6,67,65,21,
昌吉回族自治州,新区政务中心,87.2722,44.0298,2026-03-03T1100,34,46,0.5,12,7,78,64,49,
昌吉回族自治州,亚心广场,87.3069,44.0093,2026-03-03T1100,32,61,0.3,14,11,67,71,58,颗粒物(PM10)
昌吉回族自治州,财政所,87.2057,43.9289,2026-03-03T1100,44,83,0.6,19,6,56,62,74,颗粒物(PM10)
长春市,客车厂,125.2874,43.9024,2026-03-03T1100,138,NA,1.3,37,11,43,24,183,细颗粒物(PM2.5)
长春市,邮电学院,125.2943,43.8508,2026-03-03T1100,136,NA,1.2,35,12,46,37,180,细颗粒物(PM2.5)
长春市,劳动公园,125.3648,43.8745,2026-03-03T1100,97,98,1.2,34,10,38,31,134,细颗粒物(PM2.5)
长春市,园林处,125.3233,43.8781,2026-03-03T1100,124,NA,1.1,33,11,41,32,163,细颗粒物(PM2.5)
长春市,净月潭,125.4604,43.7904,2026-03-03T1100,67,NA,0.6,19,12,45,48,107,细颗粒物(PM2.5)
长春市,经开区环卫处,125.38,43.8422,2026-03-03T1100,85,NA,0.8,32,7,32,28,123,细颗粒物(PM2.5)
长春市,高新区管委会,125.234,43.7761,2026-03-03T1100,144,NA,1.2,34,11,42,36,192,细颗粒物(PM2.5)
长春市,岱山公园,125.1695,43.83,2026-03-03T1100,182,NA,1.3,34,8,32,27,232,细颗粒物(PM2.5)
长春市,北亚泰大街1068号,125.334645,43.916281,2026-03-03T1100,139,NA,1.3,46,12,27,19,185,细颗粒物(PM2.5)
长沙市,经开区环保局,113.082,28.2421,2026-03-03T1100,27,37,0.7,20,3,20,29,39,
长沙市,高开区环保局,112.8873,28.2202,2026-03-03T1100,51,NA,0.7,13,4,35,36,82,细颗粒物(PM2.5)
长沙市,马坡岭,113.0785,28.2012,2026-03-03T1100,41,44,0.9,18,4,23,29,62,细颗粒物(PM2.5)
长沙市,湖南师范大学,112.9448,28.1894,2026-03-03T1100,39,54,1.0,16,3,37,37,58,细颗粒物(PM2.5)
长沙市,雨花区环保局,113.0177,28.1322,2026-03-03T1100,32,41,1.2,21,NA,NA,26,NA,NA
长沙市,伍家岭,112.9795,28.2593,2026-03-03T1100,47,NA,1.0,15,4,30,32,74,细颗粒物(PM2.5)
长沙市,火车新站,113.002,28.1944,2026-03-03T1100,41,45,0.8,16,2,30,31,62,细颗粒物(PM2.5)
长沙市,天心区环保局,112.9846,28.1177,2026-03-03T1100,34,NA,0.5,15,5,NA,33,NA,NA
长沙市,湖南中医药大学,112.8906,28.1307,2026-03-03T1100,37,48,0.8,16,5,35,40,54,细颗粒物(PM2.5)
长治市,清华站,113.1146,36.1547,2026-03-03T1100,53,NA,1.1,15,6,58,64,86,细颗粒物(PM2.5)
长治市,审计局,113.0887,36.2126,2026-03-03T1100,53,NA,0.9,14,8,59,68,86,细颗粒物(PM2.5)
长治市,长治八中,113.0845,36.1856,2026-03-03T1100,50,NA,1.0,14,8,56,64,80,细颗粒物(PM2.5)
长治市,德盛苑,113.1561,36.1912,2026-03-03T1100,81,NA,1.1,18,12,54,71,120,细颗粒物(PM2.5)
长治市,向阳小学,113.0603,36.0464,2026-03-03T1100,47,64,1.1,21,11,70,71,74,细颗粒物(PM2.5)
长治市,屯留一中,112.8788,36.315,2026-03-03T1100,49,49,0.9,15,4,71,60,78,细颗粒物(PM2.5)
长治市,英华南巷50号,113.113092,36.199482,2026-03-03T1100,58,NA,1.1,12,7,58,68,96,细颗粒物(PM2.5)
长治市,学府街1号,113.23666,36.33435,2026-03-03T1100,85,NA,1.2,17,14,56,67,123,细颗粒物(PM2.5)
常德市,市二中,111.696,28.9725,2026-03-03T1100,24,28,0.8,7,NA,67,59,NA,NA
常德市,武陵区永安,111.7152,29.0288,2026-03-03T1100,22,32,0.7,12,5,64,57,32,
常德市,鼎城区玉霞,111.6891,28.9881,2026-03-03T1100,20,26,0.4,10,6,70,61,29,
常德市,武陵区长庚,111.6651,29.0526,2026-03-03T1100,19,31,0.8,8,5,70,59,31,
常州市,市监测站,119.9524,31.7586,2026-03-03T1100,37,51,0.7,18,6,57,63,54,细颗粒物(PM2.5)
常州市,武进监测站,119.9351,31.703,2026-03-03T1100,39,48,0.6,18,6,56,64,58,细颗粒物(PM2.5)
常州市,行政中心,119.9701,31.813,2026-03-03T1100,38,52,0.6,20,5,52,57,56,细颗粒物(PM2.5)
常州市,经开区,120.0434,31.7726,2026-03-03T1100,40,53,1.0,19,7,56,62,60,细颗粒物(PM2.5)
常州市,钟楼,119.8919,31.7892,2026-03-03T1100,40,49,0.3,22,7,54,61,60,细颗粒物(PM2.5)
常州市,武进经发区,119.8595,31.706,2026-03-03T1100,44,46,0.8,22,7,53,59,68,细颗粒物(PM2.5)
常州市,金坛城区,119.5812,31.7256,2026-03-03T1100,45,52,0.8,11,7,64,64,70,细颗粒物(PM2.5)
常州市,崇义南街5-H号,119.9551,31.863,2026-03-03T1100,34,39,0.6,15,6,56,58,49,
朝阳市,西梁,120.4318,41.588,2026-03-03T1100,141,143,1.1,29,13,40,22,188,细颗粒物(PM2.5)
朝阳市,河畔小区,120.452,41.565,2026-03-03T1100,104,104,1.3,26,9,47,39,140,细颗粒物(PM2.5)
朝阳市,八里堡,120.4176,41.5648,2026-03-03T1100,187,NA,1.5,40,10,34,36,237,细颗粒物(PM2.5)
潮州市,市政府,116.6179,23.6608,2026-03-03T1100,3,13,0.6,2,4,28,31,13,
潮州市,金山,116.646,23.676,2026-03-03T1100,9,18,0.9,7,2,21,25,18,
郴州市,市职中,113.0116,25.8228,2026-03-03T1100,18,30,0.8,NA,2,NA,25,NA,NA
郴州市,市审计局,113.0381,25.8074,2026-03-03T1100,16,16,/,12,3,16,24,23,
郴州市,市环保局,113.0348,25.7757,2026-03-03T1100,19,20,0.6,12,4,22,28,28,
郴州市,好美居路49号,113.0138,25.8011,2026-03-03T1100,16,NA,/,10,3,25,31,23,
成都市,金泉两河,103.9727,30.7242,2026-03-03T1100,19,35,0.5,15,2,39,29,35,
成都市,十里店,104.1423,30.6765,2026-03-03T1100,23,NA,0.6,21,4,40,32,33,
成都市,三瓦窑,104.0594,30.5765,2026-03-03T1100,22,NA,0.6,16,2,46,38,32,
成都市,沙河铺,104.1122,30.6306,2026-03-03T1100,22,22,0.9,33,3,33,27,32,
成都市,大石西路,104.0219,30.6561,2026-03-03T1100,22,25,0.4,20,5,46,38,32,
成都市,龙泉驿区区政府,104.2724,30.559,2026-03-03T1100,23,NA,0.6,15,6,44,27,33,
成都市,金博路,104.0028,30.6891,2026-03-03T1100,NA,8,0.7,20,6,44,33,NA,NA
成都市,华阳,104.056,30.5228,2026-03-03T1100,18,29,0.6,23,2,46,41,29,
成都市,青石路225号,104.387954,30.746684,2026-03-03T1100,28,28,0.9,14,4,52,23,40,
成都市,科学城,104.0788,30.4054,2026-03-03T1100,18,22,0.8,13,7,46,33,26,
成都市,光华大道三段,103.8505,30.6946,2026-03-03T1100,19,45,0.7,25,3,36,34,45,
成都市,八角井街185号,104.3257,30.6406,2026-03-03T1100,25,NA,0.6,14,4,45,25,36,
成都市,鲸龙路1057号,104.2433276,30.53529463,2026-03-03T1100,24,31,0.8,12,5,48,27,35,
承德市,铁路,117.9531,40.908,2026-03-03T1100,37,56,1.0,16,4,55,30,55,颗粒物(PM10)
承德市,中国银行,117.9397,40.9763,2026-03-03T1100,61,80,0.9,NA,6,57,32,101,细颗粒物(PM2.5)
承德市,杏林街1号,117.9462,40.95,2026-03-03T1100,48,58,0.9,14,11,56,34,76,细颗粒物(PM2.5)
承德市,滨河大街98号,117.7994,40.9605,2026-03-03T1100,23,32,0.8,15,27,62,44,33,
池州市,池州学院,117.4698,30.6617,2026-03-03T1100,34,39,0.7,16,4,59,46,49,
池州市,展览馆,117.4918,30.6617,2026-03-03T1100,36,44,0.6,14,2,62,46,52,细颗粒物(PM2.5)
池州市,第八中学,117.5626,30.695,2026-03-03T1100,28,36,0.6,16,3,62,41,40,
池州市,第十二中学,117.5037,30.6242,2026-03-03T1100,31,37,1.0,22,4,56,40,45,
赤峰市,松山一中,118.9229,42.2816,2026-03-03T1100,34,72,0.9,24,9,42,30,66,颗粒物(PM10)
赤峰市,哈达街,118.9588,42.2733,2026-03-03T1100,46,73,0.7,25,19,54,40,72,细颗粒物(PM2.5)
赤峰市,天义路,118.8792,42.2551,2026-03-03T1100,24,68,NA,18,10,65,37,NA,NA
赤峰市,银河街,119.2656,42.0356,2026-03-03T1100,81,100,1.2,20,25,52,45,120,细颗粒物(PM2.5)
赤峰市,桥北物流园区,118.9359,42.3146,2026-03-03T1100,54,63,0.8,22,8,59,44,88,细颗粒物(PM2.5)
崇左市,市环保局江州分局,107.3473,22.4137,2026-03-03T1100,12,23,0.8,9,4,33,32,23,
崇左市,石景林东路7号,107.375,22.3736,2026-03-03T1100,14,19,0.9,11,5,33,29,20,
滁州市,市政府原办公楼,118.31131,32.3033,2026-03-03T1100,53,NA,0.7,11,4,72,49,86,细颗粒物(PM2.5)
滁州市,图书馆,118.3268,32.2633,2026-03-03T1100,38,55,0.5,11,7,74,59,56,细颗粒物(PM2.5)
滁州市,银山路666号,118.3196,32.3335,2026-03-03T1100,48,NA,0.6,6,4,78,52,76,细颗粒物(PM2.5)
滁州市,黄山路555号,118.3426,32.2979,2026-03-03T1100,49,57,0.6,10,6,75,56,78,细颗粒物(PM2.5)
楚雄彝族自治州,市经济开发区,101.5379,25.0492,2026-03-03T1100,46,66,0.9,20,18,70,44,72,细颗粒物(PM2.5)
楚雄彝族自治州,团结路562号,101.5536,25.0343,2026-03-03T1100,36,58,0.9,22,12,69,60,56,颗粒物(PM10)
达州市,市环境监测站,107.5087,31.2186,2026-03-03T1100,3,16,0.2,16,8,44,24,16,
达州市,凤凰小区,107.4988,31.2132,2026-03-03T1100,3,12,0.3,15,7,42,27,14,
达州市,达县机关宾馆,107.5081,31.1987,2026-03-03T1100,3,14,0.5,23,7,NA,13,NA,NA
达州市,市政中心,107.4644,31.2124,2026-03-03T1100,3,21,0.4,16,11,45,25,21,
大理白族自治州,大理市环境监测站,100.2168,25.5818,2026-03-03T1100,31,46,0.6,10,7,95,98,46,
大理白族自治州,大理古城,100.1542,25.7055,2026-03-03T1100,34,55,0.6,9,8,95,82,54,颗粒物(PM10)
大连市,甘井子,121.6119,38.974,2026-03-03T1100,53,57,0.4,25,11,58,30,86,细颗粒物(PM2.5)
大连市,周水子,121.565,38.9509,2026-03-03T1100,43,64,0.5,17,11,65,27,66,细颗粒物(PM2.5)
大连市,星海三站,121.5637,38.8849,2026-03-03T1100,33,57,NA,12,6,56,22,NA,NA
大连市,青泥洼桥,121.6301,38.9117,2026-03-03T1100,42,49,0.7,15,9,74,38,64,细颗粒物(PM2.5)
大连市,傅家庄,121.6248,38.8643,2026-03-03T1100,41,47,0.2,11,10,76,48,62,细颗粒物(PM2.5)
大连市,七贤岭,121.5117,38.8636,2026-03-03T1100,34,49,0.9,13,6,75,47,49,
大连市,金州,121.7507,39.1339,2026-03-03T1100,76,86,0.6,32,17,42,36,115,细颗粒物(PM2.5)
大连市,开发区,121.7811,39.0495,2026-03-03T1100,56,75,0.7,36,6,53,36,92,细颗粒物(PM2.5)
大连市,双D港,121.9762,39.0631,2026-03-03T1100,NA,NA,NA,NA,NA,NA,55,NA,NA
大连市,旅顺,121.2548,38.8188,2026-03-03T1100,58,68,0.7,19,8,48,27,96,细颗粒物(PM2.5)
大庆市,大同区,124.8085,46.0381,2026-03-03T1100,38,63,0.7,12,11,51,48,60,颗粒物(PM10)
大庆市,龙凤区,125.1166,46.5255,2026-03-03T1100,24,65,0.3,17,5,52,52,61,颗粒物(PM10)
大庆市,红岗区,124.8894,46.4007,2026-03-03T1100,27,46,0.8,15,9,48,50,46,
大庆市,萨尔图区,125.1391,46.578,2026-03-03T1100,22,68,0.5,13,6,58,56,63,颗粒物(PM10)
大庆市,让胡路区,124.9026,46.6217,2026-03-03T1100,25,42,0.6,13,8,55,50,42,
大庆市,萨区政府监测点,125.127,46.6277,2026-03-03T1100,17,52,0.4,9,10,62,62,52,颗粒物(PM10)
大同市,云冈宾馆,113.2926,40.0759,2026-03-03T1100,11,114,0.2,7,4,76,65,96,颗粒物(PM10)
大同市,大同大学,113.3437,40.0921,2026-03-03T1100,14,141,0.3,6,3,84,73,109,颗粒物(PM10)
大同市,安家小村,113.2637,40.129,2026-03-03T1100,20,145,0.3,6,4,82,70,110,颗粒物(PM10)
大同市,大同市卫生学校,113.3399,40.0586,2026-03-03T1100,20,144,0.6,6,3,85,75,110,颗粒物(PM10)
大同市,云冈站,113.1371,40.1122,2026-03-03T1100,26,167,0.5,8,10,74,66,119,颗粒物(PM10)
大同市,图书馆,113.1186,40.2556,2026-03-03T1100,16,176,0.6,9,8,73,66,122,颗粒物(PM10)
大同市,区一中,113.5931,40.0459,2026-03-03T1100,24,146,0.1,NA,4,NA,58,110,颗粒物(PM10)
大同市,魏都大道141号,113.2798248,40.09972476,2026-03-03T1100,7,176,0.4,6,6,80,68,122,颗粒物(PM10)
大兴安岭地区,科技局,124.1068,50.4091,2026-03-03T1100,10,21,0.3,7,7,61,68,21,
大兴安岭地区,红旗社区,124.117,50.4279,2026-03-03T1100,3,7,0.2,2,7,75,81,24,
丹东市,江湾东路,124.33,40.0625,2026-03-03T1100,22,30,0.6,10,8,74,40,32,
丹东市,临江后街,124.4242,40.1513,2026-03-03T1100,34,39,0.7,14,12,63,37,49,
丹东市,元宝山,124.3935,40.1461,2026-03-03T1100,25,35,0.6,14,6,61,35,36,
丹东市,民主桥,124.3634,40.1093,2026-03-03T1100,36,42,0.8,16,8,63,43,52,细颗粒物(PM2.5)
儋州市,第一中学子站,109.5726195,19.51688767,2026-03-03T1100,34,42,0.4,6,6,32,42,49,
儋州市,东坡学校子站,109.5567,19.5187,2026-03-03T1100,33,39,0.6,7,4,32,41,48,
德宏傣族景颇族自治州,德宏州监测站,98.5611,24.4273,2026-03-03T1100,69,85,0.7,33,8,38,34,109,细颗粒物(PM2.5)
德宏傣族景颇族自治州,芒市人民政府综合楼,98.5887,24.4366,2026-03-03T1100,66,90,0.6,26,5,42,51,106,细颗粒物(PM2.5)
德阳市,东山公园,104.424,31.1209,2026-03-03T1100,27,37,0.8,20,4,32,15,39,
德阳市,西小区,104.3827,31.1318,2026-03-03T1100,34,64,0.9,35,6,21,5,60,颗粒物(PM10)
德阳市,耐火材料厂,104.3553,31.1091,2026-03-03T1100,43,60,0.9,36,4,20,7,66,细颗粒物(PM2.5)
德阳市,市林业局,104.4144,31.1495,2026-03-03T1100,28,40,0.9,20,6,32,8,40,
德州市,儿童乐园,116.3034,37.4675,2026-03-03T1100,145,178,0.9,33,9,25,36,193,细颗粒物(PM2.5)
鄂尔多斯市,华泰汽车城,109.8121,39.5987,2026-03-03T1100,26,224,0.3,10,6,86,89,140,颗粒物(PM10)
鄂尔多斯市,奥林花园,109.9734,39.7884,2026-03-03T1100,49,239,0.2,15,6,80,83,146,颗粒物(PM10)
鄂州市,市政府,114.894,30.3989,2026-03-03T1100,28,37,0.8,18,6,30,24,40,
鄂州市,赵家坝,114.8986,30.3714,2026-03-03T1100,28,34,0.6,13,7,39,28,40,
鄂州市,精准医疗中心,114.8093,30.4091,2026-03-03T1100,40,43,1.2,9,4,45,37,60,细颗粒物(PM2.5)
恩施土家族苗族自治州,湖北民院,109.4978,30.2979,2026-03-03T1100,3,19,0.6,14,6,26,33,19,
恩施土家族苗族自治州,龙凤新区,109.5061,30.3771,2026-03-03T1100,NA,NA,0.5,NA,7,NA,28,NA,NA
防城港市,沙万,108.3411,21.6159,2026-03-03T1100,7,14,0.8,7,6,37,34,14,
防城港市,防城档案局,108.3515,21.7733,2026-03-03T1100,11,NA,0.8,6,5,33,31,16,
防城港市,大海花园,108.3506,21.6414,2026-03-03T1100,11,NA,0.8,6,6,40,36,16,
佛山市,湾梁,113.1293,23.0065,2026-03-03T1100,8,12,/,18,/,26,23,12,
佛山市,华材职中,113.1082,23.0477,2026-03-03T1100,6,19,0.7,19,6,24,22,19,
佛山市,南海气象局,113.1439,23.045,2026-03-03T1100,6,11,/,20,/,28,23,11,
佛山市,顺德苏岗,113.2879,22.8094,2026-03-03T1100,6,10,0.9,17,/,26,21,10,
佛山市,高明孔堂,112.8384,22.8678,2026-03-03T1100,6,14,/,11,/,28,26,14,
佛山市,三水监测站,112.8835,23.1584,2026-03-03T1100,3,7,0.7,11,2,26,27,9,
佛山市,三水云东海,112.8668,23.185,2026-03-03T1100,3,6,/,13,/,27,27,9,
佛山市,容桂街道办,113.2568,22.7629,2026-03-03T1100,6,12,/,23,/,23,18,12,
福州市,师大,119.2681,26.0506,2026-03-03T1100,6,11,NA,NA,3,56,55,NA,NA
福州市,五四北路,119.2983,26.1028,2026-03-03T1100,3,8,0.4,14,4,57,54,18,
福州市,杨桥西路,119.2648,26.0769,2026-03-03T1100,3,11,/,15,4,56,54,18,
福州市,九龙,119.5799,26.0937,2026-03-03T1100,2,NA,0.5,8,NA,NA,68,NA,NA
福州市,吴航,119.5188,25.9666,2026-03-03T1100,10,16,0.5,9,4,67,67,21,
福州市,路通桥巷6号,119.3106,26.0648,2026-03-03T1100,10,11,/,12,/,57,54,18,
抚顺市,望花区,123.7974,41.8494,2026-03-03T1100,190,354,1.9,55,23,36,18,240,细颗粒物(PM2.5)
抚顺市,顺城区,123.9161,41.8827,2026-03-03T1100,235,309,2.0,64,22,31,21,285,细颗粒物(PM2.5)
抚顺市,东洲区,124.0437,41.8615,2026-03-03T1100,277,310,2.6,70,15,14,24,327,细颗粒物(PM2.5)
抚顺市,新抚区,123.9246,41.8638,2026-03-03T1100,246,372,2.6,61,19,28,19,296,细颗粒物(PM2.5)
抚顺市,大伙房水库,124.0972,41.8961,2026-03-03T1100,258,269,2.2,59,15,16,22,308,细颗粒物(PM2.5)
抚顺市,沈抚新城,123.708,41.8386,2026-03-03T1100,158,291,1.4,61,18,33,23,208,细颗粒物(PM2.5)
抚州市,市站,116.3544,27.9833,2026-03-03T1100,15,22,1.0,4,6,58,53,22,
抚州市,血防站,116.3562,27.9631,2026-03-03T1100,16,26,1.3,8,3,54,49,26,
抚州市,采茶剧团,116.3561,28.0007,2026-03-03T1100,17,20,0.9,2,10,52,48,25,
抚州市,医学分院,116.3854,27.9648,2026-03-03T1100,16,28,1.0,5,6,64,60,28,
阜新市,工业园区,121.6095,41.9978,2026-03-03T1100,120,NA,1.0,29,20,44,30,158,细颗粒物(PM2.5)
阜新市,长青街,121.6567,42.0188,2026-03-03T1100,100,109,1.2,33,17,37,32,137,细颗粒物(PM2.5)
阜新市,农业园区,121.6672,42.07,2026-03-03T1100,91,93,NA,NA,8,48,44,129,细颗粒物(PM2.5)
阜新市,玉龙新城,121.6343,42.0455,2026-03-03T1100,94,NA,1.3,29,15,46,31,131,细颗粒物(PM2.5)
阜阳市,市监测站,115.8276,32.8929,2026-03-03T1100,70,80,0.6,14,4,44,56,110,细颗粒物(PM2.5)
阜阳市,开发区,115.8551,32.8606,2026-03-03T1100,70,101,0.7,21,4,49,54,110,细颗粒物(PM2.5)
阜阳市,阜阳职业技术学院,115.783962,32.889217,2026-03-03T1100,70,NA,0.5,10,5,64,64,110,细颗粒物(PM2.5)
阜阳市,市规划展馆,115.79,32.8614,2026-03-03T1100,67,83,0.6,10,5,62,62,107,细颗粒物(PM2.5)
阜阳市,枣园社区,115.835101,32.918568,2026-03-03T1100,NA,NA,0.7,12,7,53,60,NA,NA
甘南藏族自治州,州政府,102.9097,34.9841,2026-03-03T1100,65,100,0.7,18,5,61,37,105,细颗粒物(PM2.5)
甘南藏族自治州,甘肃民族师范学院,102.8915,34.9618,2026-03-03T1100,71,129,0.6,33,36,49,36,110,细颗粒物(PM2.5)
甘孜藏族自治州,水桥子,101.96,30.048,2026-03-03T1100,3,6,0.5,15,6,52,56,17,
甘孜藏族自治州,州环保局,101.9534,29.9976,2026-03-03T1100,3,7,0.5,10,6,61,62,20,
赣州市,地委,114.9368,25.8663,2026-03-03T1100,20,NA,0.7,11,2,40,39,29,
赣州市,气象台,114.946,25.8483,2026-03-03T1100,34,NA,NA,12,6,42,37,NA,NA
赣州市,市图书馆,114.932,25.8332,2026-03-03T1100,18,20,0.5,12,5,44,43,26,
赣州市,华坚鞋城,114.8905,25.8472,2026-03-03T1100,13,22,0.4,14,5,35,37,22,
赣州市,赣县区卫计委,115.0094,25.8614,2026-03-03T1100,16,17,0.9,12,4,45,44,23,
固原市,监测站,106.2753,36.0057,2026-03-03T1100,28,108,0.4,9,9,54,34,92,颗粒物(PM10)
固原市,新区,106.2384,36.0189,2026-03-03T1100,28,118,0.5,12,8,60,22,99,颗粒物(PM10)
广安市,市委,106.6307,30.4577,2026-03-03T1100,47,53,0.7,20,7,30,18,74,细颗粒物(PM2.5)
广安市,友谊中学,106.6266,30.4662,2026-03-03T1100,38,43,0.8,17,12,34,20,56,细颗粒物(PM2.5)
广安市,广电花园,106.6386,30.4551,2026-03-03T1100,44,45,0.8,19,9,28,17,68,细颗粒物(PM2.5)
广安市,北辰小学,106.6347,30.4868,2026-03-03T1100,46,50,0.8,20,5,35,24,72,细颗粒物(PM2.5)
广元市,老城,105.8211,32.4444,2026-03-03T1100,6,25,0.8,16,6,49,52,25,
广元市,监测站,105.8629,32.429,2026-03-03T1100,7,31,0.9,NA,NA,40,49,NA,NA
广元市,经开区,105.8047,32.4167,2026-03-03T1100,10,16,0.7,14,4,49,49,16,
广州市,广雅中学,113.2346,23.1423,2026-03-03T1100,13,21,0.7,21,2,22,20,21,
广州市,市五中,113.2611,23.105,2026-03-03T1100,7,10,/,16,7,32,25,10,
广州市,广东商学院,113.3477,23.0916,2026-03-03T1100,3,9,1.0,13,4,30,27,10,
广州市,市八十六中,113.4332,23.105,2026-03-03T1100,9,9,/,14,5,33,29,13,
广州市,番禺中学,113.3506,22.9488,2026-03-03T1100,3,12,0.8,12,2,29,24,12,
广州市,花都师范,113.2147,23.3918,2026-03-03T1100,7,9,1.2,11,5,28,26,12,
广州市,市监测站,113.2599,23.1329,2026-03-03T1100,7,15,/,14,1,30,23,15,
广州市,九龙镇镇龙,113.5618,23.3119,2026-03-03T1100,3,6,0.8,7,5,32,26,10,
广州市,麓湖,113.2764,23.1544,2026-03-03T1100,6,11,0.8,10,NA,33,22,NA,NA
广州市,体育西,113.3209,23.1323,2026-03-03T1100,8,13,0.9,15,5,29,25,13,
广州市,从化街口,113.5718,23.5493,2026-03-03T1100,3,7,0.7,9,8,34,32,11,
广州市,白云竹料,113.3463,23.369,2026-03-03T1100,3,6,0.8,8,3,38,33,12,
广州市,白云嘉禾,113.2981,23.2365,2026-03-03T1100,6,8,/,NA,9,36,24,NA,NA
广州市,黄埔科学城,113.4256,23.1716,2026-03-03T1100,3,6,0.8,7,4,32,30,10,
广州市,番禺大学城,113.3942,23.0485,2026-03-03T1100,3,31,0.4,16,2,32,27,31,
广州市,南沙黄阁,113.4923,22.8169,2026-03-03T1100,6,15,/,17,6,26,18,15,
广州市,南沙街,113.534,22.7893,2026-03-03T1100,7,19,0.7,14,9,28,18,19,
广州市,花都梯面,113.2905,23.5541,2026-03-03T1100,6,11,/,5,8,26,22,11,
广州市,从化良口,113.786,23.7479,2026-03-03T1100,3,6,/,6,4,39,33,13,
广州市,增城荔城,113.805,23.2614,2026-03-03T1100,3,6,0.7,7,6,38,30,12,
贵港市,江南子站,109.604387,23.066791,2026-03-03T1100,6,17,0.7,11,4,52,47,17,
贵港市,荷城子站,109.5669,23.1065,2026-03-03T1100,7,17,0.7,10,6,54,50,17,
贵港市,新世纪学校,109.5886,23.1172,2026-03-03T1100,12,19,0.7,11,/,53,50,19,
贵港市,中山路155-3号,109.5933,23.095,2026-03-03T1100,14,16,0.8,NA,/,53,49,NA,NA
贵阳市,马鞍山,106.6863,26.6035,2026-03-03T1100,13,22,/,6,4,46,48,22,
贵阳市,鉴湖路,106.6241,26.6266,2026-03-03T1100,20,31,0.4,10,5,50,52,31,
贵阳市,燕子冲,106.7468,26.6344,2026-03-03T1100,17,19,0.6,11,6,47,53,25,
贵阳市,碧云窝,106.6556,26.4362,2026-03-03T1100,15,27,/,15,12,45,57,27,
贵阳市,红边门,106.6963,26.6063,2026-03-03T1100,11,24,/,15,6,50,54,24,
贵阳市,新华路,106.7162383,26.56964667,2026-03-03T1100,13,34,0.2,17,8,42,49,34,
贵阳市,太慈桥,106.6742,26.542,2026-03-03T1100,10,19,/,13,3,58,61,19,
贵阳市,花果园大街66号,106.688212,26.56952,2026-03-03T1100,17,22,/,12,2,49,53,25,
贵阳市,漓江路57号,106.687268,26.516892,2026-03-03T1100,13,22,0.7,16,7,47,57,22,
桂林市,龙隐路小学,110.3091,25.2705,2026-03-03T1100,23,NA,0.7,6,3,59,62,33,
桂林市,八中,110.2849361,25.22909545,2026-03-03T1100,17,NA,0.6,11,3,50,53,25,
桂林市,旅游学院,110.296,25.1254,2026-03-03T1100,15,NA,0.6,9,4,63,66,22,
桂林市,环湖路276号,110.1835,25.2444,2026-03-03T1100,3,14,0.7,6,3,52,55,17,
桂林市,信义路13号,110.2803,25.2773,2026-03-03T1100,9,13,0.8,7,3,51,57,16,
果洛藏族自治州,玛沁县大武镇,100.2262,34.4854,2026-03-03T1100,45,115,0.7,13,24,61,52,97,颗粒物(PM10)
哈尔滨市,松北商大,126.5557,45.8109,2026-03-03T1100,30,54,0.6,29,11,42,61,53,颗粒物(PM10)
哈尔滨市,南岗学府路,126.6162,45.719,2026-03-03T1100,26,56,0.4,22,10,51,61,55,颗粒物(PM10)
哈尔滨市,太平宏伟公园,126.6894,45.7733,2026-03-03T1100,18,74,0.7,32,11,40,52,68,颗粒物(PM10)
哈尔滨市,道外承德广场,126.6361,45.7672,2026-03-03T1100,34,412,0.5,NA,11,37,49,289,颗粒物(PM10)
哈尔滨市,动力和平路,126.644,45.7261,2026-03-03T1100,28,76,1.0,29,9,NA,58,NA,NA
哈尔滨市,道里建国路,126.5933,45.7479,2026-03-03T1100,27,63,0.7,34,12,48,50,60,颗粒物(PM10)
哈尔滨市,平房东轻厂,126.6127,45.6119,2026-03-03T1100,19,34,0.5,35,5,46,35,34,
哈尔滨市,呼兰师专,126.5875,45.9827,2026-03-03T1100,9,62,0.5,11,NA,55,59,NA,NA
哈尔滨市,省农科院,126.6299,45.6799,2026-03-03T1100,26,85,0.6,33,3,41,48,75,颗粒物(PM10)
哈尔滨市,华山路1号,126.6769,45.7379,2026-03-03T1100,25,80,0.7,28,16,45,59,72,颗粒物(PM10)
哈尔滨市,解放大街52号,126.9717,45.5356,2026-03-03T1100,6,24,0.5,11,15,77,57,25,
哈密市,地区监测站,93.5124,42.8176,2026-03-03T1100,23,45,0.7,18,7,52,43,45,
哈密市,哈密师范学校,93.5014,42.8312,2026-03-03T1100,28,72,1.0,22,26,50,36,66,颗粒物(PM10)
海北藏族自治州,海晏县西海镇,100.9016,36.9464,2026-03-03T1100,8,37,0.4,2,9,78,67,37,
海东市,平安区公安局北苑,102.074,36.5056,2026-03-03T1100,63,138,1.8,23,27,60,71,107,颗粒物(PM10)
海东市,滨河路,102.0984,36.5119,2026-03-03T1100,142,142,1.2,21,25,64,59,189,细颗粒物(PM2.5)
海口市,海南大学,110.3189,20.0596,2026-03-03T1100,11,17,0.3,12,5,24,25,17,
海口市,秀英海南医院,110.2827,20.0051,2026-03-03T1100,11,21,0.3,28,7,17,14,21,
海口市,海南师范大学,110.3391,19.9979,2026-03-03T1100,14,19,0.4,11,5,23,20,20,
海口市,龙华路环保局宿舍,110.3303,20.0359,2026-03-03T1100,16,30,0.3,NA,/,19,19,NA,NA
海口市,桂林洋子站,110.5111,19.9737,2026-03-03T1100,11,18,/,5,/,28,20,18,
海口市,长滨二路9号,110.1952,20.0451,2026-03-03T1100,10,18,/,23,/,19,16,18,
海南藏族自治州,共和县恰卜恰镇,100.6158,36.2985,2026-03-03T1100,23,68,0.3,4,12,82,55,63,颗粒物(PM10)
海西蒙古族藏族自治州,德令哈市,97.373,37.376,2026-03-03T1100,3,26,0.3,1,20,89,86,28,
邯郸市,矿院,114.492,36.5712,2026-03-03T1100,76,81,0.8,17,3,72,74,115,细颗粒物(PM2.5)
邯郸市,丛台公园,114.4839,36.6136,2026-03-03T1100,95,NA,0.8,14,5,71,85,132,细颗粒物(PM2.5)
邯郸市,香泉濮院小区,114.7893,36.5592,2026-03-03T1100,72,90,1.0,10,3,72,79,111,细颗粒物(PM2.5)
邯郸市,峰峰矿区临水派出所,114.1998,36.4439,2026-03-03T1100,96,NA,NA,NA,NA,62,71,133,细颗粒物(PM2.5)
邯郸市,建安街268号,114.5209,36.7697,2026-03-03T1100,103,NA,0.7,16,1,65,70,140,细颗粒物(PM2.5)
邯郸市,丛台东路558号,114.5488,36.6177,2026-03-03T1100,91,NA,0.8,8,3,79,77,129,细颗粒物(PM2.5)
汉中市,市监测站,107.0155,33.0707,2026-03-03T1100,18,25,0.7,14,6,36,31,26,
汉中市,鑫源开发区,107.0083,33.114,2026-03-03T1100,17,20,0.6,12,6,41,32,25,
汉中市,南郑大河坎水厂,107.0072,33.0323,2026-03-03T1100,21,45,0.9,16,6,29,18,45,
杭州市,滨江,120.2073,30.2111,2026-03-03T1100,31,39,0.1,20,7,62,64,45,
杭州市,西溪,120.0625,30.2737,2026-03-03T1100,30,33,0.6,11,8,67,66,43,
杭州市,下沙,120.3417,30.315,2026-03-03T1100,34,35,0.6,19,7,57,65,49,
杭州市,卧龙桥,120.1252,30.2465,2026-03-03T1100,30,38,0.5,13,6,64,66,43,
杭州市,浙江农大,120.1902,30.2691,2026-03-03T1100,30,46,0.6,14,5,67,68,46,
杭州市,和睦小学,120.1195,30.3121,2026-03-03T1100,35,43,0.6,14,4,66,66,50,
杭州市,临平镇,120.3076,30.4146,2026-03-03T1100,35,43,NA,11,6,65,73,NA,NA
杭州市,城厢镇,120.2753,30.1839,2026-03-03T1100,27,28,0.8,18,7,61,67,39,
杭州市,云栖,120.0883,30.1808,2026-03-03T1100,27,29,0.7,16,4,64,64,39,
杭州市,镇二中,119.9463,30.0496,2026-03-03T1100,23,NA,0.6,12,4,73,68,33,
杭州市,市府大楼,119.7184,30.2367,2026-03-03T1100,22,22,0.5,8,6,69,64,32,
杭州市,消防大队,120.1554,30.2863,2026-03-03T1100,36,NA,0.9,17,6,59,61,52,细颗粒物(PM2.5)
合肥市,明珠广场,117.1957,31.7845,2026-03-03T1100,51,61,0.9,13,5,64,40,82,细颗粒物(PM2.5)
合肥市,三里街,117.307,31.8765,2026-03-03T1100,59,63,0.8,16,5,56,41,98,细颗粒物(PM2.5)
合肥市,琥珀山庄,117.2587,31.8703,2026-03-03T1100,NA,80,NA,19,6,59,43,NA,NA
合肥市,庐阳区,117.2593,31.9376,2026-03-03T1100,64,66,0.9,13,2,63,43,104,细颗粒物(PM2.5)
合肥市,瑶海区,117.345251,31.861615,2026-03-03T1100,56,66,0.8,17,4,63,43,92,细颗粒物(PM2.5)
合肥市,包河区,117.3033,31.7967,2026-03-03T1100,57,70,0.9,28,7,51,32,94,细颗粒物(PM2.5)
合肥市,滨湖新区,117.278,31.7392,2026-03-03T1100,52,58,0.8,10,2,61,41,84,细颗粒物(PM2.5)
合肥市,高新区,117.1324,31.8395,2026-03-03T1100,62,70,0.8,15,4,56,41,102,细颗粒物(PM2.5)
合肥市,高教基地,117.3802,31.9148,2026-03-03T1100,59,66,0.7,NA,8,57,41,NA,NA
合肥市,中国科学技术大学,117.2518,31.8404,2026-03-03T1100,60,68,0.9,12,7,62,44,100,细颗粒物(PM2.5)
和田地区,地区环保局,79.9241,37.0878,2026-03-03T1100,98,552,0.6,12,4,61,66,452,颗粒物(PM10)
和田地区,市环保局,79.9132,37.1137,2026-03-03T1100,89,485,0.6,17,3,73,76,382,颗粒物(PM10)
河池市,市环保站,108.0496,24.6957,2026-03-03T1100,6,NA,0.6,4,3,45,44,15,
河池市,上任中路54号,108.0901,24.6945,2026-03-03T1100,3,7,0.5,8,5,45,42,15,
河源市,东埔,114.6962,23.7538,2026-03-03T1100,3,NA,0.9,6,5,42,33,14,
河源市,老城,114.6895,23.7232,2026-03-03T1100,3,20,0.8,6,6,41,34,20,
菏泽市,定陶老年大学,115.5562,35.089,2026-03-03T1100,85,92,0.5,12,3,69,62,123,细颗粒物(PM2.5)
菏泽市,黄河路600号,115.4239,35.2593,2026-03-03T1100,78,88,0.6,14,2,60,55,117,细颗粒物(PM2.5)
菏泽市,菏泽市人社局,115.5025,35.2727,2026-03-03T1100,106,110,0.8,17,3,55,53,142,细颗粒物(PM2.5)
菏泽市,永昌路1号,115.479691,35.244011,2026-03-03T1100,116,123,0.7,19,2,62,61,152,细颗粒物(PM2.5)
菏泽市,长城路999号,115.471542,35.280012,2026-03-03T1100,77,89,0.6,18,1,66,60,116,细颗粒物(PM2.5)
贺州市,环保小区,111.5264,24.4178,2026-03-03T1100,8,14,1.2,10,3,48,51,15,
贺州市,政协大楼,111.561,24.4074,2026-03-03T1100,10,NA,0.6,17,5,51,47,16,
贺州市,西湾,111.4744,24.455,2026-03-03T1100,7,13,0.9,10,4,46,47,15,
鹤壁市,市监测站,114.17,35.9019,2026-03-03T1100,118,134,1.0,22,6,53,70,155,细颗粒物(PM2.5)
鹤壁市,市交警支队,114.2953,35.7512,2026-03-03T1100,112,122,NA,25,4,50,72,148,细颗粒物(PM2.5)
鹤壁市,迎宾馆,114.2877,35.7302,2026-03-03T1100,111,122,1.1,14,4,61,72,147,细颗粒物(PM2.5)
鹤壁市,大新区,114.2616,35.6824,2026-03-03T1100,119,NA,1.0,23,5,68,63,156,细颗粒物(PM2.5)
鹤壁市,南山宾馆,114.1573,35.9607,2026-03-03T1100,122,132,0.9,28,1,56,63,160,细颗粒物(PM2.5)
鹤岗市,哈啤分公司,130.2537,47.3416,2026-03-03T1100,19,34,0.4,10,12,71,72,34,
鹤岗市,斯达机电,130.2683,47.3087,2026-03-03T1100,16,45,NA,NA,5,76,72,NA,NA
鹤岗市,东山纸板厂,130.3114,47.3388,2026-03-03T1100,3,44,0.6,11,8,74,70,44,
黑河市,交通局,127.4832,50.2524,2026-03-03T1100,10,12,0.3,14,6,70,72,22,
黑河市,环保局,127.5146,50.2339,2026-03-03T1100,3,9,0.4,11,9,65,62,21,
衡水市,电机北厂,115.6839,37.754,2026-03-03T1100,80,94,NA,17,NA,69,67,119,细颗粒物(PM2.5)
衡水市,市监测站,115.6303,37.7318,2026-03-03T1100,64,65,0.7,18,4,75,66,104,细颗粒物(PM2.5)
衡水市,市城管局,115.6684,37.7216,2026-03-03T1100,68,NA,0.7,21,7,67,68,108,细颗粒物(PM2.5)
衡水市,地表水厂,115.599,37.5491,2026-03-03T1100,77,NA,0.7,13,4,73,67,116,细颗粒物(PM2.5)
衡阳市,衡阳化工总厂,112.6209,26.9268,2026-03-03T1100,19,26,1.1,8,9,NA,39,NA,NA
衡阳市,珠晖区环保局,112.621,26.8957,2026-03-03T1100,14,23,1.2,16,4,31,34,23,
衡阳市,市委党校,112.628,26.8654,2026-03-03T1100,18,20,1.1,11,6,34,38,26,
衡阳市,市监测站,112.6007,26.8977,2026-03-03T1100,25,33,1.2,13,5,36,40,36,
衡阳市,真空机电公司,112.5658,26.9013,2026-03-03T1100,22,27,1.1,21,7,29,41,32,
衡阳市,师范学院,112.6703,26.8817,2026-03-03T1100,21,23,1.1,7,2,38,41,30,
红河哈尼族彝族自治州,州图书馆,103.3757,23.3679,2026-03-03T1100,58,67,0.5,8,5,109,94,96,细颗粒物(PM2.5)
红河哈尼族彝族自治州,蒙自市朝阳路,103.401,23.3561,2026-03-03T1100,51,60,0.3,10,7,117,92,82,细颗粒物(PM2.5)
呼和浩特市,呼市一监,111.6506,40.7517,2026-03-03T1100,3,39,0.3,10,6,88,85,39,
呼和浩特市,如意水处理厂,111.7516,40.8369,2026-03-03T1100,3,29,0.2,3,9,86,86,29,
呼和浩特市,二十九中,111.727798,40.806187,2026-03-03T1100,3,31,0.7,NA,NA,77,78,NA,NA
呼和浩特市,化肥厂生活区,111.717,40.7617,2026-03-03T1100,6,43,0.2,5,5,80,76,43,
呼和浩特市,海东办,111.6519,40.8389,2026-03-03T1100,3,24,0.2,4,3,87,83,28,
呼和浩特市,成吉思汗西街8号,111.591512,40.827312,2026-03-03T1100,3,39,0.4,NA,NA,73,73,NA,NA
呼和浩特市,公园东路75号,111.6597,40.8077,2026-03-03T1100,6,34,0.5,7,7,80,75,34,
呼和浩特市,金海路35号,111.5427,40.7846,2026-03-03T1100,3,33,0.3,6,5,79,74,33,
呼伦贝尔市,国华电力东,119.7511,49.1576,2026-03-03T1100,24,41,0.5,11,6,NA,90,NA,NA
呼伦贝尔市,伊敏大街东7号,119.7569,49.2222,2026-03-03T1100,19,39,0.5,10,7,79,81,39,
湖州市,城西水厂,120.075,30.867,2026-03-03T1100,51,58,0.7,17,5,68,74,82,细颗粒物(PM2.5)
湖州市,仁皇山新区,120.083,30.8929,2026-03-03T1100,42,53,0.7,15,5,66,73,64,细颗粒物(PM2.5)
湖州市,吴兴区站,120.1846,30.8592,2026-03-03T1100,48,NA,0.8,16,4,52,61,76,细颗粒物(PM2.5)
湖州市,南浔区站,120.4146,30.8538,2026-03-03T1100,33,38,0.7,15,7,66,76,48,
葫芦岛市,龙港区,120.904878,40.721091,2026-03-03T1100,84,92,0.9,32,13,48,42,122,细颗粒物(PM2.5)
葫芦岛市,化工街,120.8382,40.7521,2026-03-03T1100,86,124,0.9,40,15,48,26,124,细颗粒物(PM2.5)
葫芦岛市,新区,120.8339,40.7078,2026-03-03T1100,105,NA,1.1,43,16,37,35,141,细颗粒物(PM2.5)
葫芦岛市,东城区,120.8697,40.7679,2026-03-03T1100,92,NA,1.0,40,17,49,31,130,细颗粒物(PM2.5)
怀化市,河西地税局,109.9297,27.5383,2026-03-03T1100,21,24,/,10,3,51,52,30,
怀化市,市四医院,109.9783,27.5342,2026-03-03T1100,26,31,0.5,11,6,50,47,38,
怀化市,监测楼,109.9971,27.5579,2026-03-03T1100,26,27,0.3,12,2,56,55,38,
淮安市,钵池山,119.0566,33.5991,2026-03-03T1100,56,58,0.9,16,10,54,48,92,细颗粒物(PM2.5)
淮安市,北京南路,119.0083,33.578,2026-03-03T1100,58,63,0.8,16,6,47,43,96,细颗粒物(PM2.5)
淮安市,市监测站,118.9938,33.6083,2026-03-03T1100,59,NA,0.8,15,9,52,46,98,细颗粒物(PM2.5)
淮安市,楚州区监测站,119.135,33.5038,2026-03-03T1100,69,76,0.6,16,5,44,52,109,细颗粒物(PM2.5)
淮安市,新华书店,118.8757,33.2897,2026-03-03T1100,64,72,1.0,9,6,55,48,104,细颗粒物(PM2.5)
淮安市,枚皋中路89号,119.119691,33.550006,2026-03-03T1100,NA,88,NA,18,9,44,53,NA,NA
淮安市,承德北路606号,119.028838,33.631911,2026-03-03T1100,59,68,0.7,12,7,56,47,98,细颗粒物(PM2.5)
淮北市,监测站,116.8005,33.9749,2026-03-03T1100,112,142,0.9,18,4,51,49,148,细颗粒物(PM2.5)
淮北市,烈山区政府,116.8094,33.9008,2026-03-03T1100,123,130,0.7,24,3,41,48,162,细颗粒物(PM2.5)
淮北市,市博物馆,116.7926,33.9534,2026-03-03T1100,117,134,0.9,18,2,47,48,153,细颗粒物(PM2.5)
淮北市,杜集区第一实验学校,116.8322,33.9884,2026-03-03T1100,120,136,0.8,17,5,50,46,158,细颗粒物(PM2.5)
淮南市,潘集区政府,116.8304,32.7726,2026-03-03T1100,94,NA,0.7,16,4,38,42,131,细颗粒物(PM2.5)
淮南市,谢家集区政府,116.8569,32.5949,2026-03-03T1100,93,NA,0.8,19,6,40,42,130,细颗粒物(PM2.5)
淮南市,八公山区政府,116.8279,32.6333,2026-03-03T1100,94,97,0.7,17,4,44,43,131,细颗粒物(PM2.5)
淮南市,经济技术开发区消防队,117.0561,32.6536,2026-03-03T1100,82,92,0.6,18,4,40,41,120,细颗粒物(PM2.5)
淮南市,山南新区,117.011,32.5891,2026-03-03T1100,80,NA,0.6,17,5,50,44,119,细颗粒物(PM2.5)
淮南市,国庆中路369号,117.003137,32.644456,2026-03-03T1100,83,91,0.7,16,7,32,35,121,细颗粒物(PM2.5)
黄冈市,职工中心,114.9021,30.474,2026-03-03T1100,48,56,0.7,11,9,38,32,76,细颗粒物(PM2.5)
黄冈市,红卫路,114.8858,30.4519,2026-03-03T1100,40,43,0.6,13,5,32,28,60,细颗粒物(PM2.5)
黄冈市,市林业局,114.9134,30.4446,2026-03-03T1100,44,47,0.7,11,4,38,37,68,细颗粒物(PM2.5)
黄南藏族自治州,同仁县隆务镇,102.02,35.5101,2026-03-03T1100,19,58,0.2,2,8,76,70,56,颗粒物(PM10)
黄山市,延安路89号,118.2905,29.6965,2026-03-03T1100,16,21,0.5,6,4,76,62,24,
黄山市,黄山区政府5号楼,118.1369,30.2755,2026-03-03T1100,NA,NA,0.7,NA,NA,NA,64,NA,NA
黄山市,滨江东路7-2号,118.335445,29.720283,2026-03-03T1100,14,32,/,5,/,77,64,32,
黄石市,沈家营,115.0547,30.2332,2026-03-03T1100,NA,38,1.2,14,17,32,55,NA,NA
黄石市,铁山,114.899,30.211,2026-03-03T1100,NA,NA,NA,NA,NA,NA,43,NA,NA
黄石市,团城山,115.0259,30.2108,2026-03-03T1100,30,34,0.9,14,6,22,13,43,
黄石市,笔架山北路,115.0174,30.1591,2026-03-03T1100,30,48,0.9,25,7,12,6,48,
黄石市,磁湖东路29号,115.078022,30.21118,2026-03-03T1100,33,NA,0.8,10,13,28,23,48,
惠州市,河南岸金山湖子站,114.4181,23.0528,2026-03-03T1100,3,8,0.9,8,6,34,32,11,
惠州市,下埔横江三路子站,114.4055,23.0824,2026-03-03T1100,3,8,0.8,7,7,39,34,13,
惠州市,惠阳区承修路船湖子站,114.4645,22.7832,2026-03-03T1100,3,10,0.8,9,6,26,28,10,
惠州市,大亚湾管委会子站,114.5316,22.7423,2026-03-03T1100,3,8,0.8,7,2,22,27,8,
惠州市,惠阳秋长,114.4334,22.8134,2026-03-03T1100,6,9,/,8,/,30,33,10,
惠州市,大亚湾霞涌,114.6521,22.7755,2026-03-03T1100,7,NA,/,8,/,28,31,10,
济宁市,服务中心,116.8251,35.5592,2026-03-03T1100,104,138,0.6,33,2,24,19,140,细颗粒物(PM2.5)
济宁市,市第七中学,116.5907,35.4054,2026-03-03T1100,90,103,0.9,21,6,54,44,128,细颗粒物(PM2.5)
济宁市,任和路,116.6075,35.4566,2026-03-03T1100,89,111,0.8,22,3,43,33,127,细颗粒物(PM2.5)
济宁市,文体南路1号,116.5648,35.3921,2026-03-03T1100,88,123,0.6,21,1,52,41,126,细颗粒物(PM2.5)
济源市,市委党校,112.6071,35.1015,2026-03-03T1100,89,127,1.7,19,10,55,56,127,细颗粒物(PM2.5)
济源市,沁园中路1号,112.596,35.0702,2026-03-03T1100,64,93,2.1,20,8,58,53,104,细颗粒物(PM2.5)
佳木斯市,佳纺,130.2749,46.8028,2026-03-03T1100,11,29,0.5,11,5,60,50,29,
佳木斯市,环保局,130.3258,46.7975,2026-03-03T1100,15,33,0.3,15,8,58,56,33,
佳木斯市,顺和街,130.363,46.806,2026-03-03T1100,10,25,0.3,11,9,66,60,25,
佳木斯市,长安路196号,130.3952,46.8268,2026-03-03T1100,13,30,0.3,10,8,66,56,30,
嘉兴市,清河小学,120.7439,30.778,2026-03-03T1100,18,32,0.9,13,5,72,70,32,
嘉兴市,嘉兴学院,120.7261,30.7477,2026-03-03T1100,20,24,0.7,13,5,75,76,29,
嘉兴市,南湖区残联,120.7845,30.7524,2026-03-03T1100,19,22,0.7,11,3,76,74,28,
嘉兴市,秀洲住建,120.6915,30.7741,2026-03-03T1100,23,35,0.8,13,7,72,76,35,
嘉峪关市,气象局,98.291,39.7705,2026-03-03T1100,67,195,1.0,39,24,39,59,129,颗粒物(PM10)
嘉峪关市,酒钢宾馆,98.2672,39.7978,2026-03-03T1100,36,124,0.7,26,10,43,44,102,颗粒物(PM10)
嘉峪关市,雄关区,98.2644,39.7723,2026-03-03T1100,38,102,0.7,30,8,44,42,88,颗粒物(PM10)
江门市,北街,113.1063,22.6058,2026-03-03T1100,11,19,/,24,/,23,18,19,
江门市,西区,113.073,22.5835,2026-03-03T1100,8,12,/,18,/,23,19,12,
江门市,圭峰西,113.0218,22.531,2026-03-03T1100,8,19,/,NA,/,22,22,NA,NA
江门市,东湖,113.0826,22.5947,2026-03-03T1100,7,12,0.7,17,4,24,19,12,
江门市,江海富民,113.1077,22.5647,2026-03-03T1100,7,23,0.7,22,/,24,20,23,
江门市,新会银湖,113.0496,22.4669,2026-03-03T1100,NA,NA,NA,NA,NA,NA,47,NA,NA
焦作市,马村街道办,113.3137,35.2643,2026-03-03T1100,114,116,1.0,18,6,55,71,150,细颗粒物(PM2.5)
焦作市,焦作技师学院,113.2464,35.2374,2026-03-03T1100,115,125,1.3,20,8,52,70,150,细颗粒物(PM2.5)
焦作市,中站许衡医院,113.1656,35.2536,2026-03-03T1100,107,133,1.5,25,12,53,63,143,细颗粒物(PM2.5)
焦作市,原李万街道办,113.2456,35.18,2026-03-03T1100,76,79,0.9,14,8,51,70,115,细颗粒物(PM2.5)
焦作市,新安路1731号,113.234,35.219,2026-03-03T1100,101,109,1.0,22,8,59,74,138,细颗粒物(PM2.5)
焦作市,人民路3066号,113.2722,35.2121,2026-03-03T1100,101,119,NA,NA,6,58,80,138,细颗粒物(PM2.5)
揭阳市,新兴,116.3701,23.5345,2026-03-03T1100,6,14,0.8,12,5,25,28,14,
揭阳市,西马,116.3261,23.5442,2026-03-03T1100,3,15,0.6,8,4,27,27,15,
揭阳市,东兴,116.361,23.5627,2026-03-03T1100,7,19,/,9,3,25,26,19,
揭阳市,渔湖,116.4151,23.5295,2026-03-03T1100,NA,NA,/,NA,NA,NA,NA,NA,NA
揭阳市,曲溪,116.4028,23.5699,2026-03-03T1100,10,27,0.9,12,5,19,27,27,
金昌市,天庆家园,102.1691,38.5166,2026-03-03T1100,90,271,0.7,23,78,NA,72,161,颗粒物(PM10)
金昌市,金川区人防中心,102.1648,38.5369,2026-03-03T1100,98,256,0.7,20,82,81,76,153,颗粒物(PM10)
金昌市,长春路96号,102.193042,38.531887,2026-03-03T1100,72,250,0.6,27,120,65,74,150,颗粒物(PM10)
金华市,十五中,119.6478,29.0773,2026-03-03T1100,17,25,0.4,11,3,76,68,25,
金华市,监测站,119.6859,29.1032,2026-03-03T1100,19,25,0.4,10,1,NA,61,NA,NA
金华市,气象局,119.656,29.1132,2026-03-03T1100,20,29,0.4,12,2,67,54,29,
锦州市,南山,121.1114,41.0879,2026-03-03T1100,115,NA,1.1,43,15,46,38,150,细颗粒物(PM2.5)
锦州市,开发区,121.060361,40.842794,2026-03-03T1100,96,118,1.0,29,19,48,16,133,细颗粒物(PM2.5)
锦州市,百股街道,121.1836,41.1118,2026-03-03T1100,132,NA,1.1,41,13,44,39,175,细颗粒物(PM2.5)
锦州市,天安街道,121.1176,41.1224,2026-03-03T1100,105,NA,0.9,37,15,51,40,141,细颗粒物(PM2.5)
锦州市,北湖公园,121.1303,41.1385,2026-03-03T1100,121,132,1.1,NA,11,32,33,159,细颗粒物(PM2.5)
晋城市,自来水公司,112.8496,35.5051,2026-03-03T1100,46,64,1.7,10,7,63,30,72,细颗粒物(PM2.5)
晋城市,市环保局,112.8509,35.4886,2026-03-03T1100,NA,NA,NA,11,NA,69,33,NA,NA
晋城市,泽州一中,112.8258,35.4804,2026-03-03T1100,27,55,0.8,9,3,79,40,54,颗粒物(PM10)
晋城市,前书院路,112.8246,35.5152,2026-03-03T1100,13,46,0.8,10,6,69,30,46,
晋城市,祥云街666号,112.8864,35.4773,2026-03-03T1100,46,80,1.5,10,7,66,34,72,"颗粒物(PM10),细颗粒物(PM2.5)"
晋中市,榆次区政府,112.6992,37.6984,2026-03-03T1100,150,166,1.2,28,19,32,13,200,细颗粒物(PM2.5)
晋中市,榆次三中,112.7195,37.683,2026-03-03T1100,118,161,1.4,27,19,36,12,155,细颗粒物(PM2.5)
晋中市,广安街188号,112.7375,37.7215,2026-03-03T1100,132,170,1.2,28,14,30,14,175,细颗粒物(PM2.5)
晋中市,迎宾街26号,112.7478,37.6954,2026-03-03T1100,146,NA,1.5,26,22,36,20,195,细颗粒物(PM2.5)
荆门市,竹园小学,112.2012,31.048,2026-03-03T1100,39,57,0.7,14,1,82,66,58,细颗粒物(PM2.5)
荆门市,掇刀,112.1968,30.9892,2026-03-03T1100,54,60,0.8,9,6,93,78,88,细颗粒物(PM2.5)
荆门市,西山林语,112.1849,31.0361,2026-03-03T1100,42,55,0.8,12,3,84,71,64,细颗粒物(PM2.5)
荆门市,龙泉中学南校,112.1631,31.0134,2026-03-03T1100,NA,NA,NA,NA,NA,NA,NA,NA,NA
荆门市,新台西路6号,112.2213,31.0654,2026-03-03T1100,52,61,0.6,9,9,84,59,84,细颗粒物(PM2.5)
荆州市,市图书馆,112.2493,30.3198,2026-03-03T1100,27,33,0.7,11,6,75,58,39,
荆州市,市委党校,112.2009,30.3543,2026-03-03T1100,39,NA,0.6,12,6,67,52,58,细颗粒物(PM2.5)
荆州市,管委会,112.2749,30.3124,2026-03-03T1100,31,NA,0.7,13,8,70,56,45,
荆州市,学苑路85号,112.1722,30.3366,2026-03-03T1100,43,NA,0.8,27,1,75,60,66,细颗粒物(PM2.5)
景德镇市,老干部活动中心,117.2114,29.2931,2026-03-03T1100,3,6,0.6,3,4,58,49,19,
景德镇市,兽医站,117.1893,29.2789,2026-03-03T1100,3,20,0.5,4,3,62,53,20,
景德镇市,陶研所,117.246,29.2958,2026-03-03T1100,3,7,0.5,12,3,57,50,18,
景德镇市,青少年活动中心,117.154766,29.256967,2026-03-03T1100,3,9,/,5,3,52,47,17,
九江市,十里,115.9873,29.6816,2026-03-03T1100,23,27,0.5,13,5,86,51,33,
九江市,茅山头,115.9583,29.7047,2026-03-03T1100,30,31,0.6,6,4,NA,35,NA,NA
九江市,西园,115.9877,29.7295,2026-03-03T1100,29,NA,0.6,13,4,NA,40,NA,NA
九江市,综合工业园,115.9112,29.6038,2026-03-03T1100,21,NA,0.6,17,5,80,40,30,
九江市,外国语学校,116.0254,29.6995,2026-03-03T1100,25,NA,0.5,11,5,74,49,36,
九江市,莲花大道8号,116.010205,29.659402,2026-03-03T1100,23,28,0.3,9,3,79,53,33,
酒泉市,玉门东路5号,98.495752,39.733935,2026-03-03T1100,33,97,0.6,17,13,60,65,84,颗粒物(PM10)
酒泉市,北大街108号,98.5099,39.7506,2026-03-03T1100,36,114,0.6,11,15,68,70,96,颗粒物(PM10)
喀什地区,巡警大队,76.0071,39.466,2026-03-03T1100,97,313,1.1,48,9,22,48,182,颗粒物(PM10)
喀什地区,吾办,75.9756,39.4693,2026-03-03T1100,118,336,1.2,43,16,16,41,193,颗粒物(PM10)
喀什地区,老干局,75.9485,39.4688,2026-03-03T1100,91,382,1.1,38,6,16,45,246,颗粒物(PM10)
开封市,肿瘤医院,114.3389,34.778,2026-03-03T1100,82,NA,1.0,21,9,75,74,120,细颗粒物(PM2.5)
开封市,世纪星幼儿园,114.2884,34.7966,2026-03-03T1100,83,NA,0.9,20,8,74,77,121,细颗粒物(PM2.5)
开封市,龙亭公园,114.3434,34.8101,2026-03-03T1100,72,88,0.9,23,8,77,77,111,细颗粒物(PM2.5)
开封市,汴京公园,114.3645,34.7955,2026-03-03T1100,56,87,0.9,20,4,78,70,92,细颗粒物(PM2.5)
开封市,技师学院,114.2485,34.8306,2026-03-03T1100,77,80,1.1,17,8,75,82,116,细颗粒物(PM2.5)
开封市,祥符区生态环境局,114.4518,34.7503,2026-03-03T1100,62,78,0.9,16,6,107,122,102,细颗粒物(PM2.5)
克拉玛依市,长征新村,84.886,45.6029,2026-03-03T1100,29,80,0.8,32,20,53,78,72,颗粒物(PM10)
克拉玛依市,南林小区,84.8894,45.5827,2026-03-03T1100,12,70,0.5,10,11,67,79,65,颗粒物(PM10)
克拉玛依市,独山子区,84.896,44.3328,2026-03-03T1100,48,76,0.6,10,3,89,75,76,细颗粒物(PM2.5)
克拉玛依市,乌尔禾区商贸楼,85.6888,46.0909,2026-03-03T1100,25,54,0.9,26,12,30,49,53,颗粒物(PM10)
克拉玛依市,白碱滩区新站,85.1045,45.6895,2026-03-03T1100,3,20,0.3,31,11,32,63,20,
克孜勒苏柯尔克孜自治州,市人民政府,76.1457,39.7143,2026-03-03T1100,79,304,0.3,16,4,46,58,177,颗粒物(PM10)
克孜勒苏柯尔克孜自治州,克州文化中心,76.1654,39.7157,2026-03-03T1100,83,309,0.8,38,7,24,56,180,颗粒物(PM10)
昆明市,呈贡新区,102.8203,24.889,2026-03-03T1100,31,51,0.7,15,4,113,80,51,颗粒物(PM10)
昆明市,龙泉镇,102.7253,25.0904,2026-03-03T1100,41,55,0.6,26,8,75,48,62,细颗粒物(PM2.5)
昆明市,东风东路,102.7267,25.0378,2026-03-03T1100,46,71,0.7,29,NA,NA,76,NA,NA
昆明市,金鼎山,102.6744,25.0671,2026-03-03T1100,41,54,0.8,35,7,82,68,62,细颗粒物(PM2.5)
昆明市,碧鸡广场,102.6643,25.0401,2026-03-03T1100,47,75,0.6,32,9,79,73,74,细颗粒物(PM2.5)
昆明市,官渡区博物馆,102.7491,25.012,2026-03-03T1100,50,77,0.7,29,9,92,52,80,细颗粒物(PM2.5)
昆明市,青年创业园,102.8016,24.8336,2026-03-03T1100,41,61,0.7,11,6,106,64,62,细颗粒物(PM2.5)
昆明市,昆明学院,102.8,24.9787,2026-03-03T1100,NA,NA,NA,NA,NA,NA,135,NA,NA
昆明市,晋宁区生态环境分局,102.5969,24.6738,2026-03-03T1100,34,42,0.5,13,3,115,84,49,
昆明市,云天化总部,102.6673,24.9861,2026-03-03T1100,34,72,0.6,12,10,102,65,66,颗粒物(PM10)
拉萨市,八廓街,91.132,29.6515,2026-03-03T1100,23,37,0.8,14,4,84,98,37,
拉萨市,市环保局,91.1221,29.6748,2026-03-03T1100,20,30,0.5,19,4,66,74,30,
拉萨市,区监测站,91.0874,29.6476,2026-03-03T1100,13,16,0.6,10,4,86,89,27,
拉萨市,西藏大学,91.1774,29.6541,2026-03-03T1100,6,14,0.5,8,3,82,89,26,
拉萨市,区辐射站,90.9798,29.6586,2026-03-03T1100,60,68,0.7,33,5,NA,77,NA,NA
拉萨市,拉萨火车站,91.0831,29.6292,2026-03-03T1100,14,19,0.6,15,3,76,81,24,
来宾市,来宾技工学校,109.2203,23.7252,2026-03-03T1100,3,15,0.8,6,8,47,40,15,
来宾市,兴宾区政府,109.1781,23.7293,2026-03-03T1100,3,11,0.7,10,6,56,49,18,
来宾市,中南小学,109.2312,23.7428,2026-03-03T1100,7,16,0.7,8,5,47,40,16,
兰州市,铁路设计院,103.8309,36.0467,2026-03-03T1100,NA,NA,NA,NA,NA,NA,NA,NA,NA
兰州市,百合公园,103.7439,36.0841,2026-03-03T1100,76,220,0.8,36,16,46,55,139,颗粒物(PM10)
兰州市,和平,103.9613,35.9985,2026-03-03T1100,73,274,1.0,16,25,62,68,162,颗粒物(PM10)
兰州市,庄浪东路808号,103.629272,36.093822,2026-03-03T1100,84,222,0.6,16,28,NA,67,140,颗粒物(PM10)
兰州市,安宁西路88号,103.7251,36.104344,2026-03-03T1100,78,252,0.5,16,28,72,66,151,颗粒物(PM10)
兰州市,北滨河东路1号,103.846982,36.067567,2026-03-03T1100,80,238,0.6,32,18,59,61,146,颗粒物(PM10)
廊坊市,药材公司,116.6712,39.5109,2026-03-03T1100,NA,NA,0.8,16,3,NA,45,NA,NA
廊坊市,开发区,116.7215,39.5592,2026-03-03T1100,107,116,0.8,20,3,72,56,143,细颗粒物(PM2.5)
廊坊市,北华航天学院,116.7246,39.5273,2026-03-03T1100,108,118,0.8,15,2,70,55,144,细颗粒物(PM2.5)
廊坊市,河北工业大学,116.7022,39.5454,2026-03-03T1100,107,119,0.8,12,3,68,53,143,细颗粒物(PM2.5)
乐山市,牛耳桥,103.7629,29.5844,2026-03-03T1100,21,25,0.8,31,6,17,28,30,
乐山市,市第三水厂,103.7501,29.6002,2026-03-03T1100,20,21,0.9,23,3,NA,31,NA,NA
乐山市,市监测站,103.7571,29.5664,2026-03-03T1100,22,NA,1.0,19,6,28,29,32,
乐山市,理工大学,103.7313,29.563,2026-03-03T1100,18,18,1.0,14,8,24,25,26,
丽江市,丽江古城,100.2497,26.8802,2026-03-03T1100,27,63,0.6,16,12,104,98,60,颗粒物(PM10)
丽江市,市中心,100.2203,26.8906,2026-03-03T1100,17,32,0.5,15,8,107,101,34,
丽水市,监测站大楼,119.9141,28.4513,2026-03-03T1100,13,14,0.3,5,4,71,68,23,
丽水市,莲都小学,119.93,28.4589,2026-03-03T1100,12,17,/,NA,/,71,69,NA,NA
丽水市,余庄前,119.8794,28.4232,2026-03-03T1100,14,18,0.3,6,4,71,64,23,
连云港市,市环境监测站,119.1759,34.5885,2026-03-03T1100,53,61,0.7,23,7,56,54,86,细颗粒物(PM2.5)
连云港市,德源药业,119.3577,34.6971,2026-03-03T1100,53,63,1.0,16,5,64,66,86,细颗粒物(PM2.5)
连云港市,新城一中,119.178,34.8442,2026-03-03T1100,53,59,1.3,21,8,67,58,86,细颗粒物(PM2.5)
连云港市,胡沟管理处,119.3607,34.7519,2026-03-03T1100,58,61,1.2,12,13,62,66,96,细颗粒物(PM2.5)
连云港市,矿山设计院,119.1478,34.5913,2026-03-03T1100,51,63,0.8,19,8,58,54,82,细颗粒物(PM2.5)
连云港市,工贸学校,119.2414,34.6539,2026-03-03T1100,54,60,1.0,22,9,56,61,88,细颗粒物(PM2.5)
连云港市,连云街道,119.4171,34.734,2026-03-03T1100,61,73,0.6,26,7,53,60,101,细颗粒物(PM2.5)
凉山彝族自治州,西昌市政府,102.2629,27.8981,2026-03-03T1100,3,16,0.7,4,7,46,56,16,
凉山彝族自治州,凉山州政府,102.2686,27.885,2026-03-03T1100,3,10,0.6,6,8,42,54,14,
凉山彝族自治州,凯乐南路30号,102.2342,27.8859,2026-03-03T1100,3,12,0.7,12,11,47,54,15,
辽阳市,宏伟区,123.1978,41.2036,2026-03-03T1100,398,444,3.6,63,22,26,25,432,细颗粒物(PM2.5)
辽阳市,新华园,123.1684,41.2497,2026-03-03T1100,399,451,3.1,79,30,20,27,433,细颗粒物(PM2.5)
辽阳市,滨河路,123.2355,41.2663,2026-03-03T1100,347,406,3.2,75,16,6,20,397,细颗粒物(PM2.5)
辽阳市,铁西路150号,123.153,41.2874,2026-03-03T1100,334,373,2.3,68,24,21,25,384,细颗粒物(PM2.5)
辽源市,环保局,125.1359,42.8845,2026-03-03T1100,NA,69,1.6,21,7,NA,42,NA,NA
辽源市,安宁大街333号,125.0998,42.9134,2026-03-03T1100,140,176,1.3,23,10,62,40,186,细颗粒物(PM2.5)
聊城市,区政府,115.9789,36.4372,2026-03-03T1100,75,91,0.9,16,10,55,52,114,细颗粒物(PM2.5)
聊城市,监控中心,115.9772,36.4986,2026-03-03T1100,73,81,0.8,16,8,55,45,112,细颗粒物(PM2.5)
聊城市,九州社区,116.0443,36.436,2026-03-03T1100,72,88,0.9,2,3,57,49,111,细颗粒物(PM2.5)
聊城市,星美广场,116.0564,36.4609,2026-03-03T1100,83,94,0.8,10,2,57,50,121,细颗粒物(PM2.5)
聊城市,利民路,116.0091,36.4495,2026-03-03T1100,76,87,0.8,NA,NA,NA,51,115,细颗粒物(PM2.5)
林芝市,林芝监测站,94.3683,29.6373,2026-03-03T1100,3,9,0.5,6,4,80,100,25,
林芝市,林芝人民医院,94.3616,29.6634,2026-03-03T1100,NA,NA,NA,NA,NA,NA,NA,NA,NA
临沧市,市环保局,100.0779,23.8981,2026-03-03T1100,42,57,0.6,9,8,70,59,64,细颗粒物(PM2.5)
临沧市,市气象局,100.0894,23.882,2026-03-03T1100,44,55,0.4,10,7,81,66,68,细颗粒物(PM2.5)
临汾市,临钢医院,111.5552,36.0791,2026-03-03T1100,64,73,1.5,19,11,42,20,104,细颗粒物(PM2.5)
临汾市,技工学校,111.4984,36.0734,2026-03-03T1100,73,NA,1.6,23,12,38,12,112,细颗粒物(PM2.5)
临汾市,市委,111.5017,36.0857,2026-03-03T1100,64,89,1.5,18,8,39,12,104,细颗粒物(PM2.5)
临汾市,唐尧大酒店,111.5048,36.1015,2026-03-03T1100,59,78,1.5,22,10,36,11,98,细颗粒物(PM2.5)
临汾市,启星学校,111.4879,36.053,2026-03-03T1100,65,NA,1.7,NA,NA,37,19,105,细颗粒物(PM2.5)
临夏回族自治州,滨河东路1号,103.2464,35.6123,2026-03-03T1100,87,214,0.7,19,12,63,42,137,颗粒物(PM10)
临夏回族自治州,新华街21号,103.207136,35.599807,2026-03-03T1100,75,225,0.1,12,11,60,51,141,颗粒物(PM10)
临沂市,沂河小区,118.3429,35.0532,2026-03-03T1100,39,48,0.5,16,8,66,74,58,细颗粒物(PM2.5)
临沂市,鲁南制药厂,118.2962,35.0568,2026-03-03T1100,NA,NA,NA,NA,NA,NA,69,NA,NA
临沂市,新光毛纺厂,118.2793,34.9976,2026-03-03T1100,46,46,0.7,13,9,69,75,72,细颗粒物(PM2.5)
临沂市,河东保险公司,118.3955,35.0889,2026-03-03T1100,37,51,0.5,20,8,71,79,54,细颗粒物(PM2.5)
临沂市,十里堡居委,118.3563,35.0215,2026-03-03T1100,35,36,0.8,17,7,75,81,50,
临沂市,南坊新区,118.359,35.1067,2026-03-03T1100,37,39,1.0,15,7,73,79,54,细颗粒物(PM2.5)
临沂市,皇山花园小区,118.3915,35.0297,2026-03-03T1100,37,41,0.8,19,10,77,83,54,细颗粒物(PM2.5)
柳州市,柳东小学,109.4854,24.3898,2026-03-03T1100,9,12,0.7,5,4,47,47,15,
柳州市,环保监测站,109.4109,24.3304,2026-03-03T1100,3,11,0.7,12,4,47,42,15,
柳州市,河西水厂,109.3886,24.3408,2026-03-03T1100,3,17,0.9,12,8,49,35,17,
柳州市,市四中,109.4263,24.2951,2026-03-03T1100,3,9,0.9,7,6,48,43,15,
柳州市,市九中,109.396,24.3658,2026-03-03T1100,3,14,0.6,6,7,43,36,14,
柳州市,古亭山,109.4912,24.3164,2026-03-03T1100,7,199,0.5,5,6,45,50,131,颗粒物(PM10)
柳州市,市二中,109.5422,24.3994,2026-03-03T1100,6,19,0.6,9,6,45,55,19,
六安市,监测大楼,116.5078,31.7369,2026-03-03T1100,89,91,0.6,14,3,39,42,127,细颗粒物(PM2.5)
六安市,皖西学院,116.4738,31.7642,2026-03-03T1100,85,98,0.5,14,3,45,48,123,细颗粒物(PM2.5)
六安市,朝阳厂,116.4997,31.7904,2026-03-03T1100,93,97,0.7,14,4,46,48,130,细颗粒物(PM2.5)
六安市,开发区,116.5566,31.7885,2026-03-03T1100,84,89,NA,NA,4,42,46,122,细颗粒物(PM2.5)
六盘水市,黄土坡,104.8293,26.592,2026-03-03T1100,7,NA,1.0,13,8,24,48,10,
六盘水市,民中,104.8481,26.5898,2026-03-03T1100,9,16,0.7,14,4,19,47,16,
六盘水市,双水,104.9541,26.5506,2026-03-03T1100,3,19,0.7,9,4,NA,46,NA,NA
六盘水市,钟山大道中段564号,104.8899,26.5685,2026-03-03T1100,7,16,0.9,11,6,18,43,16,
龙岩市,龙岩市监测站,117.022,25.1031,2026-03-03T1100,3,9,0.7,4,6,33,31,11,
龙岩市,闽西职业技术学院,117.0257,25.0662,2026-03-03T1100,6,14,0.7,5,6,69,37,22,
龙岩市,龙岩学院,117.0195,25.0306,2026-03-03T1100,6,13,/,7,4,30,34,13,
陇南市,滨江中学,104.9344,33.3827,2026-03-03T1100,22,49,0.7,12,15,30,17,49,
陇南市,市总工会,104.9551,33.3709,2026-03-03T1100,20,48,0.9,14,10,30,18,48,
娄底市,市监测站,111.9984,27.7346,2026-03-03T1100,14,15,0.6,10,3,67,59,21,
娄底市,市政府,111.9888,27.7035,2026-03-03T1100,11,22,0.3,14,2,64,61,22,
娄底市,涟钢职大,111.9812,27.7591,2026-03-03T1100,3,12,0.3,8,1,71,64,23,
娄底市,娄底体校,112.0303,27.7457,2026-03-03T1100,10,20,0.2,1,2,62,54,20,
泸州市,小市上码头,105.4427,28.9063,2026-03-03T1100,26,30,0.5,20,7,18,8,38,
泸州市,兰田宪桥,105.4241,28.8573,2026-03-03T1100,20,28,0.8,18,7,14,8,29,
泸州市,市环监站,105.4378,28.8833,2026-03-03T1100,33,35,0.4,21,6,13,6,48,
泸州市,纳溪中医医院,105.3689,28.7783,2026-03-03T1100,19,23,0.7,17,5,20,14,28,
吕梁市,环保局,111.1447,37.5212,2026-03-03T1100,21,54,0.5,18,13,50,10,53,颗粒物(PM10)
吕梁市,自来水公司,111.1285,37.5338,2026-03-03T1100,22,61,0.6,17,13,43,9,58,颗粒物(PM10)
吕梁市,马茂庄小学,111.1225,37.5093,2026-03-03T1100,24,62,0.8,14,14,45,8,59,颗粒物(PM10)
洛阳市,市委党校,112.3934,34.6517,2026-03-03T1100,51,67,1.1,15,8,57,35,82,细颗粒物(PM2.5)
洛阳市,河南林校,112.494,34.6883,2026-03-03T1100,76,76,1.1,18,9,57,32,115,细颗粒物(PM2.5)
洛阳市,开发区管委会,112.3843,34.623,2026-03-03T1100,58,79,1.0,14,10,60,34,96,细颗粒物(PM2.5)
洛阳市,市委新办公区,112.4263,34.6249,2026-03-03T1100,68,88,1.0,17,8,61,36,108,细颗粒物(PM2.5)
洛阳市,伊滨,112.6005,34.6323,2026-03-03T1100,76,104,1.2,18,10,55,43,115,细颗粒物(PM2.5)
洛阳市,中移产业园,112.495,34.6338,2026-03-03T1100,86,101,1.1,NA,NA,58,33,124,细颗粒物(PM2.5)
洛阳市,吉利监测站,112.5736,34.8993,2026-03-03T1100,72,77,1.0,16,8,56,53,111,细颗粒物(PM2.5)
洛阳市,河科大西苑校区,112.3678,34.6623,2026-03-03T1100,55,62,1.7,NA,NA,66,39,NA,NA
洛阳市,英才小学,112.4387,34.678,2026-03-03T1100,56,80,1.0,18,9,63,40,92,细颗粒物(PM2.5)
洛阳市,春都路1号院,112.460027,34.694929,2026-03-03T1100,54,81,1.1,20,9,54,30,88,细颗粒物(PM2.5)
漯河市,三五一五工厂,114.051,33.5721,2026-03-03T1100,47,74,0.9,21,6,77,75,74,细颗粒物(PM2.5)
漯河市,漯河大学,114.0055,33.5698,2026-03-03T1100,56,66,0.8,22,6,79,75,92,细颗粒物(PM2.5)
漯河市,市水利局,114.0134,33.5826,2026-03-03T1100,50,66,0.7,22,5,79,73,80,细颗粒物(PM2.5)
漯河市,市广电局,114.0261,33.5697,2026-03-03T1100,54,66,0.8,18,6,75,70,88,细颗粒物(PM2.5)
漯河市,市图书馆,113.9691,33.568,2026-03-03T1100,NA,64,0.8,17,6,NA,65,NA,NA
漯河市,韶山路11号,114.089259,33.588274,2026-03-03T1100,47,83,0.8,21,6,76,71,74,"颗粒物(PM10),细颗粒物(PM2.5)"
马鞍山市,湖东路四小,118.5084,31.6838,2026-03-03T1100,45,60,0.5,NA,5,NA,54,NA,NA
马鞍山市,开发区,118.5019,31.6449,2026-03-03T1100,46,58,0.7,18,4,67,56,72,细颗粒物(PM2.5)
马鞍山市,雨山,118.4914,31.681,2026-03-03T1100,46,63,0.7,16,4,68,56,72,细颗粒物(PM2.5)
马鞍山市,慈湖高新区,118.527362,31.722269,2026-03-03T1100,50,54,0.5,18,5,68,52,80,细颗粒物(PM2.5)
茂名市,电白南海,111.0285,21.469,2026-03-03T1100,17,19,0.9,14,5,16,31,25,
茂名市,茂石化七小,110.9294,21.6533,2026-03-03T1100,12,14,0.8,15,6,15,20,18,
茂名市,健康路,110.9108,21.6688,2026-03-03T1100,13,NA,1.0,14,5,16,19,19,
茂名市,高岭,110.8592,21.6826,2026-03-03T1100,14,19,/,12,4,16,12,20,
茂名市,电白水东,111.0101,21.5165,2026-03-03T1100,12,NA,/,17,3,20,29,18,
眉山市,气象局,103.8414,30.0871,2026-03-03T1100,9,30,NA,13,5,43,36,NA,NA
眉山市,区人社局,103.829,30.0563,2026-03-03T1100,15,36,0.9,27,7,24,30,36,
眉山市,眉职院,103.8836,30.0695,2026-03-03T1100,9,18,0.8,22,5,36,37,18,
梅州市,梅江月梅,116.1248,24.3307,2026-03-03T1100,3,6,/,9,/,40,35,13,
梅州市,梅县新城,116.0798,24.2719,2026-03-03T1100,6,8,0.8,11,8,39,35,13,
梅州市,梅龙,116.1234,24.2994,2026-03-03T1100,3,7,0.8,6,5,44,38,14,
绵阳市,富乐山,104.7775,31.4741,2026-03-03T1100,10,17,0.6,7,9,46,33,17,
绵阳市,高新区自来水公司,104.6698,31.4668,2026-03-03T1100,11,23,0.9,16,9,39,32,23,
绵阳市,西科大附属小学,104.6899,31.5324,2026-03-03T1100,13,22,0.7,16,7,39,18,22,
绵阳市,安州区旅游局,104.5647,31.5343,2026-03-03T1100,11,20,0.6,15,4,44,33,20,
绵阳市,科技城新区公安局,104.7092,31.4972,2026-03-03T1100,13,27,0.6,18,7,40,27,27,
南京市,六合雄州,118.8497,32.3599,2026-03-03T1100,61,70,0.8,15,4,55,48,101,细颗粒物(PM2.5)
南京市,新模范马路66号,118.7641,32.0841,2026-03-03T1100,49,61,0.9,14,4,78,91,78,细颗粒物(PM2.5)
南京市,汶溪路181号,118.8707617,31.34017673,2026-03-03T1100,50,54,0.5,15,4,69,66,80,细颗粒物(PM2.5)
南京市,中山西路1号,119.019,31.6512,2026-03-03T1100,42,46,0.9,9,4,61,64,64,细颗粒物(PM2.5)
南宁市,二十一中,108.3098,22.788,2026-03-03T1100,11,19,0.7,18,4,40,34,19,
南宁市,北湖,108.3135,22.8529,2026-03-03T1100,11,17,0.6,10,2,46,40,17,
南宁市,市监测站,108.3205,22.8222,2026-03-03T1100,10,NA,0.7,14,5,46,40,15,
南宁市,大自然花园,108.3828,22.8038,2026-03-03T1100,8,15,0.8,10,6,49,41,16,
南宁市,区农职院,108.2397,22.8462,2026-03-03T1100,NA,NA,NA,NA,NA,NA,42,NA,NA
南宁市,英华嘉园,108.3285,22.7356,2026-03-03T1100,9,14,0.8,9,3,42,35,14,
南宁市,红星社区,108.4829,22.762,2026-03-03T1100,8,13,0.7,7,4,51,45,16,
南宁市,起凤路9号,108.2927,23.1477,2026-03-03T1100,10,15,0.6,6,2,56,45,18,
南宁市,乐贤路16号,108.2177,22.7774,2026-03-03T1100,10,15,0.8,7,1,46,36,15,
南平市,南平市监测站,118.1682,26.6371,2026-03-03T1100,8,12,0.5,7,5,24,34,12,
南平市,南平七中,118.1757,26.6276,2026-03-03T1100,8,9,0.7,7,3,26,32,12,
南通市,狼山街道,120.9056,31.9669,2026-03-03T1100,37,44,0.8,10,3,67,66,54,细颗粒物(PM2.5)
南通市,城中,120.8635,32.0231,2026-03-03T1100,44,NA,0.7,10,3,71,69,68,细颗粒物(PM2.5)
南通市,星湖花园,120.9376,31.9301,2026-03-03T1100,36,40,0.6,9,4,67,69,52,细颗粒物(PM2.5)
南通市,紫琅学院,120.8053,32.046,2026-03-03T1100,34,44,0.8,10,4,68,69,49,
南通市,通州监测站,121.0631,32.0644,2026-03-03T1100,35,48,0.8,13,3,67,70,50,
南通市,环境教育馆,120.9348,31.9874,2026-03-03T1100,37,41,0.6,13,4,71,72,54,细颗粒物(PM2.5)
南通市,洪江路,120.8692,31.9885,2026-03-03T1100,36,40,0.7,9,3,63,62,52,细颗粒物(PM2.5)
南阳市,瓦房庄,112.5338,33.0086,2026-03-03T1100,35,66,0.9,21,4,66,52,62,颗粒物(PM10)
南阳市,汉画馆,112.5002,32.9734,2026-03-03T1100,59,70,0.9,21,6,75,55,98,细颗粒物(PM2.5)
南阳市,气象站,112.5778,33.0144,2026-03-03T1100,47,77,0.9,20,5,72,57,74,细颗粒物(PM2.5)
南阳市,理工学院,112.548,32.9687,2026-03-03T1100,35,60,0.9,11,5,76,55,58,颗粒物(PM10)
南阳市,卧龙区政府,112.5233,32.9921,2026-03-03T1100,46,70,0.9,18,6,69,55,72,细颗粒物(PM2.5)
宁波市,区环保大楼,121.8352,29.9111,2026-03-03T1100,8,18,0.4,10,5,73,73,23,
宁波市,万里学院,121.5595,29.8208,2026-03-03T1100,14,17,0.4,15,3,70,72,22,
宁波市,龙赛医院,121.713,29.9564,2026-03-03T1100,11,20,0.5,20,5,61,67,20,
宁波市,太古小学,121.5855,29.8635,2026-03-03T1100,12,25,0.5,10,2,71,74,25,
宁波市,市环境监测中心,121.5239,29.8673,2026-03-03T1100,13,22,0.5,12,4,67,69,22,
宁波市,万里国际学校,121.6156,29.9015,2026-03-03T1100,13,17,0.6,11,3,70,73,22,
宁波市,白沙活动中心,121.5593,29.8976,2026-03-03T1100,14,17,0.5,10,4,67,70,21,
宁波市,中科路88号,121.8962,29.7529,2026-03-03T1100,6,13,0.6,8,NA,NA,75,NA,NA
宁德市,宁德市监测站,119.5387,26.6611,2026-03-03T1100,8,25,0.5,13,4,55,51,25,
宁德市,宁德一中,119.5231,26.6562,2026-03-03T1100,9,19,0.3,12,4,61,56,20,
怒江傈僳族自治州,州监测站,98.859,25.8541,2026-03-03T1100,NA,NA,0.4,4,7,NA,73,NA,NA
怒江傈僳族自治州,泸水一中,98.8607,25.8168,2026-03-03T1100,31,38,0.6,14,5,67,50,45,
攀枝花市,弄弄坪,101.6891,26.571,2026-03-03T1100,66,102,2.3,44,59,74,53,106,细颗粒物(PM2.5)
攀枝花市,河门口,101.577,26.5914,2026-03-03T1100,42,63,0.8,14,22,74,45,64,细颗粒物(PM2.5)
攀枝花市,仁和,101.7365,26.4986,2026-03-03T1100,46,52,0.7,13,14,88,64,72,细颗粒物(PM2.5)
攀枝花市,四十中小,101.7222,26.567,2026-03-03T1100,79,85,NA,NA,40,85,48,118,细颗粒物(PM2.5)
盘锦市,开发区,122.0303,41.1489,2026-03-03T1100,95,139,NA,27,4,26,45,132,细颗粒物(PM2.5)
盘锦市,兴隆台,122.0486,41.0883,2026-03-03T1100,113,144,1.2,62,5,17,38,149,细颗粒物(PM2.5)
盘锦市,新生街道,121.8297,41.1026,2026-03-03T1100,72,75,0.8,47,7,30,13,111,细颗粒物(PM2.5)
平顶山市,新华旅馆,113.3257,33.7423,2026-03-03T1100,68,74,0.7,14,6,74,45,108,细颗粒物(PM2.5)
平顶山市,规划设计院,113.2917,33.737,2026-03-03T1100,63,93,0.8,13,6,75,45,103,细颗粒物(PM2.5)
平顶山市,平顶山工学院,113.182,33.7738,2026-03-03T1100,69,69,0.6,12,4,82,59,109,细颗粒物(PM2.5)
平顶山市,石龙区,112.8736,33.9068,2026-03-03T1100,64,78,1.0,8,6,69,62,104,细颗粒物(PM2.5)
平顶山市,姚电大道23号,113.284,33.7139,2026-03-03T1100,68,97,0.9,14,6,76,48,108,细颗粒物(PM2.5)
平凉市,聚贤嘉苑,106.6633,35.5338,2026-03-03T1100,32,79,0.7,12,5,33,26,71,颗粒物(PM10)
平凉市,博物馆,106.7021,35.5307,2026-03-03T1100,21,76,0.7,11,8,38,32,69,颗粒物(PM10)
萍乡市,中医院,113.8384,27.6436,2026-03-03T1100,30,42,0.8,17,4,10,16,43,
萍乡市,市环保局,113.8677,27.6438,2026-03-03T1100,32,36,1.1,16,5,14,20,46,
萍乡市,安源区政府,113.8663,27.6202,2026-03-03T1100,30,33,0.9,13,4,10,16,43,
萍乡市,联洪村委会,113.8686,27.6668,2026-03-03T1100,38,54,0.8,15,2,10,10,56,细颗粒物(PM2.5)
莆田市,荔城区仓后路,119.0142,25.4324,2026-03-03T1100,3,13,/,12,/,57,51,18,
莆田市,莆田市监测站,119.0016,25.4553,2026-03-03T1100,0,NA,0.5,8,2,74,53,NA,NA
莆田市,涵江区六中,119.112,25.4561,2026-03-03T1100,3,14,0.4,10,/,61,56,20,
莆田市,秀屿区政府,119.1014,25.3215,2026-03-03T1100,6,22,0.4,7,4,67,61,22,
濮阳市,环保局,115.0312,35.7636,2026-03-03T1100,NA,NA,1.3,16,6,NA,78,NA,NA
濮阳市,濮水河管理处,115,35.7667,2026-03-03T1100,55,68,1.1,14,6,71,79,90,细颗粒物(PM2.5)
濮阳市,中原东路68号,115.0552,35.7816,2026-03-03T1100,54,72,0.7,24,4,69,81,88,细颗粒物(PM2.5)
濮阳市,任丘路479号,115.0923632,35.76857718,2026-03-03T1100,56,77,1.2,16,4,68,80,92,细颗粒物(PM2.5)
普洱市,市环保局,100.9801,22.7634,2026-03-03T1100,35,88,0.8,15,6,99,67,78,颗粒物(PM10)
普洱市,普洱第二中学,100.9763,22.8237,2026-03-03T1100,43,91,0.4,24,7,81,44,80,颗粒物(PM10)
七台河市,中波台,131.0413,45.7795,2026-03-03T1100,8,25,0.3,8,7,77,55,25,
七台河市,人民广场,131.0136,45.7688,2026-03-03T1100,3,34,0.3,12,9,78,61,34,
七台河市,新建矿广场,130.8639,45.8144,2026-03-03T1100,3,14,0.1,8,4,80,51,25,
齐齐哈尔市,安居小区,123.9307,47.3641,2026-03-03T1100,8,31,0.4,10,3,61,59,31,
齐齐哈尔市,中心广场,123.9497,47.3389,2026-03-03T1100,14,34,0.4,14,8,56,60,34,
齐齐哈尔市,农牧车辆厂,123.9483,47.3229,2026-03-03T1100,14,31,0.3,10,8,57,59,31,
齐齐哈尔市,市环境监测站,123.9442,47.2994,2026-03-03T1100,16,35,0.4,18,5,52,58,35,
齐齐哈尔市,富区青少年活动中心,123.6341,47.2079,2026-03-03T1100,11,38,0.4,6,4,62,59,38,
黔东南苗族侗族自治州,市环境监测站,107.9765,26.5724,2026-03-03T1100,15,17,0.6,8,3,63,59,22,
黔东南苗族侗族自治州,凯里学院,107.8909,26.531,2026-03-03T1100,12,12,0.5,9,3,61,61,20,
黔南布依族苗族自治州,小围寨,107.5223,26.2371,2026-03-03T1100,3,7,0.7,5,4,57,54,18,
黔南布依族苗族自治州,沙坝,107.5175,26.2977,2026-03-03T1100,7,14,0.8,5,5,59,57,19,
黔西南布依族苗族自治州,场坝街,104.9022,25.0943,2026-03-03T1100,8,29,0.5,9,3,67,51,29,
黔西南布依族苗族自治州,坪东大道,104.8812,25.0994,2026-03-03T1100,12,17,0.6,6,5,67,52,21,
钦州市,市环保站,108.6238,21.9667,2026-03-03T1100,3,9,0.7,8,3,39,34,13,
钦州市,沙埠小学,108.655,21.9481,2026-03-03T1100,3,10,0.6,9,3,38,35,12,
钦州市,港区一小,108.5989,21.7435,2026-03-03T1100,14,18,0.5,15,1,36,27,20,
钦州市,北职校,108.5959,21.9634,2026-03-03T1100,9,14,0.7,7,2,40,35,14,
秦皇岛市,建设大厦,119.5247,39.9346,2026-03-03T1100,103,124,1.2,NA,15,41,31,140,细颗粒物(PM2.5)
秦皇岛市,文明里,119.5979,39.938,2026-03-03T1100,90,113,1.2,31,19,41,46,128,细颗粒物(PM2.5)
秦皇岛市,南园路157号,119.7458,39.9952,2026-03-03T1100,95,118,1.5,31,16,38,20,132,细颗粒物(PM2.5)
秦皇岛市,翠岛大街1号,119.5131,39.8858,2026-03-03T1100,88,111,1.2,25,13,39,25,126,细颗粒物(PM2.5)
秦皇岛市,北戴河轮滑馆,119.509013,39.825305,2026-03-03T1100,94,131,1.7,33,7,37,31,131,细颗粒物(PM2.5)
青岛市,市南区东部子站,120.404,36.0625,2026-03-03T1100,66,83,0.9,23,8,46,51,106,细颗粒物(PM2.5)
青岛市,四方区子站,120.362344,36.10282,2026-03-03T1100,66,85,0.8,21,4,53,56,106,细颗粒物(PM2.5)
青岛市,市南区西部子站,120.294373,36.054183,2026-03-03T1100,67,85,NA,18,3,59,59,107,细颗粒物(PM2.5)
青岛市,崂山区子站,120.4581,36.0858,2026-03-03T1100,60,70,0.7,15,6,55,53,100,细颗粒物(PM2.5)
青岛市,城阳区子站,120.3945,36.3083,2026-03-03T1100,67,78,0.8,21,6,58,51,107,细颗粒物(PM2.5)
青岛市,市北区南部,120.3454,36.0735,2026-03-03T1100,NA,NA,NA,21,5,NA,51,NA,NA
青岛市,李沧区北部,120.3897,36.18,2026-03-03T1100,69,85,0.7,24,8,51,51,109,细颗粒物(PM2.5)
青岛市,盟旺路653号,120.5222,36.4089,2026-03-03T1100,56,74,0.8,11,2,66,60,92,细颗粒物(PM2.5)
青岛市,珠江路669号,120.196923,35.954556,2026-03-03T1100,56,66,0.6,27,7,56,56,92,细颗粒物(PM2.5)
青岛市,黄岛区人民政府广场,120.0424,35.8656,2026-03-03T1100,52,73,0.8,19,6,64,59,84,细颗粒物(PM2.5)
清远市,凤城街办,113.0218,23.7086,2026-03-03T1100,3,6,/,10,/,31,28,10,
清远市,技师学院,113.0479,23.6343,2026-03-03T1100,3,6,0.7,11,4,27,26,9,
清远市,清新太和,112.9898,23.7403,2026-03-03T1100,3,6,0.7,8,4,39,35,13,
清远市,清城东城,113.076,23.72,2026-03-03T1100,3,6,/,15,/,26,31,9,
庆阳市,庆阳五中,107.6325,35.7357,2026-03-03T1100,21,41,0.6,15,5,56,61,41,
庆阳市,市环保局,107.6361,35.7067,2026-03-03T1100,17,35,0.7,16,9,55,60,35,
曲靖市,环境监测站,103.7897,25.5036,2026-03-03T1100,56,70,0.7,11,6,77,61,92,细颗粒物(PM2.5)
曲靖市,烟厂办公区,103.8013,25.5357,2026-03-03T1100,49,67,0.7,10,3,68,60,78,细颗粒物(PM2.5)
曲靖市,南苑二区,103.7926,25.4651,2026-03-03T1100,53,66,0.7,13,4,70,58,86,细颗粒物(PM2.5)
曲靖市,曲靖师范学院,103.7442,25.5259,2026-03-03T1100,50,68,0.5,9,2,77,53,80,细颗粒物(PM2.5)
衢州市,环保大楼,118.8694,28.94,2026-03-03T1100,20,25,/,12,/,67,57,29,
衢州市,衢州学院,118.8622,28.9809,2026-03-03T1100,15,18,0.5,10,3,64,53,22,
衢州市,衢州三中,118.9646,28.9832,2026-03-03T1100,19,23,NA,NA,NA,NA,52,NA,NA
泉州市,涂山街,118.5818,24.9116,2026-03-03T1100,8,18,0.6,10,4,50,42,18,
泉州市,津头埔,118.597,24.8976,2026-03-03T1100,9,20,0.7,11,3,54,46,20,
泉州市,万安,118.6669,24.9422,2026-03-03T1100,7,18,0.6,10,3,50,43,18,
泉州市,霞新路6号,118.6355,24.9148,2026-03-03T1100,7,9,0.6,8,/,52,43,17,
日喀则市,日喀则监测站,88.8873,29.2723,2026-03-03T1100,32,48,0.7,22,10,58,61,48,
日喀则市,林业技术推广中心,88.8775,29.2425,2026-03-03T1100,17,32,0.5,12,7,68,54,32,
日照市,监测站,119.4711,35.421,2026-03-03T1100,47,NA,0.8,22,6,60,59,74,细颗粒物(PM2.5)
日照市,市政府广场,119.523,35.4216,2026-03-03T1100,47,58,0.7,18,4,63,55,74,细颗粒物(PM2.5)
日照市,港务局,119.5511,35.4113,2026-03-03T1100,49,56,0.7,21,4,63,60,78,细颗粒物(PM2.5)
日照市,职业技术学院,119.5326,35.4627,2026-03-03T1100,49,58,0.9,21,6,64,54,78,细颗粒物(PM2.5)
日照市,岚山环保分局,119.3267,35.1043,2026-03-03T1100,46,58,1.1,19,10,67,64,72,细颗粒物(PM2.5)
三门峡市,市政府,111.1922,34.7752,2026-03-03T1100,59,69,0.9,28,14,41,29,98,细颗粒物(PM2.5)
三门峡市,开发区,111.1588,34.794,2026-03-03T1100,69,75,1.1,16,16,50,36,109,细颗粒物(PM2.5)
三门峡市,三门峡市第一小学,111.1911,34.7829,2026-03-03T1100,63,63,1.1,24,17,49,36,103,细颗粒物(PM2.5)
三门峡市,富达温泉假日酒店,111.1031,34.719,2026-03-03T1100,69,89,1.1,33,71,48,22,109,细颗粒物(PM2.5)
三明市,三钢,117.621,26.2626,2026-03-03T1100,9,12,0.7,6,4,34,39,13,
三明市,三明二中,117.6352,26.2714,2026-03-03T1100,3,138,0.6,5,9,NA,40,107,颗粒物(PM10)
三明市,三元区政府,117.6028,26.2377,2026-03-03T1100,3,11,0.6,6,3,38,44,12,
三亚市,河西子站,109.4962,18.2682,2026-03-03T1100,10,20,0.2,3,3,41,24,20,
三亚市,君悦子站,109.7348,18.3443,2026-03-03T1100,9,23,0.3,5,2,31,15,23,
三亚市,城东小学站,109.1714,18.3739,2026-03-03T1100,12,16,/,6,/,43,21,18,
山南市,山南监测站,91.7592,29.234,2026-03-03T1100,27,63,0.4,7,6,79,80,60,颗粒物(PM10)
山南市,山南人民医院,91.7701,29.2436,2026-03-03T1100,21,47,0.5,14,11,NA,91,NA,NA
汕头市,金平子站,116.6795,23.3666,2026-03-03T1100,9,11,0.8,9,5,52,53,17,
汕头市,龙湖子站,116.7248,23.3632,2026-03-03T1100,10,16,/,15,5,51,55,16,
汕头市,濠江子站,116.7257,23.2774,2026-03-03T1100,11,24,/,12,8,55,53,24,
汕头市,澄海子站,116.7518,23.4712,2026-03-03T1100,7,15,0.9,9,8,46,50,15,
汕头市,潮阳子站,116.6088,23.2539,2026-03-03T1100,6,8,0.6,6,6,56,55,18,
汕头市,潮南峡山,116.4539,23.2684,2026-03-03T1100,7,9,0.7,6,5,47,49,15,
汕头市,潮南子站,116.4069,23.2533,2026-03-03T1100,9,13,/,11,6,39,38,13,
汕尾市,市环保局,115.3653,22.7751,2026-03-03T1100,6,9,0.8,7,6,36,38,12,
汕尾市,新城中学,115.362,22.7926,2026-03-03T1100,3,11,0.7,4,5,37,36,12,
商洛市,监测站,109.9155,33.8714,2026-03-03T1100,20,28,0.8,10,11,63,58,29,
商洛市,商州区中学,109.9647,33.8486,2026-03-03T1100,28,30,0.8,9,7,68,54,40,
商丘市,环境监测站,115.6701,34.4283,2026-03-03T1100,77,NA,0.8,10,1,65,61,116,细颗粒物(PM2.5)
商丘市,粮食局,115.6458,34.4047,2026-03-03T1100,73,NA,0.7,12,3,66,60,112,细颗粒物(PM2.5)
商丘市,梁园区档案局,115.6069,34.4465,2026-03-03T1100,67,NA,0.6,15,1,66,62,107,细颗粒物(PM2.5)
商丘市,北海东路185号,115.6701,34.3767,2026-03-03T1100,67,74,0.7,14,2,65,60,107,细颗粒物(PM2.5)
商丘市,中山大街3号,115.6172,34.3704,2026-03-03T1100,63,77,0.6,12,4,NA,63,103,细颗粒物(PM2.5)
上海市,普陀,121.401,31.2382,2026-03-03T1100,38,41,0.6,11,5,70,74,56,细颗粒物(PM2.5)
上海市,十五厂,121.4774,31.2043,2026-03-03T1100,38,48,0.9,19,7,70,77,56,细颗粒物(PM2.5)
上海市,虹口,121.4673,31.3011,2026-03-03T1100,38,53,0.6,16,6,59,67,56,细颗粒物(PM2.5)
上海市,静安监测站,121.4253,31.226,2026-03-03T1100,20,40,0.7,14,7,70,77,40,
上海市,浦东川沙,121.7029,31.1905,2026-03-03T1100,43,52,0.3,12,4,63,74,66,细颗粒物(PM2.5)
上海市,浦东新区监测站,121.5339,31.229,2026-03-03T1100,42,45,0.8,11,4,68,78,64,细颗粒物(PM2.5)
上海市,浦东张江,121.5776,31.2038,2026-03-03T1100,44,NA,0.6,11,6,NA,80,NA,NA
上海市,宝山庙行,121.4242,31.3303,2026-03-03T1100,46,57,0.6,14,9,62,70,72,细颗粒物(PM2.5)
上海市,崇明上实东滩,121.8789,31.4662,2026-03-03T1100,9,12,0.1,1,NA,NA,82,NA,NA
上海市,嘉定南翔,121.316,31.2839,2026-03-03T1100,39,42,0.7,14,4,66,70,58,细颗粒物(PM2.5)
上海市,金山新城,121.3357,30.7455,2026-03-03T1100,23,27,0.5,15,4,69,73,33,
上海市,闵行浦江,121.4996,31.0741,2026-03-03T1100,34,38,0.4,12,5,70,76,49,
上海市,青浦徐泾,121.2886,31.1663,2026-03-03T1100,33,35,0.6,15,4,70,75,48,
上海市,松江图书馆,121.2193,31.0382,2026-03-03T1100,32,34,0.6,13,6,75,74,46,
上海市,长宁仙霞,121.3904,31.206,2026-03-03T1100,38,46,0.2,16,7,66,72,56,细颗粒物(PM2.5)
上海市,浦东惠南,121.7964,31.0507,2026-03-03T1100,29,37,0.7,20,4,60,75,42,
上海市,奉贤南桥新城,121.4891,30.925,2026-03-03T1100,35,46,0.7,16,3,65,78,50,
上海市,冠生园路458号,121.417401,31.16637,2026-03-03T1100,36,36,0.8,14,5,71,76,52,细颗粒物(PM2.5)
上海市,宁武路151号,121.541914,31.268301,2026-03-03T1100,37,41,0.4,17,6,65,76,54,细颗粒物(PM2.5)
上饶市,市监测站,117.9758,28.4439,2026-03-03T1100,3,13,/,5,5,71,48,23,
上饶市,凤凰光学,117.9521,28.4637,2026-03-03T1100,3,7,NA,9,NA,64,38,NA,NA
上饶市,双创科技城,117.897,28.4316,2026-03-03T1100,3,19,0.8,7,5,69,45,22,
上饶市,裕丰大道,118.190438,28.444845,2026-03-03T1100,3,8,0.6,8,11,74,61,24,
韶关市,市八中,113.5821,24.7733,2026-03-03T1100,3,6,0.7,12,NA,NA,24,NA,NA
韶关市,园林处,113.5916,24.7973,2026-03-03T1100,3,9,/,9,5,22,24,9,
韶关市,曲江监测站,113.5971,24.6864,2026-03-03T1100,3,6,0.9,12,10,24,24,9,
韶关市,大学路288号,113.6668,24.7756,2026-03-03T1100,3,6,/,9,5,23,20,8,
韶关市,碧湖山庄,113.5556,24.8082,2026-03-03T1100,3,6,0.9,11,6,23,23,9,
邵阳市,市化工厂,111.5277,27.2442,2026-03-03T1100,27,33,0.7,8,5,61,63,39,
邵阳市,市环保局,111.4327,27.2276,2026-03-03T1100,26,NA,1.0,11,6,60,66,38,
邵阳市,北塔二期4-26地块,111.446,27.2472,2026-03-03T1100,16,22,0.6,11,7,56,60,23,
邵阳市,邵水西路287号,111.4739,27.2282,2026-03-03T1100,22,NA,0.7,6,5,64,64,32,
绍兴市,城东开发委,120.6053,29.9927,2026-03-03T1100,27,35,0.6,18,NA,63,66,NA,NA
绍兴市,树下王站,120.5482,30.0003,2026-03-03T1100,29,NA,0.4,17,6,62,64,42,
绍兴市,绍兴中专,120.5685,29.936,2026-03-03T1100,22,26,0.7,13,7,68,70,32,
绍兴市,柯桥区政府,120.4905,30.086,2026-03-03T1100,26,41,0.3,20,5,64,70,41,
绍兴市,重华小学,120.8751,30.0249,2026-03-03T1100,23,32,0.5,19,7,61,66,33,
绍兴市,上虞中学,120.837,30.0137,2026-03-03T1100,24,33,0.4,16,NA,NA,67,NA,NA
绍兴市,柯桥妇保,120.4715,30.0414,2026-03-03T1100,33,37,0.6,14,5,62,67,48,
绍兴市,袍江中学,120.6156,30.0762,2026-03-03T1100,24,29,0.8,13,8,63,67,35,
深圳市,通心岭子站,114.0948,22.5506,2026-03-03T1100,3,12,0.6,7,4,26,28,12,
深圳市,洪湖,114.1153,22.5713,2026-03-03T1100,6,12,0.8,12,5,27,28,12,
深圳市,华侨城,113.9823,22.5398,2026-03-03T1100,17,47,/,12,/,28,26,47,
深圳市,南海子站,113.9181,22.517,2026-03-03T1100,6,14,0.6,19,6,29,24,14,
深圳市,盐田,114.2345,22.565,2026-03-03T1100,3,6,0.7,10,6,25,30,8,
深圳市,南澳,114.4911,22.5381,2026-03-03T1100,3,8,/,10,/,36,34,12,
深圳市,葵涌,114.41,22.6346,2026-03-03T1100,3,8,0.8,8,7,24,33,8,
深圳市,梅沙,114.2967,22.5978,2026-03-03T1100,3,7,/,9,/,28,37,9,
深圳市,观澜,114.0563,22.7353,2026-03-03T1100,3,12,0.9,11,8,33,29,12,
深圳市,莲花,114.0614,22.556,2026-03-03T1100,9,15,/,13,/,23,25,15,
深圳市,民治,114.0144,22.6163,2026-03-03T1100,7,8,/,10,/,30,27,10,
深圳市,横岗,114.1756,22.6421,2026-03-03T1100,7,11,/,10,/,28,29,11,
深圳市,坪山,114.344,22.7115,2026-03-03T1100,6,12,0.8,12,4,27,32,12,
深圳市,西乡,113.8952,22.586,2026-03-03T1100,3,12,0.8,10,6,35,26,12,
深圳市,黄阁路,114.214113,22.713717,2026-03-03T1100,3,8,0.9,11,6,29,30,10,
沈阳市,浑南东路,123.5058,41.7084,2026-03-03T1100,165,205,1.4,71,21,22,14,215,细颗粒物(PM2.5)
沈阳市,新秀街,123.4238,41.6992,2026-03-03T1100,160,218,1.4,73,16,13,20,210,细颗粒物(PM2.5)
沈阳市,东陵路,123.5903,41.8412,2026-03-03T1100,157,203,1.3,54,15,30,21,207,细颗粒物(PM2.5)
沈阳市,陵东街,123.4267,41.8466,2026-03-03T1100,142,186,1.3,55,10,25,18,189,细颗粒物(PM2.5)
沈阳市,文化路,123.4116,41.7654,2026-03-03T1100,136,187,1.1,59,24,26,22,180,细颗粒物(PM2.5)
沈阳市,小河沿,123.4673,41.787,2026-03-03T1100,141,192,1.4,56,18,26,21,188,细颗粒物(PM2.5)
沈阳市,太原街,123.4019,41.7978,2026-03-03T1100,138,167,1.2,62,20,18,17,183,细颗粒物(PM2.5)
沈阳市,京沈街,123.3778,41.9233,2026-03-03T1100,171,188,1.3,36,12,29,19,221,细颗粒物(PM2.5)
沈阳市,沈辽西路,123.2429,41.7341,2026-03-03T1100,153,195,1.1,64,27,18,18,203,细颗粒物(PM2.5)
沈阳市,裕农路,123.5951,41.9085,2026-03-03T1100,145,181,1.3,56,14,27,21,193,细颗粒物(PM2.5)
十堰市,滨河新村,110.78,32.6494,2026-03-03T1100,24,36,1.0,18,/,51,46,36,
十堰市,刘家沟,110.7305,32.6408,2026-03-03T1100,3,39,/,10,/,NA,39,NA,NA
十堰市,铁二处,110.8843,32.5712,2026-03-03T1100,24,38,0.9,18,8,45,26,38,
十堰市,郧阳区金沙路,110.8053,32.8401,2026-03-03T1100,18,30,0.9,10,6,54,46,30,
石河子市,艾青诗歌馆,86.0391,44.298,2026-03-03T1100,28,36,0.6,22,10,66,71,40,
石河子市,南区管委会,86.047,44.2331,2026-03-03T1100,46,NA,1.0,23,6,57,68,72,细颗粒物(PM2.5)
石河子市,世纪广场,86.0791,44.3018,2026-03-03T1100,40,59,0.9,26,18,58,66,60,细颗粒物(PM2.5)
石河子市,城南景苑小区,86.0126,44.2349,2026-03-03T1100,23,51,0.5,21,6,67,79,51,颗粒物(PM10)
石家庄市,高新区,114.5919,38.0328,2026-03-03T1100,98,131,1.0,17,3,61,78,135,细颗粒物(PM2.5)
石家庄市,西南高教,114.4556,38.0136,2026-03-03T1100,115,129,0.9,22,3,53,67,150,细颗粒物(PM2.5)
石家庄市,世纪公园,114.533,38.0177,2026-03-03T1100,114,148,1.0,7,2,57,73,150,细颗粒物(PM2.5)
石家庄市,人民会堂,114.5105,38.0489,2026-03-03T1100,120,154,0.9,12,3,48,67,158,细颗粒物(PM2.5)
石家庄市,鹿泉一中,114.2887,38.0905,2026-03-03T1100,115,126,1.0,19,1,41,56,150,细颗粒物(PM2.5)
石家庄市,栾城区星河路,114.6491,37.9014,2026-03-03T1100,122,135,0.8,19,3,66,300,160,细颗粒物(PM2.5)
石家庄市,裕华西路63号,114.4563,38.0365,2026-03-03T1100,121,NA,1.0,21,1,49,63,159,细颗粒物(PM2.5)
石家庄市,和平路363号,114.5586,38.0581,2026-03-03T1100,122,NA,1.0,15,3,56,76,160,细颗粒物(PM2.5)
石家庄市,廉州西路160号,114.8347,38.0213,2026-03-03T1100,120,120,1.0,7,3,84,87,158,细颗粒物(PM2.5)
石家庄市,北城路41号,114.4498,38.0729,2026-03-03T1100,103,111,0.9,22,3,47,67,140,细颗粒物(PM2.5)
石家庄市,矿区区委大楼,114.0494,38.059,2026-03-03T1100,NA,NA,1.1,18,5,NA,32,NA,NA
石嘴山市,大武口朝阳西街,106.3668,39.0145,2026-03-03T1100,47,145,0.6,8,9,72,58,110,颗粒物(PM10)
石嘴山市,惠农南大街,106.7713,39.2278,2026-03-03T1100,44,216,0.2,7,8,72,64,137,颗粒物(PM10)
石嘴山市,红果子镇惠新街,106.7074,39.1332,2026-03-03T1100,49,186,0,2,3,81,64,126,颗粒物(PM10)
石嘴山市,妇女儿童医院,106.3495,38.9837,2026-03-03T1100,39,195,0.4,11,7,70,58,129,颗粒物(PM10)
石嘴山市,石大公路,106.7495,39.2068,2026-03-03T1100,40,164,0.4,8,5,68,60,117,颗粒物(PM10)
双鸭山市,双合村,131.1509,46.6936,2026-03-03T1100,14,21,0.4,20,8,67,37,21,
宿州市,社会福利中心,116.9708,33.5911,2026-03-03T1100,94,NA,1.0,19,5,66,44,131,细颗粒物(PM2.5)
宿州市,皖北煤电集团,116.9647,33.6252,2026-03-03T1100,86,96,0.9,17,3,61,43,124,细颗粒物(PM2.5)
宿州市,中兴路,116.9929,33.6412,2026-03-03T1100,85,93,0.8,13,6,66,43,123,细颗粒物(PM2.5)
绥化市,人和东街,126.9783,46.6365,2026-03-03T1100,8,12,0.4,NA,4,76,76,NA,NA
绥化市,党政办公中心,126.964,46.6527,2026-03-03T1100,8,23,0.2,6,2,76,71,24,
随州市,市委党校,113.3587,31.7275,2026-03-03T1100,20,38,0.7,10,2,66,43,38,
随州市,市林业局,113.3745,31.6926,2026-03-03T1100,13,33,0.7,3,4,78,50,33,
随州市,市立交桥水厂,113.3984,31.7309,2026-03-03T1100,19,34,0.8,10,1,71,48,34,
遂宁市,市监测站,105.5581,30.5231,2026-03-03T1100,12,22,0.8,11,6,36,13,22,
遂宁市,美宁食品公司,105.5917,30.4727,2026-03-03T1100,18,33,0.5,11,6,33,8,33,
遂宁市,环岛商务中心9号楼,105.5911,30.5368,2026-03-03T1100,12,17,0.7,12,5,37,11,18,
塔城地区,东门外小游园,82.9993,46.7432,2026-03-03T1100,12,37,0.0,17,3,70,79,37,
塔城地区,文化广场,82.9716,46.7464,2026-03-03T1100,17,30,0.7,11,3,70,76,30,
台州市,黄岩环保大楼,121.2727,28.6461,2026-03-03T1100,17,20,/,10,/,71,68,25,
台州市,台州环保大楼,121.4188,28.6545,2026-03-03T1100,14,19,0.4,8,/,NA,66,NA,NA
台州市,路桥田洋王,121.3768,28.5772,2026-03-03T1100,14,20,0.3,10,3,74,69,24,
台州市,台州科技职业学院,121.25678,28.66823971,2026-03-03T1100,13,14,0.4,9,5,72,70,23,
太原市,尖草坪,112.5138,37.8916,2026-03-03T1100,126,150,1.9,39,5,27,9,166,细颗粒物(PM2.5)
太原市,晋源,112.4691,37.7125,2026-03-03T1100,151,NA,1.7,34,4,22,5,201,细颗粒物(PM2.5)
太原市,小店,112.5595,37.7391,2026-03-03T1100,147,192,1.4,37,8,27,6,196,细颗粒物(PM2.5)
太原市,坞城,112.5705,37.8199,2026-03-03T1100,136,191,1.8,35,8,30,17,180,细颗粒物(PM2.5)
太原市,南寨,112.5495,37.9853,2026-03-03T1100,99,111,1.2,24,6,27,6,136,细颗粒物(PM2.5)
太原市,金胜,112.4702,37.7821,2026-03-03T1100,109,134,1.3,30,3,31,14,145,细颗粒物(PM2.5)
太原市,育英中学,112.5608,37.8807,2026-03-03T1100,123,171,2.1,39,9,28,13,162,细颗粒物(PM2.5)
太原市,西矿街336号,112.449,37.8509,2026-03-03T1100,93,119,1.2,23,3,30,15,130,细颗粒物(PM2.5)
太原市,迎宾北路9号,112.4792,37.9393,2026-03-03T1100,91,97,1.0,20,6,29,11,129,细颗粒物(PM2.5)
太原市,迎泽大街248号,112.551,37.8575,2026-03-03T1100,109,176,1.8,37,9,28,13,145,细颗粒物(PM2.5)
泰安市,监测站,117.1436,36.1938,2026-03-03T1100,65,83,0.9,24,2,64,46,105,细颗粒物(PM2.5)
泰安市,人口学校,117.0905,36.2002,2026-03-03T1100,58,80,0.9,29,5,63,44,96,细颗粒物(PM2.5)
泰安市,电力学校,117.0992,36.1757,2026-03-03T1100,71,88,1.3,33,5,57,35,110,细颗粒物(PM2.5)
泰安市,国网新校,117.1812,36.2273,2026-03-03T1100,NA,NA,NA,NA,NA,NA,92,NA,NA
泰安市,交通技校,117.0315,36.2017,2026-03-03T1100,49,61,1.0,20,2,72,36,78,细颗粒物(PM2.5)
泰安市,山东第一医科大学,117.083,36.13,2026-03-03T1100,70,80,0.7,20,3,67,36,110,细颗粒物(PM2.5)
泰州市,公园路,119.9042,32.488,2026-03-03T1100,35,39,0.7,12,7,64,62,50,
泰州市,莲花,119.9189,32.4626,2026-03-03T1100,32,44,0.6,15,9,64,63,46,
泰州市,留学生创业园,119.8877,32.4636,2026-03-03T1100,37,47,0.8,10,10,63,59,54,细颗粒物(PM2.5)
泰州市,王营,119.8767,32.3291,2026-03-03T1100,38,56,0.6,16,8,68,63,56,细颗粒物(PM2.5)
泰州市,姜堰区政府广场,120.1226,32.515,2026-03-03T1100,56,58,0.6,NA,5,63,63,NA,NA
泰州市,周山河街区,119.9186,32.4322,2026-03-03T1100,33,49,0.6,11,8,61,60,49,
唐山市,十二中,118.1707,39.6505,2026-03-03T1100,107,143,1.3,17,3,55,30,143,细颗粒物(PM2.5)
唐山市,小山,118.1868,39.6219,2026-03-03T1100,122,NA,1.3,29,7,52,27,160,细颗粒物(PM2.5)
唐山市,冀东油田职工医院,118.4357,39.277,2026-03-03T1100,131,147,1.3,30,4,33,17,173,细颗粒物(PM2.5)
唐山市,正泰大街热力站,118.0927,39.5807,2026-03-03T1100,129,147,1.3,17,4,51,21,170,细颗粒物(PM2.5)
唐山市,丰润区政府,118.1561,39.8322,2026-03-03T1100,139,158,1.3,15,5,47,22,185,细颗粒物(PM2.5)
唐山市,金山小学,118.436906,39.73802,2026-03-03T1100,129,132,1.3,27,2,38,22,170,细颗粒物(PM2.5)
唐山市,政府服务中心,118.2449,39.6693,2026-03-03T1100,124,NA,1.2,28,7,47,21,163,细颗粒物(PM2.5)
唐山市,消防缸窑路中队,118.2043,39.6703,2026-03-03T1100,111,146,1.4,21,6,55,27,147,细颗粒物(PM2.5)
唐山市,路南电大,118.1432,39.6203,2026-03-03T1100,122,131,1.3,24,2,38,20,160,细颗粒物(PM2.5)
唐山市,光明北路515号,118.1267,39.6579,2026-03-03T1100,134,161,0.8,15,3,52,24,178,细颗粒物(PM2.5)
唐山市,友谊北路34号,118.130859,39.636026,2026-03-03T1100,141,149,1.4,19,4,49,21,188,细颗粒物(PM2.5)
天津市,勤俭道,117.1446,39.1659,2026-03-03T1100,110,116,0.9,19,4,58,36,146,细颗粒物(PM2.5)
天津市,前进道,117.2016,39.0928,2026-03-03T1100,117,129,0.9,24,6,63,41,153,细颗粒物(PM2.5)
天津市,淮河道,117.1837,39.2134,2026-03-03T1100,107,123,1.0,21,6,63,36,143,细颗粒物(PM2.5)
天津市,跃进路,117.308261,39.088386,2026-03-03T1100,119,129,1.0,22,6,60,43,156,细颗粒物(PM2.5)
天津市,第四大街,117.707,39.0344,2026-03-03T1100,124,138,1.2,32,4,38,31,163,细颗粒物(PM2.5)
天津市,永明路,117.4573,38.8395,2026-03-03T1100,125,136,1.1,31,6,42,34,165,细颗粒物(PM2.5)
天津市,汉北路,117.7641,39.1588,2026-03-03T1100,137,154,1.0,35,5,26,21,182,细颗粒物(PM2.5)
天津市,河西一经路,117.7917,39.2473,2026-03-03T1100,130,147,1.0,26,6,44,21,172,细颗粒物(PM2.5)
天津市,津沽路,117.3747,38.9845,2026-03-03T1100,130,149,1.0,29,5,44,30,172,细颗粒物(PM2.5)
天津市,宾水西道,117.159,39.0844,2026-03-03T1100,121,125,1.1,22,6,58,36,159,细颗粒物(PM2.5)
天津市,大理道,117.194,39.1069,2026-03-03T1100,105,121,1.2,30,8,64,44,141,细颗粒物(PM2.5)
天津市,中山北路,117.2096,39.1698,2026-03-03T1100,113,120,0.9,21,6,57,37,149,细颗粒物(PM2.5)
天津市,西四道,117.385,39.1483,2026-03-03T1100,97,114,1.0,26,6,59,36,134,细颗粒物(PM2.5)
天津市,雍阳西道,117.0362,39.3827,2026-03-03T1100,99,121,0.9,16,7,68,43,136,细颗粒物(PM2.5)
天津市,辛老路,117.0291,39.0612,2026-03-03T1100,144,158,0.8,18,6,61,28,192,细颗粒物(PM2.5)
天津市,地纬路,116.9638,38.9374,2026-03-03T1100,113,124,0.7,12,8,61,34,149,细颗粒物(PM2.5)
天津市,北环路,117.4065,40.0583,2026-03-03T1100,102,129,1.1,19,4,59,38,139,细颗粒物(PM2.5)
天津市,建设路,117.3041,39.7167,2026-03-03T1100,114,127,1.2,21,6,63,38,150,细颗粒物(PM2.5)
天津市,滨水东路,117.8201,39.3519,2026-03-03T1100,126,144,1.1,33,6,38,21,166,细颗粒物(PM2.5)
天津市,光华路,117.24369,39.102911,2026-03-03T1100,110,127,1.0,27,4,57,40,146,细颗粒物(PM2.5)
天水市,公园小学,105.72058,34.57859,2026-03-03T1100,19,38,0.9,20,11,45,47,38,
天水市,麦积国土局,105.89428,34.55353,2026-03-03T1100,16,27,0.7,15,10,54,41,27,
铁岭市,水上乐园,123.865,42.292,2026-03-03T1100,193,273,1.2,42,16,32,16,243,细颗粒物(PM2.5)
铁岭市,金沙江路北,123.7158,42.2218,2026-03-03T1100,201,209,1.0,33,10,34,20,251,细颗粒物(PM2.5)
铁岭市,新华街20号,123.835,42.2853,2026-03-03T1100,207,279,1.1,36,16,27,13,257,细颗粒物(PM2.5)
通化市,光明,125.9359,41.7174,2026-03-03T1100,14,24,0.6,10,10,71,39,24,
通化市,铁路,125.9446,41.7323,2026-03-03T1100,14,20,0.5,10,5,70,35,22,
通辽市,艺术职业学校,122.253,43.6801,2026-03-03T1100,44,52,0.6,16,8,60,56,68,细颗粒物(PM2.5)
通辽市,老干部活动中心,122.2584,43.6333,2026-03-03T1100,44,55,0.7,19,8,54,52,68,细颗粒物(PM2.5)
通辽市,东方明珠社区,122.2923,43.6189,2026-03-03T1100,58,90,0.8,21,9,NA,49,NA,NA
铜川市,王益区政府,109.0696,35.0699,2026-03-03T1100,36,48,1.0,20,3,52,60,52,细颗粒物(PM2.5)
铜川市,新区管委会,108.9345,34.9059,2026-03-03T1100,42,47,1.1,17,6,55,62,64,细颗粒物(PM2.5)
铜川市,大唐三路,108.949652,34.870529,2026-03-03T1100,46,48,1.0,13,7,61,64,72,细颗粒物(PM2.5)
铜陵市,市第四中学,117.8176,30.9412,2026-03-03T1100,46,62,0.5,12,6,62,49,72,细颗粒物(PM2.5)
铜陵市,市新民污水厂,117.7806,30.9413,2026-03-03T1100,36,39,0.5,12,5,58,37,52,细颗粒物(PM2.5)
铜陵市,车站新区,117.846,30.9414,2026-03-03T1100,43,63,0.6,13,6,62,50,66,细颗粒物(PM2.5)
铜陵市,市职教基地,117.8472,30.9699,2026-03-03T1100,42,54,0.7,8,4,62,52,64,细颗粒物(PM2.5)
铜仁市,铜仁卫校,109.1839,27.7344,2026-03-03T1100,19,NA,0.7,8,2,70,71,28,
铜仁市,铜仁七中,109.1752,27.6945,2026-03-03T1100,24,NA,0.6,7,1,63,64,35,
吐鲁番市,市环保局,89.1905,42.9419,2026-03-03T1100,42,122,0.9,21,2,62,59,101,颗粒物(PM10)
吐鲁番市,地区环保局,89.1674,42.9558,2026-03-03T1100,63,132,0.8,20,18,55,53,105,颗粒物(PM10)
威海市,华夏技校,122.121,37.4231,2026-03-03T1100,10,31,0.4,12,/,78,81,31,
威海市,山大分校,122.0508,37.5236,2026-03-03T1100,22,22,/,12,/,73,74,32,
威海市,市监测站,122.1067,37.5067,2026-03-03T1100,20,20,0.5,11,4,71,76,29,
威海市,文登开发区,122.0693,37.2175,2026-03-03T1100,16,18,/,12,/,73,75,23,
威海市,临港区管委会,122.1379,37.3414,2026-03-03T1100,8,17,0.3,9,3,80,75,25,
潍坊市,环保局,119.1436,36.7022,2026-03-03T1100,100,139,0.9,30,3,48,48,137,细颗粒物(PM2.5)
潍坊市,坊子邮政,119.1638,36.6524,2026-03-03T1100,103,NA,1.1,35,NA,NA,46,140,细颗粒物(PM2.5)
潍坊市,潍坊七中,119.0587,36.7209,2026-03-03T1100,114,151,1.0,32,5,46,46,150,细颗粒物(PM2.5)
潍坊市,高新实验学校,119.1978,36.6871,2026-03-03T1100,103,141,0.9,23,5,53,50,140,细颗粒物(PM2.5)
潍坊市,潍坊学院,119.1758,36.7139,2026-03-03T1100,99,144,1.0,26,5,52,50,136,细颗粒物(PM2.5)
潍坊市,寒亭区实验一小,119.2046,36.7696,2026-03-03T1100,104,141,0.8,25,5,52,47,140,细颗粒物(PM2.5)
渭南市,体育馆,109.4605,34.4927,2026-03-03T1100,49,61,0.8,24,8,46,29,78,细颗粒物(PM2.5)
渭南市,高新一小,109.4257,34.5067,2026-03-03T1100,56,NA,1.1,26,7,42,42,92,细颗粒物(PM2.5)
渭南市,渭花路4号,109.505065,34.492137,2026-03-03T1100,57,61,1.0,26,13,41,30,94,细颗粒物(PM2.5)
温州市,瓯海,120.6342,28.0088,2026-03-03T1100,10,25,0.3,8,7,68,65,25,
温州市,南浦,120.6747,27.9881,2026-03-03T1100,9,NA,0.4,9,5,75,70,24,
温州市,龙湾,120.76,27.9745,2026-03-03T1100,10,NA,0.4,11,5,66,65,21,
温州市,茶山,120.6985,27.9252,2026-03-03T1100,12,NA,/,11,/,NA,68,NA,NA
温州市,鹿城惠民路,120.6935,28.0114,2026-03-03T1100,9,14,0.5,6,/,72,67,23,
文山壮族苗族自治州,州水务局,104.2533,23.3595,2026-03-03T1100,59,88,NA,NA,6,87,71,NA,NA
文山壮族苗族自治州,市便民服务中心,104.2319,23.3892,2026-03-03T1100,60,81,0.6,13,8,85,80,100,细颗粒物(PM2.5)
乌海市,市林业局,106.8172,39.6972,2026-03-03T1100,54,162,1.1,33,52,54,65,117,颗粒物(PM10)
乌海市,中海勃湾学校,106.7907,39.6666,2026-03-03T1100,61,158,0.9,NA,NA,65,77,115,颗粒物(PM10)
乌海市,海北新区,106.8129,39.7274,2026-03-03T1100,44,180,0.8,21,16,64,61,124,颗粒物(PM10)
乌海市,海拉北路,106.8212,39.6741,2026-03-03T1100,48,164,1.4,38,44,54,73,117,颗粒物(PM10)
乌兰察布市,集宁新区,113.1306,40.9924,2026-03-03T1100,17,43,0.3,1,5,92,88,43,
乌兰察布市,光明街小学,113.1076,41.0385,2026-03-03T1100,3,42,0.4,5,3,93,88,42,
乌兰察布市,北京八中,113.1383,40.9513,2026-03-03T1100,20,73,0.8,8,3,81,75,67,颗粒物(PM10)
乌兰察布市,市委党校,113.1776,40.9779,2026-03-03T1100,3,42,0.5,5,2,92,88,42,
乌鲁木齐市,监测站,87.5796,43.8299,2026-03-03T1100,92,109,0.9,55,8,28,51,130,细颗粒物(PM2.5)
乌鲁木齐市,收费所,87.6044,43.7679,2026-03-03T1100,102,109,0.9,59,12,19,44,139,细颗粒物(PM2.5)
乌鲁木齐市,铁路局,87.5529,43.8704,2026-03-03T1100,98,115,1.0,48,10,37,54,135,细颗粒物(PM2.5)
乌鲁木齐市,三十一中学,87.6408,43.8258,2026-03-03T1100,84,112,0.9,39,7,40,63,122,细颗粒物(PM2.5)
乌鲁木齐市,米东区环保局,87.7218,44.1747,2026-03-03T1100,41,60,0.5,10,15,77,72,62,细颗粒物(PM2.5)
乌鲁木齐市,培训基地,87.4652,43.4569,2026-03-03T1100,22,22,0.5,15,6,71,72,32,
乌鲁木齐市,达坂城区环保局,88.3088,43.3637,2026-03-03T1100,55,81,0.9,46,3,20,36,90,细颗粒物(PM2.5)
乌鲁木齐市,红光山片区,87.6132,43.8791,2026-03-03T1100,113,NA,1.1,49,13,34,57,149,细颗粒物(PM2.5)
乌鲁木齐市,新师大温泉校区,87.7008,43.8003,2026-03-03T1100,80,96,0.8,28,8,52,62,119,细颗粒物(PM2.5)
乌鲁木齐市,大绿谷,87.4892,43.84,2026-03-03T1100,54,66,0.6,58,4,27,42,88,细颗粒物(PM2.5)
无锡市,雪浪,120.2693,31.4864,2026-03-03T1100,41,53,0.9,19,5,52,64,62,细颗粒物(PM2.5)
无锡市,黄巷,120.2761,31.621,2026-03-03T1100,34,59,0.9,18,5,45,55,57,颗粒物(PM10)
无锡市,漆塘,120.2422,31.5037,2026-03-03T1100,44,68,1.0,16,6,48,60,68,细颗粒物(PM2.5)
无锡市,东亭,120.3489,31.5865,2026-03-03T1100,46,53,0.8,21,8,47,59,72,细颗粒物(PM2.5)
无锡市,旺庄,120.3538,31.5474,2026-03-03T1100,43,58,1.1,22,4,44,59,66,细颗粒物(PM2.5)
无锡市,荣巷,120.2447,31.5633,2026-03-03T1100,41,53,1.0,23,4,50,65,62,细颗粒物(PM2.5)
无锡市,堰桥,120.2986,31.6816,2026-03-03T1100,45,56,1.0,20,5,47,59,70,细颗粒物(PM2.5)
无锡市,清舒道1号,120.3138,31.4927,2026-03-03T1100,44,52,0.9,23,2,50,66,68,细颗粒物(PM2.5)
无锡市,健康路105号,120.2925,31.5685,2026-03-03T1100,37,64,1.2,22,3,45,55,60,颗粒物(PM10)
吴忠市,教育园区,106.1535,37.9648,2026-03-03T1100,64,201,0.6,16,17,55,32,132,颗粒物(PM10)
吴忠市,新区二泵站,106.1851,37.9957,2026-03-03T1100,63,167,0.7,18,19,56,47,119,颗粒物(PM10)
吴忠市,文卫南街,106.2176,37.9832,2026-03-03T1100,55,162,0.7,18,26,59,46,117,颗粒物(PM10)
芜湖市,监测站,118.3603,31.3515,2026-03-03T1100,50,62,1.0,20,7,57,49,80,细颗粒物(PM2.5)
芜湖市,科创中心,118.3716,31.4135,2026-03-03T1100,62,70,1.0,26,6,52,49,102,细颗粒物(PM2.5)
芜湖市,四水厂,118.3671,31.3132,2026-03-03T1100,53,64,1.0,20,4,62,57,86,细颗粒物(PM2.5)
芜湖市,市气象局,118.4209,31.3704,2026-03-03T1100,NA,76,0.9,15,NA,59,56,NA,NA
芜湖市,清苑社区,118.4783,31.3226,2026-03-03T1100,51,54,0.9,23,7,66,47,82,细颗粒物(PM2.5)
芜湖市,扬子职业技术学院,118.2746,31.2326,2026-03-03T1100,55,64,0.9,19,7,66,56,90,细颗粒物(PM2.5)
芜湖市,湾沚区人民法院,118.5726,31.1371,2026-03-03T1100,40,NA,0.6,NA,NA,66,55,NA,NA
梧州市,市十一中,111.3126,23.4772,2026-03-03T1100,8,13,0.4,5,7,43,42,14,
梧州市,龙新,111.26,23.4794,2026-03-03T1100,9,16,0.5,5,5,39,39,16,
梧州市,政贤路18号,111.2416,23.4155,2026-03-03T1100,7,8,0.7,NA,4,33,31,NA,NA
五家渠市,农水大厦,87.5352,44.1606,2026-03-03T1100,35,55,0.5,11,12,66,63,54,颗粒物(PM10)
五家渠市,经开区管委会,87.5461,44.1909,2026-03-03T1100,45,51,0.9,13,12,65,68,70,细颗粒物(PM2.5)
五家渠市,建设西街760号,87.055284,43.999117,2026-03-03T1100,28,36,0.5,10,2,72,73,40,
武汉市,东湖梨园,114.3676,30.5584,2026-03-03T1100,41,NA,0.6,14,6,46,41,62,细颗粒物(PM2.5)
武汉市,汉阳月湖,114.2527,30.5578,2026-03-03T1100,42,NA,1.1,8,4,47,42,64,细颗粒物(PM2.5)
武汉市,汉口花桥,114.2819,30.6189,2026-03-03T1100,46,NA,0.6,16,2,47,40,72,细颗粒物(PM2.5)
武汉市,武昌紫阳,114.3024,30.5332,2026-03-03T1100,NA,NA,NA,NA,NA,NA,52,NA,NA
武汉市,青山钢花,114.3646,30.6217,2026-03-03T1100,32,40,0.7,16,5,46,38,46,
武汉市,沌口新区,114.156697,30.482592,2026-03-03T1100,23,29,0.7,21,7,46,48,33,
武汉市,汉口江滩,114.3013,30.5944,2026-03-03T1100,40,NA,0.8,11,6,49,42,60,细颗粒物(PM2.5)
武汉市,吴家山,114.1285,30.6339,2026-03-03T1100,29,NA,0.7,6,4,54,45,42,
武汉市,民族大道182号,114.3876,30.4908,2026-03-03T1100,52,NA,1.0,16,8,47,38,84,细颗粒物(PM2.5)
武威市,监测站,102.6203,37.925,2026-03-03T1100,85,220,0.7,14,13,59,51,139,颗粒物(PM10)
武威市,钟楼街149号,102.6447,37.9293,2026-03-03T1100,68,223,0.6,16,11,63,53,140,颗粒物(PM10)
西安市,兴庆小区,108.9931,34.2629,2026-03-03T1100,47,NA,1.1,26,6,39,30,74,细颗粒物(PM2.5)
西安市,纺织城,109.0595,34.2569,2026-03-03T1100,46,57,1.0,31,5,36,22,72,细颗粒物(PM2.5)
西安市,小寨,108.9377,34.2178,2026-03-03T1100,40,51,0.6,18,6,48,39,60,细颗粒物(PM2.5)
西安市,市人民体育场,108.9522,34.2739,2026-03-03T1100,49,60,1.2,18,5,53,26,78,细颗粒物(PM2.5)
西安市,高新西区,108.8923,34.2322,2026-03-03T1100,45,55,0.8,18,4,48,34,70,细颗粒物(PM2.5)
西安市,经开区,108.9386,34.3446,2026-03-03T1100,NA,NA,NA,28,NA,NA,42,NA,NA
西安市,长安区,108.894,34.1557,2026-03-03T1100,40,57,1.0,15,6,52,44,60,细颗粒物(PM2.5)
西安市,临潼区,109.213,34.3748,2026-03-03T1100,56,63,1.1,29,6,29,40,92,细颗粒物(PM2.5)
西安市,广运潭,109.0508,34.321,2026-03-03T1100,46,61,1.1,28,3,37,30,72,细颗粒物(PM2.5)
西安市,无线电监控中心,109.1019,34.5302,2026-03-03T1100,55,NA,0.8,24,4,45,39,90,细颗粒物(PM2.5)
西安市,行知小学,108.8869,34.2662,2026-03-03T1100,43,53,1.0,18,6,45,27,66,细颗粒物(PM2.5)
西安市,西苑北路977号,108.596239,34.118792,2026-03-03T1100,40,50,0.9,5,6,51,29,60,细颗粒物(PM2.5)
西安市,曲江池东路988号,108.9817,34.2035,2026-03-03T1100,36,41,0.8,23,5,59,49,52,细颗粒物(PM2.5)
西宁市,城北区政府,101.7775,36.643,2026-03-03T1100,39,100,2.0,19,56,70,70,86,颗粒物(PM10)
西宁市,世纪职校,101.8304,36.5785,2026-03-03T1100,62,109,1.7,34,27,49,63,102,细颗粒物(PM2.5)
西宁市,海晏路105号,101.6769,36.6535,2026-03-03T1100,47,114,0.8,18,16,NA,59,NA,NA
西双版纳傣族自治州,景洪市江南,100.8018,21.9995,2026-03-03T1100,50,63,0.7,19,8,51,47,80,细颗粒物(PM2.5)
西双版纳傣族自治州,景洪市江北,100.7995,22.0238,2026-03-03T1100,47,50,0.7,13,8,62,56,74,细颗粒物(PM2.5)
锡林郭勒盟,市环保监测站,116.1048,43.9318,2026-03-03T1100,16,19,0.3,7,4,74,68,24,
锡林郭勒盟,市政府,116.0778,43.9312,2026-03-03T1100,11,29,0.3,5,4,82,76,29,
厦门市,洪文,118.1519,24.4768,2026-03-03T1100,8,10,0.5,16,2,55,55,18,
厦门市,鼓浪屿,118.0671,24.4447,2026-03-03T1100,6,9,/,12,3,57,57,18,
厦门市,湖里中学,118.0937,24.5054,2026-03-03T1100,6,8,0.6,14,1,54,53,17,
厦门市,集美中学,118.0961,24.5689,2026-03-03T1100,8,12,0.4,11,1,60,55,19,
厦门市,同安二实小,118.1502,24.7246,2026-03-03T1100,6,NA,0.5,10,NA,NA,55,NA,NA
咸宁市,长江产业园,114.3379,29.8683,2026-03-03T1100,38,42,NA,NA,5,30,26,NA,NA
咸宁市,双鹤路18号,114.3182,29.8447,2026-03-03T1100,34,47,1.7,21,3,34,29,49,
咸宁市,碧桂路,114.284,29.8595,2026-03-03T1100,43,50,0.8,23,5,32,29,66,细颗粒物(PM2.5)
咸阳市,实验中学,108.6726,34.315,2026-03-03T1100,56,NA,1.0,NA,NA,NA,19,NA,NA
咸阳市,师范学院,108.7226,34.3622,2026-03-03T1100,54,74,0.9,35,4,36,52,88,细颗粒物(PM2.5)
咸阳市,奥体中心,108.6394,34.408,2026-03-03T1100,56,56,0.8,22,3,44,45,92,细颗粒物(PM2.5)
咸阳市,五陵塬路2号(新增20241229),108.6601,34.3767,2026-03-03T1100,60,72,0.8,29,4,49,49,100,细颗粒物(PM2.5)
咸阳市,胭脂路9号(两寺渡并行20241231),108.6372,34.3031,2026-03-03T1100,54,71,0.9,31,5,27,21,88,细颗粒物(PM2.5)
湘潭市,板塘,112.9508,27.8626,2026-03-03T1100,34,43,0.6,18,2,35,36,49,
湘潭市,市监测站,112.9114,27.8404,2026-03-03T1100,49,NA,1.0,18,2,38,37,78,细颗粒物(PM2.5)
湘潭市,江麓,112.8935,27.8729,2026-03-03T1100,45,NA,0.7,14,1,34,36,70,细颗粒物(PM2.5)
湘潭市,岳塘,112.9227,27.8159,2026-03-03T1100,38,NA,0.7,9,5,38,38,56,细颗粒物(PM2.5)
湘潭市,科大,112.9073,27.9118,2026-03-03T1100,48,NA,0.6,14,1,38,38,76,细颗粒物(PM2.5)
湘潭市,昭山,113.0048,27.9153,2026-03-03T1100,38,44,0.9,11,2,34,35,56,细颗粒物(PM2.5)
湘西土家族苗族自治州,州政府,109.7298,28.3164,2026-03-03T1100,23,NA,0.2,11,3,61,28,33,
湘西土家族苗族自治州,吉首市计生局,109.6957,28.2676,2026-03-03T1100,20,23,0.4,6,4,59,37,29,
襄阳市,襄城运动路,112.1555,32.0197,2026-03-03T1100,46,55,0.8,17,9,82,39,72,细颗粒物(PM2.5)
襄阳市,高新管委会,112.1829,32.1146,2026-03-03T1100,47,59,0.7,23,8,87,55,74,细颗粒物(PM2.5)
襄阳市,襄州航空路,112.2105,32.0903,2026-03-03T1100,44,65,0.5,19,7,76,54,68,细颗粒物(PM2.5)
襄阳市,襄城隆中路,112.0764,32.0089,2026-03-03T1100,50,55,0.7,22,11,71,40,80,细颗粒物(PM2.5)
襄阳市,高新台子湾,112.1154,32.103,2026-03-03T1100,47,72,0.6,27,7,70,42,74,细颗粒物(PM2.5)
襄阳市,铁院东路4号,112.1433,32.0581,2026-03-03T1100,45,59,0.7,24,7,76,48,70,细颗粒物(PM2.5)
孝感市,东城区,113.9062,30.9378,2026-03-03T1100,27,53,0.7,14,4,61,57,53,颗粒物(PM10)
孝感市,天仙南路1号,113.946,30.8999,2026-03-03T1100,40,52,0.5,13,2,50,48,60,细颗粒物(PM2.5)
忻州市,开发区,112.7313,38.457,2026-03-03T1100,101,104,1.5,25,7,40,16,138,细颗粒物(PM2.5)
忻州市,会展中心,112.7023,38.4932,2026-03-03T1100,107,NA,1.3,20,6,39,15,143,细颗粒物(PM2.5)
忻州市,市政府,112.7279,38.4157,2026-03-03T1100,NA,116,1.6,21,10,37,14,NA,NA
辛集市,市政府,115.2124,37.9433,2026-03-03T1100,118,NA,0.8,15,8,78,92,155,细颗粒物(PM2.5)
辛集市,城管大队,115.2008,37.9338,2026-03-03T1100,115,NA,1.3,14,1,76,93,150,细颗粒物(PM2.5)
新乡市,环保西院,113.836,35.3104,2026-03-03T1100,96,117,1.0,22,5,67,78,133,细颗粒物(PM2.5)
新乡市,开发区,113.8847,35.2724,2026-03-03T1100,100,NA,0.8,24,6,64,87,137,细颗粒物(PM2.5)
