area,positionname,longitude,latitude,timepoint,pm2_5,pm10,co,no2,so2,o3,o3_8h,aqi,primarypollutant
阿坝藏族羌族自治州,马师校,102.2503,31.8896,2026-02-19T1100,14,,0.5,3,4,57,59,20,
阿坝藏族羌族自治州,马尔康中学西区,102.2174,31.9016,2026-02-19T1100,15,,0.5,5,5,58,63,22,
阿克苏地区,艺术中心,80.2592,41.1541,2026-02-19T1100,72,227,0.8,21,3,38,48,139,颗粒物(PM10)
阿拉善盟,蒙二幼,105.699,38.8409,2026-02-19T1100,10,76,0.6,,10,91,83,,
阿拉善盟,环保局新楼,105.7198,38.8508,2026-02-19T1100,13,65,0.5,5,10,84,87,58,颗粒物(PM10)
阿勒泰地区,阿勒泰路33号,88.1198,47.7931,2026-02-19T1100,3,8,0.3,10,8,89,90,28,
阿里地区,阿里监测站,80.1171,32.4999,2026-02-19T1100,13,16,0.4,7,11,71,70,23,
阿里地区,阿里藏医院,80.0906,32.5029,2026-02-19T1100,3,23,0.5,10,16,69,85,23,
安康市,汉滨区检察院,109.0088,32.6974,2026-02-19T1100,45,47,0.6,7,2,40,19,63,细颗粒物(PM2.5)
安康市,市邮政管理局,109.0324,32.6913,2026-02-19T1100,46,60,0.6,6,4,37,22,64,细颗粒物(PM2.5)
安庆市,环科院,117.0806,30.5181,2026-02-19T1100,60,74,0.8,13,8,47,40,82,细颗粒物(PM2.5)
安庆市,马山宾馆,117.0331,30.5118,2026-02-19T1100,62,70,0.8,19,7,43,36,84,细颗粒物(PM2.5)
安庆市,安庆大学,116.9897,30.6146,2026-02-19T1100,58,66,0.8,9,7,56,43,79,细颗粒物(PM2.5)
安庆市,市人大,117.0598,30.5351,2026-02-19T1100,57,74,0.7,13,8,52,40,78,细颗粒物(PM2.5)
安顺市,凤凰山,105.9408,26.2431,2026-02-19T1100,12,12,0.6,8,20,46,42,18,
安顺市,娄家坡,105.8983,26.248,2026-02-19T1100,14,,0.8,9,15,44,39,20,
安阳市,红庙街,114.3552,36.1017,2026-02-19T1100,20,55,1.3,16,15,83,40,53,颗粒物(PM10)
安阳市,银杏小区,114.361,36.0681,2026-02-19T1100,16,46,0.8,16,9,84,53,46,
安阳市,信访局,114.3921,36.0879,2026-02-19T1100,24,44,1.1,15,18,90,68,44,
安阳市,左辅环卫站,114.4706,36.0634,2026-02-19T1100,14,49,0.9,12,12,90,71,49,
安阳市,钢三路198号,114.2918,36.0769,2026-02-19T1100,11,42,0.5,12,6,80,51,42,
鞍山市,深沟寺,123.0441,41.1201,2026-02-19T1100,30,56,0.7,13,20,89,84,53,颗粒物(PM10)
鞍山市,太阳城,123.011,41.0931,2026-02-19T1100,29,54,0.7,13,24,83,76,52,颗粒物(PM10)
鞍山市,太平,123.0483,41.1445,2026-02-19T1100,35,64,0.5,12,22,84,79,57,颗粒物(PM10)
鞍山市,铁西三道街,122.964,41.0968,2026-02-19T1100,34,64,0.6,15,15,90,82,57,颗粒物(PM10)
鞍山市,明达新区,123.0219,41.0822,2026-02-19T1100,28,58,0.7,12,21,86,82,54,颗粒物(PM10)
鞍山市,兴盛南路290号,122.944647,41.082639,2026-02-19T1100,34,78,0.7,14,17,84,74,64,颗粒物(PM10)
巴彦淖尔市,附二中,107.4206,40.7609,2026-02-19T1100,17,95,0.4,5,7,76,74,73,颗粒物(PM10)
巴彦淖尔市,市环保大楼,107.37,40.7372,2026-02-19T1100,17,119,0.3,,5,79,72,,
巴音郭楞蒙古自治州,孔雀公园,86.1476,41.7529,2026-02-19T1100,32,145,0.5,18,9,50,53,98,颗粒物(PM10)
巴音郭楞蒙古自治州,棉纺厂,86.1971,41.7166,2026-02-19T1100,26,153,/,7,/,63,64,102,颗粒物(PM10)
巴中市,市五中,106.776805,31.852614,2026-02-19T1100,57,,1.1,16,8,25,12,78,细颗粒物(PM2.5)
巴中市,圣泉水务公司,106.7419,31.8654,2026-02-19T1100,46,,,16,7,,25,,
巴中市,市中心医院,106.7617,31.8343,2026-02-19T1100,59,,1.0,12,7,28,8,80,细颗粒物(PM2.5)
白城市,洮北区环保局,122.7909,45.608,2026-02-19T1100,163,165,0.8,20,10,92,53,213,细颗粒物(PM2.5)
白城市,市环保局,122.8741,45.5725,2026-02-19T1100,70,73,0.5,9,7,79,51,94,细颗粒物(PM2.5)
白山市,喜丰,126.4219,41.9172,2026-02-19T1100,28,62,0.9,20,19,63,48,56,颗粒物(PM10)
白山市,环保局,126.4082,41.9416,2026-02-19T1100,40,72,1.1,18,30,61,49,61,颗粒物(PM10)
白银市,动力公司,104.1467,36.5482,2026-02-19T1100,14,36,1.1,8,23,81,66,36,
百色市,市监测站,106.6102,23.901,2026-02-19T1100,3,16,0.7,10,10,19,22,16,
百色市,市中心血站,106.6524,23.8842,2026-02-19T1100,20,23,0.7,9,9,19,22,29,
百色市,龙景西路,106.6273,23.8798,2026-02-19T1100,17,26,0.5,8,10,14,18,26,
蚌埠市,工人疗养院,117.396,32.9389,2026-02-19T1100,56,74,0.7,12,9,84,78,77,细颗粒物(PM2.5)
蚌埠市,蚌埠学院,117.4183,32.8909,2026-02-19T1100,52,,0.6,9,9,85,66,72,细颗粒物(PM2.5)
蚌埠市,淮上区政府,117.3534,32.9672,2026-02-19T1100,55,63,0.5,8,8,88,82,75,细颗粒物(PM2.5)
蚌埠市,高新区,117.3143,32.8977,2026-02-19T1100,78,78,0.5,8,10,71,59,104,细颗粒物(PM2.5)
蚌埠市,蚌埠田家炳中学,117.3091,32.9314,2026-02-19T1100,65,68,0.5,9,9,79,63,88,细颗粒物(PM2.5)
包头市,市环境监测站,109.8761,40.6533,2026-02-19T1100,32,63,3.0,39,30,67,29,57,颗粒物(PM10)
包头市,惠龙物流,109.8641,40.6288,2026-02-19T1100,32,69,2.0,34,29,80,32,60,颗粒物(PM10)
包头市,滨河大厦,109.9154,40.5684,2026-02-19T1100,69,,1.1,33,46,69,32,93,细颗粒物(PM2.5)
包头市,包头市委党校,109.9449,40.6259,2026-02-19T1100,40,71,2.5,33,29,72,40,61,颗粒物(PM10)
包头市,昆区政府,109.8332,40.6577,2026-02-19T1100,40,69,4.2,52,39,68,50,60,颗粒物(PM10)
宝鸡市,竹园沟,107.0802,34.3129,2026-02-19T1100,26,69,0.4,14,6,68,43,60,颗粒物(PM10)
宝鸡市,监测站,107.1429,34.3549,2026-02-19T1100,34,64,0.6,18,5,48,38,57,颗粒物(PM10)
宝鸡市,技工学校,107.1172,34.3759,2026-02-19T1100,32,78,0.9,14,4,60,54,64,颗粒物(PM10)
宝鸡市,文理学院,107.2025,34.3518,2026-02-19T1100,34,54,0.5,15,5,60,48,52,颗粒物(PM10)
宝鸡市,三迪小学,107.2396,34.3626,2026-02-19T1100,38,55,0.7,20,4,54,46,54,细颗粒物(PM2.5)
宝鸡市,滨河北路,107.1721,34.3558,2026-02-19T1100,39,55,0.5,16,6,53,45,55,细颗粒物(PM2.5)
宝鸡市,陈仓区北开路21号,107.3898,34.3601,2026-02-19T1100,63,86,0.5,16,48,62,57,85,细颗粒物(PM2.5)
保定市,游泳馆,115.4803,38.8568,2026-02-19T1100,56,71,0.6,15,9,72,58,77,细颗粒物(PM2.5)
保定市,华电二区,115.509,38.8895,2026-02-19T1100,65,86,0.8,16,11,57,60,88,细颗粒物(PM2.5)
保定市,接待中心,115.4588,38.9037,2026-02-19T1100,57,79,,,7,66,58,,
保定市,地表水厂,115.4484,38.8344,2026-02-19T1100,41,86,0.6,14,7,77,50,68,颗粒物(PM10)
保定市,满城区生态环境分局,115.3136,38.9511,2026-02-19T1100,36,70,0.6,19,6,65,49,60,颗粒物(PM10)
保定市,清苑区第二中学,115.4709,38.7628,2026-02-19T1100,54,101,0.5,12,12,72,56,76,颗粒物(PM10)
保定市,徐水物探局,115.6231,39.0223,2026-02-19T1100,100,185,0.8,24,16,73,46,132,细颗粒物(PM2.5)
保定市,双鹰农机,115.4199,38.8665,2026-02-19T1100,52,88,0.6,13,7,81,61,72,细颗粒物(PM2.5)
保定市,植保所站,115.515,38.8589,2026-02-19T1100,56,83,0.8,17,10,76,58,77,细颗粒物(PM2.5)
保山市,市环保局,99.1616,25.1381,2026-02-19T1100,21,40,0.7,12,6,78,93,40,
北海市,海滩公园,109.1435,21.4085,2026-02-19T1100,38,76,0.8,12,6,78,44,63,颗粒物(PM10)
北海市,新市环保局,109.0983,21.466,2026-02-19T1100,38,64,0.8,12,6,56,33,57,颗粒物(PM10)
北海市,北海工业园,109.1775,21.5232,2026-02-19T1100,50,76,1.0,10,10,64,33,69,细颗粒物(PM2.5)
北海市,龙潭自来水厂,109.1844,21.4396,2026-02-19T1100,53,72,1.0,8,7,73,33,73,细颗粒物(PM2.5)
北京市,万寿西宫,116.3611,39.8786,2026-02-19T1100,49,68,0.7,20,7,64,39,68,细颗粒物(PM2.5)
北京市,东四,116.4174,39.9289,2026-02-19T1100,44,59,0.7,22,9,54,33,62,细颗粒物(PM2.5)
北京市,天坛,116.4073,39.8858,2026-02-19T1100,49,72,1.0,28,6,53,22,68,细颗粒物(PM2.5)
北京市,农展馆,116.4622,39.9364,2026-02-19T1100,44,92,0.9,13,9,65,40,71,颗粒物(PM10)
北京市,官园,116.3399,39.9293,2026-02-19T1100,43,70,0.7,19,8,57,40,60,"颗粒物(PM10),细颗粒物(PM2.5)"
北京市,海淀万柳,116.2879,39.9613,2026-02-19T1100,46,67,0.8,30,5,43,31,64,细颗粒物(PM2.5)
北京市,顺义新城,116.6635,40.1349,2026-02-19T1100,31,56,0.6,4,9,78,45,53,颗粒物(PM10)
北京市,怀柔镇,116.6275,40.327,2026-02-19T1100,37,59,0.6,9,6,71,53,55,颗粒物(PM10)
北京市,昌平镇,116.2295,40.217,2026-02-19T1100,33,55,0.8,20,4,51,45,53,颗粒物(PM10)
北京市,奥体中心,116.3968,39.982,2026-02-19T1100,45,61,0.7,24,8,52,35,63,细颗粒物(PM2.5)
北京市,密云新城,116.8336,40.4095,2026-02-19T1100,33,48,0.4,9,5,73,51,48,
北京市,门头沟三家店,116.0879,39.9725,2026-02-19T1100,25,48,0.5,15,5,56,48,48,
北京市,丰台云岗,116.1507,39.8246,2026-02-19T1100,60,64,0.7,18,6,64,52,82,细颗粒物(PM2.5)
北京市,房山燕山,115.9578,39.7602,2026-02-19T1100,29,45,0.7,13,6,77,51,45,
北京市,大兴旧宫,116.4669,39.7734,2026-02-19T1100,48,72,0.6,25,8,53,34,67,细颗粒物(PM2.5)
北京市,延庆石河营,115.9859,40.4562,2026-02-19T1100,34,53,0.5,9,4,73,40,52,颗粒物(PM10)
北京市,怀柔新城,116.6151,40.3052,2026-02-19T1100,38,53,0.5,11,5,67,54,54,细颗粒物(PM2.5)
北京市,丰台小屯,116.2542,39.8764,2026-02-19T1100,48,69,0.7,29,8,46,34,67,细颗粒物(PM2.5)
北京市,密云镇,116.8399,40.3843,2026-02-19T1100,29,55,0.6,13,3,65,44,53,颗粒物(PM10)
北京市,延庆百泉,115.9423,40.4431,2026-02-19T1100,29,49,0.5,7,3,71,41,49,
北京市,通州新华,116.6598,39.9164,2026-02-19T1100,63,,0.7,30,6,53,36,85,细颗粒物(PM2.5)
北京市,石景山八角,116.1942,39.9158,2026-02-19T1100,42,64,0.5,12,7,59,42,59,细颗粒物(PM2.5)
北京市,平谷新城,117.078628,40.151726,2026-02-19T1100,45,60,0.7,6,6,69,43,63,细颗粒物(PM2.5)
本溪市,大峪,123.8274146,41.31234549,2026-02-19T1100,18,38,0.7,2,12,87,61,38,
本溪市,彩屯,123.7169,41.3094,2026-02-19T1100,26,50,1.8,15,22,76,56,50,
本溪市,东明,123.7672166,41.28649327,2026-02-19T1100,22,64,0.8,6,9,82,80,57,颗粒物(PM10)
本溪市,新立屯,123.799345,41.266614,2026-02-19T1100,19,48,0.5,4,9,83,80,48,
本溪市,威宁,123.829144,41.336777,2026-02-19T1100,14,67,0.6,5,12,88,49,59,颗粒物(PM10)
毕节市,八中,105.287,27.3133,2026-02-19T1100,10,13,0.8,6,10,,45,,
毕节市,师专,105.3079,27.2987,2026-02-19T1100,7,12,0.7,8,9,54,50,17,
毕节市,工业大道,105.3688,27.3598,2026-02-19T1100,3,12,/,6,9,60,54,19,
滨州市,第二水厂,117.9961,37.3604,2026-02-19T1100,78,95,1.1,17,23,96,60,104,细颗粒物(PM2.5)
滨州市,北中新校,117.9789,37.3931,2026-02-19T1100,72,95,1.0,20,,,61,,
滨州市,开发区一中,117.9381509,37.35547456,2026-02-19T1100,70,100,1.1,13,27,100,66,94,细颗粒物(PM2.5)
滨州市,金海六路,118.0914,37.6938,2026-02-19T1100,78,115,1.0,18,21,102,61,104,细颗粒物(PM2.5)
滨州市,滨州市西街道办事处,117.9955,37.3752,2026-02-19T1100,61,102,0.7,11,21,106,69,83,细颗粒物(PM2.5)
亳州市,污水处理厂,115.8071,33.8399,2026-02-19T1100,62,68,0.3,11,7,66,64,84,细颗粒物(PM2.5)
亳州市,三国揽胜宫,115.7789,33.8519,2026-02-19T1100,64,97,0.4,18,7,64,63,87,细颗粒物(PM2.5)
亳州市,亳州学院,115.7631,33.803,2026-02-19T1100,66,72,0.4,4,6,66,60,89,细颗粒物(PM2.5)
博尔塔拉蒙古自治州,市环保局,82.0805,44.8966,2026-02-19T1100,26,54,1.0,25,5,42,59,52,颗粒物(PM10)
沧州市,河北水利电力学院,116.8011,38.294,2026-02-19T1100,60,102,0.7,12,17,74,52,82,细颗粒物(PM2.5)
昌都市,昌都监测站,97.1813,31.1289,2026-02-19T1100,23,44,0.7,5,2,56,57,44,
昌吉回族自治州,新区政务中心,87.2722,44.0298,2026-02-19T1100,98,136,1.1,30,4,77,95,129,细颗粒物(PM2.5)
昌吉回族自治州,亚心广场,87.3069,44.0093,2026-02-19T1100,100,122,1.0,25,,93,115,132,细颗粒物(PM2.5)
昌吉回族自治州,财政所,87.2057,43.9289,2026-02-19T1100,128,166,1.1,10,5,114,98,169,细颗粒物(PM2.5)
长春市,客车厂,125.2874,43.9024,2026-02-19T1100,23,48,0.8,11,12,72,63,48,
长春市,邮电学院,125.2943,43.8508,2026-02-19T1100,28,37,0.6,10,13,67,54,40,
长春市,劳动公园,125.3648,43.8745,2026-02-19T1100,22,52,0.6,8,,74,66,,
长春市,园林处,125.3233,43.8781,2026-02-19T1100,28,58,0.4,11,14,73,65,54,颗粒物(PM10)
长春市,净月潭,125.4604,43.7904,2026-02-19T1100,21,41,0.5,9,10,74,65,41,
长春市,经开区环卫处,125.38,43.8422,2026-02-19T1100,26,52,0.6,10,10,77,62,51,颗粒物(PM10)
长春市,高新区管委会,125.234,43.7761,2026-02-19T1100,21,52,0.6,7,11,75,62,51,颗粒物(PM10)
长春市,岱山公园,125.1695,43.83,2026-02-19T1100,24,55,0.5,8,,,64,,
长春市,北亚泰大街1068号,125.334645,43.916281,2026-02-19T1100,22,57,0.6,12,12,69,55,54,颗粒物(PM10)
长沙市,经开区环保局,113.082,28.2421,2026-02-19T1100,36,48,0.6,12,3,28,22,52,细颗粒物(PM2.5)
长沙市,高开区环保局,112.8873,28.2202,2026-02-19T1100,44,,0.9,10,4,,28,,
长沙市,马坡岭,113.0785,28.2012,2026-02-19T1100,41,,0.8,12,4,32,26,58,细颗粒物(PM2.5)
长沙市,湖南师范大学,112.9448,28.1894,2026-02-19T1100,,,0.8,4,4,,34,,
长沙市,雨花区环保局,113.0177,28.1322,2026-02-19T1100,40,,1.1,11,7,38,33,57,细颗粒物(PM2.5)
长沙市,伍家岭,112.9795,28.2593,2026-02-19T1100,31,46,0.8,10,5,32,27,46,
长沙市,火车新站,113.002,28.1944,2026-02-19T1100,31,41,0.9,10,2,34,34,45,
长沙市,天心区环保局,112.9846,28.1177,2026-02-19T1100,43,63,0.8,9,5,34,24,60,细颗粒物(PM2.5)
长沙市,湖南中医药大学,112.8906,28.1307,2026-02-19T1100,40,58,0.9,7,5,32,21,57,细颗粒物(PM2.5)
长治市,清华站,113.1146,36.1547,2026-02-19T1100,3,38,0.5,10,14,90,72,38,
长治市,长治八中,113.0845,36.1856,2026-02-19T1100,17,36,0.7,10,16,85,70,36,
长治市,向阳小学,113.0603,36.0464,2026-02-19T1100,16,62,0.4,9,14,99,82,56,颗粒物(PM10)
长治市,屯留一中,112.8788,36.315,2026-02-19T1100,21,46,1.0,10,10,97,80,46,
长治市,英华南巷50号,113.113092,36.199482,2026-02-19T1100,11,37,0.7,4,11,90,72,37,
常德市,市二中,111.696,28.9725,2026-02-19T1100,52,66,0.9,5,5,40,38,72,细颗粒物(PM2.5)
常德市,武陵区永安,111.7152,29.0288,2026-02-19T1100,52,74,0.8,10,6,43,46,72,细颗粒物(PM2.5)
常德市,鼎城区玉霞,111.6891,28.9881,2026-02-19T1100,,,0.9,11,,38,31,,
常德市,武陵区长庚,111.6651,29.0526,2026-02-19T1100,54,74,0.8,6,5,42,31,74,细颗粒物(PM2.5)
常州市,武进监测站,119.9351,31.703,2026-02-19T1100,52,61,0.7,8,9,80,49,72,细颗粒物(PM2.5)
常州市,行政中心,119.9701,31.813,2026-02-19T1100,57,62,0.8,14,6,82,56,78,细颗粒物(PM2.5)
常州市,经开区,120.0434,31.7726,2026-02-19T1100,56,72,1.6,10,18,86,59,77,细颗粒物(PM2.5)
常州市,钟楼,119.8919,31.7892,2026-02-19T1100,59,67,0.7,11,8,92,57,80,细颗粒物(PM2.5)
常州市,武进经发区,119.8595,31.706,2026-02-19T1100,55,66,0.8,9,7,84,46,75,细颗粒物(PM2.5)
常州市,金坛城区,119.5812,31.7256,2026-02-19T1100,73,80,1.2,14,10,,,,
常州市,崇义南街5-H号,119.9551,31.863,2026-02-19T1100,54,55,0.7,13,6,87,34,74,细颗粒物(PM2.5)
朝阳市,西梁,120.4318,41.588,2026-02-19T1100,20,61,0.8,9,16,88,77,56,颗粒物(PM10)
朝阳市,河畔小区,120.452,41.565,2026-02-19T1100,13,60,1.2,15,20,86,76,55,颗粒物(PM10)
朝阳市,八里堡,120.4176,41.5648,2026-02-19T1100,31,52,0.9,10,15,86,74,51,颗粒物(PM10)
潮州市,市政府,116.6179,23.6608,2026-02-19T1100,29,34,0.5,1,2,61,70,42,
潮州市,金山,116.646,23.676,2026-02-19T1100,26,44,0.6,4,2,63,70,44,
郴州市,市职中,113.0116,25.8228,2026-02-19T1100,49,,0.6,8,4,9,9,68,细颗粒物(PM2.5)
郴州市,市审计局,113.0381,25.8074,2026-02-19T1100,43,53,/,7,5,15,11,60,细颗粒物(PM2.5)
郴州市,市环保局,113.0348,25.7757,2026-02-19T1100,48,70,0.6,8,4,15,15,67,细颗粒物(PM2.5)
郴州市,好美居路49号,113.0138,25.8011,2026-02-19T1100,36,50,/,7,2,21,18,52,细颗粒物(PM2.5)
成都市,金泉两河,103.9727,30.7242,2026-02-19T1100,75,88,0.7,20,6,58,24,100,细颗粒物(PM2.5)
成都市,十里店,104.1423,30.6765,2026-02-19T1100,65,,0.7,17,5,53,36,88,细颗粒物(PM2.5)
成都市,三瓦窑,104.0594,30.5765,2026-02-19T1100,67,,0.6,14,4,67,40,90,细颗粒物(PM2.5)
成都市,沙河铺,104.1122,30.6306,2026-02-19T1100,65,,0.7,37,4,47,26,88,细颗粒物(PM2.5)
成都市,大石西路,104.0219,30.6561,2026-02-19T1100,82,82,1.0,24,7,51,18,109,细颗粒物(PM2.5)
成都市,龙泉驿区区政府,104.2724,30.559,2026-02-19T1100,64,68,0.6,12,8,72,56,87,细颗粒物(PM2.5)
成都市,金博路,104.0028,30.6891,2026-02-19T1100,54,58,0.8,23,6,51,25,74,细颗粒物(PM2.5)
成都市,华阳,104.056,30.5228,2026-02-19T1100,,,0.7,16,,,29,,
成都市,青石路225号,104.387954,30.746684,2026-02-19T1100,57,57,0.7,15,7,60,40,78,细颗粒物(PM2.5)
成都市,科学城,104.0788,30.4054,2026-02-19T1100,54,66,0.8,11,7,43,32,74,细颗粒物(PM2.5)
成都市,八角井街185号,104.3257,30.6406,2026-02-19T1100,62,72,0.8,21,5,59,50,84,细颗粒物(PM2.5)
成都市,鲸龙路1057号,104.2433276,30.53529463,2026-02-19T1100,67,77,0.8,11,10,74,50,90,细颗粒物(PM2.5)
承德市,铁路,117.9531,40.908,2026-02-19T1100,24,63,1.0,16,14,59,42,57,颗粒物(PM10)
承德市,中国银行,117.9397,40.9763,2026-02-19T1100,27,28,0.8,11,8,63,41,39,
承德市,杏林街1号,117.9462,40.95,2026-02-19T1100,29,46,0.8,10,11,68,44,46,
承德市,滨河大街98号,117.7994,40.9605,2026-02-19T1100,32,51,1.7,22,35,61,47,51,颗粒物(PM10)
池州市,池州学院,117.4698,30.6617,2026-02-19T1100,54,62,1.0,13,4,47,44,74,细颗粒物(PM2.5)
池州市,展览馆,117.4918,30.6617,2026-02-19T1100,,,,,4,41,39,,
池州市,第八中学,117.5626,30.695,2026-02-19T1100,53,62,0.8,15,4,44,36,73,细颗粒物(PM2.5)
池州市,第十二中学,117.5037,30.6242,2026-02-19T1100,57,70,1.0,14,7,38,37,78,细颗粒物(PM2.5)
赤峰市,松山一中,118.9229,42.2816,2026-02-19T1100,3,44,0.5,10,3,60,62,44,
赤峰市,哈达街,118.9588,42.2733,2026-02-19T1100,8,41,0.6,10,10,71,66,41,
赤峰市,银河街,119.2656,42.0356,2026-02-19T1100,55,79,0.8,13,16,82,62,75,细颗粒物(PM2.5)
赤峰市,桥北物流园区,118.9359,42.3146,2026-02-19T1100,12,34,0.3,2,4,84,70,34,
崇左市,市环保局江州分局,107.3473,22.4137,2026-02-19T1100,44,52,0.9,11,5,29,29,62,细颗粒物(PM2.5)
崇左市,石景林东路7号,107.375,22.3736,2026-02-19T1100,44,44,1.1,11,3,28,28,62,细颗粒物(PM2.5)
滁州市,市政府原办公楼,118.31131,32.3033,2026-02-19T1100,56,59,0.6,11,7,,26,,
滁州市,图书馆,118.3268,32.2633,2026-02-19T1100,44,57,0.8,12,11,71,48,62,细颗粒物(PM2.5)
滁州市,银山路666号,118.3196,32.3335,2026-02-19T1100,73,,0.7,12,9,65,25,98,细颗粒物(PM2.5)
滁州市,黄山路555号,118.3426,32.2979,2026-02-19T1100,65,69,0.7,10,8,78,35,88,细颗粒物(PM2.5)
楚雄彝族自治州,市经济开发区,101.5379,25.0492,2026-02-19T1100,39,60,0.7,15,26,70,66,55,"颗粒物(PM10),细颗粒物(PM2.5)"
楚雄彝族自治州,团结路562号,101.5536,25.0343,2026-02-19T1100,30,49,0.8,14,11,69,52,49,
达州市,凤凰小区,107.4988,31.2132,2026-02-19T1100,55,73,0.5,13,8,24,7,75,细颗粒物(PM2.5)
达州市,达县机关宾馆,107.5081,31.1987,2026-02-19T1100,52,66,0.9,15,5,26,7,72,细颗粒物(PM2.5)
达州市,市政中心,107.4644,31.2124,2026-02-19T1100,58,66,0.7,21,6,22,5,79,细颗粒物(PM2.5)
大理白族自治州,大理古城,100.1542,25.7055,2026-02-19T1100,14,26,0.5,7,8,101,94,32,
大连市,甘井子,121.6119,38.974,2026-02-19T1100,48,57,0.6,14,18,94,69,67,细颗粒物(PM2.5)
大连市,周水子,121.565,38.9509,2026-02-19T1100,58,,0.5,11,14,94,70,79,细颗粒物(PM2.5)
大连市,星海三站,121.5637,38.8849,2026-02-19T1100,40,,0.6,10,9,83,70,57,细颗粒物(PM2.5)
大连市,青泥洼桥,121.6301,38.9117,2026-02-19T1100,47,58,0.6,14,12,94,77,65,细颗粒物(PM2.5)
大连市,傅家庄,121.6248,38.8643,2026-02-19T1100,34,48,0.4,9,8,87,75,49,
大连市,七贤岭,121.5117,38.8636,2026-02-19T1100,50,,0.7,14,10,87,69,69,细颗粒物(PM2.5)
大连市,金州,121.7507,39.1339,2026-02-19T1100,48,56,0.4,15,16,90,72,67,细颗粒物(PM2.5)
大连市,开发区,121.7811,39.0495,2026-02-19T1100,45,,,13,7,,69,,
大连市,双D港,121.9762,39.0631,2026-02-19T1100,34,44,0.8,18,8,96,77,49,
大连市,旅顺,121.2548,38.8188,2026-02-19T1100,61,66,0.7,11,14,96,73,83,细颗粒物(PM2.5)
大庆市,龙凤区,125.1166,46.5255,2026-02-19T1100,46,58,0.4,12,10,58,54,64,细颗粒物(PM2.5)
大庆市,红岗区,124.8894,46.4007,2026-02-19T1100,25,44,0.3,11,6,47,39,44,
大庆市,让胡路区,124.9026,46.6217,2026-02-19T1100,30,43,0.5,14,20,20,20,43,
大庆市,萨区政府监测点,125.127,46.6277,2026-02-19T1100,51,90,0.9,14,13,59,62,70,"颗粒物(PM10),细颗粒物(PM2.5)"
大同市,云冈宾馆,113.2926,40.0759,2026-02-19T1100,26,85,1.3,24,19,52,27,68,颗粒物(PM10)
大同市,安家小村,113.2637,40.129,2026-02-19T1100,35,99,1.2,23,16,63,35,75,颗粒物(PM10)
大同市,云冈站,113.1371,40.1122,2026-02-19T1100,24,91,0.3,6,8,82,47,71,颗粒物(PM10)
大同市,图书馆,113.1186,40.2556,2026-02-19T1100,27,105,0.6,10,14,74,41,78,颗粒物(PM10)
大同市,魏都大道141号,113.2798248,40.09972476,2026-02-19T1100,17,97,1.3,28,16,,25,,
大兴安岭地区,科技局,124.1068,50.4091,2026-02-19T1100,8,20,0.3,5,7,60,58,20,
大兴安岭地区,红旗社区,124.117,50.4279,2026-02-19T1100,11,19,0.3,9,7,69,40,22,
丹东市,江湾东路,124.33,40.0625,2026-02-19T1100,15,35,0.5,6,8,74,40,35,
丹东市,临江后街,124.4242,40.1513,2026-02-19T1100,22,46,0.4,5,15,72,45,46,
丹东市,元宝山,124.3935,40.1461,2026-02-19T1100,21,43,0.5,4,13,73,46,43,
丹东市,民主桥,124.3634,40.1093,2026-02-19T1100,16,32,0.5,1,13,72,32,32,
儋州市,第一中学子站,109.5726195,19.51688767,2026-02-19T1100,14,27,0.7,1,4,64,62,27,
儋州市,东坡学校子站,109.5567,19.5187,2026-02-19T1100,14,37,0.5,4,5,67,66,37,
德宏傣族景颇族自治州,芒市人民政府综合楼,98.5887,24.4366,2026-02-19T1100,51,84,1.2,23,6,46,46,70,细颗粒物(PM2.5)
德阳市,东山公园,104.424,31.1209,2026-02-19T1100,82,,0.7,13,2,47,59,109,细颗粒物(PM2.5)
德阳市,西小区,104.3827,31.1318,2026-02-19T1100,85,95,1.0,50,5,24,23,113,细颗粒物(PM2.5)
德阳市,市林业局,104.4144,31.1495,2026-02-19T1100,80,83,0.9,34,6,29,36,107,细颗粒物(PM2.5)
德州市,儿童乐园,116.3034,37.4675,2026-02-19T1100,70,90,1.0,17,20,81,84,94,细颗粒物(PM2.5)
德州市,监理站,116.2992,37.4449,2026-02-19T1100,71,92,1.0,19,22,71,120,95,细颗粒物(PM2.5)
德州市,九衢泉纯净水厂,116.2722,37.438,2026-02-19T1100,63,83,1.1,17,13,84,79,85,细颗粒物(PM2.5)
德州市,开发区人民医院,116.3693,37.44,2026-02-19T1100,69,100,1.1,9,21,86,82,93,细颗粒物(PM2.5)
德州市,陵城艺术中心,116.5687,37.3331,2026-02-19T1100,63,85,1.1,20,21,80,70,85,细颗粒物(PM2.5)
德州市,新河东路,116.352738,37.420875,2026-02-19T1100,60,73,1.0,13,23,79,69,82,细颗粒物(PM2.5)
迪庆藏族自治州,迪庆州站,99.7054,27.8319,2026-02-19T1100,23,40,0.8,9,5,86,72,40,
定西市,将台街,104.6092,35.5962,2026-02-19T1100,30,60,0.6,8,15,66,36,55,颗粒物(PM10)
定西市,正龙路62号,104.6159,35.5701,2026-02-19T1100,17,50,0.8,10,13,58,45,50,
东莞市,东城石井,113.7943,23.0132,2026-02-19T1100,32,41,0.6,6,6,55,50,46,
东莞市,南城西平,113.7384,22.9659,2026-02-19T1100,30,38,0.6,10,7,54,46,43,
东莞市,万江金泰,113.7283,23.041,2026-02-19T1100,33,44,0.8,6,5,51,52,48,
东莞市,裕兴路,113.8666,23.1062,2026-02-19T1100,36,41,0.8,7,6,44,40,52,细颗粒物(PM2.5)
东莞市,教育路1号,114.0076,22.9739,2026-02-19T1100,34,44,0.6,7,5,56,52,49,
东莞市,长怡路1号,113.7981,22.8124,2026-02-19T1100,33,49,0.6,9,7,58,59,49,
东营市,市环保局,118.6612,37.4313,2026-02-19T1100,69,92,1.0,21,18,116,68,93,细颗粒物(PM2.5)
东营市,开发区管委会,118.6903,37.4337,2026-02-19T1100,74,98,1.0,21,16,105,73,99,细颗粒物(PM2.5)
东营市,垦利区民丰路,118.5721,37.5654,2026-02-19T1100,78,95,1.1,21,15,117,77,104,细颗粒物(PM2.5)
东营市,河口城区,118.5063,37.8606,2026-02-19T1100,68,90,1.4,24,16,125,69,92,细颗粒物(PM2.5)
东营市,胜利站,118.4979,37.4623,2026-02-19T1100,76,112,1.3,23,19,103,62,102,细颗粒物(PM2.5)
东营市,理想之城,118.5753,37.4405,2026-02-19T1100,71,97,1.0,17,17,115,65,95,细颗粒物(PM2.5)
鄂尔多斯市,综合楼,110.0024,39.8127,2026-02-19T1100,12,44,0.3,5,7,89,86,44,
鄂尔多斯市,康泽苑,109.7734,39.5987,2026-02-19T1100,,66,0.3,,6,93,70,,
鄂尔多斯市,奥林花园,109.9734,39.7884,2026-02-19T1100,14,51,0.3,12,6,89,82,51,颗粒物(PM10)
鄂州市,市政府,114.894,30.3989,2026-02-19T1100,64,64,1.1,24,10,40,41,87,细颗粒物(PM2.5)
鄂州市,赵家坝,114.8986,30.3714,2026-02-19T1100,72,73,1.3,18,14,46,48,97,细颗粒物(PM2.5)
鄂州市,精准医疗中心,114.8093,30.4091,2026-02-19T1100,71,73,1.0,17,5,55,42,95,细颗粒物(PM2.5)
防城港市,沙万,108.3411,21.6159,2026-02-19T1100,54,68,0.7,11,7,46,31,74,细颗粒物(PM2.5)
防城港市,防城档案局,108.3515,21.7733,2026-02-19T1100,65,66,0.7,7,7,40,29,88,细颗粒物(PM2.5)
防城港市,大海花园,108.3506,21.6414,2026-02-19T1100,63,69,0.8,9,8,49,34,85,细颗粒物(PM2.5)
佛山市,湾梁,113.1293,23.0065,2026-02-19T1100,32,34,/,11,/,43,47,46,
佛山市,华材职中,113.1082,23.0477,2026-02-19T1100,35,39,0.5,10,6,44,49,50,
佛山市,南海气象局,113.1439,23.045,2026-02-19T1100,33,35,/,10,/,42,48,48,
佛山市,高明孔堂,112.8384,22.8678,2026-02-19T1100,33,41,/,12,/,50,41,48,
佛山市,三水监测站,112.8835,23.1584,2026-02-19T1100,32,,0.6,9,4,54,48,46,
佛山市,三水云东海,112.8668,23.185,2026-02-19T1100,30,31,/,,/,54,43,,
福州市,师大,119.2681,26.0506,2026-02-19T1100,32,35,0.5,9,4,89,82,46,
福州市,五四北路,119.2983,26.1028,2026-02-19T1100,28,31,0.4,10,5,85,81,40,
福州市,杨桥西路,119.2648,26.0769,2026-02-19T1100,27,30,/,10,4,89,82,39,
福州市,九龙,119.5799,26.0937,2026-02-19T1100,30,37,0.6,10,5,87,77,43,
福州市,吴航,119.5188,25.9666,2026-02-19T1100,29,41,0.6,11,6,85,75,42,
福州市,路通桥巷6号,119.3106,26.0648,2026-02-19T1100,29,36,/,10,/,83,83,42,
抚顺市,望花区,123.7974,41.8494,2026-02-19T1100,20,70,0.7,13,13,80,39,60,颗粒物(PM10)
抚顺市,顺城区,123.9161,41.8827,2026-02-19T1100,20,69,1.0,17,13,82,32,60,颗粒物(PM10)
抚顺市,东洲区,124.0437,41.8615,2026-02-19T1100,16,57,0.7,10,14,86,52,54,颗粒物(PM10)
抚顺市,新抚区,123.9246,41.8638,2026-02-19T1100,22,68,0.8,14,12,87,33,59,颗粒物(PM10)
抚顺市,大伙房水库,124.0972,41.8961,2026-02-19T1100,19,38,0.6,8,14,86,59,38,
抚顺市,沈抚新城,123.708,41.8386,2026-02-19T1100,13,65,0.6,11,12,81,57,58,颗粒物(PM10)
抚州市,血防站,116.3562,27.9631,2026-02-19T1100,40,54,1.0,10,10,52,55,57,细颗粒物(PM2.5)
抚州市,医学分院,116.3854,27.9648,2026-02-19T1100,38,58,1.0,6,7,52,54,54,"颗粒物(PM10),细颗粒物(PM2.5)"
阜新市,工业园区,121.6095,41.9978,2026-02-19T1100,68,100,1.1,12,26,74,43,92,细颗粒物(PM2.5)
阜新市,长青街,121.6567,42.0188,2026-02-19T1100,58,75,0.9,21,,71,54,,
阜新市,农业园区,121.6672,42.07,2026-02-19T1100,68,94,1.1,15,24,72,57,92,细颗粒物(PM2.5)
阜新市,玉龙新城,121.6343,42.0455,2026-02-19T1100,65,106,1.2,18,29,74,45,88,细颗粒物(PM2.5)
阜阳市,市监测站,115.8276,32.8929,2026-02-19T1100,69,85,0.7,10,8,70,56,93,细颗粒物(PM2.5)
阜阳市,开发区,115.8551,32.8606,2026-02-19T1100,78,78,0.5,4,10,68,50,104,细颗粒物(PM2.5)
阜阳市,阜阳职业技术学院,115.783962,32.889217,2026-02-19T1100,65,74,0.7,6,10,77,69,88,细颗粒物(PM2.5)
阜阳市,市规划展馆,115.79,32.8614,2026-02-19T1100,65,129,0.9,7,10,76,69,90,颗粒物(PM10)
阜阳市,枣园社区,115.835101,32.918568,2026-02-19T1100,68,94,0.7,9,10,63,46,92,细颗粒物(PM2.5)
甘南藏族自治州,州政府,102.9097,34.9841,2026-02-19T1100,52,59,0.8,12,5,48,40,72,细颗粒物(PM2.5)
甘南藏族自治州,甘肃民族师范学院,102.8915,34.9618,2026-02-19T1100,66,86,0.7,25,23,52,44,89,细颗粒物(PM2.5)
甘孜藏族自治州,水桥子,101.96,30.048,2026-02-19T1100,3,,0.9,5,6,45,56,15,
甘孜藏族自治州,州环保局,101.9534,29.9976,2026-02-19T1100,3,11,0.5,5,6,57,64,18,
赣州市,地委,114.9368,25.8663,2026-02-19T1100,31,36,0.7,8,7,51,60,45,
赣州市,市图书馆,114.932,25.8332,2026-02-19T1100,22,39,0.7,10,4,47,57,39,
赣州市,华坚鞋城,114.8905,25.8472,2026-02-19T1100,38,39,0.4,8,4,47,56,54,细颗粒物(PM2.5)
赣州市,赣县区卫计委,115.0094,25.8614,2026-02-19T1100,26,41,0.6,,8,,62,,
固原市,监测站,106.2753,36.0057,2026-02-19T1100,12,76,0.3,4,10,91,87,63,颗粒物(PM10)
固原市,新区,106.2384,36.0189,2026-02-19T1100,12,76,0.3,4,9,90,87,63,颗粒物(PM10)
广安市,市委,106.6307,30.4577,2026-02-19T1100,84,,0.9,12,8,42,24,112,细颗粒物(PM2.5)
广安市,友谊中学,106.6266,30.4662,2026-02-19T1100,64,76,0.9,12,9,44,30,87,细颗粒物(PM2.5)
广安市,广电花园,106.6386,30.4551,2026-02-19T1100,85,86,0.8,11,8,40,24,113,细颗粒物(PM2.5)
广元市,老城,105.8211,32.4444,2026-02-19T1100,71,89,1.3,18,54,43,38,95,细颗粒物(PM2.5)
广元市,监测站,105.8629,32.429,2026-02-19T1100,67,72,1.1,22,32,34,32,90,细颗粒物(PM2.5)
广元市,经开区,105.8047,32.4167,2026-02-19T1100,57,61,0.8,,9,32,24,,
广州市,广雅中学,113.2346,23.1423,2026-02-19T1100,39,44,0.6,13,2,40,45,55,细颗粒物(PM2.5)
广州市,市五中,113.2611,23.105,2026-02-19T1100,36,39,/,10,7,46,54,52,细颗粒物(PM2.5)
广州市,广东商学院,113.3477,23.0916,2026-02-19T1100,32,40,0.8,6,5,48,46,46,
广州市,市八十六中,113.4332,23.105,2026-02-19T1100,36,42,/,7,4,54,49,52,细颗粒物(PM2.5)
广州市,番禺中学,113.3506,22.9488,2026-02-19T1100,38,42,0.8,8,4,54,46,54,细颗粒物(PM2.5)
广州市,花都师范,113.2147,23.3918,2026-02-19T1100,30,42,0.8,10,6,,57,,
广州市,市监测站,113.2599,23.1329,2026-02-19T1100,40,49,/,9,1,41,48,57,细颗粒物(PM2.5)
广州市,九龙镇镇龙,113.5618,23.3119,2026-02-19T1100,32,43,0.7,6,5,42,42,46,
广州市,麓湖,113.2764,23.1544,2026-02-19T1100,40,47,0.7,8,4,41,46,57,细颗粒物(PM2.5)
广州市,体育西,113.3209,23.1323,2026-02-19T1100,,,0.9,,5,,47,,
广州市,从化街口,113.5718,23.5493,2026-02-19T1100,34,39,0.6,6,7,50,47,49,
广州市,白云竹料,113.3463,23.369,2026-02-19T1100,31,35,0.6,8,4,49,48,45,
广州市,白云嘉禾,113.2981,23.2365,2026-02-19T1100,36,42,/,10,6,42,42,52,细颗粒物(PM2.5)
广州市,黄埔科学城,113.4256,23.1716,2026-02-19T1100,40,41,0.8,6,7,50,50,57,细颗粒物(PM2.5)
广州市,番禺大学城,113.3942,23.0485,2026-02-19T1100,32,37,0.7,6,7,53,48,46,
广州市,南沙黄阁,113.4923,22.8169,2026-02-19T1100,38,46,/,11,8,58,46,54,细颗粒物(PM2.5)
广州市,南沙街,113.534,22.7893,2026-02-19T1100,34,44,0.6,9,8,55,51,49,
广州市,花都梯面,113.2905,23.5541,2026-02-19T1100,28,29,/,4,5,48,50,40,
广州市,从化良口,113.786,23.7479,2026-02-19T1100,28,31,/,4,8,46,36,40,
广州市,增城荔城,113.805,23.2614,2026-02-19T1100,32,42,0.6,8,6,52,49,46,
贵港市,江南子站,109.604387,23.066791,2026-02-19T1100,40,48,0.7,6,5,37,32,57,细颗粒物(PM2.5)
贵港市,荷城子站,109.5669,23.1065,2026-02-19T1100,31,39,0.7,10,6,35,33,45,
贵港市,新世纪学校,109.5886,23.1172,2026-02-19T1100,48,,0.7,11,/,,34,,
贵港市,中山路155-3号,109.5933,23.095,2026-02-19T1100,48,48,0.6,9,/,36,34,67,细颗粒物(PM2.5)
贵阳市,马鞍山,106.6863,26.6035,2026-02-19T1100,15,,/,7,7,34,34,22,
贵阳市,鉴湖路,106.6241,26.6266,2026-02-19T1100,8,22,0.6,7,4,44,40,22,
贵阳市,碧云窝,106.6556,26.4362,2026-02-19T1100,12,22,/,,14,34,42,,
贵阳市,新华路,106.7162383,26.56964667,2026-02-19T1100,12,22,0.4,13,11,36,46,22,
桂林市,龙隐路小学,110.3091,25.2705,2026-02-19T1100,54,58,0.8,11,2,38,46,74,细颗粒物(PM2.5)
桂林市,八中,110.2849361,25.22909545,2026-02-19T1100,34,55,0.7,16,3,30,41,53,颗粒物(PM10)
桂林市,旅游学院,110.296,25.1254,2026-02-19T1100,59,,0.8,12,3,37,44,80,细颗粒物(PM2.5)
桂林市,信义路13号,110.2803,25.2773,2026-02-19T1100,45,50,0.9,13,5,,50,,
果洛藏族自治州,玛沁县大武镇,100.2262,34.4854,2026-02-19T1100,20,25,0.4,5,24,65,58,29,
哈尔滨市,松北商大,126.5557,45.8109,2026-02-19T1100,32,55,0.7,9,12,73,65,53,颗粒物(PM10)
哈尔滨市,南岗学府路,126.6162,45.719,2026-02-19T1100,32,54,0.8,10,12,83,70,52,颗粒物(PM10)
哈尔滨市,太平宏伟公园,126.6894,45.7733,2026-02-19T1100,26,63,0.8,2,11,,77,,
哈尔滨市,道外承德广场,126.6361,45.7672,2026-02-19T1100,28,59,0.7,16,14,73,66,55,颗粒物(PM10)
哈尔滨市,动力和平路,126.644,45.7261,2026-02-19T1100,41,71,0.8,9,10,78,68,61,颗粒物(PM10)
哈尔滨市,道里建国路,126.5933,45.7479,2026-02-19T1100,37,53,0.5,18,16,73,61,53,细颗粒物(PM2.5)
哈尔滨市,平房东轻厂,126.6127,45.6119,2026-02-19T1100,35,,0.7,16,8,62,54,50,
哈尔滨市,呼兰师专,126.5875,45.9827,2026-02-19T1100,30,65,1.0,10,17,70,62,58,颗粒物(PM10)
哈尔滨市,省农科院,126.6299,45.6799,2026-02-19T1100,45,54,0.8,8,,79,59,,
哈尔滨市,华山路1号,126.6769,45.7379,2026-02-19T1100,33,58,1.1,14,14,,70,,
哈尔滨市,解放大街52号,126.9717,45.5356,2026-02-19T1100,29,41,0.8,8,12,84,77,42,
哈密市,地区监测站,93.5124,42.8176,2026-02-19T1100,29,60,0.3,6,7,63,56,55,颗粒物(PM10)
海北藏族自治州,海晏县西海镇,100.9016,36.9464,2026-02-19T1100,8,24,0.4,1,6,79,72,25,
海东市,平安区公安局北苑,102.074,36.5056,2026-02-19T1100,49,69,0.9,13,14,55,54,68,细颗粒物(PM2.5)
海东市,滨河路,102.0984,36.5119,2026-02-19T1100,48,68,1.2,22,12,,56,,
海口市,海南大学,110.3189,20.0596,2026-02-19T1100,18,31,0.5,4,6,82,86,31,
海口市,秀英海南医院,110.2827,20.0051,2026-02-19T1100,18,32,0.4,4,8,80,84,32,
海口市,海南师范大学,110.3391,19.9979,2026-02-19T1100,20,34,0.5,4,6,82,85,34,
海口市,龙华路环保局宿舍,110.3303,20.0359,2026-02-19T1100,22,34,0.7,6,/,84,88,34,
海口市,桂林洋子站,110.5111,19.9737,2026-02-19T1100,19,29,/,5,/,82,84,29,
海口市,长滨二路9号,110.1952,20.0451,2026-02-19T1100,19,30,/,4,/,80,84,30,
海西蒙古族藏族自治州,德令哈市,97.373,37.376,2026-02-19T1100,7,18,0.3,2,21,96,99,30,
邯郸市,矿院,114.492,36.5712,2026-02-19T1100,8,35,0.6,4,7,97,71,35,
邯郸市,丛台公园,114.4839,36.6136,2026-02-19T1100,11,25,0.7,10,10,99,65,31,
邯郸市,香泉濮院小区,114.7893,36.5592,2026-02-19T1100,14,56,0.7,6,12,95,74,53,颗粒物(PM10)
邯郸市,峰峰矿区临水派出所,114.1998,36.4439,2026-02-19T1100,3,25,0.4,2,9,103,98,33,
邯郸市,建安街268号,114.5209,36.7697,2026-02-19T1100,25,59,0.6,1,,,49,,
邯郸市,丛台东路558号,114.5488,36.6177,2026-02-19T1100,9,31,0.8,10,12,101,72,32,
汉中市,市监测站,107.0155,33.0707,2026-02-19T1100,36,46,0.8,14,8,56,31,52,细颗粒物(PM2.5)
汉中市,鑫源开发区,107.0083,33.114,2026-02-19T1100,39,58,0.8,10,5,56,35,55,细颗粒物(PM2.5)
汉中市,南郑大河坎水厂,107.0072,33.0323,2026-02-19T1100,48,62,1.1,18,9,45,29,67,细颗粒物(PM2.5)
杭州市,滨江,120.2073,30.2111,2026-02-19T1100,43,51,0.5,12,8,57,41,60,细颗粒物(PM2.5)
杭州市,西溪,120.0625,30.2737,2026-02-19T1100,28,38,0.6,4,9,75,37,40,
杭州市,下沙,120.3417,30.315,2026-02-19T1100,44,53,0.4,21,10,61,42,62,细颗粒物(PM2.5)
杭州市,卧龙桥,120.1252,30.2465,2026-02-19T1100,35,43,0.4,6,9,68,32,50,
杭州市,浙江农大,120.1902,30.2691,2026-02-19T1100,38,46,0.5,8,6,70,42,54,细颗粒物(PM2.5)
杭州市,和睦小学,120.1195,30.3121,2026-02-19T1100,39,48,,8,6,68,38,,
杭州市,临平镇,120.3076,30.4146,2026-02-19T1100,40,50,0.5,14,7,66,40,57,细颗粒物(PM2.5)
杭州市,城厢镇,120.2753,30.1839,2026-02-19T1100,46,51,0.7,7,8,54,45,64,细颗粒物(PM2.5)
杭州市,云栖,120.0883,30.1808,2026-02-19T1100,38,47,0.7,16,6,58,27,54,细颗粒物(PM2.5)
杭州市,镇二中,119.9463,30.0496,2026-02-19T1100,40,40,0.7,13,4,35,29,57,细颗粒物(PM2.5)
杭州市,市府大楼,119.7184,30.2367,2026-02-19T1100,47,,0.5,9,10,47,31,65,细颗粒物(PM2.5)
杭州市,消防大队,120.1554,30.2863,2026-02-19T1100,41,48,0.7,13,6,56,37,58,细颗粒物(PM2.5)
合肥市,明珠广场,117.1957,31.7845,2026-02-19T1100,56,63,0.7,8,7,61,60,77,细颗粒物(PM2.5)
合肥市,三里街,117.307,31.8765,2026-02-19T1100,73,75,0.8,17,6,52,43,98,细颗粒物(PM2.5)
合肥市,琥珀山庄,117.2587,31.8703,2026-02-19T1100,58,68,0.7,15,7,66,33,79,细颗粒物(PM2.5)
合肥市,庐阳区,117.2593,31.9376,2026-02-19T1100,64,70,0.9,12,4,63,38,87,细颗粒物(PM2.5)
合肥市,瑶海区,117.345251,31.861615,2026-02-19T1100,64,75,0.5,16,5,63,56,87,细颗粒物(PM2.5)
合肥市,包河区,117.3033,31.7967,2026-02-19T1100,60,63,0.7,9,8,70,39,82,细颗粒物(PM2.5)
合肥市,滨湖新区,117.278,31.7392,2026-02-19T1100,65,68,0.7,6,3,61,51,88,细颗粒物(PM2.5)
合肥市,中国科学技术大学,117.2518,31.8404,2026-02-19T1100,60,70,0.8,8,8,63,52,82,细颗粒物(PM2.5)
和田地区,地区环保局,79.9241,37.0878,2026-02-19T1100,104,342,4.3,55,7,25,52,196,颗粒物(PM10)
和田地区,市环保局,79.9132,37.1137,2026-02-19T1100,117,424,4.0,67,6,15,39,305,颗粒物(PM10)
河池市,上任中路54号,108.0901,24.6945,2026-02-19T1100,3,10,0.7,7,5,28,26,10,
河源市,东埔,114.6962,23.7538,2026-02-19T1100,27,27,0.7,4,5,50,41,39,
河源市,老城,114.6895,23.7232,2026-02-19T1100,26,27,0.6,4,6,50,40,38,
菏泽市,定陶老年大学,115.5562,35.089,2026-02-19T1100,72,92,0.6,13,10,,83,,
菏泽市,黄河路600号,115.4239,35.2593,2026-02-19T1100,69,85,0.6,11,8,76,80,93,细颗粒物(PM2.5)
菏泽市,菏泽市人社局,115.5025,35.2727,2026-02-19T1100,63,79,0.6,15,8,80,88,85,细颗粒物(PM2.5)
菏泽市,永昌路1号,115.479691,35.244011,2026-02-19T1100,68,86,0.6,9,7,90,95,92,细颗粒物(PM2.5)
贺州市,环保小区,111.5264,24.4178,2026-02-19T1100,52,,0.8,2,4,44,42,72,细颗粒物(PM2.5)
贺州市,政协大楼,111.561,24.4074,2026-02-19T1100,53,55,0.6,13,5,36,35,73,细颗粒物(PM2.5)
贺州市,西湾,111.4744,24.455,2026-02-19T1100,55,63,0.9,9,8,38,36,75,细颗粒物(PM2.5)
鹤壁市,市监测站,114.17,35.9019,2026-02-19T1100,11,20,0.4,2,4,99,82,31,
鹤壁市,市交警支队,114.2953,35.7512,2026-02-19T1100,15,38,0.5,12,8,78,72,38,
鹤壁市,大新区,114.2616,35.6824,2026-02-19T1100,19,49,0.8,8,9,86,68,49,
鹤壁市,南山宾馆,114.1573,35.9607,2026-02-19T1100,17,35,0.5,2,10,98,94,35,
鹤岗市,哈啤分公司,130.2537,47.3416,2026-02-19T1100,16,27,0.4,39,46,48,74,27,
鹤岗市,斯达机电,130.2683,47.3087,2026-02-19T1100,12,30,0.4,8,16,76,74,30,
鹤岗市,东山纸板厂,130.3114,47.3388,2026-02-19T1100,23,27,0.4,10,17,72,54,33,
黑河市,交通局,127.4832,50.2524,2026-02-19T1100,22,34,0.4,8,11,72,69,34,
黑河市,环保局,127.5146,50.2339,2026-02-19T1100,22,37,0.6,9,8,,72,,
衡水市,电机北厂,115.6839,37.754,2026-02-19T1100,47,84,1.0,16,16,83,78,67,颗粒物(PM10)
衡水市,市监测站,115.6303,37.7318,2026-02-19T1100,43,82,1.0,14,19,80,70,66,颗粒物(PM10)
衡水市,市城管局,115.6684,37.7216,2026-02-19T1100,37,88,0.9,14,25,75,71,69,颗粒物(PM10)
衡水市,地表水厂,115.599,37.5491,2026-02-19T1100,23,59,0.6,4,12,86,59,55,颗粒物(PM10)
衡阳市,衡阳化工总厂,112.6209,26.9268,2026-02-19T1100,31,34,1.2,12,9,22,22,45,
衡阳市,珠晖区环保局,112.621,26.8957,2026-02-19T1100,28,42,1.2,28,5,12,19,42,
衡阳市,市委党校,112.628,26.8654,2026-02-19T1100,34,,1.2,11,8,23,22,49,
衡阳市,市监测站,112.6007,26.8977,2026-02-19T1100,34,43,1.3,12,6,23,23,49,
衡阳市,真空机电公司,112.5658,26.9013,2026-02-19T1100,34,36,1.1,12,6,26,23,49,
衡阳市,师范学院,112.6703,26.8817,2026-02-19T1100,34,42,1.1,13,3,28,23,49,
红河哈尼族彝族自治州,蒙自市朝阳路,103.401,23.3561,2026-02-19T1100,12,12,0.6,2,7,43,42,18,
呼和浩特市,如意水处理厂,111.7516,40.8369,2026-02-19T1100,,,0.4,11,,,44,,
呼和浩特市,二十九中,111.727798,40.806187,2026-02-19T1100,29,69,0.4,7,14,67,42,60,颗粒物(PM10)
呼和浩特市,化肥厂生活区,111.717,40.7617,2026-02-19T1100,20,49,0.5,8,8,71,39,49,
呼和浩特市,海东办,111.6519,40.8389,2026-02-19T1100,28,58,0.4,12,6,62,46,54,颗粒物(PM10)
呼和浩特市,成吉思汗西街8号,111.591512,40.827312,2026-02-19T1100,32,63,0.6,13,8,59,54,57,颗粒物(PM10)
呼和浩特市,公园东路75号,111.6597,40.8077,2026-02-19T1100,30,66,0.7,16,9,63,45,58,颗粒物(PM10)
呼和浩特市,金海路35号,111.5427,40.7846,2026-02-19T1100,38,66,0.3,16,11,60,52,58,颗粒物(PM10)
呼伦贝尔市,国华电力东,119.7511,49.1576,2026-02-19T1100,3,18,0.4,12,6,73,72,23,
呼伦贝尔市,伊敏大街东7号,119.7569,49.2222,2026-02-19T1100,3,24,0.3,11,7,,52,,
湖州市,城西水厂,120.075,30.867,2026-02-19T1100,47,55,0.4,13,6,74,53,65,细颗粒物(PM2.5)
湖州市,仁皇山新区,120.083,30.8929,2026-02-19T1100,46,56,0.5,12,6,72,43,64,细颗粒物(PM2.5)
湖州市,吴兴区站,120.1846,30.8592,2026-02-19T1100,52,61,0.7,9,6,62,42,72,细颗粒物(PM2.5)
湖州市,南浔区站,120.4146,30.8538,2026-02-19T1100,52,62,0.6,13,9,77,54,72,细颗粒物(PM2.5)
葫芦岛市,龙港区,120.904878,40.721091,2026-02-19T1100,41,53,0.9,15,18,72,57,58,细颗粒物(PM2.5)
葫芦岛市,化工街,120.8382,40.7521,2026-02-19T1100,24,56,0.6,13,19,72,53,53,颗粒物(PM10)
葫芦岛市,新区,120.8339,40.7078,2026-02-19T1100,42,47,1.1,20,19,66,53,59,细颗粒物(PM2.5)
葫芦岛市,东城区,120.8697,40.7679,2026-02-19T1100,28,68,1.2,19,16,81,54,59,颗粒物(PM10)
怀化市,河西地税局,109.9297,27.5383,2026-02-19T1100,26,27,/,6,3,60,49,38,
怀化市,市四医院,109.9783,27.5342,2026-02-19T1100,27,32,0.4,10,6,58,50,39,
怀化市,监测楼,109.9971,27.5579,2026-02-19T1100,30,,0.0,11,2,57,48,43,
淮安市,钵池山,119.0566,33.5991,2026-02-19T1100,53,56,0.6,14,16,82,62,73,细颗粒物(PM2.5)
淮安市,北京南路,119.0083,33.578,2026-02-19T1100,50,63,0.6,11,12,78,51,69,细颗粒物(PM2.5)
淮安市,市监测站,118.9938,33.6083,2026-02-19T1100,49,,0.6,8,12,88,67,68,细颗粒物(PM2.5)
淮安市,楚州区监测站,119.135,33.5038,2026-02-19T1100,52,56,0.6,10,12,78,39,72,细颗粒物(PM2.5)
淮安市,新华书店,118.8757,33.2897,2026-02-19T1100,48,52,0.7,10,9,,66,,
淮安市,枚皋中路89号,119.119691,33.550006,2026-02-19T1100,59,74,0.4,11,13,77,52,80,细颗粒物(PM2.5)
淮安市,承德北路606号,119.028838,33.631911,2026-02-19T1100,49,63,0.5,10,11,79,63,68,细颗粒物(PM2.5)
淮北市,监测站,116.8005,33.9749,2026-02-19T1100,76,115,0.8,13,8,71,51,102,细颗粒物(PM2.5)
淮北市,烈山区政府,116.8094,33.9008,2026-02-19T1100,74,97,0.5,12,8,63,51,99,细颗粒物(PM2.5)
淮北市,市博物馆,116.7926,33.9534,2026-02-19T1100,78,105,0.7,14,10,62,47,104,细颗粒物(PM2.5)
淮北市,杜集区第一实验学校,116.8322,33.9884,2026-02-19T1100,80,98,0.7,14,13,64,48,107,细颗粒物(PM2.5)
淮南市,潘集区政府,116.8304,32.7726,2026-02-19T1100,67,81,0.6,17,11,60,57,90,细颗粒物(PM2.5)
淮南市,谢家集区政府,116.8569,32.5949,2026-02-19T1100,87,100,0.6,10,17,55,60,115,细颗粒物(PM2.5)
淮南市,八公山区政府,116.8279,32.6333,2026-02-19T1100,67,75,0.5,7,11,70,72,90,细颗粒物(PM2.5)
淮南市,经济技术开发区消防队,117.0561,32.6536,2026-02-19T1100,48,65,0.4,9,7,75,64,67,细颗粒物(PM2.5)
淮南市,山南新区,117.011,32.5891,2026-02-19T1100,58,71,0.4,11,8,63,73,79,细颗粒物(PM2.5)
淮南市,国庆中路369号,117.003137,32.644456,2026-02-19T1100,52,,0.4,,,50,66,,
黄冈市,职工中心,114.9021,30.474,2026-02-19T1100,78,,1.0,24,26,49,44,104,细颗粒物(PM2.5)
黄冈市,红卫路,114.8858,30.4519,2026-02-19T1100,86,,0.9,19,16,54,52,114,细颗粒物(PM2.5)
黄冈市,市林业局,114.9134,30.4446,2026-02-19T1100,101,,1.0,17,4,49,50,133,细颗粒物(PM2.5)
黄南藏族自治州,同仁县隆务镇,102.02,35.5101,2026-02-19T1100,32,53,0.5,4,10,69,64,52,颗粒物(PM10)
黄山市,延安路89号,118.2905,29.6965,2026-02-19T1100,26,29,0.5,4,4,29,14,38,
黄山市,黄山区政府5号楼,118.1369,30.2755,2026-02-19T1100,31,32,0.4,3,2,28,16,45,
黄山市,滨江东路7-2号,118.335445,29.720283,2026-02-19T1100,21,40,/,7,/,32,17,40,
黄石市,铁山,114.899,30.211,2026-02-19T1100,73,,1.3,22,18,50,56,98,细颗粒物(PM2.5)
黄石市,笔架山北路,115.0174,30.1591,2026-02-19T1100,66,89,1.0,14,9,43,52,89,细颗粒物(PM2.5)
惠州市,河南岸金山湖子站,114.4181,23.0528,2026-02-19T1100,29,36,0.6,4,7,52,47,42,
惠州市,下埔横江三路子站,114.4055,23.0824,2026-02-19T1100,32,40,0.6,6,8,50,42,46,
惠州市,惠阳区承修路船湖子站,114.4645,22.7832,2026-02-19T1100,46,49,0.6,8,6,50,49,64,细颗粒物(PM2.5)
惠州市,大亚湾管委会子站,114.5316,22.7423,2026-02-19T1100,40,48,0.6,9,7,55,53,57,细颗粒物(PM2.5)
惠州市,惠阳秋长,114.4334,22.8134,2026-02-19T1100,38,44,/,5,/,59,56,54,细颗粒物(PM2.5)
惠州市,大亚湾霞涌,114.6521,22.7755,2026-02-19T1100,33,36,/,8,/,57,53,48,
惠州市,文华一路1号,114.4089,23.1147,2026-02-19T1100,34,37,/,5,/,49,41,49,
鸡西市,环保局,130.9618,45.2926,2026-02-19T1100,18,62,0.5,15,17,65,37,56,颗粒物(PM10)
鸡西市,第一中学,130.9294,45.2959,2026-02-19T1100,26,64,0.5,5,3,160,156,57,颗粒物(PM10)
吉安市,红声器材厂,114.9753,27.0803,2026-02-19T1100,30,50,0.7,10,6,44,57,50,
吉安市,青原区法院,115.009527,27.096792,2026-02-19T1100,33,47,0.7,9,8,48,57,48,
吉林市,哈达湾,126.54,43.8622,2026-02-19T1100,19,29,0.7,6,10,88,78,29,
吉林市,东局子,126.5843,43.8358,2026-02-19T1100,,,,,,,77,,
吉林市,电力学院,126.5051,43.8243,2026-02-19T1100,14,15,0.8,6,9,86,61,27,
吉林市,江北,126.6133,43.8971,2026-02-19T1100,18,29,0.6,9,10,84,73,29,
吉林市,江南公园,126.5549,43.8304,2026-02-19T1100,19,24,0.7,5,10,79,70,28,
吉林市,九站,126.4737,43.953,2026-02-19T1100,17,28,0.6,6,10,83,70,28,
济南市,科干所,116.9866,36.6118,2026-02-19T1100,46,73,0.7,9,13,104,116,64,细颗粒物(PM2.5)
济南市,农科所,116.9379,36.6652,2026-02-19T1100,65,85,0.8,10,13,101,105,88,细颗粒物(PM2.5)
济南市,机床二厂,116.9495185,36.644937,2026-02-19T1100,60,71,0.7,11,15,103,111,82,细颗粒物(PM2.5)
济南市,市监测站,117.0496,36.6629,2026-02-19T1100,45,68,0.9,15,10,107,119,63,细颗粒物(PM2.5)
济南市,长清党校,116.7674,36.5458,2026-02-19T1100,59,88,0.8,9,10,101,104,80,细颗粒物(PM2.5)
济南市,东山小学,117.5323,36.6865,2026-02-19T1100,61,85,0.7,8,,,109,,
济南市,泰兴公司,117.7181,36.205,2026-02-19T1100,82,110,1.1,17,17,100,56,109,细颗粒物(PM2.5)
济南市,莱芜战役纪念馆,117.6861,36.2172,2026-02-19T1100,92,110,0.9,18,15,94,60,122,细颗粒物(PM2.5)
济南市,济阳区政府,117.1673,36.9782,2026-02-19T1100,58,83,0.6,11,16,94,87,79,细颗粒物(PM2.5)
济南市,锦屏中学,117.1168,36.6299,2026-02-19T1100,36,56,0.6,12,12,106,119,53,颗粒物(PM10)
济南市,山财大街5号,117.7107,36.2385,2026-02-19T1100,82,107,1.0,23,22,100,82,109,细颗粒物(PM2.5)
济南市,无影山路12号,116.9744,36.6889,2026-02-19T1100,61,73,0.7,12,,,104,,
济宁市,北湖一中,116.5808,35.3703,2026-02-19T1100,83,93,0.8,10,10,78,88,110,细颗粒物(PM2.5)
济宁市,服务中心,116.8251,35.5592,2026-02-19T1100,99,169,0.5,12,8,76,72,130,细颗粒物(PM2.5)
济宁市,市第七中学,116.5907,35.4054,2026-02-19T1100,80,96,0.6,12,8,84,92,107,细颗粒物(PM2.5)
济宁市,任和路,116.6075,35.4566,2026-02-19T1100,80,98,0.8,12,9,84,93,107,细颗粒物(PM2.5)
济宁市,文体南路1号,116.5648,35.3921,2026-02-19T1100,81,119,0.6,8,9,82,90,108,细颗粒物(PM2.5)
佳木斯市,佳纺,130.2749,46.8028,2026-02-19T1100,23,30,0.5,10,6,65,56,33,
佳木斯市,环保局,130.3258,46.7975,2026-02-19T1100,31,49,0.7,23,10,51,69,49,
佳木斯市,顺和街,130.363,46.806,2026-02-19T1100,29,41,0.6,16,11,58,68,42,
佳木斯市,长安路196号,130.3952,46.8268,2026-02-19T1100,17,31,0.4,4,6,67,60,31,
嘉兴市,清河小学,120.7439,30.778,2026-02-19T1100,48,62,0.8,9,7,88,48,67,细颗粒物(PM2.5)
嘉兴市,嘉兴学院,120.7261,30.7477,2026-02-19T1100,45,61,0.7,11,6,85,46,63,细颗粒物(PM2.5)
嘉兴市,南湖区残联,120.7845,30.7524,2026-02-19T1100,52,62,0.5,11,5,85,58,72,细颗粒物(PM2.5)
嘉兴市,秀洲住建,120.6915,30.7741,2026-02-19T1100,42,59,0.5,10,8,92,45,59,细颗粒物(PM2.5)
嘉峪关市,酒钢宾馆,98.2672,39.7978,2026-02-19T1100,3,24,0.2,2,10,86,83,27,
江门市,北街,113.1063,22.6058,2026-02-19T1100,36,47,/,13,/,51,51,52,细颗粒物(PM2.5)
江门市,西区,113.073,22.5835,2026-02-19T1100,38,60,/,15,/,50,46,55,颗粒物(PM10)
江门市,圭峰西,113.0218,22.531,2026-02-19T1100,35,63,/,14,/,52,50,57,颗粒物(PM10)
江门市,东湖,113.0826,22.5947,2026-02-19T1100,40,50,0.6,14,9,51,46,57,细颗粒物(PM2.5)
江门市,新会银湖,113.0496,22.4669,2026-02-19T1100,42,60,0.6,15,7,56,26,59,细颗粒物(PM2.5)
焦作市,马村街道办,113.3137,35.2643,2026-02-19T1100,18,54,0.6,9,11,84,64,52,颗粒物(PM10)
焦作市,焦作技师学院,113.2464,35.2374,2026-02-19T1100,24,52,0.7,13,13,80,63,51,颗粒物(PM10)
焦作市,中站许衡医院,113.1656,35.2536,2026-02-19T1100,33,55,0.9,17,20,84,90,53,颗粒物(PM10)
焦作市,原李万街道办,113.2456,35.18,2026-02-19T1100,33,69,0.7,10,14,77,59,60,颗粒物(PM10)
焦作市,新安路1731号,113.234,35.219,2026-02-19T1100,31,69,0.9,13,15,82,67,60,颗粒物(PM10)
焦作市,人民路3066号,113.2722,35.2121,2026-02-19T1100,36,57,0.8,11,13,85,67,54,颗粒物(PM10)
揭阳市,新兴,116.3701,23.5345,2026-02-19T1100,29,46,0.7,8,6,64,72,46,
揭阳市,西马,116.3261,23.5442,2026-02-19T1100,30,41,0.6,5,4,68,70,43,
揭阳市,东兴,116.361,23.5627,2026-02-19T1100,28,73,/,6,3,65,72,62,颗粒物(PM10)
揭阳市,渔湖,116.4151,23.5295,2026-02-19T1100,28,,/,,4,69,80,,
揭阳市,曲溪,116.4028,23.5699,2026-02-19T1100,28,44,0.7,8,1,73,78,44,
金昌市,天庆家园,102.1691,38.5166,2026-02-19T1100,3,7,0.4,4,9,107,104,34,
金昌市,金川区人防中心,102.1648,38.5369,2026-02-19T1100,9,22,0.3,4,6,,93,,
金昌市,长春路96号,102.193042,38.531887,2026-02-19T1100,3,17,0.4,7,6,99,96,31,
金华市,十五中,119.6478,29.0773,2026-02-19T1100,35,40,0.6,2,4,63,37,50,
金华市,监测站,119.6859,29.1032,2026-02-19T1100,43,50,0.6,8,4,45,24,60,细颗粒物(PM2.5)
金华市,气象局,119.656,29.1132,2026-02-19T1100,39,47,0.9,8,4,,20,,
锦州市,南山,121.1114,41.0879,2026-02-19T1100,51,99,0.9,17,31,91,61,75,颗粒物(PM10)
锦州市,开发区,121.060361,40.842794,2026-02-19T1100,41,88,1.1,30,26,55,54,69,颗粒物(PM10)
锦州市,百股街道,121.1836,41.1118,2026-02-19T1100,67,98,1.2,24,18,80,52,90,细颗粒物(PM2.5)
锦州市,天安街道,121.1176,41.1224,2026-02-19T1100,79,97,1.4,23,26,87,51,105,细颗粒物(PM2.5)
锦州市,北湖公园,121.1303,41.1385,2026-02-19T1100,70,90,1.3,23,24,73,53,94,细颗粒物(PM2.5)
晋城市,自来水公司,112.8496,35.5051,2026-02-19T1100,3,47,0.7,6,8,83,52,47,
晋城市,市环保局,112.8509,35.4886,2026-02-19T1100,3,48,0.5,,7,93,52,,
晋城市,泽州一中,112.8258,35.4804,2026-02-19T1100,15,61,0.8,2,7,95,55,56,颗粒物(PM10)
晋城市,前书院路,112.8246,35.5152,2026-02-19T1100,11,48,0.6,3,10,84,57,48,
晋城市,祥云街666号,112.8864,35.4773,2026-02-19T1100,7,52,0.7,8,11,92,64,51,颗粒物(PM10)
晋中市,榆次区政府,112.6992,37.6984,2026-02-19T1100,37,70,0.9,16,42,71,50,60,颗粒物(PM10)
晋中市,广安街188号,112.7375,37.7215,2026-02-19T1100,,,0.9,14,34,,49,,
晋中市,迎宾街26号,112.7478,37.6954,2026-02-19T1100,40,85,0.9,13,54,73,53,68,颗粒物(PM10)
荆门市,竹园小学,112.2012,31.048,2026-02-19T1100,70,114,1.1,23,1,51,54,94,细颗粒物(PM2.5)
荆门市,掇刀,112.1968,30.9892,2026-02-19T1100,79,101,0.7,12,8,72,51,105,细颗粒物(PM2.5)
荆门市,西山林语,112.1849,31.0361,2026-02-19T1100,58,80,0.6,11,6,77,54,79,细颗粒物(PM2.5)
荆门市,新台西路6号,112.2213,31.0654,2026-02-19T1100,93,102,0.8,14,10,52,42,123,细颗粒物(PM2.5)
荆州市,市图书馆,112.2493,30.3198,2026-02-19T1100,66,75,0.8,11,8,66,54,89,细颗粒物(PM2.5)
荆州市,市委党校,112.2009,30.3543,2026-02-19T1100,73,77,0.6,14,8,60,40,98,细颗粒物(PM2.5)
荆州市,管委会,112.2749,30.3124,2026-02-19T1100,67,75,0.7,13,10,63,45,90,细颗粒物(PM2.5)
荆州市,学苑路85号,112.1722,30.3366,2026-02-19T1100,,,,,,,47,,
景德镇市,老干部活动中心,117.2114,29.2931,2026-02-19T1100,59,77,1.3,35,20,16,24,80,细颗粒物(PM2.5)
景德镇市,兽医站,117.1893,29.2789,2026-02-19T1100,41,61,0.8,24,4,35,26,58,细颗粒物(PM2.5)
景德镇市,青少年活动中心,117.154766,29.256967,2026-02-19T1100,40,48,/,13,8,36,30,57,细颗粒物(PM2.5)
九江市,十里,115.9873,29.6816,2026-02-19T1100,48,56,0.9,12,7,54,43,67,细颗粒物(PM2.5)
九江市,茅山头,115.9583,29.7047,2026-02-19T1100,48,49,0.6,10,6,61,56,67,细颗粒物(PM2.5)
九江市,西园,115.9877,29.7295,2026-02-19T1100,46,54,0.7,18,4,59,53,64,细颗粒物(PM2.5)
九江市,综合工业园,115.9112,29.6038,2026-02-19T1100,36,57,0.7,17,5,67,52,54,颗粒物(PM10)
九江市,莲花大道8号,116.010205,29.659402,2026-02-19T1100,47,,0.6,12,4,41,30,65,细颗粒物(PM2.5)
酒泉市,玉门东路5号,98.495752,39.733935,2026-02-19T1100,12,29,0.3,5,12,69,72,29,
酒泉市,北大街108号,98.5099,39.7506,2026-02-19T1100,6,31,0.3,11,11,65,69,31,
喀什地区,巡警大队,76.0071,39.466,2026-02-19T1100,109,312,1.1,34,5,22,25,181,颗粒物(PM10)
喀什地区,吾办,75.9756,39.4693,2026-02-19T1100,138,285,1.5,45,9,18,19,183,细颗粒物(PM2.5)
喀什地区,老干局,75.9485,39.4688,2026-02-19T1100,119,319,1.5,36,8,22,31,185,颗粒物(PM10)
开封市,肿瘤医院,114.3389,34.778,2026-02-19T1100,56,107,0.9,21,12,82,65,79,颗粒物(PM10)
开封市,世纪星幼儿园,114.2884,34.7966,2026-02-19T1100,53,93,0.8,21,13,80,63,73,细颗粒物(PM2.5)
开封市,技师学院,114.2485,34.8306,2026-02-19T1100,43,93,0.6,19,13,84,69,72,颗粒物(PM10)
开封市,祥符区生态环境局,114.4518,34.7503,2026-02-19T1100,43,56,0.7,16,11,82,68,60,细颗粒物(PM2.5)
克拉玛依市,长征新村,84.886,45.6029,2026-02-19T1100,47,74,0.9,30,7,43,63,65,细颗粒物(PM2.5)
克拉玛依市,独山子区,84.896,44.3328,2026-02-19T1100,60,104,0.9,18,4,112,115,82,细颗粒物(PM2.5)
克拉玛依市,乌尔禾区商贸楼,85.6888,46.0909,2026-02-19T1100,56,71,0.9,25,8,30,37,77,细颗粒物(PM2.5)
克拉玛依市,白碱滩区新站,85.1045,45.6895,2026-02-19T1100,93,114,0.8,32,10,34,54,123,细颗粒物(PM2.5)
克孜勒苏柯尔克孜自治州,市人民政府,76.1457,39.7143,2026-02-19T1100,80,312,0.4,6,3,66,68,181,颗粒物(PM10)
昆明市,呈贡新区,102.8203,24.889,2026-02-19T1100,41,48,0.6,6,8,88,79,58,细颗粒物(PM2.5)
昆明市,龙泉镇,102.7253,25.0904,2026-02-19T1100,37,39,0.5,10,5,67,60,53,细颗粒物(PM2.5)
昆明市,东风东路,102.7267,25.0378,2026-02-19T1100,29,49,0.6,13,8,76,83,49,
昆明市,金鼎山,102.6744,25.0671,2026-02-19T1100,41,,0.7,11,6,77,88,58,细颗粒物(PM2.5)
昆明市,碧鸡广场,102.6643,25.0401,2026-02-19T1100,35,44,0.6,14,7,80,79,50,
昆明市,官渡区博物馆,102.7491,25.012,2026-02-19T1100,38,40,0.8,13,,,77,,
昆明市,青年创业园,102.8016,24.8336,2026-02-19T1100,27,33,0.6,3,5,102,85,39,
昆明市,昆明学院,102.8,24.9787,2026-02-19T1100,27,56,0.7,11,4,66,77,53,颗粒物(PM10)
昆明市,晋宁区生态环境分局,102.5969,24.6738,2026-02-19T1100,32,,0.7,4,1,102,71,46,
昆明市,云天化总部,102.6673,24.9861,2026-02-19T1100,22,45,0.7,9,8,87,79,45,
拉萨市,八廓街,91.132,29.6515,2026-02-19T1100,24,26,0.5,7,7,78,74,35,
拉萨市,市环保局,91.1221,29.6748,2026-02-19T1100,31,,0.6,13,8,64,55,45,
拉萨市,区监测站,91.0874,29.6476,2026-02-19T1100,14,18,0.6,8,4,,71,,
拉萨市,西藏大学,91.1774,29.6541,2026-02-19T1100,16,17,1.4,8,3,72,73,23,
拉萨市,区辐射站,90.9798,29.6586,2026-02-19T1100,48,,0.5,16,5,78,71,67,细颗粒物(PM2.5)
拉萨市,拉萨火车站,91.0831,29.6292,2026-02-19T1100,47,62,0.6,32,4,45,56,65,细颗粒物(PM2.5)
来宾市,来宾技工学校,109.2203,23.7252,2026-02-19T1100,37,43,0.7,7,7,39,32,53,细颗粒物(PM2.5)
来宾市,兴宾区政府,109.1781,23.7293,2026-02-19T1100,34,46,0.7,7,6,44,36,49,
来宾市,中南小学,109.2312,23.7428,2026-02-19T1100,36,40,0.7,8,6,42,34,52,细颗粒物(PM2.5)
兰州市,和平,103.9613,35.9985,2026-02-19T1100,17,51,0.8,10,18,77,83,51,颗粒物(PM10)
兰州市,庄浪东路808号,103.629272,36.093822,2026-02-19T1100,27,48,0.6,12,29,74,84,48,
兰州市,安宁西路88号,103.7251,36.104344,2026-02-19T1100,20,65,0.4,8,28,80,86,58,颗粒物(PM10)
兰州市,北滨河东路1号,103.846982,36.067567,2026-02-19T1100,17,46,0.9,27,17,67,76,46,
廊坊市,药材公司,116.6712,39.5109,2026-02-19T1100,60,66,0.7,18,4,63,38,82,细颗粒物(PM2.5)
廊坊市,北华航天学院,116.7246,39.5273,2026-02-19T1100,61,69,0.6,11,6,65,26,83,细颗粒物(PM2.5)
乐山市,牛耳桥,103.7629,29.5844,2026-02-19T1100,66,75,1.1,29,6,21,23,89,细颗粒物(PM2.5)
乐山市,市第三水厂,103.7501,29.6002,2026-02-19T1100,62,69,1.1,30,5,29,21,84,细颗粒物(PM2.5)
乐山市,市监测站,103.7571,29.5664,2026-02-19T1100,65,77,1.3,,,25,21,,
乐山市,理工大学,103.7313,29.563,2026-02-19T1100,54,58,1.1,15,6,34,23,74,细颗粒物(PM2.5)
丽江市,丽江古城,100.2497,26.8802,2026-02-19T1100,22,44,0.6,9,6,95,85,44,
丽江市,市中心,100.2203,26.8906,2026-02-19T1100,23,27,0.6,10,5,98,92,33,
丽水市,监测站大楼,119.9141,28.4513,2026-02-19T1100,31,,0.5,5,4,35,26,45,
丽水市,莲都小学,119.93,28.4589,2026-02-19T1100,29,34,/,7,/,33,26,42,
丽水市,余庄前,119.8794,28.4232,2026-02-19T1100,29,36,0.5,5,4,,16,,
连云港市,市环境监测站,119.1759,34.5885,2026-02-19T1100,46,63,0.5,16,10,77,81,64,细颗粒物(PM2.5)
连云港市,德源药业,119.3577,34.6971,2026-02-19T1100,70,90,0.9,10,9,74,89,94,细颗粒物(PM2.5)
连云港市,新城一中,119.178,34.8442,2026-02-19T1100,85,100,0.9,19,13,81,77,113,细颗粒物(PM2.5)
连云港市,胡沟管理处,119.3607,34.7519,2026-02-19T1100,48,68,1.1,8,13,84,89,67,细颗粒物(PM2.5)
连云港市,工贸学校,119.2414,34.6539,2026-02-19T1100,67,89,0.7,17,14,80,99,90,细颗粒物(PM2.5)
连云港市,连云街道,119.4171,34.734,2026-02-19T1100,57,78,0.7,18,10,90,72,78,细颗粒物(PM2.5)
凉山彝族自治州,西昌市政府,102.2629,27.8981,2026-02-19T1100,21,,0.5,7,5,60,60,30,
凉山彝族自治州,凉山州政府,102.2686,27.885,2026-02-19T1100,19,22,0.5,7,7,53,50,28,
凉山彝族自治州,凯乐南路30号,102.2342,27.8859,2026-02-19T1100,10,20,0.3,7,8,64,61,20,
辽阳市,宏伟区,123.1978,41.2036,2026-02-19T1100,23,157,0.9,9,12,84,79,104,颗粒物(PM10)
辽阳市,新华园,123.1684,41.2497,2026-02-19T1100,24,76,0.7,12,18,82,76,63,颗粒物(PM10)
辽阳市,滨河路,123.2355,41.2663,2026-02-19T1100,22,65,0.6,8,13,85,80,58,颗粒物(PM10)
辽阳市,铁西路150号,123.153,41.2874,2026-02-19T1100,23,89,0.8,12,16,69,67,70,颗粒物(PM10)
辽源市,安宁大街333号,125.0998,42.9134,2026-02-19T1100,14,42,0.6,6,6,78,68,42,
聊城市,区政府,115.9789,36.4372,2026-02-19T1100,72,94,0.9,12,19,79,85,97,细颗粒物(PM2.5)
聊城市,监控中心,115.9772,36.4986,2026-02-19T1100,72,102,0.9,17,17,98,106,97,细颗粒物(PM2.5)
聊城市,九州社区,116.0443,36.436,2026-02-19T1100,77,97,0.9,7,8,98,95,103,细颗粒物(PM2.5)
聊城市,星美广场,116.0564,36.4609,2026-02-19T1100,74,96,1.0,12,9,87,89,99,细颗粒物(PM2.5)
聊城市,利民路,116.0091,36.4495,2026-02-19T1100,70,78,1.1,13,16,93,97,94,细颗粒物(PM2.5)
林芝市,林芝人民医院,94.3616,29.6634,2026-02-19T1100,11,19,0.3,2,4,73,82,23,
临沧市,市环保局,100.0779,23.8981,2026-02-19T1100,41,59,0.9,8,6,74,75,58,细颗粒物(PM2.5)
临沧市,市气象局,100.0894,23.882,2026-02-19T1100,38,51,0.7,7,7,78,75,54,细颗粒物(PM2.5)
临汾市,临钢医院,111.5552,36.0791,2026-02-19T1100,55,88,1.6,19,16,65,42,75,细颗粒物(PM2.5)
临汾市,市委,111.5017,36.0857,2026-02-19T1100,43,63,1.3,13,14,59,38,60,细颗粒物(PM2.5)
临夏回族自治州,滨河东路1号,103.2464,35.6123,2026-02-19T1100,54,111,0.8,14,7,49,33,81,颗粒物(PM10)
临夏回族自治州,新华街21号,103.207136,35.599807,2026-02-19T1100,59,110,0.9,14,10,47,25,80,"颗粒物(PM10),细颗粒物(PM2.5)"
临沂市,沂河小区,118.3429,35.0532,2026-02-19T1100,90,107,0.7,14,17,80,65,119,细颗粒物(PM2.5)
临沂市,鲁南制药厂,118.2962,35.0568,2026-02-19T1100,96,110,0.7,19,20,76,63,127,细颗粒物(PM2.5)
临沂市,新光毛纺厂,118.2793,34.9976,2026-02-19T1100,97,105,0.8,12,15,79,59,128,细颗粒物(PM2.5)
临沂市,河东保险公司,118.3955,35.0889,2026-02-19T1100,96,112,0.9,16,24,87,68,127,细颗粒物(PM2.5)
临沂市,十里堡居委,118.3563,35.0215,2026-02-19T1100,102,,0.9,18,19,83,70,134,细颗粒物(PM2.5)
临沂市,南坊新区,118.359,35.1067,2026-02-19T1100,88,105,0.9,13,18,91,71,117,细颗粒物(PM2.5)
临沂市,皇山花园小区,118.3915,35.0297,2026-02-19T1100,101,110,0.9,19,22,83,71,133,细颗粒物(PM2.5)
柳州市,柳东小学,109.4854,24.3898,2026-02-19T1100,42,,0.7,5,4,36,37,59,细颗粒物(PM2.5)
柳州市,环保监测站,109.4109,24.3304,2026-02-19T1100,24,,0.9,13,4,34,33,35,
柳州市,河西水厂,109.3886,24.3408,2026-02-19T1100,26,38,1.0,11,8,36,40,38,
柳州市,市四中,109.4263,24.2951,2026-02-19T1100,24,29,0.9,9,6,33,31,35,
柳州市,市九中,109.396,24.3658,2026-02-19T1100,36,40,0.8,11,8,29,29,52,细颗粒物(PM2.5)
柳州市,古亭山,109.4912,24.3164,2026-02-19T1100,25,26,0.8,4,6,37,37,36,
柳州市,市二中,109.5422,24.3994,2026-02-19T1100,42,,0.5,9,5,38,36,59,细颗粒物(PM2.5)
六安市,监测大楼,116.5078,31.7369,2026-02-19T1100,52,,0.5,10,5,53,48,72,细颗粒物(PM2.5)
六安市,皖西学院,116.4738,31.7642,2026-02-19T1100,50,61,0.4,14,5,55,42,69,细颗粒物(PM2.5)
六安市,朝阳厂,116.4997,31.7904,2026-02-19T1100,60,,0.6,18,5,50,43,82,细颗粒物(PM2.5)
六安市,开发区,116.5566,31.7885,2026-02-19T1100,61,63,0.6,11,6,58,47,83,细颗粒物(PM2.5)
六盘水市,黄土坡,104.8293,26.592,2026-02-19T1100,3,14,0.8,10,15,51,48,16,
六盘水市,钟山大道中段564号,104.8899,26.5685,2026-02-19T1100,6,22,1.0,16,13,42,38,22,
龙岩市,龙岩市监测站,117.022,25.1031,2026-02-19T1100,17,22,0.7,3,7,61,46,25,
龙岩市,闽西职业技术学院,117.0257,25.0662,2026-02-19T1100,18,35,0.8,,,56,43,,
龙岩市,龙岩学院,117.0195,25.0306,2026-02-19T1100,20,30,/,4,6,61,43,30,
陇南市,滨江中学,104.9344,33.3827,2026-02-19T1100,31,72,0.9,14,8,56,42,61,颗粒物(PM10)
陇南市,市总工会,104.9551,33.3709,2026-02-19T1100,33,65,0.9,14,7,55,49,58,颗粒物(PM10)
娄底市,市监测站,111.9984,27.7346,2026-02-19T1100,52,53,1.1,16,4,24,29,72,细颗粒物(PM2.5)
娄底市,市政府,111.9888,27.7035,2026-02-19T1100,40,,0.8,12,3,27,32,57,细颗粒物(PM2.5)
娄底市,涟钢职大,111.9812,27.7591,2026-02-19T1100,38,52,1.1,15,1,28,26,54,细颗粒物(PM2.5)
娄底市,娄底体校,112.0303,27.7457,2026-02-19T1100,49,,0.6,12,2,,23,,
泸州市,小市上码头,105.4427,28.9063,2026-02-19T1100,58,71,1.0,6,6,46,33,79,细颗粒物(PM2.5)
泸州市,兰田宪桥,105.4241,28.8573,2026-02-19T1100,60,77,0.7,8,10,42,24,82,细颗粒物(PM2.5)
泸州市,市环监站,105.4378,28.8833,2026-02-19T1100,61,88,0.7,5,9,48,32,83,细颗粒物(PM2.5)
泸州市,纳溪中医医院,105.3689,28.7783,2026-02-19T1100,69,87,0.8,11,10,36,27,93,细颗粒物(PM2.5)
吕梁市,环保局,111.1447,37.5212,2026-02-19T1100,24,57,0.5,16,19,50,43,54,颗粒物(PM10)
吕梁市,自来水公司,111.1285,37.5338,2026-02-19T1100,25,73,0.6,15,18,56,32,62,颗粒物(PM10)
吕梁市,马茂庄小学,111.1225,37.5093,2026-02-19T1100,33,72,0.5,22,19,43,36,61,颗粒物(PM10)
洛阳市,市委党校,112.3934,34.6517,2026-02-19T1100,48,74,0.7,16,10,92,44,67,细颗粒物(PM2.5)
洛阳市,河南林校,112.494,34.6883,2026-02-19T1100,95,,0.6,20,14,,50,125,细颗粒物(PM2.5)
洛阳市,开发区管委会,112.3843,34.623,2026-02-19T1100,43,76,0.6,15,14,90,62,63,颗粒物(PM10)
洛阳市,市委新办公区,112.4263,34.6249,2026-02-19T1100,45,48,0.5,14,11,82,61,63,细颗粒物(PM2.5)
洛阳市,伊滨,112.6005,34.6323,2026-02-19T1100,40,73,0.7,15,10,85,65,62,颗粒物(PM10)
洛阳市,中移产业园,112.495,34.6338,2026-02-19T1100,38,65,0.7,17,9,80,63,58,颗粒物(PM10)
洛阳市,吉利监测站,112.5736,34.8993,2026-02-19T1100,23,52,0.6,11,11,102,79,51,颗粒物(PM10)
洛阳市,河科大西苑校区,112.3678,34.6623,2026-02-19T1100,57,84,0.7,17,12,98,46,78,细颗粒物(PM2.5)
洛阳市,英才小学,112.4387,34.678,2026-02-19T1100,50,85,0.8,20,13,89,48,69,细颗粒物(PM2.5)
洛阳市,春都路1号院,112.460027,34.694929,2026-02-19T1100,50,98,0.7,22,13,87,56,74,颗粒物(PM10)
漯河市,三五一五工厂,114.051,33.5721,2026-02-19T1100,38,71,0.6,10,6,69,55,61,颗粒物(PM10)
漯河市,漯河大学,114.0055,33.5698,2026-02-19T1100,44,65,0.7,13,8,68,52,62,细颗粒物(PM2.5)
漯河市,市水利局,114.0134,33.5826,2026-02-19T1100,40,58,0.5,10,7,70,56,57,细颗粒物(PM2.5)
漯河市,市广电局,114.0261,33.5697,2026-02-19T1100,52,66,0.6,7,8,65,53,72,细颗粒物(PM2.5)
漯河市,市图书馆,113.9691,33.568,2026-02-19T1100,40,72,0.5,8,8,65,54,61,颗粒物(PM10)
漯河市,韶山路11号,114.089259,33.588274,2026-02-19T1100,42,72,0.6,11,8,69,55,61,颗粒物(PM10)
马鞍山市,湖东路四小,118.5084,31.6838,2026-02-19T1100,63,77,0.5,12,7,68,28,85,细颗粒物(PM2.5)
马鞍山市,开发区,118.5019,31.6449,2026-02-19T1100,,,0.5,,6,,31,,
马鞍山市,雨山,118.4914,31.681,2026-02-19T1100,67,77,0.7,11,5,71,38,90,细颗粒物(PM2.5)
马鞍山市,慈湖高新区,118.527362,31.722269,2026-02-19T1100,54,77,0.5,17,6,69,39,74,细颗粒物(PM2.5)
茂名市,电白南海,111.0285,21.469,2026-02-19T1100,28,56,1.0,9,6,82,70,53,颗粒物(PM10)
茂名市,茂石化七小,110.9294,21.6533,2026-02-19T1100,43,58,0.8,12,8,79,64,60,细颗粒物(PM2.5)
茂名市,健康路,110.9108,21.6688,2026-02-19T1100,40,51,0.7,10,6,89,72,57,细颗粒物(PM2.5)
茂名市,高岭,110.8592,21.6826,2026-02-19T1100,36,73,/,6,5,86,66,62,颗粒物(PM10)
茂名市,电白水东,111.0101,21.5165,2026-02-19T1100,28,48,/,19,5,86,79,48,
眉山市,眉职院,103.8836,30.0695,2026-02-19T1100,57,85,1.1,13,6,35,30,78,细颗粒物(PM2.5)
梅州市,梅江月梅,116.1248,24.3307,2026-02-19T1100,19,31,/,8,/,36,28,31,
梅州市,梅县新城,116.0798,24.2719,2026-02-19T1100,27,,0.7,10,8,38,33,39,
梅州市,梅龙,116.1234,24.2994,2026-02-19T1100,23,27,0.8,7,9,,32,,
绵阳市,富乐山,104.7775,31.4741,2026-02-19T1100,58,72,1.0,18,9,40,35,79,细颗粒物(PM2.5)
绵阳市,高新区自来水公司,104.6698,31.4668,2026-02-19T1100,60,75,0.8,15,8,48,21,82,细颗粒物(PM2.5)
绵阳市,西科大附属小学,104.6899,31.5324,2026-02-19T1100,53,71,0.8,13,8,36,29,73,细颗粒物(PM2.5)
绵阳市,科技城新区公安局,104.7092,31.4972,2026-02-19T1100,56,68,0.9,12,6,56,38,77,细颗粒物(PM2.5)
绵阳市,绵阳市气象局,104.765114,31.453094,2026-02-19T1100,64,71,0.9,25,8,28,24,87,细颗粒物(PM2.5)
牡丹江市,环保大楼,129.61,44.561,2026-02-19T1100,48,81,0.6,23,30,55,50,67,细颗粒物(PM2.5)
牡丹江市,机车工厂,129.6364,44.6075,2026-02-19T1100,22,32,0.6,13,16,60,44,32,
内江市,市监测站,105.0703,29.61,2026-02-19T1100,85,,0.8,18,7,58,32,113,细颗粒物(PM2.5)
内江市,内江二中,105.0657,29.5807,2026-02-19T1100,80,96,0.7,23,8,50,18,107,细颗粒物(PM2.5)
内江市,内江日报社,105.0407,29.5828,2026-02-19T1100,78,83,0.5,22,9,59,33,104,细颗粒物(PM2.5)
内江市,玉峰路西段888号,105.0433,29.6105,2026-02-19T1100,75,,0.8,18,5,58,29,100,细颗粒物(PM2.5)
那曲市,那曲市委宣传部,92.0515,31.4787,2026-02-19T1100,28,28,0.7,10,8,61,64,40,
南昌市,林科所,115.813,28.7443,2026-02-19T1100,39,44,0.9,12,8,39,33,55,细颗粒物(PM2.5)
南昌市,建工学校,115.8518,28.687,2026-02-19T1100,43,51,0.4,16,6,43,40,60,细颗粒物(PM2.5)
南昌市,象湖,115.8926,28.6425,2026-02-19T1100,47,47,1.0,13,7,42,34,65,细颗粒物(PM2.5)
南昌市,外国语学校,115.9718,28.7032,2026-02-19T1100,60,,0.9,25,6,35,28,82,细颗粒物(PM2.5)
南昌市,工业二路,115.7923,28.6873,2026-02-19T1100,38,48,0.7,15,4,52,36,54,细颗粒物(PM2.5)
南昌市,南京东路235号,115.931587,28.686774,2026-02-19T1100,53,71,0.6,22,5,35,27,73,细颗粒物(PM2.5)
南充市,南充市委,106.0791,30.8022,2026-02-19T1100,63,79,,,8,34,24,,
南充市,南充炼油厂,106.1038,30.8215,2026-02-19T1100,71,81,0.8,20,7,25,24,95,细颗粒物(PM2.5)
南充市,梨树横街98号,106.108336,30.788436,2026-02-19T1100,66,82,0.7,21,8,32,25,89,细颗粒物(PM2.5)
南充市,清泉寺北路188号,106.1172,30.843,2026-02-19T1100,62,72,0.5,7,7,39,30,84,细颗粒物(PM2.5)
南充市,同庆路1号,106.067,30.7616,2026-02-19T1100,64,72,0.9,25,8,28,26,87,细颗粒物(PM2.5)
南京市,迈皋桥,118.8033,32.1085,2026-02-19T1100,44,47,0.5,20,9,88,50,62,细颗粒物(PM2.5)
南京市,瑞金路,118.8059,32.0329,2026-02-19T1100,50,53,0.5,4,4,80,35,69,细颗粒物(PM2.5)
南京市,玄武湖,118.7946,32.0774,2026-02-19T1100,37,62,1.0,16,1,78,47,56,颗粒物(PM10)
南京市,浦口,118.6415,32.0964,2026-02-19T1100,50,82,1.0,32,13,67,62,69,细颗粒物(PM2.5)
南京市,奥体中心,118.730129,32.000956,2026-02-19T1100,43,53,0.4,13,8,85,34,60,细颗粒物(PM2.5)
南京市,仙林大学城,118.9072,32.1047,2026-02-19T1100,48,56,0.6,12,5,86,42,67,细颗粒物(PM2.5)
南京市,六合雄州,118.8497,32.3599,2026-02-19T1100,63,89,1.6,34,8,44,14,85,细颗粒物(PM2.5)
南京市,新模范马路66号,118.7641,32.0841,2026-02-19T1100,35,61,0.7,2,4,116,72,56,颗粒物(PM10)
南京市,汶溪路181号,118.8707617,31.34017673,2026-02-19T1100,39,44,0.6,12,7,53,49,55,细颗粒物(PM2.5)
南京市,中山西路1号,119.019,31.6512,2026-02-19T1100,39,41,0.7,11,4,67,36,55,细颗粒物(PM2.5)
南宁市,二十一中,108.3098,22.788,2026-02-19T1100,46,,0.6,12,5,25,22,64,细颗粒物(PM2.5)
南宁市,北湖,108.3135,22.8529,2026-02-19T1100,47,50,0.6,6,2,25,21,65,细颗粒物(PM2.5)
南宁市,市监测站,108.3205,22.8222,2026-02-19T1100,42,44,0.7,10,6,25,23,59,细颗粒物(PM2.5)
南宁市,大自然花园,108.3828,22.8038,2026-02-19T1100,45,49,0.6,7,6,28,26,63,细颗粒物(PM2.5)
南宁市,区农职院,108.2397,22.8462,2026-02-19T1100,36,47,0.8,7,4,28,26,52,细颗粒物(PM2.5)
南宁市,英华嘉园,108.3285,22.7356,2026-02-19T1100,44,57,0.4,8,3,26,25,62,细颗粒物(PM2.5)
南宁市,红星社区,108.4829,22.762,2026-02-19T1100,50,54,0.8,6,8,27,29,69,细颗粒物(PM2.5)
南宁市,起凤路9号,108.2927,23.1477,2026-02-19T1100,44,48,0.7,6,2,30,28,62,细颗粒物(PM2.5)
南宁市,乐贤路16号,108.2177,22.7774,2026-02-19T1100,49,,0.6,7,3,27,23,68,细颗粒物(PM2.5)
南平市,南平市监测站,118.1682,26.6371,2026-02-19T1100,18,31,0.7,4,7,66,43,31,
南平市,南平七中,118.1757,26.6276,2026-02-19T1100,23,25,0.6,3,5,67,41,33,
南通市,狼山街道,120.9056,31.9669,2026-02-19T1100,64,72,0.7,23,6,88,35,87,细颗粒物(PM2.5)
南通市,城中,120.8635,32.0231,2026-02-19T1100,66,74,0.8,18,7,96,34,89,细颗粒物(PM2.5)
南通市,星湖花园,120.9376,31.9301,2026-02-19T1100,64,72,,17,7,89,38,,
南通市,紫琅学院,120.8053,32.046,2026-02-19T1100,50,67,0.7,18,9,80,34,69,细颗粒物(PM2.5)
南通市,通州监测站,121.0631,32.0644,2026-02-19T1100,70,73,1.0,20,11,101,52,94,细颗粒物(PM2.5)
南通市,环境教育馆,120.9348,31.9874,2026-02-19T1100,66,70,0.7,25,8,96,36,89,细颗粒物(PM2.5)
南通市,洪江路,120.8692,31.9885,2026-02-19T1100,69,70,0.9,22,10,81,31,93,细颗粒物(PM2.5)
南阳市,瓦房庄,112.5338,33.0086,2026-02-19T1100,55,83,1.1,14,7,45,49,75,细颗粒物(PM2.5)
南阳市,汉画馆,112.5002,32.9734,2026-02-19T1100,67,88,1.1,14,9,47,39,90,细颗粒物(PM2.5)
南阳市,气象站,112.5778,33.0144,2026-02-19T1100,51,87,1.1,15,8,50,50,70,细颗粒物(PM2.5)
南阳市,理工学院,112.548,32.9687,2026-02-19T1100,54,84,0.8,10,7,44,42,74,细颗粒物(PM2.5)
南阳市,卧龙区政府,112.5233,32.9921,2026-02-19T1100,57,94,1.0,14,8,39,42,78,细颗粒物(PM2.5)
宁波市,区环保大楼,121.8352,29.9111,2026-02-19T1100,49,66,0.6,10,8,104,65,68,细颗粒物(PM2.5)
宁波市,万里学院,121.5595,29.8208,2026-02-19T1100,46,49,0.7,10,5,84,50,64,细颗粒物(PM2.5)
宁波市,龙赛医院,121.713,29.9564,2026-02-19T1100,50,67,0.7,11,6,84,58,69,细颗粒物(PM2.5)
宁波市,太古小学,121.5855,29.8635,2026-02-19T1100,43,57,0.6,12,,,50,,
宁波市,市环境监测中心,121.5239,29.8673,2026-02-19T1100,40,47,0.6,9,5,76,49,57,细颗粒物(PM2.5)
宁波市,万里国际学校,121.6156,29.9015,2026-02-19T1100,46,54,0.6,8,5,89,53,64,细颗粒物(PM2.5)
宁波市,白沙活动中心,121.5593,29.8976,2026-02-19T1100,49,,0.5,9,6,87,57,68,细颗粒物(PM2.5)
宁波市,中科路88号,121.8962,29.7529,2026-02-19T1100,51,51,0.5,6,6,86,57,70,细颗粒物(PM2.5)
宁德市,宁德市监测站,119.5387,26.6611,2026-02-19T1100,34,43,0.5,9,5,84,65,49,
宁德市,宁德一中,119.5231,26.6562,2026-02-19T1100,35,39,0.3,8,4,86,66,50,
怒江傈僳族自治州,泸水一中,98.8607,25.8168,2026-02-19T1100,25,33,0.7,9,5,58,52,36,
攀枝花市,弄弄坪,101.6891,26.571,2026-02-19T1100,34,60,0.8,20,16,66,29,55,颗粒物(PM10)
攀枝花市,河门口,101.577,26.5914,2026-02-19T1100,39,50,1.7,,32,55,40,,
攀枝花市,仁和,101.7365,26.4986,2026-02-19T1100,35,38,0.8,14,11,74,58,50,
攀枝花市,四十中小,101.7222,26.567,2026-02-19T1100,25,45,0.8,10,13,74,54,45,
盘锦市,开发区,122.0303,41.1489,2026-02-19T1100,21,42,0.7,13,8,70,65,42,
盘锦市,兴隆台,122.0486,41.0883,2026-02-19T1100,25,39,,11,12,73,66,,
盘锦市,新生街道,121.8297,41.1026,2026-02-19T1100,24,48,0.6,16,10,74,61,48,
平顶山市,新华旅馆,113.3257,33.7423,2026-02-19T1100,37,68,0.5,13,7,71,57,59,颗粒物(PM10)
平顶山市,石龙区,112.8736,33.9068,2026-02-19T1100,14,54,0.5,13,9,77,72,52,颗粒物(PM10)
平顶山市,姚电大道23号,113.284,33.7139,2026-02-19T1100,49,79,0.6,11,5,70,53,68,细颗粒物(PM2.5)
平凉市,聚贤嘉苑,106.6633,35.5338,2026-02-19T1100,23,59,0.8,12,8,75,70,55,颗粒物(PM10)
萍乡市,中医院,113.8384,27.6436,2026-02-19T1100,47,59,0.9,17,3,26,27,65,细颗粒物(PM2.5)
萍乡市,市环保局,113.8677,27.6438,2026-02-19T1100,46,56,0.7,13,3,29,30,64,细颗粒物(PM2.5)
萍乡市,安源区政府,113.8663,27.6202,2026-02-19T1100,44,66,1.0,15,2,24,18,62,细颗粒物(PM2.5)
萍乡市,联洪村委会,113.8686,27.6668,2026-02-19T1100,49,62,0.4,16,1,22,26,68,细颗粒物(PM2.5)
莆田市,荔城区仓后路,119.0142,25.4324,2026-02-19T1100,22,37,/,6,/,95,89,37,
莆田市,莆田市监测站,119.0016,25.4553,2026-02-19T1100,25,40,0.5,5,2,97,94,40,
莆田市,涵江区六中,119.112,25.4561,2026-02-19T1100,22,33,0.6,5,/,94,94,33,
莆田市,秀屿区政府,119.1014,25.3215,2026-02-19T1100,27,49,0.6,5,4,97,93,49,
濮阳市,环保局,115.0312,35.7636,2026-02-19T1100,59,83,0.7,12,9,78,82,80,细颗粒物(PM2.5)
濮阳市,濮水河管理处,115,35.7667,2026-02-19T1100,56,82,0.7,16,13,83,72,77,细颗粒物(PM2.5)
濮阳市,中原东路68号,115.0552,35.7816,2026-02-19T1100,47,93,1.0,17,12,86,91,72,颗粒物(PM10)
濮阳市,任丘路479号,115.0923632,35.76857718,2026-02-19T1100,45,82,0.7,19,12,80,88,66,颗粒物(PM10)
普洱市,市环保局,100.9801,22.7634,2026-02-19T1100,32,66,0.7,6,5,67,39,58,颗粒物(PM10)
普洱市,普洱第二中学,100.9763,22.8237,2026-02-19T1100,34,62,0.7,11,6,62,33,56,颗粒物(PM10)
七台河市,中波台,131.0413,45.7795,2026-02-19T1100,7,37,0.2,6,10,61,53,37,
七台河市,新建矿广场,130.8639,45.8144,2026-02-19T1100,18,34,0.2,12,54,65,40,34,
齐齐哈尔市,中心广场,123.9497,47.3389,2026-02-19T1100,41,58,1.1,30,16,39,55,58,细颗粒物(PM2.5)
齐齐哈尔市,农牧车辆厂,123.9483,47.3229,2026-02-19T1100,29,61,0.6,22,9,45,53,56,颗粒物(PM10)
齐齐哈尔市,市环境监测站,123.9442,47.2994,2026-02-19T1100,23,52,0.5,17,7,50,53,51,颗粒物(PM10)
黔南布依族苗族自治州,沙坝,107.5175,26.2977,2026-02-19T1100,10,27,0.6,6,6,46,55,27,
黔西南布依族苗族自治州,场坝街,104.9022,25.0943,2026-02-19T1100,8,19,0.7,7,10,32,26,19,
黔西南布依族苗族自治州,坪东大道,104.8812,25.0994,2026-02-19T1100,15,,0.8,6,,,27,,
钦州市,沙埠小学,108.655,21.9481,2026-02-19T1100,50,67,0.6,9,7,48,31,69,细颗粒物(PM2.5)
钦州市,港区一小,108.5989,21.7435,2026-02-19T1100,54,60,0.9,18,7,41,24,74,细颗粒物(PM2.5)
钦州市,北职校,108.5959,21.9634,2026-02-19T1100,38,58,0.8,7,6,46,28,54,"颗粒物(PM10),细颗粒物(PM2.5)"
秦皇岛市,建设大厦,119.5247,39.9346,2026-02-19T1100,40,59,1.1,12,21,82,62,57,细颗粒物(PM2.5)
秦皇岛市,文明里,119.5979,39.938,2026-02-19T1100,30,55,1.2,23,23,65,59,53,颗粒物(PM10)
秦皇岛市,南园路157号,119.7458,39.9952,2026-02-19T1100,44,70,1.2,21,24,67,56,62,细颗粒物(PM2.5)
秦皇岛市,翠岛大街1号,119.5131,39.8858,2026-02-19T1100,43,61,1.1,17,22,72,54,60,细颗粒物(PM2.5)
秦皇岛市,北戴河轮滑馆,119.509013,39.825305,2026-02-19T1100,38,74,,22,22,62,59,,
青岛市,四方区子站,120.362344,36.10282,2026-02-19T1100,88,114,1.5,18,14,109,93,117,细颗粒物(PM2.5)
青岛市,市南区西部子站,120.294373,36.054183,2026-02-19T1100,91,100,1.0,18,5,101,96,120,细颗粒物(PM2.5)
青岛市,崂山区子站,120.4581,36.0858,2026-02-19T1100,76,85,0.9,12,9,109,85,102,细颗粒物(PM2.5)
青岛市,城阳区子站,120.3945,36.3083,2026-02-19T1100,85,97,,16,14,106,91,113,细颗粒物(PM2.5)
青岛市,市北区南部,120.3454,36.0735,2026-02-19T1100,86,99,1.1,13,6,101,85,114,细颗粒物(PM2.5)
青岛市,李沧区北部,120.3897,36.18,2026-02-19T1100,85,102,1.0,24,14,101,85,113,细颗粒物(PM2.5)
青岛市,盟旺路653号,120.5222,36.4089,2026-02-19T1100,76,114,1.0,10,10,115,88,102,细颗粒物(PM2.5)
青岛市,珠江路669号,120.196923,35.954556,2026-02-19T1100,95,114,1.3,18,13,100,95,125,细颗粒物(PM2.5)
青岛市,黄岛区人民政府广场,120.0424,35.8656,2026-02-19T1100,102,117,1.4,22,17,93,57,134,细颗粒物(PM2.5)
清远市,凤城街办,113.0218,23.7086,2026-02-19T1100,35,41,/,17,/,43,52,50,
清远市,技师学院,113.0479,23.6343,2026-02-19T1100,30,41,0.7,15,7,46,52,43,
清远市,清新太和,112.9898,23.7403,2026-02-19T1100,30,40,0.8,16,14,46,54,43,
清远市,清城东城,113.076,23.72,2026-02-19T1100,27,35,/,21,/,41,50,39,
庆阳市,庆阳五中,107.6325,35.7357,2026-02-19T1100,23,88,0.3,5,5,92,83,69,颗粒物(PM10)
曲靖市,环境监测站,103.7897,25.5036,2026-02-19T1100,21,35,0.9,12,10,20,43,35,
曲靖市,烟厂办公区,103.8013,25.5357,2026-02-19T1100,18,29,1.0,14,17,20,42,29,
曲靖市,南苑二区,103.7926,25.4651,2026-02-19T1100,16,25,1.0,12,5,26,47,25,
曲靖市,曲靖师范学院,103.7442,25.5259,2026-02-19T1100,20,28,1.0,8,3,27,39,29,
衢州市,环保大楼,118.8694,28.94,2026-02-19T1100,35,40,/,7,/,50,30,50,
衢州市,衢州学院,118.8622,28.9809,2026-02-19T1100,35,42,0.6,6,5,55,26,50,
衢州市,衢州三中,118.9646,28.9832,2026-02-19T1100,37,45,0.7,6,5,49,24,53,细颗粒物(PM2.5)
泉州市,涂山街,118.5818,24.9116,2026-02-19T1100,24,31,0.5,6,3,89,74,35,
泉州市,津头埔,118.597,24.8976,2026-02-19T1100,25,33,0.5,8,2,87,76,36,
泉州市,万安,118.6669,24.9422,2026-02-19T1100,23,42,0.5,7,3,78,69,42,
泉州市,霞新路6号,118.6355,24.9148,2026-02-19T1100,25,31,0.5,4,/,86,73,36,
日喀则市,日喀则监测站,88.8873,29.2723,2026-02-19T1100,26,,0.6,14,12,74,94,38,
日喀则市,林业技术推广中心,88.8775,29.2425,2026-02-19T1100,36,53,0.6,17,13,59,90,52,"颗粒物(PM10),细颗粒物(PM2.5)"
日照市,监测站,119.4711,35.421,2026-02-19T1100,117,149,2.3,41,34,69,28,153,细颗粒物(PM2.5)
日照市,市政府广场,119.523,35.4216,2026-02-19T1100,110,122,1.7,27,22,80,50,144,细颗粒物(PM2.5)
日照市,港务局,119.5511,35.4113,2026-02-19T1100,108,144,2.0,36,21,72,38,142,细颗粒物(PM2.5)
日照市,岚山环保分局,119.3267,35.1043,2026-02-19T1100,112,129,1.3,21,39,70,86,147,细颗粒物(PM2.5)
三门峡市,市政府,111.1922,34.7752,2026-02-19T1100,54,79,0.7,14,18,58,40,74,细颗粒物(PM2.5)
三门峡市,开发区,111.1588,34.794,2026-02-19T1100,60,88,0.6,11,10,55,38,82,细颗粒物(PM2.5)
三门峡市,三门峡市第一小学,111.1911,34.7829,2026-02-19T1100,50,90,0.8,18,18,62,43,70,颗粒物(PM10)
三门峡市,富达温泉假日酒店,111.1031,34.719,2026-02-19T1100,66,91,1.0,25,18,57,37,89,细颗粒物(PM2.5)
三明市,三钢,117.621,26.2626,2026-02-19T1100,22,,0.4,4,4,52,28,32,
三明市,三明二中,117.6352,26.2714,2026-02-19T1100,19,,0.5,5,4,51,32,28,
三明市,三元区政府,117.6028,26.2377,2026-02-19T1100,19,,0.9,6,4,54,26,28,
三亚市,河西子站,109.4962,18.2682,2026-02-19T1100,12,23,0.5,2,1,75,74,24,
三亚市,君悦子站,109.7348,18.3443,2026-02-19T1100,18,43,0.5,5,3,69,65,43,
三亚市,城东小学站,109.1714,18.3739,2026-02-19T1100,12,24,/,4,/,78,63,25,
山南市,山南监测站,91.7592,29.234,2026-02-19T1100,37,81,0.4,8,8,64,77,66,颗粒物(PM10)
山南市,山南人民医院,91.7701,29.2436,2026-02-19T1100,21,43,0.4,6,10,68,76,43,
汕头市,金平子站,116.6795,23.3666,2026-02-19T1100,21,,0.7,4,5,94,85,30,
汕头市,龙湖子站,116.7248,23.3632,2026-02-19T1100,20,34,/,9,10,89,82,34,
汕头市,濠江子站,116.7257,23.2774,2026-02-19T1100,17,38,/,10,7,92,80,38,
汕头市,澄海子站,116.7518,23.4712,2026-02-19T1100,21,37,0.7,4,6,85,80,37,
汕头市,潮阳子站,116.6088,23.2539,2026-02-19T1100,21,23,0.5,5,6,93,82,30,
汕头市,潮南峡山,116.4539,23.2684,2026-02-19T1100,20,29,0.8,5,6,86,84,29,
汕头市,潮南子站,116.4069,23.2533,2026-02-19T1100,26,40,/,4,6,70,77,40,
汕尾市,市环保局,115.3653,22.7751,2026-02-19T1100,23,27,0.7,6,5,65,67,33,
汕尾市,新城中学,115.362,22.7926,2026-02-19T1100,23,25,0.7,5,6,66,67,33,
商洛市,监测站,109.9155,33.8714,2026-02-19T1100,36,59,0.6,8,5,68,50,55,颗粒物(PM10)
商洛市,商州区中学,109.9647,33.8486,2026-02-19T1100,42,68,0.7,8,5,72,52,59,"颗粒物(PM10),细颗粒物(PM2.5)"
商丘市,环境监测站,115.6701,34.4283,2026-02-19T1100,68,102,0.7,11,7,71,80,92,细颗粒物(PM2.5)
商丘市,粮食局,115.6458,34.4047,2026-02-19T1100,67,85,0.7,7,4,67,69,90,细颗粒物(PM2.5)
商丘市,梁园区档案局,115.6069,34.4465,2026-02-19T1100,66,90,0.7,8,4,70,76,89,细颗粒物(PM2.5)
商丘市,北海东路185号,115.6701,34.3767,2026-02-19T1100,66,99,0.7,7,4,71,69,89,细颗粒物(PM2.5)
商丘市,中山大街3号,115.6172,34.3704,2026-02-19T1100,62,102,0.5,10,5,69,60,84,细颗粒物(PM2.5)
上海市,普陀,121.401,31.2382,2026-02-19T1100,59,71,0.7,11,10,103,72,80,细颗粒物(PM2.5)
上海市,十五厂,121.4774,31.2043,2026-02-19T1100,68,86,0.8,18,18,,60,,
上海市,虹口,121.4673,31.3011,2026-02-19T1100,65,80,0.5,13,10,96,50,88,细颗粒物(PM2.5)
上海市,静安监测站,121.4253,31.226,2026-02-19T1100,63,80,0.8,17,14,104,78,85,细颗粒物(PM2.5)
上海市,浦东川沙,121.7029,31.1905,2026-02-19T1100,65,78,0.5,16,11,104,66,88,细颗粒物(PM2.5)
上海市,浦东新区监测站,121.5339,31.229,2026-02-19T1100,68,76,0.9,12,11,103,77,92,细颗粒物(PM2.5)
上海市,浦东张江,121.5776,31.2038,2026-02-19T1100,64,75,0.4,18,10,108,76,87,细颗粒物(PM2.5)
上海市,宝山庙行,121.4242,31.3303,2026-02-19T1100,54,74,0.8,14,11,97,57,74,细颗粒物(PM2.5)
上海市,崇明上实东滩,121.8789,31.4662,2026-02-19T1100,76,88,0.7,18,10,98,49,102,细颗粒物(PM2.5)
上海市,嘉定南翔,121.316,31.2839,2026-02-19T1100,63,70,0.8,,8,,24,,
上海市,金山新城,121.3357,30.7455,2026-02-19T1100,54,57,0.7,4,6,88,48,74,细颗粒物(PM2.5)
上海市,闵行浦江,121.4996,31.0741,2026-02-19T1100,61,69,0.4,15,8,104,57,83,细颗粒物(PM2.5)
上海市,青浦徐泾,121.2886,31.1663,2026-02-19T1100,59,69,0.7,11,8,109,61,80,细颗粒物(PM2.5)
上海市,松江图书馆,121.2193,31.0382,2026-02-19T1100,64,73,0.7,10,11,104,60,87,细颗粒物(PM2.5)
上海市,长宁仙霞,121.3904,31.206,2026-02-19T1100,63,74,0.5,10,12,101,50,85,细颗粒物(PM2.5)
上海市,浦东惠南,121.7964,31.0507,2026-02-19T1100,60,71,0.7,15,8,107,59,82,细颗粒物(PM2.5)
上海市,奉贤南桥新城,121.4891,30.925,2026-02-19T1100,50,63,0.6,10,4,111,61,69,细颗粒物(PM2.5)
上海市,冠生园路458号,121.417401,31.16637,2026-02-19T1100,67,,0.8,17,10,96,53,90,细颗粒物(PM2.5)
上海市,宁武路151号,121.541914,31.268301,2026-02-19T1100,66,78,0.6,17,12,104,66,89,细颗粒物(PM2.5)
上饶市,凤凰光学,117.9521,28.4637,2026-02-19T1100,43,53,0.8,13,10,36,17,60,细颗粒物(PM2.5)
上饶市,裕丰大道,118.190438,28.444845,2026-02-19T1100,55,,0.7,10,15,38,17,75,细颗粒物(PM2.5)
韶关市,市八中,113.5821,24.7733,2026-02-19T1100,29,30,0.6,8,7,52,48,42,
韶关市,园林处,113.5916,24.7973,2026-02-19T1100,25,,/,8,7,53,49,36,
韶关市,曲江监测站,113.5971,24.6864,2026-02-19T1100,34,38,0.9,11,18,77,49,49,
韶关市,大学路288号,113.6668,24.7756,2026-02-19T1100,32,,/,9,4,52,42,46,
韶关市,碧湖山庄,113.5556,24.8082,2026-02-19T1100,30,37,0.7,5,6,51,46,43,
邵阳市,市化工厂,111.5277,27.2442,2026-02-19T1100,32,47,1.0,8,7,32,31,47,
邵阳市,市环保局,111.4327,27.2276,2026-02-19T1100,35,,1.0,8,5,33,39,50,
邵阳市,北塔二期4-26地块,111.446,27.2472,2026-02-19T1100,21,32,1.0,7,7,26,36,32,
邵阳市,邵水西路287号,111.4739,27.2282,2026-02-19T1100,31,34,0.9,9,4,30,37,45,
绍兴市,城东开发委,120.6053,29.9927,2026-02-19T1100,32,40,0.5,4,8,67,44,46,
绍兴市,树下王站,120.5482,30.0003,2026-02-19T1100,33,36,0.5,7,6,72,46,48,
绍兴市,绍兴中专,120.5685,29.936,2026-02-19T1100,30,35,0.3,4,6,,44,,
绍兴市,柯桥区政府,120.4905,30.086,2026-02-19T1100,38,44,0.3,13,6,70,44,54,细颗粒物(PM2.5)
绍兴市,重华小学,120.8751,30.0249,2026-02-19T1100,35,36,0.4,7,8,58,51,50,
绍兴市,上虞中学,120.837,30.0137,2026-02-19T1100,40,,0.6,9,7,72,48,57,细颗粒物(PM2.5)
绍兴市,柯桥妇保,120.4715,30.0414,2026-02-19T1100,40,43,,,,,39,,
绍兴市,袍江中学,120.6156,30.0762,2026-02-19T1100,34,37,0.5,8,7,71,44,49,
深圳市,通心岭子站,114.0948,22.5506,2026-02-19T1100,30,40,0.5,5,4,67,63,43,
深圳市,洪湖,114.1153,22.5713,2026-02-19T1100,31,50,0.7,5,5,65,62,50,
深圳市,华侨城,113.9823,22.5398,2026-02-19T1100,23,40,/,7,/,69,61,40,
深圳市,南海子站,113.9181,22.517,2026-02-19T1100,19,36,0.4,5,6,74,66,36,
深圳市,盐田,114.2345,22.565,2026-02-19T1100,34,47,0.6,18,7,60,58,49,
深圳市,南澳,114.4911,22.5381,2026-02-19T1100,33,50,/,7,/,67,70,50,
深圳市,葵涌,114.41,22.6346,2026-02-19T1100,31,42,0.7,8,8,62,60,45,
深圳市,梅沙,114.2967,22.5978,2026-02-19T1100,32,49,/,9,/,70,65,49,
深圳市,观澜,114.0563,22.7353,2026-02-19T1100,30,42,0.7,5,8,69,61,43,
深圳市,莲花,114.0614,22.556,2026-02-19T1100,26,34,/,9,/,63,56,38,
深圳市,民治,114.0144,22.6163,2026-02-19T1100,31,39,/,6,/,57,54,45,
深圳市,横岗,114.1756,22.6421,2026-02-19T1100,32,42,/,6,/,63,64,46,
深圳市,坪山,114.344,22.7115,2026-02-19T1100,39,48,0.6,7,9,56,56,55,细颗粒物(PM2.5)
深圳市,西乡,113.8952,22.586,2026-02-19T1100,29,39,0.6,3,5,69,56,42,
深圳市,黄阁路,114.214113,22.713717,2026-02-19T1100,34,44,0.8,9,7,61,57,49,
沈阳市,浑南东路,123.5058,41.7084,2026-02-19T1100,21,40,1.0,16,22,78,72,40,
沈阳市,新秀街,123.4238,41.6992,2026-02-19T1100,25,73,0.9,15,19,85,75,62,颗粒物(PM10)
沈阳市,东陵路,123.5903,41.8412,2026-02-19T1100,22,68,1.1,13,20,79,67,59,颗粒物(PM10)
沈阳市,陵东街,123.4267,41.8466,2026-02-19T1100,28,40,1.0,16,18,80,68,40,
沈阳市,文化路,123.4116,41.7654,2026-02-19T1100,26,63,0.8,13,15,85,73,57,颗粒物(PM10)
沈阳市,小河沿,123.4673,41.787,2026-02-19T1100,23,41,0.9,14,16,82,74,41,
沈阳市,太原街,123.4019,41.7978,2026-02-19T1100,28,90,0.7,,15,92,76,,
沈阳市,京沈街,123.3778,41.9233,2026-02-19T1100,26,80,0.8,13,15,88,80,65,颗粒物(PM10)
沈阳市,沈辽西路,123.2429,41.7341,2026-02-19T1100,21,53,0.8,16,14,79,69,52,颗粒物(PM10)
沈阳市,裕农路,123.5951,41.9085,2026-02-19T1100,23,39,1.1,15,18,83,72,39,
十堰市,滨河新村,110.78,32.6494,2026-02-19T1100,13,39,0.9,15,/,44,37,39,
十堰市,刘家沟,110.7305,32.6408,2026-02-19T1100,13,46,/,8,/,51,33,46,
十堰市,铁二处,110.8843,32.5712,2026-02-19T1100,16,37,1.1,13,7,42,25,37,
十堰市,郧阳区金沙路,110.8053,32.8401,2026-02-19T1100,3,35,0.8,6,6,56,45,35,
石河子市,艾青诗歌馆,86.0391,44.298,2026-02-19T1100,119,151,1.5,33,9,79,101,156,细颗粒物(PM2.5)
石河子市,南区管委会,86.047,44.2331,2026-02-19T1100,94,129,0.8,18,4,107,114,124,细颗粒物(PM2.5)
石河子市,世纪广场,86.0791,44.3018,2026-02-19T1100,143,174,1.7,29,8,88,83,190,细颗粒物(PM2.5)
石河子市,城南景苑小区,86.0126,44.2349,2026-02-19T1100,92,141,0.9,14,5,108,114,122,细颗粒物(PM2.5)
石家庄市,高新区,114.5919,38.0328,2026-02-19T1100,6,51,0.4,5,7,86,53,51,颗粒物(PM10)
石家庄市,世纪公园,114.533,38.0177,2026-02-19T1100,3,48,0.4,5,6,82,56,48,
石家庄市,鹿泉一中,114.2887,38.0905,2026-02-19T1100,12,61,,3,6,79,71,,
石家庄市,栾城区星河路,114.6491,37.9014,2026-02-19T1100,18,59,0.3,5,5,84,38,55,颗粒物(PM10)
石家庄市,和平路363号,114.5586,38.0581,2026-02-19T1100,8,51,0.4,6,4,83,52,51,颗粒物(PM10)
石家庄市,廉州西路160号,114.8347,38.0213,2026-02-19T1100,23,56,0.4,1,1,77,59,53,颗粒物(PM10)
石家庄市,矿区区委大楼,114.0494,38.059,2026-02-19T1100,3,36,0.3,5,7,89,68,36,
石嘴山市,大武口朝阳西街,106.3668,39.0145,2026-02-19T1100,37,78,0.9,19,16,57,60,64,颗粒物(PM10)
石嘴山市,惠农南大街,106.7713,39.2278,2026-02-19T1100,28,75,0.8,14,13,56,64,63,颗粒物(PM10)
石嘴山市,红果子镇惠新街,106.7074,39.1332,2026-02-19T1100,30,77,0.7,8,12,63,65,64,颗粒物(PM10)
石嘴山市,妇女儿童医院,106.3495,38.9837,2026-02-19T1100,17,65,0.7,14,12,58,66,58,颗粒物(PM10)
石嘴山市,石大公路,106.7495,39.2068,2026-02-19T1100,28,71,0.7,12,12,54,61,61,颗粒物(PM10)
双鸭山市,双合村,131.1509,46.6936,2026-02-19T1100,19,28,0.4,11,7,74,65,28,
双鸭山市,环保局,131.1526,46.6554,2026-02-19T1100,9,20,0.4,8,6,76,56,24,
朔州市,平朔,112.4399,39.3521,2026-02-19T1100,22,72,0.4,11,11,68,44,61,颗粒物(PM10)
朔州市,朔唯,112.4574,39.362,2026-02-19T1100,14,73,/,17,17,64,38,62,颗粒物(PM10)
朔州市,区政府,112.426,39.3199,2026-02-19T1100,7,51,0.2,4,5,80,67,51,颗粒物(PM10)
朔州市,市环保局,112.4075,39.3277,2026-02-19T1100,,,/,,,79,68,,
朔州市,市二中,112.4273,39.3682,2026-02-19T1100,26,83,/,10,19,71,47,67,颗粒物(PM10)
朔州市,一水厂,112.2938,39.5296,2026-02-19T1100,15,63,0.4,1,7,76,73,57,颗粒物(PM10)
四平市,植物园,124.4029,43.1411,2026-02-19T1100,26,60,0.5,21,18,67,65,55,颗粒物(PM10)
松原市,江南,124.8007,45.1213,2026-02-19T1100,31,47,0.4,8,2,59,54,47,
松原市,江北,124.7967,45.1721,2026-02-19T1100,19,68,0.4,8,1,,62,,
苏州市,轧钢厂,120.5974,31.3247,2026-02-19T1100,58,73,0.8,25,10,83,26,79,细颗粒物(PM2.5)
苏州市,吴中区,120.6329,31.2741,2026-02-19T1100,50,64,0.7,14,9,78,37,69,细颗粒物(PM2.5)
苏州市,苏州新区,120.5566,31.3049,2026-02-19T1100,56,66,0.8,16,10,95,48,77,细颗粒物(PM2.5)
苏州市,苏州工业园区,120.668709,31.312523,2026-02-19T1100,68,74,0.7,15,8,93,54,92,细颗粒物(PM2.5)
苏州市,相城区,120.6408,31.3707,2026-02-19T1100,58,74,0.7,15,8,90,35,79,细颗粒物(PM2.5)
苏州市,方洲路,120.7431,31.3188,2026-02-19T1100,59,72,0.8,12,10,96,42,80,细颗粒物(PM2.5)
苏州市,木渎中学,120.4979,31.2777,2026-02-19T1100,43,53,1.0,5,9,97,60,60,细颗粒物(PM2.5)
苏州市,越秀幼儿园,120.642,31.1733,2026-02-19T1100,58,66,0.8,8,6,96,57,79,细颗粒物(PM2.5)
苏州市,高铁新城,120.6502,31.4117,2026-02-19T1100,60,74,0.3,14,7,92,42,82,细颗粒物(PM2.5)
宿迁市,宿迁学院,118.2924,33.933,2026-02-19T1100,57,77,0.5,11,8,85,70,78,细颗粒物(PM2.5)
宿迁市,宿迁中学,118.2321,33.9572,2026-02-19T1100,73,83,0.3,8,8,75,57,98,细颗粒物(PM2.5)
宿迁市,市供电局,118.2781,33.9658,2026-02-19T1100,63,79,0.6,10,6,85,76,85,细颗粒物(PM2.5)
宿迁市,宿豫区政府,118.3243,33.95,2026-02-19T1100,59,73,0.4,12,9,80,67,80,细颗粒物(PM2.5)
宿迁市,春华路,118.352,33.7886,2026-02-19T1100,54,70,0.7,11,8,79,55,74,细颗粒物(PM2.5)
宿州市,远航博物馆,116.9508,33.666,2026-02-19T1100,74,85,0.6,13,5,69,83,99,细颗粒物(PM2.5)
宿州市,社会福利中心,116.9708,33.5911,2026-02-19T1100,79,85,0.6,14,8,66,57,105,细颗粒物(PM2.5)
宿州市,皖北煤电集团,116.9647,33.6252,2026-02-19T1100,78,87,0.8,13,5,69,69,104,细颗粒物(PM2.5)
宿州市,中兴路,116.9929,33.6412,2026-02-19T1100,69,91,0.7,13,8,68,70,93,细颗粒物(PM2.5)
绥化市,党政办公中心,126.964,46.6527,2026-02-19T1100,35,50,0.6,12,9,77,67,50,
随州市,市委党校,113.3587,31.7275,2026-02-19T1100,56,89,1.1,24,8,39,15,77,细颗粒物(PM2.5)
随州市,市立交桥水厂,113.3984,31.7309,2026-02-19T1100,54,68,0.5,13,7,43,24,74,细颗粒物(PM2.5)
遂宁市,美宁食品公司,105.5917,30.4727,2026-02-19T1100,67,73,0.6,13,3,39,27,90,细颗粒物(PM2.5)
遂宁市,环岛商务中心9号楼,105.5911,30.5368,2026-02-19T1100,68,76,0.6,11,5,,30,,
塔城地区,东门外小游园,82.9993,46.7432,2026-02-19T1100,3,,0.5,12,5,54,58,17,
塔城地区,文化广场,82.9716,46.7464,2026-02-19T1100,19,19,1.2,22,3,53,60,28,
台州市,黄岩环保大楼,121.2727,28.6461,2026-02-19T1100,43,56,/,9,/,80,58,60,细颗粒物(PM2.5)
台州市,台州环保大楼,121.4188,28.6545,2026-02-19T1100,36,58,0.4,10,/,96,61,54,颗粒物(PM10)
台州市,路桥田洋王,121.3768,28.5772,2026-02-19T1100,42,50,0.3,,,94,60,,
台州市,台州科技职业学院,121.25678,28.66823971,2026-02-19T1100,36,50,0.5,6,6,82,55,52,细颗粒物(PM2.5)
太原市,尖草坪,112.5138,37.8916,2026-02-19T1100,25,71,1.1,20,18,66,60,61,颗粒物(PM10)
太原市,晋源,112.4691,37.7125,2026-02-19T1100,41,80,1.4,26,32,61,41,65,颗粒物(PM10)
太原市,小店,112.5595,37.7391,2026-02-19T1100,26,61,1.5,26,37,60,44,56,颗粒物(PM10)
太原市,坞城,112.5705,37.8199,2026-02-19T1100,29,63,1.1,28,33,59,51,57,颗粒物(PM10)
太原市,南寨,112.5495,37.9853,2026-02-19T1100,35,55,1.1,31,26,54,40,53,颗粒物(PM10)
太原市,金胜,112.4702,37.7821,2026-02-19T1100,27,81,1.3,25,26,57,59,66,颗粒物(PM10)
太原市,育英中学,112.5608,37.8807,2026-02-19T1100,26,62,0.9,26,21,62,58,56,颗粒物(PM10)
太原市,西矿街336号,112.449,37.8509,2026-02-19T1100,13,47,0.5,11,9,87,59,47,
太原市,迎宾北路9号,112.4792,37.9393,2026-02-19T1100,25,68,1.0,21,13,65,72,59,颗粒物(PM10)
太原市,迎泽大街248号,112.551,37.8575,2026-02-19T1100,32,51,1.0,24,23,63,54,51,颗粒物(PM10)
泰安市,监测站,117.1436,36.1938,2026-02-19T1100,97,105,0.8,13,11,96,60,128,细颗粒物(PM2.5)
泰安市,国网新校,117.1812,36.2273,2026-02-19T1100,93,95,0.8,13,12,93,61,123,细颗粒物(PM2.5)
泰安市,交通技校,117.0315,36.2017,2026-02-19T1100,91,95,0.8,11,10,98,80,120,细颗粒物(PM2.5)
泰州市,莲花,119.9189,32.4626,2026-02-19T1100,55,,0.6,18,12,91,45,75,细颗粒物(PM2.5)
泰州市,留学生创业园,119.8877,32.4636,2026-02-19T1100,61,66,0.5,12,12,86,48,83,细颗粒物(PM2.5)
泰州市,姜堰区政府广场,120.1226,32.515,2026-02-19T1100,106,121,0.8,17,14,88,58,139,细颗粒物(PM2.5)
泰州市,周山河街区,119.9186,32.4322,2026-02-19T1100,58,81,0.6,10,14,86,42,79,细颗粒物(PM2.5)
唐山市,十二中,118.1707,39.6505,2026-02-19T1100,58,,0.6,16,9,73,28,79,细颗粒物(PM2.5)
唐山市,小山,118.1868,39.6219,2026-02-19T1100,27,54,0.7,17,12,59,31,52,颗粒物(PM10)
唐山市,冀东油田职工医院,118.4357,39.277,2026-02-19T1100,32,70,0.7,18,16,62,54,60,颗粒物(PM10)
唐山市,正泰大街热力站,118.0927,39.5807,2026-02-19T1100,44,63,0.7,8,11,71,26,62,细颗粒物(PM2.5)
唐山市,政府服务中心,118.2449,39.6693,2026-02-19T1100,44,62,0.8,27,15,56,15,62,细颗粒物(PM2.5)
唐山市,消防缸窑路中队,118.2043,39.6703,2026-02-19T1100,34,68,0.9,16,15,68,24,59,颗粒物(PM10)
唐山市,路南电大,118.1432,39.6203,2026-02-19T1100,36,45,0.6,21,11,71,36,52,细颗粒物(PM2.5)
唐山市,光明北路515号,118.1267,39.6579,2026-02-19T1100,86,,0.5,12,9,70,31,114,细颗粒物(PM2.5)
唐山市,友谊北路34号,118.130859,39.636026,2026-02-19T1100,36,53,0.5,11,10,74,34,52,"颗粒物(PM10),细颗粒物(PM2.5)"
天津市,勤俭道,117.1446,39.1659,2026-02-19T1100,53,67,0.7,20,10,55,56,73,细颗粒物(PM2.5)
天津市,前进道,117.2016,39.0928,2026-02-19T1100,59,75,0.8,16,18,74,58,80,细颗粒物(PM2.5)
天津市,淮河道,117.1837,39.2134,2026-02-19T1100,51,70,0.7,20,12,60,50,70,细颗粒物(PM2.5)
天津市,跃进路,117.308261,39.088386,2026-02-19T1100,56,73,1.0,16,18,74,52,77,细颗粒物(PM2.5)
天津市,第四大街,117.707,39.0344,2026-02-19T1100,49,73,0.8,27,16,82,59,68,细颗粒物(PM2.5)
天津市,永明路,117.4573,38.8395,2026-02-19T1100,61,77,0.8,22,18,70,52,83,细颗粒物(PM2.5)
天津市,汉北路,117.7641,39.1588,2026-02-19T1100,40,60,1.1,25,13,58,43,57,细颗粒物(PM2.5)
天津市,河西一经路,117.7917,39.2473,2026-02-19T1100,47,77,1.7,24,24,60,42,65,细颗粒物(PM2.5)
天津市,津沽路,117.3747,38.9845,2026-02-19T1100,57,84,0.7,17,16,77,52,78,细颗粒物(PM2.5)
天津市,宾水西道,117.159,39.0844,2026-02-19T1100,54,70,0.6,16,18,62,47,74,细颗粒物(PM2.5)
天津市,大理道,117.194,39.1069,2026-02-19T1100,57,72,1.0,21,18,,55,,
天津市,中山北路,117.2096,39.1698,2026-02-19T1100,46,67,0.6,24,10,49,46,64,细颗粒物(PM2.5)
天津市,西四道,117.385,39.1483,2026-02-19T1100,52,64,0.9,30,20,57,43,72,细颗粒物(PM2.5)
天津市,雍阳西道,117.0362,39.3827,2026-02-19T1100,55,77,0.7,18,13,63,42,75,细颗粒物(PM2.5)
天津市,辛老路,117.0291,39.0612,2026-02-19T1100,64,87,0.9,13,16,65,46,87,细颗粒物(PM2.5)
天津市,地纬路,116.9638,38.9374,2026-02-19T1100,65,85,0.8,14,17,63,44,88,细颗粒物(PM2.5)
天津市,北环路,117.4065,40.0583,2026-02-19T1100,39,64,0.7,12,6,68,56,57,颗粒物(PM10)
天津市,建设路,117.3041,39.7167,2026-02-19T1100,53,80,0.8,13,12,67,45,73,细颗粒物(PM2.5)
天津市,滨水东路,117.8201,39.3519,2026-02-19T1100,47,74,0.8,,,62,41,,
天津市,光华路,117.24369,39.102911,2026-02-19T1100,49,62,0.8,20,16,66,56,68,细颗粒物(PM2.5)
天水市,麦积国土局,105.89428,34.55353,2026-02-19T1100,38,50,,18,,62,47,,
铁岭市,水上乐园,123.865,42.292,2026-02-19T1100,20,40,0.8,19,16,74,71,40,
铁岭市,金沙江路北,123.7158,42.2218,2026-02-19T1100,23,44,0.7,18,9,79,69,44,
铁岭市,新华街20号,123.835,42.2853,2026-02-19T1100,24,59,0.8,17,17,72,69,55,颗粒物(PM10)
通化市,光明,125.9359,41.7174,2026-02-19T1100,12,42,0.4,6,11,87,42,42,
通化市,铁路,125.9446,41.7323,2026-02-19T1100,11,70,0.3,7,9,87,36,60,颗粒物(PM10)
通辽市,艺术职业学校,122.253,43.6801,2026-02-19T1100,18,35,0.4,8,9,68,65,35,
通辽市,老干部活动中心,122.2584,43.6333,2026-02-19T1100,34,53,0.7,15,12,58,64,52,颗粒物(PM10)
通辽市,东方明珠社区,122.2923,43.6189,2026-02-19T1100,42,83,0.8,39,12,54,59,67,颗粒物(PM10)
铜川市,王益区政府,109.0696,35.0699,2026-02-19T1100,28,63,0.8,21,3,67,38,57,颗粒物(PM10)
铜川市,新区管委会,108.9345,34.9059,2026-02-19T1100,26,60,0.4,8,4,77,69,55,颗粒物(PM10)
铜川市,大唐三路,108.949652,34.870529,2026-02-19T1100,31,53,0.3,12,14,78,74,52,颗粒物(PM10)
铜陵市,市第四中学,117.8176,30.9412,2026-02-19T1100,49,90,1.6,23,15,47,35,70,颗粒物(PM10)
铜陵市,市新民污水厂,117.7806,30.9413,2026-02-19T1100,43,60,0.6,24,15,32,27,60,细颗粒物(PM2.5)
铜陵市,车站新区,117.846,30.9414,2026-02-19T1100,49,64,0.7,18,10,57,41,68,细颗粒物(PM2.5)
铜陵市,市职教基地,117.8472,30.9699,2026-02-19T1100,58,65,1.3,,,46,35,,
铜仁市,铜仁卫校,109.1839,27.7344,2026-02-19T1100,24,31,0.6,6,2,55,64,35,
铜仁市,铜仁七中,109.1752,27.6945,2026-02-19T1100,17,,0.5,7,3,50,63,25,
吐鲁番市,市环保局,89.1905,42.9419,2026-02-19T1100,45,120,1.6,34,4,32,42,85,颗粒物(PM10)
吐鲁番市,地区环保局,89.1674,42.9558,2026-02-19T1100,54,124,1.2,24,5,38,47,87,颗粒物(PM10)
威海市,华夏技校,122.121,37.4231,2026-02-19T1100,30,39,0.4,9,/,93,83,43,
威海市,山大分校,122.0508,37.5236,2026-02-19T1100,30,34,/,8,/,98,89,43,
威海市,市监测站,122.1067,37.5067,2026-02-19T1100,32,42,0.4,8,6,102,87,46,
威海市,文登开发区,122.0693,37.2175,2026-02-19T1100,23,32,/,7,/,93,82,33,
威海市,临港区管委会,122.1379,37.3414,2026-02-19T1100,21,36,0.3,6,6,97,84,36,
潍坊市,环保局,119.1436,36.7022,2026-02-19T1100,84,112,0.9,13,12,114,82,112,细颗粒物(PM2.5)
潍坊市,坊子邮政,119.1638,36.6524,2026-02-19T1100,82,102,1.0,17,13,111,82,109,细颗粒物(PM2.5)
潍坊市,潍坊七中,119.0587,36.7209,2026-02-19T1100,79,112,1.2,13,13,109,80,105,细颗粒物(PM2.5)
潍坊市,高新实验学校,119.1978,36.6871,2026-02-19T1100,66,97,0.9,12,10,115,84,89,细颗粒物(PM2.5)
潍坊市,潍坊学院,119.1758,36.7139,2026-02-19T1100,76,102,1.1,10,14,115,90,102,细颗粒物(PM2.5)
渭南市,体育馆,109.4605,34.4927,2026-02-19T1100,59,92,0.7,19,10,68,61,80,细颗粒物(PM2.5)
渭南市,高新一小,109.4257,34.5067,2026-02-19T1100,59,81,0.8,14,8,67,50,80,细颗粒物(PM2.5)
渭南市,渭花路4号,109.505065,34.492137,2026-02-19T1100,72,105,0.7,24,8,60,53,97,细颗粒物(PM2.5)
温州市,瓯海,120.6342,28.0088,2026-02-19T1100,47,61,0.5,12,8,76,50,65,细颗粒物(PM2.5)
温州市,南浦,120.6747,27.9881,2026-02-19T1100,43,59,0.5,11,7,85,60,60,细颗粒物(PM2.5)
温州市,龙湾,120.76,27.9745,2026-02-19T1100,42,56,0.4,9,6,88,50,59,细颗粒物(PM2.5)
温州市,茶山,120.6985,27.9252,2026-02-19T1100,41,55,/,10,/,90,56,58,细颗粒物(PM2.5)
温州市,鹿城惠民路,120.6935,28.0114,2026-02-19T1100,36,50,0.5,8,/,92,60,52,细颗粒物(PM2.5)
文山壮族苗族自治州,州水务局,104.2533,23.3595,2026-02-19T1100,16,,,7,4,37,51,,
文山壮族苗族自治州,市便民服务中心,104.2319,23.3892,2026-02-19T1100,3,,0.6,5,5,36,48,12,
乌海市,市林业局,106.8172,39.6972,2026-02-19T1100,48,165,0.4,3,11,92,88,108,颗粒物(PM10)
乌海市,中海勃湾学校,106.7907,39.6666,2026-02-19T1100,58,220,0.3,3,8,102,96,135,颗粒物(PM10)
乌海市,海北新区,106.8129,39.7274,2026-02-19T1100,41,247,0.3,4,13,86,78,149,颗粒物(PM10)
乌海市,海拉北路,106.8212,39.6741,2026-02-19T1100,49,202,0.3,3,,,69,126,颗粒物(PM10)
乌兰察布市,集宁新区,113.1306,40.9924,2026-02-19T1100,20,36,0.5,6,7,91,83,36,
乌兰察布市,光明街小学,113.1076,41.0385,2026-02-19T1100,15,43,0.5,7,5,85,62,43,
乌兰察布市,北京八中,113.1383,40.9513,2026-02-19T1100,8,56,0.8,5,,,72,,
乌兰察布市,市委党校,113.1776,40.9779,2026-02-19T1100,21,40,0.5,6,7,88,71,40,
乌鲁木齐市,收费所,87.6044,43.7679,2026-02-19T1100,117,139,1.4,56,6,44,64,153,细颗粒物(PM2.5)
乌鲁木齐市,铁路局,87.5529,43.8704,2026-02-19T1100,160,178,1.4,60,2,39,77,210,细颗粒物(PM2.5)
乌鲁木齐市,三十一中学,87.6408,43.8258,2026-02-19T1100,153,186,1.3,40,3,74,94,203,细颗粒物(PM2.5)
乌鲁木齐市,米东区环保局,87.7218,44.1747,2026-02-19T1100,114,141,1.4,34,8,59,89,149,细颗粒物(PM2.5)
乌鲁木齐市,红光山片区,87.6132,43.8791,2026-02-19T1100,201,,1.4,39,11,62,71,251,细颗粒物(PM2.5)
乌鲁木齐市,新师大温泉校区,87.7008,43.8003,2026-02-19T1100,57,84,0.7,16,8,95,109,78,细颗粒物(PM2.5)
乌鲁木齐市,大绿谷,87.4892,43.84,2026-02-19T1100,126,171,1.5,62,2,46,77,166,细颗粒物(PM2.5)
无锡市,雪浪,120.2693,31.4864,2026-02-19T1100,46,61,0.9,4,8,88,63,64,细颗粒物(PM2.5)
无锡市,黄巷,120.2761,31.621,2026-02-19T1100,47,58,0.7,12,6,86,61,65,细颗粒物(PM2.5)
无锡市,东亭,120.3489,31.5865,2026-02-19T1100,52,53,0.7,11,9,90,57,72,细颗粒物(PM2.5)
无锡市,旺庄,120.3538,31.5474,2026-02-19T1100,50,58,0.9,9,5,89,52,69,细颗粒物(PM2.5)
无锡市,清舒道1号,120.3138,31.4927,2026-02-19T1100,50,61,0.7,10,10,86,72,69,细颗粒物(PM2.5)
无锡市,健康路105号,120.2925,31.5685,2026-02-19T1100,42,71,0.8,,7,,47,,
吴忠市,教育园区,106.1535,37.9648,2026-02-19T1100,17,72,0.5,7,17,81,69,61,颗粒物(PM10)
吴忠市,新区二泵站,106.1851,37.9957,2026-02-19T1100,14,103,0.5,9,14,78,63,77,颗粒物(PM10)
吴忠市,文卫南街,106.2176,37.9832,2026-02-19T1100,23,98,0.6,9,14,82,69,74,颗粒物(PM10)
芜湖市,监测站,118.3603,31.3515,2026-02-19T1100,72,104,0.8,26,8,34,16,97,细颗粒物(PM2.5)
芜湖市,科创中心,118.3716,31.4135,2026-02-19T1100,86,109,0.9,21,10,42,18,114,细颗粒物(PM2.5)
芜湖市,四水厂,118.3671,31.3132,2026-02-19T1100,102,113,0.7,16,7,37,45,134,细颗粒物(PM2.5)
芜湖市,市气象局,118.4209,31.3704,2026-02-19T1100,84,98,0.6,10,10,38,29,112,细颗粒物(PM2.5)
芜湖市,清苑社区,118.4783,31.3226,2026-02-19T1100,84,112,0.7,14,10,36,17,112,细颗粒物(PM2.5)
芜湖市,扬子职业技术学院,118.2746,31.2326,2026-02-19T1100,76,89,0.8,11,9,41,29,102,细颗粒物(PM2.5)
芜湖市,湾沚区人民法院,118.5726,31.1371,2026-02-19T1100,43,48,1.1,14,8,33,33,60,细颗粒物(PM2.5)
梧州市,市十一中,111.3126,23.4772,2026-02-19T1100,,,0.4,8,9,,20,,
梧州市,龙新,111.26,23.4794,2026-02-19T1100,8,44,0.2,9,6,48,32,44,
梧州市,政贤路18号,111.2416,23.4155,2026-02-19T1100,21,43,0.5,6,6,34,20,43,
五家渠市,经开区管委会,87.5461,44.1909,2026-02-19T1100,124,132,1.5,27,4,57,103,163,细颗粒物(PM2.5)
五家渠市,建设西街760号,87.055284,43.999117,2026-02-19T1100,88,119,1.1,9,2,119,114,117,细颗粒物(PM2.5)
武汉市,东湖梨园,114.3676,30.5584,2026-02-19T1100,99,,1.5,29,7,35,36,130,细颗粒物(PM2.5)
武汉市,汉阳月湖,114.2527,30.5578,2026-02-19T1100,84,,0.9,18,6,50,20,112,细颗粒物(PM2.5)
武汉市,武昌紫阳,114.3024,30.5332,2026-02-19T1100,79,,1.0,22,12,57,45,105,细颗粒物(PM2.5)
武汉市,青山钢花,114.3646,30.6217,2026-02-19T1100,87,94,1.2,35,8,38,14,115,细颗粒物(PM2.5)
武汉市,沌口新区,114.156697,30.482592,2026-02-19T1100,83,,0.8,22,10,43,26,110,细颗粒物(PM2.5)
武汉市,汉口江滩,114.3013,30.5944,2026-02-19T1100,85,,1.0,41,8,43,20,113,细颗粒物(PM2.5)
武汉市,吴家山,114.1285,30.6339,2026-02-19T1100,85,,1.0,20,7,63,33,113,细颗粒物(PM2.5)
武汉市,民族大道182号,114.3876,30.4908,2026-02-19T1100,87,,1.0,24,8,58,41,115,细颗粒物(PM2.5)
武威市,监测站,102.6203,37.925,2026-02-19T1100,26,56,1.1,27,12,47,47,53,颗粒物(PM10)
武威市,钟楼街149号,102.6447,37.9293,2026-02-19T1100,30,,1.0,22,13,,49,,
西安市,兴庆小区,108.9931,34.2629,2026-02-19T1100,47,75,0.6,16,7,65,42,65,细颗粒物(PM2.5)
西安市,小寨,108.9377,34.2178,2026-02-19T1100,57,76,0.4,14,5,72,42,78,细颗粒物(PM2.5)
西安市,市人民体育场,108.9522,34.2739,2026-02-19T1100,58,95,0.7,12,7,69,40,79,细颗粒物(PM2.5)
西安市,高新西区,108.8923,34.2322,2026-02-19T1100,66,94,0.3,10,7,69,54,89,细颗粒物(PM2.5)
西安市,经开区,108.9386,34.3446,2026-02-19T1100,66,90,0.7,17,7,73,47,89,细颗粒物(PM2.5)
西安市,长安区,108.894,34.1557,2026-02-19T1100,49,68,0.5,12,7,70,44,68,细颗粒物(PM2.5)
西安市,临潼区,109.213,34.3748,2026-02-19T1100,34,60,0.4,6,6,89,69,55,颗粒物(PM10)
西安市,广运潭,109.0508,34.321,2026-02-19T1100,52,79,0.8,20,5,56,52,72,细颗粒物(PM2.5)
西安市,无线电监控中心,109.1019,34.5302,2026-02-19T1100,82,90,0.5,16,,,46,109,细颗粒物(PM2.5)
西安市,行知小学,108.8869,34.2662,2026-02-19T1100,69,94,1.0,15,11,70,52,93,细颗粒物(PM2.5)
西安市,西苑北路977号,108.596239,34.118792,2026-02-19T1100,58,85,0.5,10,10,64,41,79,细颗粒物(PM2.5)
西安市,曲江池东路988号,108.9817,34.2035,2026-02-19T1100,45,73,0.5,26,4,71,67,63,细颗粒物(PM2.5)
西宁市,城北区政府,101.7775,36.643,2026-02-19T1100,50,76,1.9,18,18,60,60,69,细颗粒物(PM2.5)
西宁市,世纪职校,101.8304,36.5785,2026-02-19T1100,54,64,1.3,17,18,58,51,74,细颗粒物(PM2.5)
西宁市,海晏路105号,101.6769,36.6535,2026-02-19T1100,63,83,1.5,23,7,47,40,85,细颗粒物(PM2.5)
西双版纳傣族自治州,景洪市江南,100.8018,21.9995,2026-02-19T1100,37,,0.7,13,7,37,28,53,细颗粒物(PM2.5)
西双版纳傣族自治州,景洪市江北,100.7995,22.0238,2026-02-19T1100,30,33,0.6,5,5,52,47,43,
锡林郭勒盟,市环保监测站,116.1048,43.9318,2026-02-19T1100,8,34,0.2,5,2,66,66,34,
锡林郭勒盟,市政府,116.0778,43.9312,2026-02-19T1100,3,27,0.2,3,4,74,74,27,
厦门市,洪文,118.1519,24.4768,2026-02-19T1100,17,29,0.5,6,2,96,78,30,
厦门市,鼓浪屿,118.0671,24.4447,2026-02-19T1100,25,32,/,,,,74,,
厦门市,湖里中学,118.0937,24.5054,2026-02-19T1100,23,27,0.5,5,2,100,70,33,
厦门市,集美中学,118.0961,24.5689,2026-02-19T1100,21,28,0.4,5,1,104,70,33,
厦门市,同安二实小,118.1502,24.7246,2026-02-19T1100,18,18,0.4,4,2,104,60,33,
咸宁市,长江产业园,114.3379,29.8683,2026-02-19T1100,84,,0.6,16,6,52,35,112,细颗粒物(PM2.5)
咸宁市,双鹤路18号,114.3182,29.8447,2026-02-19T1100,71,73,0.7,16,3,48,28,95,细颗粒物(PM2.5)
咸宁市,碧桂路,114.284,29.8595,2026-02-19T1100,71,72,0.7,16,6,48,34,95,细颗粒物(PM2.5)
咸阳市,实验中学,108.6726,34.315,2026-02-19T1100,94,114,1.0,22,8,62,35,124,细颗粒物(PM2.5)
咸阳市,师范学院,108.7226,34.3622,2026-02-19T1100,85,100,0.4,24,6,63,44,113,细颗粒物(PM2.5)
咸阳市,奥体中心,108.6394,34.408,2026-02-19T1100,57,118,0.7,10,5,77,53,84,颗粒物(PM10)
咸阳市,五陵塬路2号,108.6601,34.3767,2026-02-19T1100,82,112,1.0,19,6,71,53,109,细颗粒物(PM2.5)
咸阳市,胭脂路9号,108.6372,34.3031,2026-02-19T1100,84,125,0.9,21,6,68,38,112,细颗粒物(PM2.5)
湘潭市,板塘,112.9508,27.8626,2026-02-19T1100,42,51,0.6,18,2,37,26,59,细颗粒物(PM2.5)
湘潭市,江麓,112.8935,27.8729,2026-02-19T1100,49,,0.6,10,4,35,24,68,细颗粒物(PM2.5)
湘潭市,岳塘,112.9227,27.8159,2026-02-19T1100,50,,0.8,8,5,34,25,69,细颗粒物(PM2.5)
湘潭市,科大,112.9073,27.9118,2026-02-19T1100,47,49,0.7,7,1,36,26,65,细颗粒物(PM2.5)
湘西土家族苗族自治州,州政府,109.7298,28.3164,2026-02-19T1100,43,45,0.4,11,4,21,17,60,细颗粒物(PM2.5)
湘西土家族苗族自治州,吉首市计生局,109.6957,28.2676,2026-02-19T1100,41,,0.4,10,3,,30,,
襄阳市,襄城运动路,112.1555,32.0197,2026-02-19T1100,116,,0.9,13,18,41,33,152,细颗粒物(PM2.5)
襄阳市,高新管委会,112.1829,32.1146,2026-02-19T1100,73,89,0.9,15,13,51,21,98,细颗粒物(PM2.5)
襄阳市,襄州航空路,112.2105,32.0903,2026-02-19T1100,82,103,0.9,15,12,49,21,109,细颗粒物(PM2.5)
襄阳市,襄城隆中路,112.0764,32.0089,2026-02-19T1100,50,92,0.7,11,12,52,40,71,颗粒物(PM10)
孝感市,东城区,113.9062,30.9378,2026-02-19T1100,76,159,0.9,11,8,73,30,105,颗粒物(PM10)
孝感市,天仙南路1号,113.946,30.8999,2026-02-19T1100,76,110,0.7,12,7,62,33,102,细颗粒物(PM2.5)
忻州市,开发区,112.7313,38.457,2026-02-19T1100,30,62,0.7,7,13,,71,,
忻州市,会展中心,112.7023,38.4932,2026-02-19T1100,27,52,0.9,7,8,74,58,51,颗粒物(PM10)
忻州市,市政府,112.7279,38.4157,2026-02-19T1100,16,36,0.5,11,7,89,78,36,
新乡市,环保西院,113.836,35.3104,2026-02-19T1100,53,83,0.9,15,16,76,52,73,细颗粒物(PM2.5)
新乡市,市委党校,113.9194,35.2847,2026-02-19T1100,40,49,0.9,10,12,78,77,57,细颗粒物(PM2.5)
新乡市,市政府,113.9189,35.3042,2026-02-19T1100,36,73,0.7,10,15,76,71,62,颗粒物(PM10)
新乡市,建设东路46号,113.916569,35.331547,2026-02-19T1100,41,,0.8,13,16,72,60,58,细颗粒物(PM2.5)
新余市,飞宇,114.9887,27.8433,2026-02-19T1100,37,51,0.7,8,10,41,34,53,细颗粒物(PM2.5)
新余市,市气象局,114.931,27.8037,2026-02-19T1100,31,40,1.9,5,12,24,35,45,
新余市,新钢沁园村,114.9148,27.8069,2026-02-19T1100,36,55,0.4,,8,39,34,,
信阳市,平桥分局,114.1096,32.1059,2026-02-19T1100,37,56,0.7,11,7,76,55,53,"颗粒物(PM10),细颗粒物(PM2.5)"
信阳市,南湾水厂,113.9956,32.1272,2026-02-19T1100,38,64,0.6,9,4,77,61,57,颗粒物(PM10)
信阳市,审计局,114.0712,32.1393,2026-02-19T1100,42,58,0.5,13,9,74,58,59,细颗粒物(PM2.5)
兴安盟,洮儿河南路,122.0921,46.065,2026-02-19T1100,9,39,0.7,10,6,65,37,39,
兴安盟,科尔沁北路63号,122.0383,46.0691,2026-02-19T1100,11,32,0.4,7,4,70,48,32,
邢台市,达活泉,114.4687,37.0883,2026-02-19T1100,10,41,0.6,4,7,85,66,41,
邢台市,邢师高专,114.4954,37.0309,2026-02-19T1100,14,33,0.6,6,6,,60,,
邢台市,路桥公司,114.5281,37.0857,2026-02-19T1100,3,31,0.6,4,2,86,68,31,
邢台市,市环保局,114.4721,37.0713,2026-02-19T1100,3,45,0.4,10,5,94,71,45,
邢台市,襄都区政府南院,114.5558,37.0578,2026-02-19T1100,15,23,0.5,2,5,89,69,28,
雄安新区,容城县环境保护局,115.8845,39.034,2026-02-19T1100,144,185,0.9,21,20,83,57,192,细颗粒物(PM2.5)
雄安新区,河北容城中学,115.8644,39.0594,2026-02-19T1100,212,274,1.0,30,35,83,51,262,细颗粒物(PM2.5)
雄安新区,安新县民政局,115.9234,38.9403,2026-02-19T1100,117,169,0.8,13,14,85,59,153,细颗粒物(PM2.5)
雄安新区,安新县电力局,115.9341,38.9332,2026-02-19T1100,114,140,0.7,17,14,88,60,149,细颗粒物(PM2.5)
雄安新区,雄县环境保护局,116.0897,38.9816,2026-02-19T1100,76,114,0.7,15,17,66,50,102,细颗粒物(PM2.5)
雄安新区,雄县国土资源局,116.1106,39.0048,2026-02-19T1100,61,80,1.0,8,11,,56,,
徐州市,新城区,117.257,34.2161,2026-02-19T1100,77,93,0.6,10,12,78,55,103,细颗粒物(PM2.5)
徐州市,农科院,117.2933,34.2796,2026-02-19T1100,73,80,0.7,15,12,79,64,98,细颗粒物(PM2.5)
徐州市,鼓楼区政府,117.1812,34.29,2026-02-19T1100,58,71,0.9,11,8,79,59,79,细颗粒物(PM2.5)
徐州市,铜山区招生办,117.1693,34.1781,2026-02-19T1100,68,88,0.5,17,8,82,58,92,细颗粒物(PM2.5)
徐州市,大泉街道,117.4619,34.4368,2026-02-19T1100,62,82,0.6,9,,,54,,
徐州市,纺织东路16号,117.1553,34.2567,2026-02-19T1100,65,83,0.7,13,11,77,66,88,细颗粒物(PM2.5)
徐州市,解放南路202号,117.194237,34.229354,2026-02-19T1100,67,88,0.7,12,12,82,49,90,细颗粒物(PM2.5)
徐州市,龙潭环路5号,117.2438,34.2844,2026-02-19T1100,64,92,0.8,10,12,81,62,87,细颗粒物(PM2.5)
许昌市,开发区,113.7904,33.9949,2026-02-19T1100,44,62,0.5,12,7,69,41,62,细颗粒物(PM2.5)
许昌市,市一中,113.8172,34.0339,2026-02-19T1100,52,80,1.2,15,8,59,38,72,细颗粒物(PM2.5)
许昌市,许昌学院,113.8611,34.0443,2026-02-19T1100,57,80,0.8,10,7,,47,,
许昌市,芙蓉广场,113.8428,34.0825,2026-02-19T1100,57,89,0.9,11,9,59,42,78,细颗粒物(PM2.5)
许昌市,新元大道996号,113.8157285,34.126705,2026-02-19T1100,57,94,0.8,11,10,69,51,78,细颗粒物(PM2.5)
许昌市,望田路111号,113.835877,34.0155267,2026-02-19T1100,46,82,1.1,10,9,63,42,66,颗粒物(PM10)
宣城市,鳌峰子站,118.7578,30.9457,2026-02-19T1100,35,42,0.5,9,9,41,39,50,
宣城市,敬亭山子站,118.7384,30.9745,2026-02-19T1100,38,45,0.4,15,5,52,48,54,细颗粒物(PM2.5)
宣城市,开发区子站,118.7172,30.9428,2026-02-19T1100,38,39,0.4,10,9,45,37,54,细颗粒物(PM2.5)
雅安市,市政府,103.011,29.9833,2026-02-19T1100,38,43,0.7,5,6,30,30,54,细颗粒物(PM2.5)
雅安市,川农大,102.9907,29.9778,2026-02-19T1100,38,46,0.6,3,5,51,48,54,细颗粒物(PM2.5)
雅安市,滨江西路,103.0544,30.0133,2026-02-19T1100,45,,0.5,9,7,31,44,63,细颗粒物(PM2.5)
烟台市,开发区,121.2517,37.564,2026-02-19T1100,44,46,0.4,12,11,96,75,62,细颗粒物(PM2.5)
烟台市,西郊化工站,121.3181,37.5436,2026-02-19T1100,42,48,0.4,11,8,107,88,59,细颗粒物(PM2.5)
烟台市,莱山环保局,121.4419,37.4858,2026-02-19T1100,47,63,0.5,1,10,107,86,65,细颗粒物(PM2.5)
烟台市,福山环保局,121.2619,37.4965,2026-02-19T1100,40,61,0.5,7,9,110,74,57,细颗粒物(PM2.5)
烟台市,牟平检察院,121.5989,37.4016,2026-02-19T1100,39,53,0.6,13,9,99,80,55,细颗粒物(PM2.5)
烟台市,中国农业大学,121.5202,37.4336,2026-02-19T1100,37,53,0.7,11,7,101,83,53,细颗粒物(PM2.5)
烟台市,青年南路118号,121.364239,37.529648,2026-02-19T1100,33,46,0.5,6,9,94,79,48,
延安市,延大医附院,109.4569,36.6161,2026-02-19T1100,29,56,0.6,16,2,48,25,53,颗粒物(PM10)
延安市,百米大道,109.5053,36.6105,2026-02-19T1100,41,57,1.0,34,8,33,21,58,细颗粒物(PM2.5)
延安市,志丹路,109.485,36.6347,2026-02-19T1100,30,59,0.5,11,5,57,34,55,颗粒物(PM10)
延边朝鲜族自治州,妇幼医院,129.4704,42.8885,2026-02-19T1100,8,38,0.4,15,10,57,47,38,
延边朝鲜族自治州,延边医院,129.5047,42.9117,2026-02-19T1100,28,30,0.6,20,6,62,46,40,
延边朝鲜族自治州,朝阳川镇医院,129.395,42.8884,2026-02-19T1100,22,42,0.5,12,9,63,46,42,
盐城市,市监测站,120.1554,33.3941,2026-02-19T1100,48,56,0.6,11,8,90,74,67,细颗粒物(PM2.5)
盐城市,开发区管委会,120.214332,33.37951,2026-02-19T1100,42,57,0.6,12,7,93,78,59,细颗粒物(PM2.5)
盐城市,宝龙广场,120.1543,33.3664,2026-02-19T1100,48,58,0.6,11,9,91,74,67,细颗粒物(PM2.5)
盐城市,月亮广场,120.1518,33.3369,2026-02-19T1100,58,64,0.7,14,10,83,76,79,细颗粒物(PM2.5)
盐城市,大丰高级中学,120.4283,33.2048,2026-02-19T1100,66,68,0.7,15,12,98,85,89,细颗粒物(PM2.5)
扬州市,邗江监测站,119.3895,32.377,2026-02-19T1100,41,61,0.9,13,12,88,38,58,细颗粒物(PM2.5)
扬州市,五台山医院,119.4472,32.4156,2026-02-19T1100,52,66,0.9,22,7,76,36,72,细颗粒物(PM2.5)
扬州市,广陵建设局,119.4682,32.394,2026-02-19T1100,48,63,0.6,12,8,85,36,67,细颗粒物(PM2.5)
扬州市,市体育局,119.3649,32.3961,2026-02-19T1100,57,63,1.1,19,12,78,40,78,细颗粒物(PM2.5)
扬州市,引江管理处,119.565282,32.422263,2026-02-19T1100,49,70,0.7,14,3,90,47,68,细颗粒物(PM2.5)
扬州市,廖家沟步道,119.5202,32.3705,2026-02-19T1100,48,65,0.6,15,6,85,37,67,细颗粒物(PM2.5)
阳江市,马南垌,111.9491,21.8658,2026-02-19T1100,33,41,0.8,9,6,75,62,48,
阳江市,两阳中学,111.9785,21.8954,2026-02-19T1100,25,35,0.6,6,/,79,62,36,
阳江市,阳东陶然,112.0125,21.8749,2026-02-19T1100,24,39,0.6,6,7,82,55,39,
阳泉市,赛鱼,113.4894,37.8717,2026-02-19T1100,11,94,0.5,6,8,95,72,72,颗粒物(PM10)
阳泉市,南庄,113.582,37.8473,2026-02-19T1100,18,76,0.4,4,8,96,75,63,颗粒物(PM10)
阳泉市,平坦,113.5616,37.8706,2026-02-19T1100,15,84,0.5,11,6,85,65,67,颗粒物(PM10)
阳泉市,大阳泉,113.5115,37.8391,2026-02-19T1100,6,60,0.6,8,7,92,80,55,颗粒物(PM10)
阳泉市,龙柱,113.6169,37.8565,2026-02-19T1100,24,64,0.4,9,9,93,74,57,颗粒物(PM10)
阳泉市,宁波路,113.588,37.8712,2026-02-19T1100,12,59,0.4,6,8,94,74,55,颗粒物(PM10)
伊春市,环保局,128.8663,47.7199,2026-02-19T1100,7,17,1.0,15,7,66,62,21,
伊春市,中心小学,128.7948,47.7291,2026-02-19T1100,29,,1.0,11,9,60,48,42,
伊春市,检察院,128.6736,47.729,2026-02-19T1100,13,20,0.8,11,,,50,,
伊春市,永安路4-1号,128.8325,47.8447,2026-02-19T1100,10,27,0.6,5,8,77,63,27,
宜宾市,市委,104.6204,28.7728,2026-02-19T1100,41,50,0.9,14,8,55,35,58,细颗粒物(PM2.5)
宜宾市,宜宾四中,104.6056,28.7931,2026-02-19T1100,44,59,0.8,11,7,63,41,62,细颗粒物(PM2.5)
宜宾市,黄金嘴,104.5743,28.7199,2026-02-19T1100,43,53,0.8,10,7,58,44,60,细颗粒物(PM2.5)
宜宾市,白酒学院,104.6701,28.8053,2026-02-19T1100,43,53,0.8,11,6,59,40,60,细颗粒物(PM2.5)
宜宾市,宜宾市职业技术学校,104.6146,28.7422,2026-02-19T1100,42,50,0.7,7,8,64,50,59,细颗粒物(PM2.5)
宜昌市,白龙岗,111.2991,30.6981,2026-02-19T1100,41,48,0.2,14,5,25,12,58,细颗粒物(PM2.5)
宜昌市,点军区,111.263451,30.696754,2026-02-19T1100,40,40,0.4,16,4,23,9,57,细颗粒物(PM2.5)
宜昌市,夷陵区,111.3276,30.782,2026-02-19T1100,37,54,0.6,16,10,27,13,53,细颗粒物(PM2.5)
宜昌市,猇亭区张家湾站,111.4606,30.5519,2026-02-19T1100,30,55,0,10,9,34,31,53,颗粒物(PM10)
宜昌市,西陵二路116号,111.3168,30.7203,2026-02-19T1100,24,49,0.8,18,6,28,21,49,
宜昌市,沈家店路6号,111.3526,30.6374,2026-02-19T1100,43,50,0.4,20,6,15,10,60,细颗粒物(PM2.5)
宜春市,市石油公司,114.3954,27.7843,2026-02-19T1100,44,56,0.7,10,8,36,30,62,细颗粒物(PM2.5)
宜春市,市广电局,114.401,27.8059,2026-02-19T1100,41,45,0.9,10,5,42,35,58,细颗粒物(PM2.5)
益阳市,市环保局,112.3458,28.581,2026-02-19T1100,54,54,1.0,10,6,36,38,74,细颗粒物(PM2.5)
益阳市,龙洲站,112.3571,28.5588,2026-02-19T1100,,,,10,5,37,40,,
益阳市,幸福渠东路223号,112.3425,28.611,2026-02-19T1100,62,,1.0,11,4,34,38,84,细颗粒物(PM2.5)
益阳市,益鑫泰路85号,112.3712,28.5764,2026-02-19T1100,46,54,0.9,15,3,36,38,64,细颗粒物(PM2.5)
银川市,学院路,106.1361,38.5039,2026-02-19T1100,18,71,0.5,14,5,86,71,61,颗粒物(PM10)
银川市,水乡路,106.2266,38.4417,2026-02-19T1100,14,75,0.3,13,6,86,75,63,颗粒物(PM10)
银川市,上海东路,106.2758,38.4841,2026-02-19T1100,20,69,0.4,16,5,70,64,60,颗粒物(PM10)
银川市,文昌北街,106.1016,38.4971,2026-02-19T1100,17,66,0.3,14,6,,67,,
银川市,滨河新区,106.5105,38.3857,2026-02-19T1100,20,104,0.4,10,9,90,86,77,颗粒物(PM10)
银川市,广场西路,106.226373,38.491976,2026-02-19T1100,14,80,0.5,7,4,98,81,65,颗粒物(PM10)
鹰潭市,新监测站,117.0561,28.2641,2026-02-19T1100,48,,0.6,7,7,59,66,67,细颗粒物(PM2.5)
鹰潭市,财苑宾馆,117.0312,28.2474,2026-02-19T1100,45,45,/,8,12,54,67,63,细颗粒物(PM2.5)
鹰潭市,体育馆,117.0221,28.2263,2026-02-19T1100,50,,0.6,13,,46,59,,
营口市,大庆路,122.2704,40.7093,2026-02-19T1100,49,77,0.6,15,8,83,79,68,细颗粒物(PM2.5)
营口市,镜湖西路,122.215,40.6511,2026-02-19T1100,58,81,0.9,13,8,90,83,79,细颗粒物(PM2.5)
营口市,西炮台,122.1667,40.665,2026-02-19T1100,51,82,0.6,15,9,86,82,70,细颗粒物(PM2.5)
营口市,鲅鱼圈市民活动中心,122.1122,40.2275,2026-02-19T1100,68,68,0.9,17,11,87,78,92,细颗粒物(PM2.5)
营口市,三高中,122.2469,40.663,2026-02-19T1100,54,72,0.6,13,8,88,82,74,细颗粒物(PM2.5)
营口市,老边实验小学,122.3622,40.6762,2026-02-19T1100,49,100,0.8,15,24,89,78,75,颗粒物(PM10)
永州市,市环境监测站,111.6126,26.4266,2026-02-19T1100,47,47,0.6,12,2,27,32,65,细颗粒物(PM2.5)
永州市,永州市环保局,111.6248,26.3803,2026-02-19T1100,45,51,0.8,14,2,20,25,63,细颗粒物(PM2.5)
永州市,冷水滩区环保局,111.5989,26.4523,2026-02-19T1100,50,54,1.0,13,4,25,29,69,细颗粒物(PM2.5)
永州市,徐家井路86号,111.6195,26.2253,2026-02-19T1100,49,52,0.8,17,3,25,29,68,细颗粒物(PM2.5)
榆林市,世纪广场,109.7445,38.2919,2026-02-19T1100,22,40,0.8,24,8,62,41,40,
榆林市,实验中学,109.729,38.2837,2026-02-19T1100,28,,0.8,25,6,60,45,,
榆林市,环保监测大楼,109.7347,38.2491,2026-02-19T1100,26,43,0.7,15,8,70,61,43,
玉林市,南江一中,110.1433,22.6162,2026-02-19T1100,51,64,0.7,10,10,43,28,70,细颗粒物(PM2.5)
玉林市,玉林师范学院东校区,110.1951,22.6832,2026-02-19T1100,78,,0.7,9,6,38,26,104,细颗粒物(PM2.5)
玉林市,福绵环保局,110.0527,22.5894,2026-02-19T1100,38,47,0.6,9,8,41,26,54,细颗粒物(PM2.5)
玉林市,人民东路196号,110.16795,22.640993,2026-02-19T1100,49,56,0.8,13,3,36,25,68,细颗粒物(PM2.5)
玉树藏族自治州,玉树县结古镇,97.0386,33.0138,2026-02-19T1100,6,39,0.5,8,13,,71,,
玉溪市,东风水库,102.575,24.371,2026-02-19T1100,30,31,0.8,8,7,68,60,43,
玉溪市,玉溪一中,102.5388,24.3703,2026-02-19T1100,32,47,0.9,13,6,58,46,47,
玉溪市,文体中心,102.5382,24.339,2026-02-19T1100,31,39,0.9,12,8,59,61,45,
岳阳市,城陵矶,113.1494,29.425,2026-02-19T1100,66,78,0.9,11,6,43,28,89,细颗粒物(PM2.5)
岳阳市,开发区,113.1493,29.3575,2026-02-19T1100,57,66,0.6,8,6,41,33,78,细颗粒物(PM2.5)
岳阳市,君山区,112.9944,29.44,2026-02-19T1100,75,79,0.6,10,8,32,37,100,细颗粒物(PM2.5)
岳阳市,求索西路365号,113.108806,29.353066,2026-02-19T1100,62,63,0.7,11,7,33,31,84,细颗粒物(PM2.5)
云浮市,牧羊,112.0281,22.9738,2026-02-19T1100,42,72,0.5,19,23,37,16,61,颗粒物(PM10)
运城市,地区技校,110.9685,35.0305,2026-02-19T1100,,,1.1,10,10,,38,,
运城市,水利职院,111.0279,35.0543,2026-02-19T1100,76,92,1.1,17,11,77,36,102,细颗粒物(PM2.5)
运城市,禹都公园,111.0522,35.0439,2026-02-19T1100,68,107,1.0,15,12,71,35,92,细颗粒物(PM2.5)
运城市,学苑北路2555号,111.0081,35.0748,2026-02-19T1100,71,90,1.0,14,10,79,33,95,细颗粒物(PM2.5)
枣庄市,市中区政府,117.5628,34.8379,2026-02-19T1100,69,95,1.0,14,15,91,59,93,细颗粒物(PM2.5)
枣庄市,薛城环保局,117.2855,34.7838,2026-02-19T1100,67,88,0.6,10,,77,65,,
枣庄市,峄城区政府,117.5854,34.7744,2026-02-19T1100,87,102,0.6,12,16,89,61,115,细颗粒物(PM2.5)
枣庄市,山亭区环保局,117.4516,35.0992,2026-02-19T1100,73,92,1.2,8,13,89,74,98,细颗粒物(PM2.5)
枣庄市,市环保局,117.316,34.8106,2026-02-19T1100,59,85,0.6,14,9,88,72,80,细颗粒物(PM2.5)
枣庄市,文化路178号,117.7325,34.5683,2026-02-19T1100,72,92,0.7,15,10,78,31,97,细颗粒物(PM2.5)
湛江市,湛江影剧院,110.3648,21.2697,2026-02-19T1100,43,64,0.8,,6,86,84,,
湛江市,市环境监测站,110.3907,21.2279,2026-02-19T1100,34,52,0.4,10,6,83,83,51,颗粒物(PM10)
湛江市,环保局宿舍,110.3936,21.1943,2026-02-19T1100,30,44,/,10,5,89,87,44,
湛江市,霞山游泳场,110.4138,21.2033,2026-02-19T1100,33,41,/,9,6,82,78,48,
湛江市,坡头区环保局,110.4512,21.239,2026-02-19T1100,32,36,0.7,11,5,82,79,46,
张家界市,永定新区,110.532,29.1219,2026-02-19T1100,71,74,/,18,/,13,11,95,细颗粒物(PM2.5)
张家界市,电业局,110.4696,29.1244,2026-02-19T1100,68,70,0.4,20,6,6,12,92,细颗粒物(PM2.5)
张家界市,未央路,110.5573,29.3486,2026-02-19T1100,31,36,0.5,16,8,30,14,45,
张家口市,五金库,114.868581,40.804273,2026-02-19T1100,24,45,/,17,/,66,62,45,
张家口市,世纪豪园,114.8901,40.762,2026-02-19T1100,23,58,0.8,16,8,64,59,54,颗粒物(PM10)
张家口市,烟厂,114.878,40.7992,2026-02-19T1100,26,54,/,13,/,68,70,52,颗粒物(PM10)
张家口市,青少年活动中心,115.2772,40.9723,2026-02-19T1100,7,44,0.4,6,5,84,56,44,
张掖市,润泉湖,100.4699,38.9525,2026-02-19T1100,26,43,0.5,8,6,61,54,43,
张掖市,区工会,100.4155,38.9422,2026-02-19T1100,15,56,0.6,10,6,58,54,53,颗粒物(PM10)
漳州市,蓝田镇,117.71,24.5048,2026-02-19T1100,31,40,0.6,11,4,87,71,45,
漳州市,漳州党校,117.662,24.5187,2026-02-19T1100,28,34,/,7,/,87,74,40,
漳州市,西洋坪路,117.6288,24.5309,2026-02-19T1100,19,35,0.6,5,4,85,66,35,
昭通市,监测站,103.7668,27.3736,2026-02-19T1100,16,29,0.8,5,6,64,65,29,
昭通市,环东路146号,103.7247,27.3415,2026-02-19T1100,20,,0.9,7,6,67,72,29,
肇庆市,睦岗子站,112.426,23.062,2026-02-19T1100,34,40,/,12,5,55,39,49,
肇庆市,城中子站,112.4645,23.0476,2026-02-19T1100,32,39,0.7,10,10,58,43,46,
肇庆市,坑口子站,112.5545,23.1525,2026-02-19T1100,31,36,0.6,16,6,58,45,45,
肇庆市,高要湖西,112.4572,23.0163,2026-02-19T1100,36,38,0.7,8,6,55,28,52,细颗粒物(PM2.5)
肇庆市,鼎湖凤凰,112.5617,23.2082,2026-02-19T1100,42,,/,11,8,58,29,59,细颗粒物(PM2.5)
镇江市,新区办事处,119.6708,32.187,2026-02-19T1100,64,70,0.6,10,5,109,70,87,细颗粒物(PM2.5)
镇江市,职教中心,119.497455,32.196732,2026-02-19T1100,54,63,0.6,15,8,91,66,74,细颗粒物(PM2.5)
镇江市,丹徒区监测站,119.43,32.1328,2026-02-19T1100,52,62,0.6,,5,84,65,,
镇江市,市疾控中心,119.4369,32.1891,2026-02-19T1100,43,57,0.7,7,7,92,58,60,细颗粒物(PM2.5)
镇江市,富润路1号,119.3842,32.198,2026-02-19T1100,47,52,0.6,5,6,104,74,65,细颗粒物(PM2.5)
郑州市,烟厂,113.6843,34.7622,2026-02-19T1100,31,66,0.5,18,7,94,77,58,颗粒物(PM10)
郑州市,银行学校,113.669,34.8034,2026-02-19T1100,32,49,0.6,17,10,93,78,49,
郑州市,供水公司,113.5612,34.8143,2026-02-19T1100,33,53,0.8,10,10,95,78,52,颗粒物(PM10)
郑州市,经开区管委,113.7269,34.7187,2026-02-19T1100,37,43,0.6,10,7,99,76,53,细颗粒物(PM2.5)
郑州市,四十七中,113.7332,34.7727,2026-02-19T1100,30,49,0.6,12,6,81,69,49,
