area,positionname,longitude,latitude,timepoint,pm2_5,pm10,co,no2,so2,o3,o3_8h,aqi,primarypollutant
阿坝藏族羌族自治州,马师校,102.2503,31.8896,2026-02-21T2100,23,26,0.2,6,5,,79,,
阿坝藏族羌族自治州,马尔康中学西区,102.2174,31.9016,2026-02-21T2100,10,36,0.5,7,5,61,79,36,
阿克苏地区,电视台,80.2899,41.1684,2026-02-21T2100,108,246,1.2,27,8,94,110,148,颗粒物(PM10)
阿克苏地区,艺术中心,80.2592,41.1541,2026-02-21T2100,124,251,0.9,35,4,92,113,163,细颗粒物(PM2.5)
阿拉善盟,蒙二幼,105.699,38.8409,2026-02-21T2100,382,2069,0.5,6,9,92,92,500,颗粒物(PM10)
阿拉善盟,环保局新楼,105.7198,38.8508,2026-02-21T2100,390,1388,0.4,2,9,90,88,500,颗粒物(PM10)
阿勒泰地区,市站,88.1266,47.8515,2026-02-21T2100,15,32,0.3,31,3,60,81,32,
阿勒泰地区,阿勒泰路33号,88.1198,47.7931,2026-02-21T2100,7,30,0.4,21,5,68,85,30,
阿里地区,阿里监测站,80.1171,32.4999,2026-02-21T2100,11,13,0.4,1,3,106,104,34,
阿里地区,阿里藏医院,80.0906,32.5029,2026-02-21T2100,3,12,0.2,2,7,110,108,35,
安康市,汉滨区检察院,109.0088,32.6974,2026-02-21T2100,50,78,0.8,26,4,44,94,69,细颗粒物(PM2.5)
安康市,市邮政管理局,109.0324,32.6913,2026-02-21T2100,51,75,1.6,51,6,14,89,70,细颗粒物(PM2.5)
安庆市,环科院,117.0806,30.5181,2026-02-21T2100,36,52,0.7,17,8,68,80,52,细颗粒物(PM2.5)
安庆市,马山宾馆,117.0331,30.5118,2026-02-21T2100,49,72,0.8,16,8,66,87,68,细颗粒物(PM2.5)
安庆市,安庆大学,116.9897,30.6146,2026-02-21T2100,20,34,0.5,4,5,89,93,34,
安庆市,市人大,117.0598,30.5351,2026-02-21T2100,39,54,0.7,14,33,74,87,55,细颗粒物(PM2.5)
安顺市,凤凰山,105.9408,26.2431,2026-02-21T2100,30,39,0.5,8,12,63,96,43,
安顺市,金钟山,105.9443,26.2567,2026-02-21T2100,32,,0.6,7,14,60,93,46,
安顺市,娄家坡,105.8983,26.248,2026-02-21T2100,33,37,0.6,8,14,61,92,48,
安阳市,红庙街,114.3552,36.1017,2026-02-21T2100,62,261,0.7,19,10,63,81,156,颗粒物(PM10)
安阳市,银杏小区,114.361,36.0681,2026-02-21T2100,64,244,0.5,17,9,66,86,147,颗粒物(PM10)
安阳市,信访局,114.3921,36.0879,2026-02-21T2100,60,247,0.6,11,9,76,91,149,颗粒物(PM10)
安阳市,左辅环卫站,114.4706,36.0634,2026-02-21T2100,54,346,0.3,7,4,84,92,198,颗粒物(PM10)
安阳市,钢三路198号,114.2918,36.0769,2026-02-21T2100,61,257,0.7,17,7,62,79,154,颗粒物(PM10)
鞍山市,深沟寺,123.0441,41.1201,2026-02-21T2100,48,76,0.8,11,9,100,98,67,细颗粒物(PM2.5)
鞍山市,太阳城,123.011,41.0931,2026-02-21T2100,52,78,0.8,11,14,98,97,72,细颗粒物(PM2.5)
鞍山市,太平,123.0483,41.1445,2026-02-21T2100,48,80,0.6,10,13,95,95,67,细颗粒物(PM2.5)
鞍山市,铁西三道街,122.964,41.0968,2026-02-21T2100,52,79,0.8,41,40,69,78,72,细颗粒物(PM2.5)
鞍山市,明达新区,123.0219,41.0822,2026-02-21T2100,54,79,0.7,12,14,99,100,74,细颗粒物(PM2.5)
鞍山市,兴盛南路290号,122.944647,41.082639,2026-02-21T2100,44,97,0.9,15,11,102,98,74,颗粒物(PM10)
巴彦淖尔市,附二中,107.4206,40.7609,2026-02-21T2100,45,60,0.6,4,6,65,88,63,细颗粒物(PM2.5)
巴彦淖尔市,市环保大楼,107.37,40.7372,2026-02-21T2100,29,49,0.4,6,4,64,88,49,
巴音郭楞蒙古自治州,孔雀公园,86.1476,41.7529,2026-02-21T2100,84,249,,48,11,45,83,150,颗粒物(PM10)
巴音郭楞蒙古自治州,棉纺厂,86.1971,41.7166,2026-02-21T2100,80,249,/,13,/,70,85,150,颗粒物(PM10)
巴音郭楞蒙古自治州,经济开发区,86.236,41.7172,2026-02-21T2100,38,183,0.5,12,7,68,76,117,颗粒物(PM10)
巴中市,市五中,106.776805,31.852614,2026-02-21T2100,45,55,0.9,15,8,54,96,63,细颗粒物(PM2.5)
巴中市,圣泉水务公司,106.7419,31.8654,2026-02-21T2100,60,70,1.0,40,8,34,93,82,细颗粒物(PM2.5)
巴中市,市中心医院,106.7617,31.8343,2026-02-21T2100,56,68,1.4,47,7,22,92,77,细颗粒物(PM2.5)
白城市,洮北区环保局,122.7909,45.608,2026-02-21T2100,145,158,0.9,15,5,70,81,193,细颗粒物(PM2.5)
白城市,市环保局,122.8741,45.5725,2026-02-21T2100,116,149,1.0,12,6,87,93,152,细颗粒物(PM2.5)
白山市,喜丰,126.4219,41.9172,2026-02-21T2100,29,59,1.1,4,12,101,104,55,颗粒物(PM10)
白山市,环保局,126.4082,41.9416,2026-02-21T2100,105,147,1.2,18,25,71,96,138,细颗粒物(PM2.5)
白银市,第三小学,104.1727,36.5448,2026-02-21T2100,168,608,0.3,1,3,77,81,500,颗粒物(PM10)
白银市,动力公司,104.1467,36.5482,2026-02-21T2100,165,597,0.3,5,3,74,78,497,颗粒物(PM10)
百色市,市监测站,106.6102,23.901,2026-02-21T2100,39,39,0.5,10,8,60,82,55,细颗粒物(PM2.5)
百色市,市中心血站,106.6524,23.8842,2026-02-21T2100,43,,0.7,10,8,61,83,60,细颗粒物(PM2.5)
百色市,龙景西路,106.6273,23.8798,2026-02-21T2100,45,52,0.5,9,9,65,88,63,细颗粒物(PM2.5)
蚌埠市,工人疗养院,117.396,32.9389,2026-02-21T2100,42,65,0.7,18,7,76,100,59,细颗粒物(PM2.5)
蚌埠市,百货大楼,117.3606,32.9428,2026-02-21T2100,38,56,0.7,16,9,76,99,54,细颗粒物(PM2.5)
蚌埠市,蚌埠学院,117.4183,32.8909,2026-02-21T2100,40,63,0.6,12,6,73,103,57,"颗粒物(PM10),细颗粒物(PM2.5)"
蚌埠市,淮上区政府,117.3534,32.9672,2026-02-21T2100,34,66,0.7,19,8,82,104,58,颗粒物(PM10)
蚌埠市,高新区,117.3143,32.8977,2026-02-21T2100,38,58,0.6,11,8,68,85,54,"颗粒物(PM10),细颗粒物(PM2.5)"
蚌埠市,蚌埠田家炳中学,117.3091,32.9314,2026-02-21T2100,38,60,0.6,21,10,66,99,55,颗粒物(PM10)
包头市,市环境监测站,109.8761,40.6533,2026-02-21T2100,14,64,0.4,7,4,75,94,57,颗粒物(PM10)
包头市,包头八中,109.9992,40.5843,2026-02-21T2100,17,172,0.5,6,5,71,88,111,颗粒物(PM10)
包头市,惠龙物流,109.8641,40.6288,2026-02-21T2100,8,76,0.5,5,7,77,94,63,颗粒物(PM10)
包头市,东河鸿龙湾,110.0376,40.5546,2026-02-21T2100,11,80,0.4,8,7,67,89,65,颗粒物(PM10)
包头市,滨河大厦,109.9154,40.5684,2026-02-21T2100,26,64,0.7,8,6,68,88,57,颗粒物(PM10)
包头市,包头市委党校,109.9449,40.6259,2026-02-21T2100,13,78,0.6,5,6,71,87,64,颗粒物(PM10)
包头市,昆区政府,109.8332,40.6577,2026-02-21T2100,15,70,0.4,10,6,71,91,60,颗粒物(PM10)
宝鸡市,竹园沟,107.0802,34.3129,2026-02-21T2100,57,325,0.2,18,6,59,86,188,颗粒物(PM10)
宝鸡市,监测站,107.1429,34.3549,2026-02-21T2100,71,354,0.5,16,6,43,73,206,颗粒物(PM10)
宝鸡市,技工学校,107.1172,34.3759,2026-02-21T2100,118,413,0.5,24,11,44,81,290,颗粒物(PM10)
宝鸡市,文理学院,107.2025,34.3518,2026-02-21T2100,110,390,0.5,24,18,42,74,258,颗粒物(PM10)
宝鸡市,三迪小学,107.2396,34.3626,2026-02-21T2100,114,393,0.6,39,9,31,82,262,颗粒物(PM10)
宝鸡市,滨河北路,107.1721,34.3558,2026-02-21T2100,116,424,0.5,23,9,43,78,305,颗粒物(PM10)
宝鸡市,陈仓区北开路21号,107.3898,34.3601,2026-02-21T2100,142,436,0.6,20,8,50,83,320,颗粒物(PM10)
保定市,游泳馆,115.4803,38.8568,2026-02-21T2100,91,597,0.3,7,6,91,102,497,颗粒物(PM10)
保定市,华电二区,115.509,38.8895,2026-02-21T2100,96,530,0.7,8,1,92,103,430,颗粒物(PM10)
保定市,接待中心,115.4588,38.9037,2026-02-21T2100,131,575,0.2,8,2,85,98,475,颗粒物(PM10)
保定市,地表水厂,115.4484,38.8344,2026-02-21T2100,70,654,0.2,9,2,93,105,500,颗粒物(PM10)
保定市,满城区生态环境分局,115.3136,38.9511,2026-02-21T2100,87,930,0.4,6,3,93,103,500,颗粒物(PM10)
保定市,清苑区第二中学,115.4709,38.7628,2026-02-21T2100,75,644,0.2,5,6,85,106,500,颗粒物(PM10)
保定市,徐水物探局,115.6231,39.0223,2026-02-21T2100,106,1139,0.1,7,9,87,102,500,颗粒物(PM10)
保定市,双鹰农机,115.4199,38.8665,2026-02-21T2100,94,710,0.2,2,3,100,109,500,颗粒物(PM10)
保定市,植保所站,115.515,38.8589,2026-02-21T2100,108,580,0.5,4,3,91,102,480,颗粒物(PM10)
保山市,市环境监测站,99.1589,25.1137,2026-02-21T2100,22,34,0.3,6,5,101,100,34,
保山市,市环保局,99.1616,25.1381,2026-02-21T2100,,,0.6,,,101,100,,
北海市,海滩公园,109.1435,21.4085,2026-02-21T2100,22,34,0.7,34,3,62,105,34,
北海市,新市环保局,109.0983,21.466,2026-02-21T2100,18,26,0.6,12,4,84,96,27,
北海市,北海工业园,109.1775,21.5232,2026-02-21T2100,32,44,0.7,10,7,70,89,46,
北海市,龙潭自来水厂,109.1844,21.4396,2026-02-21T2100,17,36,0.8,5,4,78,96,36,
北京市,万寿西宫,116.3611,39.8786,2026-02-21T2100,52,191,0.3,3,1,83,107,121,颗粒物(PM10)
北京市,东四,116.4174,39.9289,2026-02-21T2100,,,,,,,94,,
北京市,天坛,116.4073,39.8858,2026-02-21T2100,18,205,0.4,3,1,77,98,128,颗粒物(PM10)
北京市,农展馆,116.4622,39.9364,2026-02-21T2100,19,175,0.4,1,4,82,103,113,颗粒物(PM10)
北京市,官园,116.3399,39.9293,2026-02-21T2100,22,214,0.2,3,2,76,93,132,颗粒物(PM10)
北京市,海淀万柳,116.2879,39.9613,2026-02-21T2100,12,160,0.3,9,2,66,82,105,颗粒物(PM10)
北京市,顺义新城,116.6635,40.1349,2026-02-21T2100,13,213,0.3,2,5,80,97,132,颗粒物(PM10)
北京市,怀柔镇,116.6275,40.327,2026-02-21T2100,15,162,0.5,3,3,74,90,106,颗粒物(PM10)
北京市,昌平镇,116.2295,40.217,2026-02-21T2100,15,144,0.5,4,2,76,93,97,颗粒物(PM10)
北京市,奥体中心,116.3968,39.982,2026-02-21T2100,14,170,0.3,5,4,71,89,110,颗粒物(PM10)
北京市,密云新城,116.8336,40.4095,2026-02-21T2100,14,197,0.2,5,3,76,98,124,颗粒物(PM10)
北京市,门头沟三家店,116.0879,39.9725,2026-02-21T2100,19,241,0.2,2,2,77,101,146,颗粒物(PM10)
北京市,丰台云岗,116.1507,39.8246,2026-02-21T2100,23,304,0.3,4,2,82,115,177,颗粒物(PM10)
北京市,房山燕山,115.9578,39.7602,2026-02-21T2100,24,271,0.3,5,3,74,105,161,颗粒物(PM10)
北京市,大兴旧宫,116.4669,39.7734,2026-02-21T2100,22,287,0.3,5,2,78,106,169,颗粒物(PM10)
北京市,延庆石河营,115.9859,40.4562,2026-02-21T2100,15,140,0.3,2,1,75,87,95,颗粒物(PM10)
北京市,怀柔新城,116.6151,40.3052,2026-02-21T2100,13,174,0.1,3,2,79,96,112,颗粒物(PM10)
北京市,丰台小屯,116.2542,39.8764,2026-02-21T2100,20,246,0.3,2,3,67,94,148,颗粒物(PM10)
北京市,密云镇,116.8399,40.3843,2026-02-21T2100,17,176,0.3,6,1,77,97,113,颗粒物(PM10)
北京市,延庆百泉,115.9423,40.4431,2026-02-21T2100,12,132,0.2,2,3,75,83,91,颗粒物(PM10)
北京市,通州新华,116.6598,39.9164,2026-02-21T2100,28,270,0.4,9,1,74,92,160,颗粒物(PM10)
北京市,石景山八角,116.1942,39.9158,2026-02-21T2100,17,244,0.2,8,2,66,91,147,颗粒物(PM10)
北京市,平谷新城,117.078628,40.151726,2026-02-21T2100,12,199,0.4,2,3,77,98,125,颗粒物(PM10)
本溪市,大峪,123.8274146,41.31234549,2026-02-21T2100,34,82,0.8,10,10,101,96,66,颗粒物(PM10)
本溪市,彩屯,123.7169,41.3094,2026-02-21T2100,44,76,3.2,29,20,78,82,63,颗粒物(PM10)
本溪市,东明,123.7672166,41.28649327,2026-02-21T2100,36,60,0.5,8,10,96,94,55,颗粒物(PM10)
本溪市,新立屯,123.799345,41.266614,2026-02-21T2100,38,70,0.6,8,8,98,97,60,颗粒物(PM10)
本溪市,威宁,123.829144,41.336777,2026-02-21T2100,34,86,0.7,7,11,98,96,68,颗粒物(PM10)
毕节市,八中,105.287,27.3133,2026-02-21T2100,55,78,1.1,23,12,49,85,75,细颗粒物(PM2.5)
毕节市,师专,105.3079,27.2987,2026-02-21T2100,46,56,0.7,12,13,83,95,64,细颗粒物(PM2.5)
毕节市,工业大道,105.3688,27.3598,2026-02-21T2100,66,86,/,31,14,42,89,89,细颗粒物(PM2.5)
滨州市,第二水厂,117.9961,37.3604,2026-02-21T2100,48,368,0.9,15,14,69,98,226,颗粒物(PM10)
滨州市,北中新校,117.9789,37.3931,2026-02-21T2100,50,266,0.5,17,13,67,89,158,颗粒物(PM10)
滨州市,中海酒店,117.9379,37.3959,2026-02-21T2100,59,373,0.8,22,23,73,104,233,颗粒物(PM10)
滨州市,开发区一中,117.9381509,37.35547456,2026-02-21T2100,48,390,0.8,15,22,66,94,258,颗粒物(PM10)
滨州市,金海六路,118.0914,37.6938,2026-02-21T2100,50,593,0.6,15,6,80,94,493,颗粒物(PM10)
滨州市,滨州市西街道办事处,117.9955,37.3752,2026-02-21T2100,63,317,0.5,13,15,69,103,184,颗粒物(PM10)
亳州市,污水处理厂,115.8071,33.8399,2026-02-21T2100,32,52,0.6,14,9,81,100,51,颗粒物(PM10)
亳州市,三国揽胜宫,115.7789,33.8519,2026-02-21T2100,42,63,0.5,10,9,77,94,59,细颗粒物(PM2.5)
亳州市,亳州学院,115.7631,33.803,2026-02-21T2100,49,81,0.3,13,13,77,97,68,细颗粒物(PM2.5)
博尔塔拉蒙古自治州,市党校,82.0482,44.8553,2026-02-21T2100,24,80,0.2,18,2,73,85,65,颗粒物(PM10)
博尔塔拉蒙古自治州,市环保局,82.0805,44.8966,2026-02-21T2100,23,64,0.4,14,2,66,77,57,颗粒物(PM10)
沧州市,沧县城建局,116.8733,38.2922,2026-02-21T2100,87,698,0.2,7,3,87,88,500,颗粒物(PM10)
沧州市,电视转播站,116.8462,38.3189,2026-02-21T2100,106,625,0.4,9,1,85,90,500,颗粒物(PM10)
沧州市,市环保局,116.8588,38.3161,2026-02-21T2100,84,764,0.3,8,2,77,81,500,颗粒物(PM10)
沧州市,河北水利电力学院,116.8011,38.294,2026-02-21T2100,103,854,0.1,6,7,79,84,500,颗粒物(PM10)
昌都市,昌都监测站,97.1813,31.1289,2026-02-21T2100,14,19,0.6,10,4,82,99,26,
昌都市,昌都会议中心,97.1707,31.1428,2026-02-21T2100,12,13,0.4,1,5,87,98,28,
昌吉回族自治州,新区政务中心,87.2722,44.0298,2026-02-21T2100,3,14,0.3,12,3,83,83,26,
昌吉回族自治州,亚心广场,87.3069,44.0093,2026-02-21T2100,12,17,0.1,11,8,86,85,27,
昌吉回族自治州,财政所,87.2057,43.9289,2026-02-21T2100,8,,0.2,9,5,76,80,,
长春市,客车厂,125.2874,43.9024,2026-02-21T2100,59,85,0.6,12,16,82,104,80,细颗粒物(PM2.5)
长春市,邮电学院,125.2943,43.8508,2026-02-21T2100,60,90,0.8,14,12,83,93,82,细颗粒物(PM2.5)
长春市,劳动公园,125.3648,43.8745,2026-02-21T2100,56,94,0.7,17,14,77,103,77,细颗粒物(PM2.5)
长春市,园林处,125.3233,43.8781,2026-02-21T2100,64,94,0.3,6,13,82,104,87,细颗粒物(PM2.5)
长春市,净月潭,125.4604,43.7904,2026-02-21T2100,50,75,0.6,8,9,85,103,69,细颗粒物(PM2.5)
长春市,经开区环卫处,125.38,43.8422,2026-02-21T2100,55,85,0.6,8,9,84,104,75,细颗粒物(PM2.5)
长春市,高新区管委会,125.234,43.7761,2026-02-21T2100,65,99,0.7,10,14,75,103,88,细颗粒物(PM2.5)
长春市,岱山公园,125.1695,43.83,2026-02-21T2100,58,81,0.7,12,8,81,105,79,细颗粒物(PM2.5)
长春市,北亚泰大街1068号,125.334645,43.916281,2026-02-21T2100,66,92,0.7,15,13,76,96,89,细颗粒物(PM2.5)
长沙市,经开区环保局,113.082,28.2421,2026-02-21T2100,34,39,0.9,9,4,44,55,49,
长沙市,高开区环保局,112.8873,28.2202,2026-02-21T2100,32,41,1.2,10,6,43,60,46,
长沙市,马坡岭,113.0785,28.2012,2026-02-21T2100,40,49,1.1,11,6,42,56,57,细颗粒物(PM2.5)
长沙市,湖南师范大学,112.9448,28.1894,2026-02-21T2100,26,42,1.0,10,5,43,61,42,
长沙市,雨花区环保局,113.0177,28.1322,2026-02-21T2100,32,33,1.1,13,8,57,71,46,
长沙市,伍家岭,112.9795,28.2593,2026-02-21T2100,22,54,1.0,16,6,33,54,52,颗粒物(PM10)
长沙市,火车新站,113.002,28.1944,2026-02-21T2100,36,53,1.1,26,3,29,58,52,"颗粒物(PM10),细颗粒物(PM2.5)"
长沙市,天心区环保局,112.9846,28.1177,2026-02-21T2100,28,39,1.1,13,6,44,61,40,
长沙市,湖南中医药大学,112.8906,28.1307,2026-02-21T2100,31,46,1.1,13,7,37,61,46,
长治市,清华站,113.1146,36.1547,2026-02-21T2100,121,260,0.3,14,24,80,93,159,细颗粒物(PM2.5)
长治市,审计局,113.0887,36.2126,2026-02-21T2100,61,236,0.4,12,7,89,94,143,颗粒物(PM10)
长治市,长治八中,113.0845,36.1856,2026-02-21T2100,74,279,0.3,6,9,85,94,165,颗粒物(PM10)
长治市,德盛苑,113.1561,36.1912,2026-02-21T2100,82,261,0.3,10,9,92,98,156,颗粒物(PM10)
长治市,向阳小学,113.0603,36.0464,2026-02-21T2100,81,264,0.3,14,17,80,103,157,颗粒物(PM10)
长治市,屯留一中,112.8788,36.315,2026-02-21T2100,71,255,0.4,8,7,87,97,153,颗粒物(PM10)
长治市,英华南巷50号,113.113092,36.199482,2026-02-21T2100,86,296,0.3,8,8,87,93,173,颗粒物(PM10)
长治市,学府街1号,113.23666,36.33435,2026-02-21T2100,63,,0.7,14,12,75,88,,
常德市,市二中,111.696,28.9725,2026-02-21T2100,31,38,1.1,8,6,60,77,45,
常德市,武陵区永安,111.7152,29.0288,2026-02-21T2100,30,39,0.9,9,7,61,76,43,
常德市,鼎城区玉霞,111.6891,28.9881,2026-02-21T2100,28,40,0.8,11,6,60,76,40,
常德市,武陵区长庚,111.6651,29.0526,2026-02-21T2100,48,,0.9,12,7,56,73,67,细颗粒物(PM2.5)
常州市,市监测站,119.9524,31.7586,2026-02-21T2100,39,64,1.3,21,13,81,101,57,颗粒物(PM10)
常州市,武进监测站,119.9351,31.703,2026-02-21T2100,23,39,0.6,6,9,95,97,39,
常州市,行政中心,119.9701,31.813,2026-02-21T2100,30,60,0.5,14,7,82,92,55,颗粒物(PM10)
常州市,经开区,120.0434,31.7726,2026-02-21T2100,21,43,1.0,8,12,89,98,43,
常州市,钟楼,119.8919,31.7892,2026-02-21T2100,44,52,0.6,21,10,81,101,62,细颗粒物(PM2.5)
常州市,武进经发区,119.8595,31.706,2026-02-21T2100,34,50,0.7,11,7,85,102,50,
常州市,金坛城区,119.5812,31.7256,2026-02-21T2100,35,52,1.0,10,12,89,99,51,颗粒物(PM10)
常州市,崇义南街5-H号,119.9551,31.863,2026-02-21T2100,23,37,0.6,15,6,84,97,37,
朝阳市,西梁,120.4318,41.588,2026-02-21T2100,54,483,0.4,8,7,88,108,379,颗粒物(PM10)
朝阳市,河畔小区,120.452,41.565,2026-02-21T2100,50,272,0.5,10,10,87,113,161,颗粒物(PM10)
朝阳市,八里堡,120.4176,41.5648,2026-02-21T2100,52,643,0.6,4,7,83,106,500,颗粒物(PM10)
潮州市,市政府,116.6179,23.6608,2026-02-21T2100,46,47,0.5,7,4,86,107,64,细颗粒物(PM2.5)
潮州市,金山,116.646,23.676,2026-02-21T2100,38,48,0.6,10,3,91,112,54,细颗粒物(PM2.5)
郴州市,市职中,113.0116,25.8228,2026-02-21T2100,51,78,1.0,25,7,3,27,70,细颗粒物(PM2.5)
郴州市,市审计局,113.0381,25.8074,2026-02-21T2100,83,116,/,32,6,0,18,110,细颗粒物(PM2.5)
郴州市,市环保局,113.0348,25.7757,2026-02-21T2100,41,62,0.7,35,4,3,36,58,细颗粒物(PM2.5)
郴州市,好美居路49号,113.0138,25.8011,2026-02-21T2100,49,54,/,25,5,17,41,68,细颗粒物(PM2.5)
成都市,金泉两河,103.9727,30.7242,2026-02-21T2100,,72,1.9,79,3,19,128,,
成都市,十里店,104.1423,30.6765,2026-02-21T2100,51,75,0.7,24,6,108,136,70,细颗粒物(PM2.5)
成都市,三瓦窑,104.0594,30.5765,2026-02-21T2100,47,67,0.9,38,3,70,130,65,细颗粒物(PM2.5)
成都市,沙河铺,104.1122,30.6306,2026-02-21T2100,58,90,1.0,72,5,29,117,79,细颗粒物(PM2.5)
成都市,大石西路,104.0219,30.6561,2026-02-21T2100,60,89,1.0,58,4,33,123,82,细颗粒物(PM2.5)
成都市,龙泉驿区区政府,104.2724,30.559,2026-02-21T2100,61,75,0.8,16,7,87,129,83,细颗粒物(PM2.5)
成都市,金博路,104.0028,30.6891,2026-02-21T2100,51,90,1.2,79,6,26,126,70,"颗粒物(PM10),细颗粒物(PM2.5)"
成都市,华阳,104.056,30.5228,2026-02-21T2100,60,85,0.9,55,3,49,127,82,细颗粒物(PM2.5)
成都市,青石路225号,104.387954,30.746684,2026-02-21T2100,59,83,0.8,56,4,62,129,80,细颗粒物(PM2.5)
成都市,科学城,104.0788,30.4054,2026-02-21T2100,48,60,0.7,13,8,92,106,67,细颗粒物(PM2.5)
成都市,光华大道三段,103.8505,30.6946,2026-02-21T2100,50,113,1.0,65,4,22,129,82,颗粒物(PM10)
成都市,八角井街185号,104.3257,30.6406,2026-02-21T2100,56,98,0.7,22,5,93,127,77,细颗粒物(PM2.5)
成都市,鲸龙路1057号,104.2433276,30.53529463,2026-02-21T2100,62,87,0.9,33,8,79,130,84,细颗粒物(PM2.5)
承德市,铁路,117.9531,40.908,2026-02-21T2100,53,416,0.2,2,2,79,88,295,颗粒物(PM10)
承德市,中国银行,117.9397,40.9763,2026-02-21T2100,47,487,0.2,2,1,76,83,384,颗粒物(PM10)
承德市,杏林街1号,117.9462,40.95,2026-02-21T2100,47,507,0.2,1,3,83,93,407,颗粒物(PM10)
承德市,滨河大街98号,117.7994,40.9605,2026-02-21T2100,50,478,0.2,1,3,82,94,373,颗粒物(PM10)
池州市,池州学院,117.4698,30.6617,2026-02-21T2100,31,43,1.2,23,10,65,82,45,
池州市,展览馆,117.4918,30.6617,2026-02-21T2100,32,45,1.2,18,11,63,83,46,
池州市,第八中学,117.5626,30.695,2026-02-21T2100,23,38,1.1,18,11,65,86,38,
池州市,第十二中学,117.5037,30.6242,2026-02-21T2100,35,49,0.9,13,9,48,83,50,
赤峰市,松山一中,118.9229,42.2816,2026-02-21T2100,41,785,0.4,8,2,60,63,500,颗粒物(PM10)
赤峰市,哈达街,118.9588,42.2733,2026-02-21T2100,37,724,0.5,5,7,64,72,500,颗粒物(PM10)
赤峰市,天义路,118.8792,42.2551,2026-02-21T2100,38,716,0.4,1,5,70,83,500,颗粒物(PM10)
赤峰市,银河街,119.2656,42.0356,2026-02-21T2100,67,960,0.3,2,5,86,107,500,颗粒物(PM10)
赤峰市,桥北物流园区,118.9359,42.3146,2026-02-21T2100,55,514,0.4,2,4,75,88,414,颗粒物(PM10)
崇左市,市环保局江州分局,107.3473,22.4137,2026-02-21T2100,88,98,1.3,24,6,50,67,117,细颗粒物(PM2.5)
崇左市,石景林东路7号,107.375,22.3736,2026-02-21T2100,66,,1.2,22,4,48,66,89,细颗粒物(PM2.5)
滁州市,市政府原办公楼,118.31131,32.3033,2026-02-21T2100,30,36,0.4,8,7,83,90,43,
滁州市,图书馆,118.3268,32.2633,2026-02-21T2100,27,33,0.5,11,11,80,97,39,
滁州市,银山路666号,118.3196,32.3335,2026-02-21T2100,40,,0.5,5,10,94,101,57,细颗粒物(PM2.5)
滁州市,黄山路555号,118.3426,32.2979,2026-02-21T2100,36,50,0.5,5,8,82,100,52,细颗粒物(PM2.5)
楚雄彝族自治州,市经济开发区,101.5379,25.0492,2026-02-21T2100,24,37,0.5,10,3,85,99,37,
楚雄彝族自治州,团结路562号,101.5536,25.0343,2026-02-21T2100,17,18,0.4,5,3,92,98,29,
达州市,市环境监测站,107.5087,31.2186,2026-02-21T2100,60,92,0.8,73,7,16,88,82,细颗粒物(PM2.5)
达州市,凤凰小区,107.4988,31.2132,2026-02-21T2100,74,119,1.7,86,,5,80,,
达州市,达县机关宾馆,107.5081,31.1987,2026-02-21T2100,65,85,1.3,68,5,3,76,88,细颗粒物(PM2.5)
达州市,市政中心,107.4644,31.2124,2026-02-21T2100,67,127,1.7,95,9,3,87,90,细颗粒物(PM2.5)
大理白族自治州,大理市环境监测站,100.2168,25.5818,2026-02-21T2100,20,26,0.8,6,6,88,95,29,
大理白族自治州,大理古城,100.1542,25.7055,2026-02-21T2100,24,38,0.6,9,8,91,103,38,
大连市,甘井子,121.6119,38.974,2026-02-21T2100,58,82,0.7,38,12,66,80,79,细颗粒物(PM2.5)
大连市,周水子,121.565,38.9509,2026-02-21T2100,65,89,0.8,39,18,58,72,88,细颗粒物(PM2.5)
大连市,星海三站,121.5637,38.8849,2026-02-21T2100,51,66,0.8,18,5,71,73,70,细颗粒物(PM2.5)
大连市,青泥洼桥,121.6301,38.9117,2026-02-21T2100,48,73,1.0,21,10,85,74,67,细颗粒物(PM2.5)
大连市,傅家庄,121.6248,38.8643,2026-02-21T2100,,,,,,,99,,
大连市,七贤岭,121.5117,38.8636,2026-02-21T2100,52,75,0.8,25,13,75,77,72,细颗粒物(PM2.5)
大连市,金州,121.7507,39.1339,2026-02-21T2100,56,62,0.6,22,15,79,88,77,细颗粒物(PM2.5)
大连市,开发区,121.7811,39.0495,2026-02-21T2100,56,74,0.7,24,5,65,74,77,细颗粒物(PM2.5)
大连市,双D港,121.9762,39.0631,2026-02-21T2100,49,67,0.9,23,8,58,85,68,细颗粒物(PM2.5)
大连市,旅顺,121.2548,38.8188,2026-02-21T2100,53,74,0.6,20,14,71,72,73,细颗粒物(PM2.5)
大庆市,大同区,124.8085,46.0381,2026-02-21T2100,120,147,1.0,29,20,71,96,158,细颗粒物(PM2.5)
大庆市,龙凤区,125.1166,46.5255,2026-02-21T2100,149,195,1.0,62,2,17,81,199,细颗粒物(PM2.5)
大庆市,红岗区,124.8894,46.4007,2026-02-21T2100,,115,0.8,39,12,46,74,,
大庆市,萨尔图区,125.1391,46.578,2026-02-21T2100,119,145,0.8,26,13,41,80,156,细颗粒物(PM2.5)
大庆市,让胡路区,124.9026,46.6217,2026-02-21T2100,112,121,1.1,44,24,,47,147,细颗粒物(PM2.5)
大庆市,萨区政府监测点,125.127,46.6277,2026-02-21T2100,122,169,0.8,15,16,51,86,160,细颗粒物(PM2.5)
大同市,云冈宾馆,113.2926,40.0759,2026-02-21T2100,16,58,0.7,6,6,62,83,54,颗粒物(PM10)
大同市,大同大学,113.3437,40.0921,2026-02-21T2100,10,69,0.3,3,3,69,91,60,颗粒物(PM10)
大同市,安家小村,113.2637,40.129,2026-02-21T2100,10,77,0.4,8,9,47,71,64,颗粒物(PM10)
大同市,大同市卫生学校,113.3399,40.0586,2026-02-21T2100,28,65,0.3,7,3,73,98,58,颗粒物(PM10)
大同市,云冈站,113.1371,40.1122,2026-02-21T2100,16,76,0.3,4,4,68,89,63,颗粒物(PM10)
大同市,图书馆,113.1186,40.2556,2026-02-21T2100,10,360,0.6,6,3,66,88,215,颗粒物(PM10)
大同市,区一中,113.5931,40.0459,2026-02-21T2100,13,105,0.3,2,5,77,98,78,颗粒物(PM10)
大同市,魏都大道141号,113.2798248,40.09972476,2026-02-21T2100,3,86,0.5,6,8,69,90,68,颗粒物(PM10)
大兴安岭地区,科技局,124.1068,50.4091,2026-02-21T2100,18,43,0.4,4,4,69,65,43,
大兴安岭地区,红旗社区,124.117,50.4279,2026-02-21T2100,46,68,0.2,5,6,77,75,64,细颗粒物(PM2.5)
丹东市,江湾东路,124.33,40.0625,2026-02-21T2100,22,48,0.6,7,6,108,102,48,
丹东市,临江后街,124.4242,40.1513,2026-02-21T2100,21,48,0.4,5,9,100,96,48,
丹东市,元宝山,124.3935,40.1461,2026-02-21T2100,22,48,0.6,7,12,101,99,48,
丹东市,民主桥,124.3634,40.1093,2026-02-21T2100,25,53,0.5,2,10,103,98,52,颗粒物(PM10)
儋州市,第一中学子站,109.5726195,19.51688767,2026-02-21T2100,32,50,0.6,4,5,77,76,50,
儋州市,东坡学校子站,109.5567,19.5187,2026-02-21T2100,22,37,0.5,4,3,92,87,37,
德宏傣族景颇族自治州,德宏州监测站,98.5611,24.4273,2026-02-21T2100,37,42,0.6,18,7,69,94,53,细颗粒物(PM2.5)
德宏傣族景颇族自治州,芒市人民政府综合楼,98.5887,24.4366,2026-02-21T2100,39,59,0.6,16,6,59,93,55,"颗粒物(PM10),细颗粒物(PM2.5)"
德阳市,东山公园,104.424,31.1209,2026-02-21T2100,57,59,0.6,8,5,117,121,78,细颗粒物(PM2.5)
德阳市,西小区,104.3827,31.1318,2026-02-21T2100,63,78,1.0,37,6,73,121,85,细颗粒物(PM2.5)
德阳市,耐火材料厂,104.3553,31.1091,2026-02-21T2100,71,79,0.8,27,4,73,120,95,细颗粒物(PM2.5)
德阳市,市林业局,104.4144,31.1495,2026-02-21T2100,56,76,0.8,24,8,82,125,77,细颗粒物(PM2.5)
德州市,儿童乐园,116.3034,37.4675,2026-02-21T2100,44,583,0.3,9,10,80,84,483,颗粒物(PM10)
德州市,监理站,116.2992,37.4449,2026-02-21T2100,62,627,1.2,22,12,68,103,500,颗粒物(PM10)
德州市,九衢泉纯净水厂,116.2722,37.438,2026-02-21T2100,56,559,0.6,17,4,78,90,459,颗粒物(PM10)
德州市,开发区人民医院,116.3693,37.44,2026-02-21T2100,39,603,0.4,13,9,76,84,500,颗粒物(PM10)
德州市,陵城艺术中心,116.5687,37.3331,2026-02-21T2100,47,464,0.5,8,9,70,81,355,颗粒物(PM10)
德州市,新河东路,116.352738,37.420875,2026-02-21T2100,43,517,0.7,14,13,74,84,417,颗粒物(PM10)
迪庆藏族自治州,迪庆州站,99.7054,27.8319,2026-02-21T2100,18,40,0.9,8,5,104,102,40,
迪庆藏族自治州,质量技术监督局,99.7122,27.8129,2026-02-21T2100,23,24,0.6,10,6,98,103,33,
定西市,将台街,104.6092,35.5962,2026-02-21T2100,,430,0.4,1,8,83,90,313,颗粒物(PM10)
定西市,正龙路62号,104.6159,35.5701,2026-02-21T2100,106,479,0.4,3,5,80,87,374,颗粒物(PM10)
东莞市,东城石井,113.7943,23.0132,2026-02-21T2100,19,28,0.6,18,5,99,120,31,
东莞市,南城西平,113.7384,22.9659,2026-02-21T2100,18,26,0.6,16,6,97,115,31,
东莞市,万江金泰,113.7283,23.041,2026-02-21T2100,21,29,0.8,13,6,95,114,30,
东莞市,裕兴路,113.8666,23.1062,2026-02-21T2100,19,32,0.8,18,7,88,110,32,
东莞市,教育路1号,114.0076,22.9739,2026-02-21T2100,27,41,0.6,10,5,112,124,41,
东莞市,长怡路1号,113.7981,22.8124,2026-02-21T2100,17,32,0.7,19,8,91,107,32,
东营市,市环保局,118.6612,37.4313,2026-02-21T2100,53,246,0.7,23,12,82,104,148,颗粒物(PM10)
东营市,开发区管委会,118.6903,37.4337,2026-02-21T2100,49,272,0.8,21,14,80,101,161,颗粒物(PM10)
东营市,垦利区民丰路,118.5721,37.5654,2026-02-21T2100,50,405,0.7,21,12,81,109,279,颗粒物(PM10)
东营市,河口城区,118.5063,37.8606,2026-02-21T2100,54,481,0.4,23,10,88,118,377,颗粒物(PM10)
东营市,胜利站,118.4979,37.4623,2026-02-21T2100,54,193,0.8,17,11,72,96,122,颗粒物(PM10)
东营市,理想之城,118.5753,37.4405,2026-02-21T2100,39,222,0.8,18,13,82,107,136,颗粒物(PM10)
鄂尔多斯市,综合楼,110.0024,39.8127,2026-02-21T2100,48,273,0.2,5,5,81,96,162,颗粒物(PM10)
鄂尔多斯市,巴音孟克林场办事处,109.9485,39.8259,2026-02-21T2100,44,239,0.2,4,4,82,97,145,颗粒物(PM10)
鄂尔多斯市,康泽苑,109.7734,39.5987,2026-02-21T2100,116,588,0.2,4,5,87,101,488,颗粒物(PM10)
鄂尔多斯市,华泰汽车城,109.8121,39.5987,2026-02-21T2100,76,400,0.3,2,7,90,105,272,颗粒物(PM10)
鄂尔多斯市,奥林花园,109.9734,39.7884,2026-02-21T2100,44,278,0.2,7,3,85,95,164,颗粒物(PM10)
鄂州市,市政府,114.894,30.3989,2026-02-21T2100,26,40,0.9,15,8,70,90,40,
鄂州市,赵家坝,114.8986,30.3714,2026-02-21T2100,38,,1.1,9,13,70,91,54,细颗粒物(PM2.5)
鄂州市,精准医疗中心,114.8093,30.4091,2026-02-21T2100,31,52,2.1,22,51,64,86,51,颗粒物(PM10)
恩施土家族苗族自治州,湖北民院,109.4978,30.2979,2026-02-21T2100,60,64,1.0,19,7,48,85,82,细颗粒物(PM2.5)
恩施土家族苗族自治州,龙凤新区,109.5061,30.3771,2026-02-21T2100,41,53,0.6,11,7,37,77,58,细颗粒物(PM2.5)
防城港市,沙万,108.3411,21.6159,2026-02-21T2100,32,34,0.8,12,6,66,74,46,
防城港市,防城档案局,108.3515,21.7733,2026-02-21T2100,28,29,0.6,6,5,57,80,40,
防城港市,大海花园,108.3506,21.6414,2026-02-21T2100,,32,0.7,10,6,74,83,,
佛山市,湾梁,113.1293,23.0065,2026-02-21T2100,19,29,/,5,/,99,116,31,
佛山市,华材职中,113.1082,23.0477,2026-02-21T2100,24,31,0.4,6,6,101,118,35,
佛山市,南海气象局,113.1439,23.045,2026-02-21T2100,23,40,/,7,/,93,114,40,
佛山市,顺德苏岗,113.2879,22.8094,2026-02-21T2100,28,56,0.7,9,/,101,113,53,颗粒物(PM10)
佛山市,高明孔堂,112.8384,22.8678,2026-02-21T2100,22,38,/,5,/,90,103,38,
佛山市,三水监测站,112.8835,23.1584,2026-02-21T2100,21,36,0.5,7,3,92,111,36,
佛山市,三水云东海,112.8668,23.185,2026-02-21T2100,23,48,/,10,/,100,120,48,
佛山市,容桂街道办,113.2568,22.7629,2026-02-21T2100,22,36,/,7,/,82,88,36,
福州市,师大,119.2681,26.0506,2026-02-21T2100,45,70,0.7,15,6,91,110,63,细颗粒物(PM2.5)
福州市,五四北路,119.2983,26.1028,2026-02-21T2100,36,51,0.6,15,6,96,110,52,细颗粒物(PM2.5)
福州市,杨桥西路,119.2648,26.0769,2026-02-21T2100,35,51,/,16,6,96,112,51,颗粒物(PM10)
福州市,九龙,119.5799,26.0937,2026-02-21T2100,44,52,0.6,12,4,82,103,62,细颗粒物(PM2.5)
福州市,吴航,119.5188,25.9666,2026-02-21T2100,52,70,0.6,19,6,75,101,72,细颗粒物(PM2.5)
福州市,路通桥巷6号,119.3106,26.0648,2026-02-21T2100,38,45,/,16,/,89,106,54,细颗粒物(PM2.5)
抚顺市,望花区,123.7974,41.8494,2026-02-21T2100,60,122,1.3,23,27,78,96,86,颗粒物(PM10)
抚顺市,顺城区,123.9161,41.8827,2026-02-21T2100,90,125,0.9,23,27,81,99,119,细颗粒物(PM2.5)
抚顺市,东洲区,124.0437,41.8615,2026-02-21T2100,38,82,0.7,13,15,93,98,66,颗粒物(PM10)
抚顺市,新抚区,123.9246,41.8638,2026-02-21T2100,54,106,0.9,15,15,90,99,78,颗粒物(PM10)
抚顺市,大伙房水库,124.0972,41.8961,2026-02-21T2100,31,57,0.7,10,13,102,106,54,颗粒物(PM10)
抚顺市,沈抚新城,123.708,41.8386,2026-02-21T2100,47,95,0.9,17,17,84,98,73,颗粒物(PM10)
抚州市,市站,116.3544,27.9833,2026-02-21T2100,63,69,1.4,17,8,42,73,85,细颗粒物(PM2.5)
抚州市,血防站,116.3562,27.9631,2026-02-21T2100,40,47,1.6,28,13,42,68,57,细颗粒物(PM2.5)
抚州市,采茶剧团,116.3561,28.0007,2026-02-21T2100,70,,1.6,11,11,41,71,94,细颗粒物(PM2.5)
抚州市,医学分院,116.3854,27.9648,2026-02-21T2100,38,42,1.4,13,5,49,71,54,细颗粒物(PM2.5)
阜新市,工业园区,121.6095,41.9978,2026-02-21T2100,103,144,1.1,19,16,70,89,135,细颗粒物(PM2.5)
阜新市,长青街,121.6567,42.0188,2026-02-21T2100,117,149,1.0,25,15,72,100,153,细颗粒物(PM2.5)
阜新市,农业园区,121.6672,42.07,2026-02-21T2100,110,165,1.2,19,12,63,91,144,细颗粒物(PM2.5)
阜新市,玉龙新城,121.6343,42.0455,2026-02-21T2100,137,231,1.1,33,24,61,92,182,细颗粒物(PM2.5)
阜阳市,市监测站,115.8276,32.8929,2026-02-21T2100,34,59,0.8,12,7,92,94,55,颗粒物(PM10)
阜阳市,开发区,115.8551,32.8606,2026-02-21T2100,43,58,0.6,10,8,77,94,60,细颗粒物(PM2.5)
阜阳市,阜阳职业技术学院,115.783962,32.889217,2026-02-21T2100,38,56,0.9,12,9,95,101,54,细颗粒物(PM2.5)
阜阳市,市规划展馆,115.79,32.8614,2026-02-21T2100,38,63,1.1,12,10,94,102,57,颗粒物(PM10)
阜阳市,枣园社区,115.835101,32.918568,2026-02-21T2100,32,51,0.6,10,10,84,88,51,颗粒物(PM10)
甘南藏族自治州,州政府,102.9097,34.9841,2026-02-21T2100,35,100,0.2,5,7,87,91,75,颗粒物(PM10)
甘南藏族自治州,甘肃民族师范学院,102.8915,34.9618,2026-02-21T2100,32,154,0.3,6,7,71,92,102,颗粒物(PM10)
甘孜藏族自治州,水桥子,101.96,30.048,2026-02-21T2100,9,10,0.3,5,7,49,96,16,
甘孜藏族自治州,州环保局,101.9534,29.9976,2026-02-21T2100,13,,0.4,3,6,99,105,31,
赣州市,地委,114.9368,25.8663,2026-02-21T2100,49,52,1.6,30,8,55,75,68,细颗粒物(PM2.5)
赣州市,气象台,114.946,25.8483,2026-02-21T2100,48,55,0.6,26,7,56,77,67,细颗粒物(PM2.5)
赣州市,市图书馆,114.932,25.8332,2026-02-21T2100,44,72,1.6,45,3,22,60,62,细颗粒物(PM2.5)
赣州市,华坚鞋城,114.8905,25.8472,2026-02-21T2100,51,61,0.8,20,6,51,70,70,细颗粒物(PM2.5)
赣州市,赣县区卫计委,115.0094,25.8614,2026-02-21T2100,71,74,0.8,38,8,39,72,95,细颗粒物(PM2.5)
固原市,监测站,106.2753,36.0057,2026-02-21T2100,118,520,0.4,7,8,75,82,420,颗粒物(PM10)
固原市,新区,106.2384,36.0189,2026-02-21T2100,126,454,0.4,5,6,77,82,343,颗粒物(PM10)
广安市,市委,106.6307,30.4577,2026-02-21T2100,92,113,1.4,52,8,55,111,122,细颗粒物(PM2.5)
广安市,友谊中学,106.6266,30.4662,2026-02-21T2100,77,119,1.6,55,8,32,115,103,细颗粒物(PM2.5)
广安市,广电花园,106.6386,30.4551,2026-02-21T2100,103,112,1.4,51,8,36,104,135,细颗粒物(PM2.5)
广安市,北辰小学,106.6347,30.4868,2026-02-21T2100,78,90,1.0,25,13,68,110,104,细颗粒物(PM2.5)
广元市,老城,105.8211,32.4444,2026-02-21T2100,69,76,1.0,39,1,57,103,93,细颗粒物(PM2.5)
广元市,监测站,105.8629,32.429,2026-02-21T2100,43,62,0.7,18,10,72,103,60,细颗粒物(PM2.5)
广元市,经开区,105.8047,32.4167,2026-02-21T2100,61,75,1.1,53,6,34,98,83,细颗粒物(PM2.5)
广州市,广雅中学,113.2346,23.1423,2026-02-21T2100,27,38,0.6,13,3,88,107,39,
广州市,市五中,113.2611,23.105,2026-02-21T2100,24,38,/,12,6,105,125,38,
广州市,广东商学院,113.3477,23.0916,2026-02-21T2100,28,35,0.8,9,6,105,115,40,
广州市,市八十六中,113.4332,23.105,2026-02-21T2100,20,73,/,12,4,119,125,62,颗粒物(PM10)
广州市,番禺中学,113.3506,22.9488,2026-02-21T2100,25,53,0.8,9,4,100,112,52,颗粒物(PM10)
广州市,花都师范,113.2147,23.3918,2026-02-21T2100,32,34,0.7,12,6,99,116,46,
广州市,市监测站,113.2599,23.1329,2026-02-21T2100,25,36,/,13,1,92,108,36,
广州市,九龙镇镇龙,113.5618,23.3119,2026-02-21T2100,25,32,0.5,12,6,86,111,36,
广州市,麓湖,113.2764,23.1544,2026-02-21T2100,26,35,0.5,10,4,101,115,38,
广州市,体育西,113.3209,23.1323,2026-02-21T2100,23,35,0.8,12,5,100,112,35,
广州市,从化街口,113.5718,23.5493,2026-02-21T2100,34,43,0.7,14,9,91,112,49,
广州市,白云竹料,113.3463,23.369,2026-02-21T2100,31,40,0.6,16,4,90,85,45,
广州市,白云嘉禾,113.2981,23.2365,2026-02-21T2100,26,37,/,13,6,104,122,38,
广州市,黄埔科学城,113.4256,23.1716,2026-02-21T2100,30,39,0.6,9,6,116,128,43,
广州市,番禺大学城,113.3942,23.0485,2026-02-21T2100,27,49,0.5,6,9,109,116,49,
广州市,南沙黄阁,113.4923,22.8169,2026-02-21T2100,24,40,/,11,6,102,113,40,
广州市,南沙街,113.534,22.7893,2026-02-21T2100,21,40,0.6,5,4,104,114,40,
广州市,花都梯面,113.2905,23.5541,2026-02-21T2100,24,32,/,7,6,94,110,35,
广州市,从化良口,113.786,23.7479,2026-02-21T2100,37,44,/,8,4,91,104,53,细颗粒物(PM2.5)
广州市,增城荔城,113.805,23.2614,2026-02-21T2100,22,31,0.5,14,6,95,121,32,
贵港市,江南子站,109.604387,23.066791,2026-02-21T2100,118,156,1.2,29,10,46,73,155,细颗粒物(PM2.5)
贵港市,荷城子站,109.5669,23.1065,2026-02-21T2100,126,156,1.2,33,9,44,60,166,细颗粒物(PM2.5)
贵港市,新世纪学校,109.5886,23.1172,2026-02-21T2100,147,156,1.2,34,/,44,67,196,细颗粒物(PM2.5)
贵港市,中山路155-3号,109.5933,23.095,2026-02-21T2100,137,173,1.2,31,/,40,66,182,细颗粒物(PM2.5)
贵阳市,马鞍山,106.6863,26.6035,2026-02-21T2100,15,27,/,17,5,31,73,27,
贵阳市,鉴湖路,106.6241,26.6266,2026-02-21T2100,31,48,0.6,18,12,58,83,48,
贵阳市,燕子冲,106.7468,26.6344,2026-02-21T2100,31,39,0.4,16,5,48,80,45,
贵阳市,碧云窝,106.6556,26.4362,2026-02-21T2100,30,41,/,10,16,56,76,43,
贵阳市,红边门,106.6963,26.6063,2026-02-21T2100,56,68,/,42,27,26,74,77,细颗粒物(PM2.5)
贵阳市,新华路,106.7162383,26.56964667,2026-02-21T2100,30,53,0.5,31,15,39,78,52,颗粒物(PM10)
贵阳市,太慈桥,106.6742,26.542,2026-02-21T2100,13,36,/,26,5,34,61,36,
贵阳市,花果园大街66号,106.688212,26.56952,2026-02-21T2100,34,,/,28,6,42,71,49,
贵阳市,漓江路57号,106.687268,26.516892,2026-02-21T2100,37,41,0.6,16,14,49,73,53,细颗粒物(PM2.5)
桂林市,龙隐路小学,110.3091,25.2705,2026-02-21T2100,69,76,1.4,37,4,3,22,93,细颗粒物(PM2.5)
桂林市,八中,110.2849361,25.22909545,2026-02-21T2100,47,102,1.2,41,6,6,21,76,颗粒物(PM10)
桂林市,旅游学院,110.296,25.1254,2026-02-21T2100,82,94,1.1,25,6,9,35,109,细颗粒物(PM2.5)
桂林市,环湖路276号,110.1835,25.2444,2026-02-21T2100,84,95,1.2,30,5,5,17,112,细颗粒物(PM2.5)
桂林市,信义路13号,110.2803,25.2773,2026-02-21T2100,81,133,1.4,31,5,4,20,108,细颗粒物(PM2.5)
果洛藏族自治州,玛沁县大武镇,100.2262,34.4854,2026-02-21T2100,12,51,0.3,2,9,89,89,51,颗粒物(PM10)
哈尔滨市,松北商大,126.5557,45.8109,2026-02-21T2100,80,96,0.8,9,14,83,95,107,细颗粒物(PM2.5)
哈尔滨市,南岗学府路,126.6162,45.719,2026-02-21T2100,62,101,0.8,14,14,85,98,84,细颗粒物(PM2.5)
哈尔滨市,太平宏伟公园,126.6894,45.7733,2026-02-21T2100,69,94,0.7,,14,84,97,,
哈尔滨市,道外承德广场,126.6361,45.7672,2026-02-21T2100,66,116,0.2,16,17,84,96,89,细颗粒物(PM2.5)
哈尔滨市,动力和平路,126.644,45.7261,2026-02-21T2100,62,90,0.9,24,15,73,97,84,细颗粒物(PM2.5)
哈尔滨市,道里建国路,126.5933,45.7479,2026-02-21T2100,62,86,0.4,17,22,85,92,84,细颗粒物(PM2.5)
哈尔滨市,平房东轻厂,126.6127,45.6119,2026-02-21T2100,64,77,0.8,25,11,53,63,87,细颗粒物(PM2.5)
哈尔滨市,呼兰师专,126.5875,45.9827,2026-02-21T2100,86,177,0.7,18,20,78,88,114,"颗粒物(PM10),细颗粒物(PM2.5)"
哈尔滨市,省农科院,126.6299,45.6799,2026-02-21T2100,63,98,0.7,22,,65,79,,
哈尔滨市,华山路1号,126.6769,45.7379,2026-02-21T2100,67,102,0.9,19,20,,97,,
哈尔滨市,解放大街52号,126.9717,45.5356,2026-02-21T2100,36,78,0.6,10,17,91,108,64,颗粒物(PM10)
哈密市,地区监测站,93.5124,42.8176,2026-02-21T2100,40,190,0.1,11,6,68,82,120,颗粒物(PM10)
哈密市,哈密师范学校,93.5014,42.8312,2026-02-21T2100,,,,,,,88,,
海北藏族自治州,海晏县西海镇,100.9016,36.9464,2026-02-21T2100,12,29,0.1,1,6,90,98,29,
海东市,平安区公安局北苑,102.074,36.5056,2026-02-21T2100,27,55,0.5,4,9,82,87,53,颗粒物(PM10)
海东市,滨河路,102.0984,36.5119,2026-02-21T2100,26,57,0.4,14,7,84,97,54,颗粒物(PM10)
海口市,海南大学,110.3189,20.0596,2026-02-21T2100,14,23,0.3,4,6,70,90,23,
海口市,秀英海南医院,110.2827,20.0051,2026-02-21T2100,17,28,0.3,8,8,60,84,28,
海口市,海南师范大学,110.3391,19.9979,2026-02-21T2100,16,34,0.5,4,6,68,90,34,
海口市,龙华路环保局宿舍,110.3303,20.0359,2026-02-21T2100,16,27,0.6,6,/,70,91,27,
海口市,桂林洋子站,110.5111,19.9737,2026-02-21T2100,17,25,/,5,/,66,86,25,
海口市,长滨二路9号,110.1952,20.0451,2026-02-21T2100,15,22,/,3,/,65,88,22,
海南藏族自治州,共和县恰卜恰镇,100.6158,36.2985,2026-02-21T2100,21,32,0.2,2,11,89,102,32,
海西蒙古族藏族自治州,德令哈市,97.373,37.376,2026-02-21T2100,13,28,0.3,2,11,110,107,35,
邯郸市,矿院,114.492,36.5712,2026-02-21T2100,78,337,0.5,1,4,88,96,194,颗粒物(PM10)
邯郸市,丛台公园,114.4839,36.6136,2026-02-21T2100,78,362,0.4,8,2,86,94,218,颗粒物(PM10)
邯郸市,香泉濮院小区,114.7893,36.5592,2026-02-21T2100,37,513,0.2,2,1,86,92,413,颗粒物(PM10)
邯郸市,峰峰矿区临水派出所,114.1998,36.4439,2026-02-21T2100,45,272,0.3,2,5,90,95,161,颗粒物(PM10)
邯郸市,建安街268号,114.5209,36.7697,2026-02-21T2100,94,343,0.2,1,3,79,91,197,颗粒物(PM10)
邯郸市,丛台东路558号,114.5488,36.6177,2026-02-21T2100,81,316,0.4,8,1,90,101,183,颗粒物(PM10)
汉中市,市监测站,107.0155,33.0707,2026-02-21T2100,90,109,1.3,34,9,56,104,119,细颗粒物(PM2.5)
汉中市,鑫源开发区,107.0083,33.114,2026-02-21T2100,68,78,1.0,35,7,60,108,92,细颗粒物(PM2.5)
汉中市,南郑大河坎水厂,107.0072,33.0323,2026-02-21T2100,79,110,1.2,27,9,57,102,105,细颗粒物(PM2.5)
杭州市,滨江,120.2073,30.2111,2026-02-21T2100,21,35,0.7,17,7,71,88,35,
杭州市,西溪,120.0625,30.2737,2026-02-21T2100,34,40,0.9,12,8,32,87,49,
杭州市,下沙,120.3417,30.315,2026-02-21T2100,20,30,0.2,16,10,72,89,30,
杭州市,卧龙桥,120.1252,30.2465,2026-02-21T2100,17,29,0.4,23,7,36,87,29,
杭州市,浙江农大,120.1902,30.2691,2026-02-21T2100,20,33,0.6,19,6,60,93,33,
杭州市,和睦小学,120.1195,30.3121,2026-02-21T2100,27,40,0.7,26,5,49,88,40,
杭州市,临平镇,120.3076,30.4146,2026-02-21T2100,19,37,0.5,17,6,69,91,37,
杭州市,城厢镇,120.2753,30.1839,2026-02-21T2100,22,35,0.5,12,8,75,93,35,
杭州市,云栖,120.0883,30.1808,2026-02-21T2100,18,32,0.7,28,4,24,84,32,
杭州市,镇二中,119.9463,30.0496,2026-02-21T2100,24,33,0.8,27,4,40,87,35,
杭州市,市府大楼,119.7184,30.2367,2026-02-21T2100,35,50,0.5,16,7,41,82,50,
杭州市,消防大队,120.1554,30.2863,2026-02-21T2100,19,28,0.5,16,7,64,81,28,
合肥市,明珠广场,117.1957,31.7845,2026-02-21T2100,31,41,0.7,11,7,76,89,45,
合肥市,三里街,117.307,31.8765,2026-02-21T2100,21,34,0.7,20,6,66,79,34,
合肥市,琥珀山庄,117.2587,31.8703,2026-02-21T2100,28,44,0.8,21,7,73,85,44,
合肥市,庐阳区,117.2593,31.9376,2026-02-21T2100,20,31,1.1,12,6,78,86,31,
合肥市,瑶海区,117.345251,31.861615,2026-02-21T2100,17,31,0.6,20,6,78,88,31,
合肥市,包河区,117.3033,31.7967,2026-02-21T2100,16,29,0.8,13,11,80,88,29,
合肥市,滨湖新区,117.278,31.7392,2026-02-21T2100,17,29,0.8,6,5,78,84,29,
合肥市,高新区,117.1324,31.8395,2026-02-21T2100,21,31,0.7,8,6,80,88,31,
合肥市,高教基地,117.3802,31.9148,2026-02-21T2100,16,29,0.6,11,10,83,94,29,
合肥市,中国科学技术大学,117.2518,31.8404,2026-02-21T2100,19,34,0.9,10,8,79,91,34,
和田地区,地区环保局,79.9241,37.0878,2026-02-21T2100,,,,33,3,68,93,,
和田地区,市环保局,79.9132,37.1137,2026-02-21T2100,114,538,1.0,50,3,61,105,438,颗粒物(PM10)
河池市,市环保站,108.0496,24.6957,2026-02-21T2100,114,,1.3,11,4,19,42,149,细颗粒物(PM2.5)
河池市,上任中路54号,108.0901,24.6945,2026-02-21T2100,106,113,1.1,27,6,11,44,139,细颗粒物(PM2.5)
河源市,东埔,114.6962,23.7538,2026-02-21T2100,39,53,1.0,16,6,92,112,55,细颗粒物(PM2.5)
河源市,老城,114.6895,23.7232,2026-02-21T2100,37,60,0.7,11,6,98,110,55,颗粒物(PM10)
菏泽市,定陶老年大学,115.5562,35.089,2026-02-21T2100,55,90,0.6,20,8,88,105,75,细颗粒物(PM2.5)
菏泽市,黄河路600号,115.4239,35.2593,2026-02-21T2100,63,112,0.6,14,8,76,99,85,细颗粒物(PM2.5)
菏泽市,菏泽市人社局,115.5025,35.2727,2026-02-21T2100,52,83,0.6,18,6,96,109,72,细颗粒物(PM2.5)
菏泽市,永昌路1号,115.479691,35.244011,2026-02-21T2100,60,101,0.6,14,8,92,116,82,细颗粒物(PM2.5)
菏泽市,长城路999号,115.471542,35.280012,2026-02-21T2100,58,92,0.6,12,22,92,109,79,细颗粒物(PM2.5)
贺州市,环保小区,111.5264,24.4178,2026-02-21T2100,76,83,0.9,12,5,58,61,102,细颗粒物(PM2.5)
贺州市,政协大楼,111.561,24.4074,2026-02-21T2100,78,79,0.8,23,6,48,49,104,细颗粒物(PM2.5)
贺州市,西湾,111.4744,24.455,2026-02-21T2100,80,116,1.2,25,6,38,51,107,细颗粒物(PM2.5)
鹤壁市,市监测站,114.17,35.9019,2026-02-21T2100,53,173,0.4,3,4,85,94,112,颗粒物(PM10)
鹤壁市,市交警支队,114.2953,35.7512,2026-02-21T2100,32,169,0.3,6,3,78,84,110,颗粒物(PM10)
鹤壁市,迎宾馆,114.2877,35.7302,2026-02-21T2100,44,201,0.5,9,3,78,87,126,颗粒物(PM10)
鹤壁市,大新区,114.2616,35.6824,2026-02-21T2100,38,168,0.4,6,7,89,90,109,颗粒物(PM10)
鹤壁市,南山宾馆,114.1573,35.9607,2026-02-21T2100,52,245,0.5,2,4,90,96,148,颗粒物(PM10)
鹤岗市,哈啤分公司,130.2537,47.3416,2026-02-21T2100,27,37,0.5,7,14,92,90,39,
鹤岗市,斯达机电,130.2683,47.3087,2026-02-21T2100,28,48,0.4,8,12,89,88,48,
鹤岗市,东山纸板厂,130.3114,47.3388,2026-02-21T2100,45,,0.6,8,18,87,87,63,细颗粒物(PM2.5)
黑河市,交通局,127.4832,50.2524,2026-02-21T2100,20,33,0.4,7,8,82,87,33,
黑河市,环保局,127.5146,50.2339,2026-02-21T2100,33,49,0.3,8,9,78,83,49,
衡水市,电机北厂,115.6839,37.754,2026-02-21T2100,78,476,0.4,7,3,85,92,370,颗粒物(PM10)
衡水市,市监测站,115.6303,37.7318,2026-02-21T2100,69,376,0.3,5,5,80,87,238,颗粒物(PM10)
衡水市,市城管局,115.6684,37.7216,2026-02-21T2100,63,494,0.3,5,4,83,91,393,颗粒物(PM10)
衡水市,地表水厂,115.599,37.5491,2026-02-21T2100,60,515,0.3,2,6,86,93,415,颗粒物(PM10)
衡阳市,衡阳化工总厂,112.6209,26.9268,2026-02-21T2100,58,81,1.8,32,13,27,32,79,细颗粒物(PM2.5)
衡阳市,珠晖区环保局,112.621,26.8957,2026-02-21T2100,59,89,1.7,41,7,10,26,80,细颗粒物(PM2.5)
衡阳市,市委党校,112.628,26.8654,2026-02-21T2100,43,59,1.4,21,12,30,34,60,细颗粒物(PM2.5)
衡阳市,市监测站,112.6007,26.8977,2026-02-21T2100,106,142,2.6,40,11,0,25,139,细颗粒物(PM2.5)
衡阳市,真空机电公司,112.5658,26.9013,2026-02-21T2100,55,85,1.9,36,10,13,26,75,细颗粒物(PM2.5)
衡阳市,师范学院,112.6703,26.8817,2026-02-21T2100,42,62,1.4,20,5,13,38,59,细颗粒物(PM2.5)
红河哈尼族彝族自治州,州图书馆,103.3757,23.3679,2026-02-21T2100,27,28,0.4,5,5,78,89,39,
红河哈尼族彝族自治州,蒙自市朝阳路,103.401,23.3561,2026-02-21T2100,28,,0.5,6,10,68,83,40,
呼和浩特市,呼市一监,111.6506,40.7517,2026-02-21T2100,15,31,0.3,6,6,81,82,31,
呼和浩特市,如意水处理厂,111.7516,40.8369,2026-02-21T2100,9,52,0.2,4,9,76,86,51,颗粒物(PM10)
呼和浩特市,二十九中,111.727798,40.806187,2026-02-21T2100,11,65,0.4,2,11,70,80,58,颗粒物(PM10)
呼和浩特市,化肥厂生活区,111.717,40.7617,2026-02-21T2100,13,56,0.3,4,5,74,86,53,颗粒物(PM10)
呼和浩特市,海东办,111.6519,40.8389,2026-02-21T2100,3,29,0.3,3,2,76,86,29,
呼和浩特市,成吉思汗西街8号,111.591512,40.827312,2026-02-21T2100,7,29,0.4,2,4,71,83,29,
呼和浩特市,公园东路75号,111.6597,40.8077,2026-02-21T2100,7,36,0.4,6,6,70,78,36,
呼和浩特市,金海路35号,111.5427,40.7846,2026-02-21T2100,3,51,0.4,3,5,76,88,51,颗粒物(PM10)
呼伦贝尔市,国华电力东,119.7511,49.1576,2026-02-21T2100,14,70,0.4,13,6,75,74,60,颗粒物(PM10)
呼伦贝尔市,伊敏大街东7号,119.7569,49.2222,2026-02-21T2100,8,41,0.3,6,6,68,65,41,
湖州市,城西水厂,120.075,30.867,2026-02-21T2100,28,41,0.4,21,6,69,95,41,
湖州市,仁皇山新区,120.083,30.8929,2026-02-21T2100,20,31,0.5,15,4,71,91,31,
湖州市,吴兴区站,120.1846,30.8592,2026-02-21T2100,28,36,0.7,12,6,71,85,40,
湖州市,南浔区站,120.4146,30.8538,2026-02-21T2100,29,32,0.6,15,8,75,96,42,
葫芦岛市,龙港区,120.904878,40.721091,2026-02-21T2100,122,,1.0,30,9,47,80,160,细颗粒物(PM2.5)
葫芦岛市,化工街,120.8382,40.7521,2026-02-21T2100,190,,1.0,51,26,26,71,240,细颗粒物(PM2.5)
葫芦岛市,新区,120.8339,40.7078,2026-02-21T2100,162,,1.1,39,11,45,78,212,细颗粒物(PM2.5)
葫芦岛市,东城区,120.8697,40.7679,2026-02-21T2100,207,,1.2,52,15,30,78,257,细颗粒物(PM2.5)
怀化市,河西地税局,109.9297,27.5383,2026-02-21T2100,46,49,/,18,2,39,67,64,细颗粒物(PM2.5)
怀化市,市四医院,109.9783,27.5342,2026-02-21T2100,33,,0.7,13,9,48,62,48,
怀化市,监测楼,109.9971,27.5579,2026-02-21T2100,35,46,0.2,14,4,50,63,50,
淮安市,钵池山,119.0566,33.5991,2026-02-21T2100,39,70,0.5,24,12,66,93,60,颗粒物(PM10)
淮安市,北京南路,119.0083,33.578,2026-02-21T2100,47,80,0.6,38,11,38,82,65,"颗粒物(PM10),细颗粒物(PM2.5)"
淮安市,市监测站,118.9938,33.6083,2026-02-21T2100,42,70,0.8,17,14,71,92,60,颗粒物(PM10)
淮安市,楚州区监测站,119.135,33.5038,2026-02-21T2100,42,66,0.6,25,8,59,88,59,细颗粒物(PM2.5)
淮安市,新华书店,118.8757,33.2897,2026-02-21T2100,48,86,0.6,25,10,58,84,68,颗粒物(PM10)
淮安市,枚皋中路89号,119.119691,33.550006,2026-02-21T2100,42,52,0.8,13,12,72,87,59,细颗粒物(PM2.5)
淮安市,承德北路606号,119.028838,33.631911,2026-02-21T2100,39,78,2.1,28,22,58,86,64,颗粒物(PM10)
淮北市,监测站,116.8005,33.9749,2026-02-21T2100,42,65,0.7,21,8,80,107,59,细颗粒物(PM2.5)
淮北市,烈山区政府,116.8094,33.9008,2026-02-21T2100,48,90,0.6,23,10,64,98,70,颗粒物(PM10)
淮北市,市博物馆,116.7926,33.9534,2026-02-21T2100,46,78,0.9,25,8,67,99,64,"颗粒物(PM10),细颗粒物(PM2.5)"
淮北市,杜集区第一实验学校,116.8322,33.9884,2026-02-21T2100,48,86,0.9,22,10,65,104,68,颗粒物(PM10)
淮南市,潘集区政府,116.8304,32.7726,2026-02-21T2100,37,69,0.5,19,7,66,93,60,颗粒物(PM10)
淮南市,谢家集区政府,116.8569,32.5949,2026-02-21T2100,30,56,0.6,15,9,69,92,53,颗粒物(PM10)
淮南市,八公山区政府,116.8279,32.6333,2026-02-21T2100,36,56,0.5,13,7,74,96,53,颗粒物(PM10)
淮南市,经济技术开发区消防队,117.0561,32.6536,2026-02-21T2100,29,63,0.6,22,8,72,93,57,颗粒物(PM10)
淮南市,山南新区,117.011,32.5891,2026-02-21T2100,30,51,0.5,16,8,78,97,51,颗粒物(PM10)
淮南市,国庆中路369号,117.003137,32.644456,2026-02-21T2100,31,63,0.6,16,12,68,85,57,颗粒物(PM10)
黄冈市,职工中心,114.9021,30.474,2026-02-21T2100,38,,0.7,10,5,72,93,54,细颗粒物(PM2.5)
黄冈市,红卫路,114.8858,30.4519,2026-02-21T2100,31,37,0.6,15,4,75,95,45,
黄冈市,市林业局,114.9134,30.4446,2026-02-21T2100,34,45,0.5,15,5,66,82,49,
黄南藏族自治州,同仁县隆务镇,102.02,35.5101,2026-02-21T2100,29,70,0.3,3,9,81,90,60,颗粒物(PM10)
黄山市,延安路89号,118.2905,29.6965,2026-02-21T2100,22,29,0.5,8,5,52,84,32,
黄山市,黄山区政府5号楼,118.1369,30.2755,2026-02-21T2100,38,52,0.6,6,3,45,89,54,细颗粒物(PM2.5)
黄山市,滨江东路7-2号,118.335445,29.720283,2026-02-21T2100,27,55,/,20,/,37,88,53,颗粒物(PM10)
黄石市,沈家营,115.0547,30.2332,2026-02-21T2100,18,44,1.7,8,10,77,95,44,
黄石市,铁山,114.899,30.211,2026-02-21T2100,34,44,0.7,24,11,59,83,49,
黄石市,团城山,115.0259,30.2108,2026-02-21T2100,31,54,1.1,18,8,58,66,52,颗粒物(PM10)
黄石市,笔架山北路,115.0174,30.1591,2026-02-21T2100,32,49,1.1,8,14,64,79,49,
黄石市,磁湖东路29号,115.078022,30.21118,2026-02-21T2100,43,49,1.6,37,9,38,72,60,细颗粒物(PM2.5)
惠州市,河南岸金山湖子站,114.4181,23.0528,2026-02-21T2100,34,47,0.7,6,6,108,112,49,
惠州市,下埔横江三路子站,114.4055,23.0824,2026-02-21T2100,33,49,0.7,9,7,115,120,49,
惠州市,惠阳区承修路船湖子站,114.4645,22.7832,2026-02-21T2100,32,47,0.6,9,6,110,118,47,
惠州市,大亚湾管委会子站,114.5316,22.7423,2026-02-21T2100,30,41,0.6,9,7,108,117,43,
惠州市,惠阳秋长,114.4334,22.8134,2026-02-21T2100,30,46,/,8,/,126,132,46,
惠州市,大亚湾霞涌,114.6521,22.7755,2026-02-21T2100,27,52,/,8,/,124,128,51,颗粒物(PM10)
惠州市,文华一路1号,114.4089,23.1147,2026-02-21T2100,34,47,/,13,/,106,120,49,
鸡西市,环保局,130.9618,45.2926,2026-02-21T2100,51,70,0.6,16,10,60,75,70,细颗粒物(PM2.5)
鸡西市,第一中学,130.9294,45.2959,2026-02-21T2100,63,81,0.5,14,9,63,73,85,细颗粒物(PM2.5)
鸡西市,欧美日汽修厂,131.0069,45.2988,2026-02-21T2100,41,82,0.6,14,11,57,79,66,颗粒物(PM10)
吉安市,红声器材厂,114.9753,27.0803,2026-02-21T2100,54,72,0.9,36,8,26,50,74,细颗粒物(PM2.5)
吉安市,市环境监测站,114.9903,27.1313,2026-02-21T2100,34,49,/,21,7,38,54,49,
吉安市,青原区法院,115.009527,27.096792,2026-02-21T2100,51,66,0.9,39,7,10,54,70,细颗粒物(PM2.5)
吉林市,哈达湾,126.54,43.8622,2026-02-21T2100,47,74,0.9,10,11,100,115,65,细颗粒物(PM2.5)
吉林市,东局子,126.5843,43.8358,2026-02-21T2100,50,73,0.6,9,10,95,109,69,细颗粒物(PM2.5)
吉林市,电力学院,126.5051,43.8243,2026-02-21T2100,49,70,0.6,9,10,98,114,68,细颗粒物(PM2.5)
吉林市,江北,126.6133,43.8971,2026-02-21T2100,52,92,0.4,11,13,93,113,72,细颗粒物(PM2.5)
吉林市,江南公园,126.5549,43.8304,2026-02-21T2100,51,71,0.7,7,12,90,103,70,细颗粒物(PM2.5)
吉林市,九站,126.4737,43.953,2026-02-21T2100,44,68,0.6,8,10,97,110,62,细颗粒物(PM2.5)
济南市,科干所,116.9866,36.6118,2026-02-21T2100,46,107,0.7,11,11,111,106,79,颗粒物(PM10)
济南市,农科所,116.9379,36.6652,2026-02-21T2100,63,105,0.7,16,10,90,95,85,细颗粒物(PM2.5)
济南市,开发区,117.1265,36.6736,2026-02-21T2100,54,120,0.6,15,7,114,110,85,颗粒物(PM10)
济南市,省种子仓库,117.0616,36.6865,2026-02-21T2100,60,141,1.0,22,11,92,102,96,颗粒物(PM10)
济南市,机床二厂,116.9495185,36.644937,2026-02-21T2100,56,115,0.6,16,15,97,101,83,颗粒物(PM10)
济南市,市监测站,117.0496,36.6629,2026-02-21T2100,69,137,0.6,18,7,107,108,94,颗粒物(PM10)
济南市,长清党校,116.7674,36.5458,2026-02-21T2100,62,125,0.7,,,97,104,,
济南市,东山小学,117.5323,36.6865,2026-02-21T2100,45,142,0.5,16,6,104,102,96,颗粒物(PM10)
济南市,泰兴公司,117.7181,36.205,2026-02-21T2100,79,156,1.0,42,18,46,106,105,细颗粒物(PM2.5)
济南市,莱芜战役纪念馆,117.6861,36.2172,2026-02-21T2100,58,100,0.8,18,13,87,74,79,细颗粒物(PM2.5)
济南市,济阳区政府,117.1673,36.9782,2026-02-21T2100,61,183,0.4,16,14,84,89,117,颗粒物(PM10)
济南市,锦屏中学,117.1168,36.6299,2026-02-21T2100,56,120,0.6,12,9,107,103,85,颗粒物(PM10)
济南市,山财大街5号,117.7107,36.2385,2026-02-21T2100,59,97,1.0,24,17,93,109,80,细颗粒物(PM2.5)
济南市,无影山路12号,116.9744,36.6889,2026-02-21T2100,56,110,0.7,16,11,93,96,80,颗粒物(PM10)
济宁市,火炬城,116.6229,35.4288,2026-02-21T2100,51,98,0.7,12,9,88,100,74,颗粒物(PM10)
济宁市,北湖一中,116.5808,35.3703,2026-02-21T2100,51,94,0.8,13,20,83,102,72,颗粒物(PM10)
济宁市,服务中心,116.8251,35.5592,2026-02-21T2100,51,82,0.5,18,8,71,93,70,细颗粒物(PM2.5)
济宁市,市第七中学,116.5907,35.4054,2026-02-21T2100,54,100,0.7,14,16,95,112,75,颗粒物(PM10)
济宁市,任和路,116.6075,35.4566,2026-02-21T2100,52,99,0.9,13,12,98,112,75,颗粒物(PM10)
济宁市,文体南路1号,116.5648,35.3921,2026-02-21T2100,71,130,0.7,19,17,73,110,95,细颗粒物(PM2.5)
佳木斯市,佳纺,130.2749,46.8028,2026-02-21T2100,37,58,0.5,18,8,61,75,54,颗粒物(PM10)
佳木斯市,环保局,130.3258,46.7975,2026-02-21T2100,56,60,0.5,25,13,59,66,77,细颗粒物(PM2.5)
佳木斯市,顺和街,130.363,46.806,2026-02-21T2100,38,45,0.4,10,9,77,75,54,细颗粒物(PM2.5)
佳木斯市,长安路196号,130.3952,46.8268,2026-02-21T2100,30,34,0.4,6,5,70,78,43,
嘉兴市,清河小学,120.7439,30.778,2026-02-21T2100,42,65,0.5,27,7,62,94,59,细颗粒物(PM2.5)
嘉兴市,嘉兴学院,120.7261,30.7477,2026-02-21T2100,25,39,0.7,22,8,76,97,39,
嘉兴市,南湖区残联,120.7845,30.7524,2026-02-21T2100,30,49,0.6,23,6,80,97,49,
嘉兴市,秀洲住建,120.6915,30.7741,2026-02-21T2100,18,36,0.7,24,10,83,101,36,
嘉峪关市,气象局,98.291,39.7705,2026-02-21T2100,50,324,0.4,6,4,83,86,187,颗粒物(PM10)
嘉峪关市,酒钢宾馆,98.2672,39.7978,2026-02-21T2100,56,327,0.4,3,9,84,91,189,颗粒物(PM10)
嘉峪关市,雄关区,98.2644,39.7723,2026-02-21T2100,50,219,0.5,9,8,83,86,135,颗粒物(PM10)
江门市,北街,113.1063,22.6058,2026-02-21T2100,24,29,/,6,/,93,106,35,
江门市,西区,113.073,22.5835,2026-02-21T2100,19,42,/,9,/,96,106,42,
江门市,圭峰西,113.0218,22.531,2026-02-21T2100,21,,/,5,/,94,102,30,
江门市,东湖,113.0826,22.5947,2026-02-21T2100,26,35,0.5,8,7,95,106,38,
江门市,江海富民,113.1077,22.5647,2026-02-21T2100,26,47,0.4,13,/,99,112,47,
江门市,新会银湖,113.0496,22.4669,2026-02-21T2100,19,28,0.4,8,7,96,106,30,
焦作市,马村街道办,113.3137,35.2643,2026-02-21T2100,42,212,0.2,5,6,84,90,131,颗粒物(PM10)
焦作市,焦作技师学院,113.2464,35.2374,2026-02-21T2100,52,209,0.3,10,7,77,85,130,颗粒物(PM10)
焦作市,中站许衡医院,113.1656,35.2536,2026-02-21T2100,,,0.5,,,89,98,,
焦作市,原李万街道办,113.2456,35.18,2026-02-21T2100,45,240,0.4,5,11,88,92,145,颗粒物(PM10)
焦作市,新安路1731号,113.234,35.219,2026-02-21T2100,41,200,0.6,8,8,86,94,125,颗粒物(PM10)
焦作市,人民路3066号,113.2722,35.2121,2026-02-21T2100,52,215,0.5,7,6,94,100,133,颗粒物(PM10)
揭阳市,新兴,116.3701,23.5345,2026-02-21T2100,34,45,0.9,15,8,85,105,49,
揭阳市,西马,116.3261,23.5442,2026-02-21T2100,33,54,0.7,9,6,83,109,52,颗粒物(PM10)
揭阳市,东兴,116.361,23.5627,2026-02-21T2100,35,36,/,13,5,84,109,50,
揭阳市,渔湖,116.4151,23.5295,2026-02-21T2100,34,,/,12,5,95,120,49,
揭阳市,曲溪,116.4028,23.5699,2026-02-21T2100,35,50,1.1,15,4,94,124,50,
金昌市,天庆家园,102.1691,38.5166,2026-02-21T2100,103,512,0.5,4,5,100,97,412,颗粒物(PM10)
金昌市,金川区人防中心,102.1648,38.5369,2026-02-21T2100,115,434,0.3,2,8,95,93,318,颗粒物(PM10)
金昌市,长春路96号,102.193042,38.531887,2026-02-21T2100,100,538,0.4,5,6,90,87,438,颗粒物(PM10)
金华市,十五中,119.6478,29.0773,2026-02-21T2100,40,56,0.9,27,3,39,100,57,细颗粒物(PM2.5)
金华市,监测站,119.6859,29.1032,2026-02-21T2100,15,25,0.5,8,2,54,78,25,
金华市,气象局,119.656,29.1132,2026-02-21T2100,35,52,0.8,27,2,35,80,51,颗粒物(PM10)
锦州市,南山,121.1114,41.0879,2026-02-21T2100,88,91,1.1,30,11,56,91,117,细颗粒物(PM2.5)
锦州市,开发区,121.060361,40.842794,2026-02-21T2100,86,114,1.1,32,14,63,84,114,细颗粒物(PM2.5)
锦州市,百股街道,121.1836,41.1118,2026-02-21T2100,118,157,1.4,37,10,53,90,155,细颗粒物(PM2.5)
锦州市,天安街道,121.1176,41.1224,2026-02-21T2100,115,144,1.6,39,12,44,87,150,细颗粒物(PM2.5)
锦州市,北湖公园,121.1303,41.1385,2026-02-21T2100,106,133,1.1,29,10,55,91,139,细颗粒物(PM2.5)
晋城市,自来水公司,112.8496,35.5051,2026-02-21T2100,133,301,0.6,25,13,46,82,176,"颗粒物(PM10),细颗粒物(PM2.5)"
晋城市,市环保局,112.8509,35.4886,2026-02-21T2100,121,226,0.5,34,11,47,94,159,细颗粒物(PM2.5)
晋城市,泽州一中,112.8258,35.4804,2026-02-21T2100,52,216,0.5,6,5,83,95,133,颗粒物(PM10)
晋城市,前书院路,112.8246,35.5152,2026-02-21T2100,107,279,0.3,14,,49,83,165,颗粒物(PM10)
晋城市,祥云街666号,112.8864,35.4773,2026-02-21T2100,102,255,0.3,15,10,71,94,153,颗粒物(PM10)
晋中市,榆次区政府,112.6992,37.6984,2026-02-21T2100,70,427,0.2,6,8,87,90,309,颗粒物(PM10)
晋中市,榆次三中,112.7195,37.683,2026-02-21T2100,50,571,0.1,2,8,92,94,471,颗粒物(PM10)
晋中市,广安街188号,112.7375,37.7215,2026-02-21T2100,59,392,0.0,4,9,93,96,260,颗粒物(PM10)
晋中市,迎宾街26号,112.7478,37.6954,2026-02-21T2100,69,442,0.3,7,10,86,89,328,颗粒物(PM10)
荆门市,竹园小学,112.2012,31.048,2026-02-21T2100,60,82,2.4,41,1,40,88,82,细颗粒物(PM2.5)
荆门市,掇刀,112.1968,30.9892,2026-02-21T2100,73,88,1.2,36,9,41,91,98,细颗粒物(PM2.5)
荆门市,西山林语,112.1849,31.0361,2026-02-21T2100,39,63,0.9,17,4,56,88,57,颗粒物(PM10)
荆门市,龙泉中学南校,112.1631,31.0134,2026-02-21T2100,,,,,,,,,
荆门市,新台西路6号,112.2213,31.0654,2026-02-21T2100,76,102,0.9,31,13,53,92,102,细颗粒物(PM2.5)
荆州市,市图书馆,112.2493,30.3198,2026-02-21T2100,38,56,1.1,22,8,63,88,54,细颗粒物(PM2.5)
荆州市,市委党校,112.2009,30.3543,2026-02-21T2100,37,55,0.9,27,8,54,74,53,"颗粒物(PM10),细颗粒物(PM2.5)"
荆州市,管委会,112.2749,30.3124,2026-02-21T2100,40,,0.9,25,12,48,80,57,细颗粒物(PM2.5)
荆州市,学苑路85号,112.1722,30.3366,2026-02-21T2100,39,52,0.3,14,2,72,88,55,细颗粒物(PM2.5)
景德镇市,老干部活动中心,117.2114,29.2931,2026-02-21T2100,74,90,1.2,28,5,20,79,99,细颗粒物(PM2.5)
景德镇市,兽医站,117.1893,29.2789,2026-02-21T2100,75,75,1.0,28,4,30,81,100,细颗粒物(PM2.5)
景德镇市,陶研所,117.246,29.2958,2026-02-21T2100,40,48,0.8,19,4,32,82,57,细颗粒物(PM2.5)
景德镇市,青少年活动中心,117.154766,29.256967,2026-02-21T2100,67,70,/,33,6,20,80,90,细颗粒物(PM2.5)
九江市,十里,115.9873,29.6816,2026-02-21T2100,49,61,1.3,36,8,22,70,68,细颗粒物(PM2.5)
九江市,茅山头,115.9583,29.7047,2026-02-21T2100,25,49,0.7,26,4,54,79,49,
九江市,西园,115.9877,29.7295,2026-02-21T2100,44,54,1.0,53,4,41,73,62,细颗粒物(PM2.5)
九江市,综合工业园,115.9112,29.6038,2026-02-21T2100,16,30,0.6,21,6,69,82,30,
九江市,外国语学校,116.0254,29.6995,2026-02-21T2100,36,36,0.5,37,7,34,64,52,细颗粒物(PM2.5)
九江市,莲花大道8号,116.010205,29.659402,2026-02-21T2100,16,40,0.6,16,4,43,64,40,
酒泉市,玉门东路5号,98.495752,39.733935,2026-02-21T2100,84,478,0.5,5,10,75,81,373,颗粒物(PM10)
酒泉市,北大街108号,98.5099,39.7506,2026-02-21T2100,100,464,0.3,5,9,72,79,355,颗粒物(PM10)
喀什地区,巡警大队,76.0071,39.466,2026-02-21T2100,11,815,0.3,7,3,85,104,500,颗粒物(PM10)
喀什地区,吾办,75.9756,39.4693,2026-02-21T2100,25,497,0.4,7,8,91,102,397,颗粒物(PM10)
喀什地区,老干局,75.9485,39.4688,2026-02-21T2100,30,324,0.2,3,2,93,105,187,颗粒物(PM10)
开封市,肿瘤医院,114.3389,34.778,2026-02-21T2100,40,197,0.4,15,9,91,104,124,颗粒物(PM10)
开封市,世纪星幼儿园,114.2884,34.7966,2026-02-21T2100,37,189,0.5,16,8,84,96,120,颗粒物(PM10)
开封市,龙亭公园,114.3434,34.8101,2026-02-21T2100,35,204,0.4,19,9,85,99,127,颗粒物(PM10)
开封市,汴京公园,114.3645,34.7955,2026-02-21T2100,24,194,0.1,18,5,83,97,122,颗粒物(PM10)
开封市,技师学院,114.2485,34.8306,2026-02-21T2100,48,156,0.3,13,7,64,77,103,颗粒物(PM10)
开封市,祥符区生态环境局,114.4518,34.7503,2026-02-21T2100,33,160,0.4,11,5,83,102,105,颗粒物(PM10)
克拉玛依市,长征新村,84.886,45.6029,2026-02-21T2100,3,15,0.4,3,5,77,84,25,
克拉玛依市,南林小区,84.8894,45.5827,2026-02-21T2100,7,30,0.5,1,5,84,88,30,
克拉玛依市,独山子区,84.896,44.3328,2026-02-21T2100,37,68,0.7,9,3,66,85,59,颗粒物(PM10)
克拉玛依市,乌尔禾区商贸楼,85.6888,46.0909,2026-02-21T2100,13,29,0.6,11,10,68,78,29,
克拉玛依市,白碱滩区新站,85.1045,45.6895,2026-02-21T2100,3,30,0.2,12,9,74,85,30,
克孜勒苏柯尔克孜自治州,市人民政府,76.1457,39.7143,2026-02-21T2100,109,777,0.1,2,3,100,117,500,颗粒物(PM10)
克孜勒苏柯尔克孜自治州,克州文化中心,76.1654,39.7157,2026-02-21T2100,55,562,0.2,2,4,95,110,462,颗粒物(PM10)
昆明市,呈贡新区,102.8203,24.889,2026-02-21T2100,27,44,0.4,7,6,,108,,
昆明市,龙泉镇,102.7253,25.0904,2026-02-21T2100,18,38,0.3,12,4,81,100,38,
昆明市,东风东路,102.7267,25.0378,2026-02-21T2100,20,25,0.5,14,10,85,103,29,
昆明市,金鼎山,102.6744,25.0671,2026-02-21T2100,27,40,0.5,12,8,88,104,40,
昆明市,碧鸡广场,102.6643,25.0401,2026-02-21T2100,25,27,0.6,15,12,86,105,36,
昆明市,官渡区博物馆,102.7491,25.012,2026-02-21T2100,22,24,0.2,11,4,88,101,32,
昆明市,青年创业园,102.8016,24.8336,2026-02-21T2100,25,32,0.6,4,7,90,100,36,
昆明市,昆明学院,102.8,24.9787,2026-02-21T2100,19,22,0.3,4,4,95,106,30,
昆明市,晋宁区生态环境分局,102.5969,24.6738,2026-02-21T2100,22,28,0.3,4,2,92,98,32,
昆明市,云天化总部,102.6673,24.9861,2026-02-21T2100,28,,0.2,,8,94,104,,
拉萨市,八廓街,91.132,29.6515,2026-02-21T2100,7,16,0.6,16,9,121,133,38,
拉萨市,市环保局,91.1221,29.6748,2026-02-21T2100,12,17,0.7,20,8,104,124,33,
拉萨市,区监测站,91.0874,29.6476,2026-02-21T2100,6,10,0.6,26,5,102,125,32,
拉萨市,西藏大学,91.1774,29.6541,2026-02-21T2100,14,18,0.9,19,7,119,129,38,
拉萨市,区辐射站,90.9798,29.6586,2026-02-21T2100,19,23,0.4,10,5,117,122,37,
拉萨市,拉萨火车站,91.0831,29.6292,2026-02-21T2100,8,12,0.4,13,4,113,125,36,
来宾市,来宾技工学校,109.2203,23.7252,2026-02-21T2100,62,85,0.8,15,8,50,72,84,细颗粒物(PM2.5)
来宾市,兴宾区政府,109.1781,23.7293,2026-02-21T2100,55,62,0.9,14,6,58,84,75,细颗粒物(PM2.5)
来宾市,中南小学,109.2312,23.7428,2026-02-21T2100,64,79,0.9,18,5,46,66,87,细颗粒物(PM2.5)
兰州市,铁路设计院,103.8309,36.0467,2026-02-21T2100,,,,,,,,,
兰州市,百合公园,103.7439,36.0841,2026-02-21T2100,149,545,0.4,6,6,72,81,445,颗粒物(PM10)
兰州市,和平,103.9613,35.9985,2026-02-21T2100,127,600,0.4,4,8,81,88,500,颗粒物(PM10)
兰州市,庄浪东路808号,103.629272,36.093822,2026-02-21T2100,171,601,0.4,8,10,74,85,500,颗粒物(PM10)
兰州市,安宁西路88号,103.7251,36.104344,2026-02-21T2100,154,615,0.2,2,5,84,91,500,颗粒物(PM10)
兰州市,北滨河东路1号,103.846982,36.067567,2026-02-21T2100,157,593,0.4,10,7,80,88,493,颗粒物(PM10)
廊坊市,药材公司,116.6712,39.5109,2026-02-21T2100,44,426,0.3,3,3,80,109,308,颗粒物(PM10)
廊坊市,开发区,116.7215,39.5592,2026-02-21T2100,42,406,0.2,2,3,85,118,280,颗粒物(PM10)
廊坊市,北华航天学院,116.7246,39.5273,2026-02-21T2100,37,671,0.2,2,3,82,114,500,颗粒物(PM10)
廊坊市,河北工业大学,116.7022,39.5454,2026-02-21T2100,44,660,0.2,2,3,80,112,500,颗粒物(PM10)
乐山市,牛耳桥,103.7629,29.5844,2026-02-21T2100,59,83,1.2,68,7,17,103,80,细颗粒物(PM2.5)
乐山市,市第三水厂,103.7501,29.6002,2026-02-21T2100,56,74,1.3,58,5,34,107,77,细颗粒物(PM2.5)
乐山市,市监测站,103.7571,29.5664,2026-02-21T2100,46,62,0.8,22,7,90,106,64,细颗粒物(PM2.5)
乐山市,理工大学,103.7313,29.563,2026-02-21T2100,46,60,0.8,8,6,106,111,64,细颗粒物(PM2.5)
丽江市,丽江古城,100.2497,26.8802,2026-02-21T2100,36,41,0.7,15,7,110,105,52,细颗粒物(PM2.5)
丽江市,市中心,100.2203,26.8906,2026-02-21T2100,31,33,0.4,22,6,111,112,45,
丽水市,监测站大楼,119.9141,28.4513,2026-02-21T2100,32,46,0.9,34,5,13,71,46,
丽水市,莲都小学,119.93,28.4589,2026-02-21T2100,21,33,/,19,/,35,76,33,
丽水市,余庄前,119.8794,28.4232,2026-02-21T2100,15,22,0.5,9,4,26,73,22,
连云港市,市环境监测站,119.1759,34.5885,2026-02-21T2100,41,56,0.4,21,9,74,95,58,细颗粒物(PM2.5)
连云港市,德源药业,119.3577,34.6971,2026-02-21T2100,36,51,0.7,11,6,82,98,52,细颗粒物(PM2.5)
连云港市,新城一中,119.178,34.8442,2026-02-21T2100,61,74,0.7,25,14,81,108,83,细颗粒物(PM2.5)
连云港市,胡沟管理处,119.3607,34.7519,2026-02-21T2100,27,44,0.9,15,13,99,103,44,
连云港市,矿山设计院,119.1478,34.5913,2026-02-21T2100,29,46,0.5,18,7,89,95,46,
连云港市,工贸学校,119.2414,34.6539,2026-02-21T2100,39,59,0.6,19,12,86,99,55,"颗粒物(PM10),细颗粒物(PM2.5)"
连云港市,连云街道,119.4171,34.734,2026-02-21T2100,30,61,0.7,12,7,107,106,56,颗粒物(PM10)
凉山彝族自治州,西昌市政府,102.2629,27.8981,2026-02-21T2100,21,28,0.4,6,8,87,112,30,
凉山彝族自治州,凉山州政府,102.2686,27.885,2026-02-21T2100,26,37,0.5,15,11,64,99,38,
凉山彝族自治州,凯乐南路30号,102.2342,27.8859,2026-02-21T2100,28,45,0.7,21,14,68,104,45,
辽阳市,宏伟区,123.1978,41.2036,2026-02-21T2100,44,64,0.6,7,7,99,99,62,细颗粒物(PM2.5)
辽阳市,新华园,123.1684,41.2497,2026-02-21T2100,42,54,0.7,10,9,96,98,59,细颗粒物(PM2.5)
辽阳市,滨河路,123.2355,41.2663,2026-02-21T2100,40,65,0.8,7,8,90,94,58,颗粒物(PM10)
辽阳市,铁西路150号,123.153,41.2874,2026-02-21T2100,42,60,0.8,9,10,79,84,59,细颗粒物(PM2.5)
辽源市,环保局,125.1359,42.8845,2026-02-21T2100,47,66,0.7,12,8,86,105,65,细颗粒物(PM2.5)
辽源市,安宁大街333号,125.0998,42.9134,2026-02-21T2100,54,66,0.6,10,7,86,102,74,细颗粒物(PM2.5)
聊城市,区政府,115.9789,36.4372,2026-02-21T2100,34,311,0.7,10,16,73,92,181,颗粒物(PM10)
聊城市,监控中心,115.9772,36.4986,2026-02-21T2100,41,381,0.5,11,12,83,102,245,颗粒物(PM10)
聊城市,九州社区,116.0443,36.436,2026-02-21T2100,39,332,0.6,6,5,85,106,191,颗粒物(PM10)
聊城市,星美广场,116.0564,36.4609,2026-02-21T2100,53,283,0.6,7,6,72,96,167,颗粒物(PM10)
聊城市,利民路,116.0091,36.4495,2026-02-21T2100,41,295,0.6,13,12,78,102,173,颗粒物(PM10)
林芝市,林芝监测站,94.3683,29.6373,2026-02-21T2100,16,,0.3,1,5,121,112,38,
林芝市,林芝人民医院,94.3616,29.6634,2026-02-21T2100,13,23,0.1,1,6,121,111,38,
临沧市,市环保局,100.0779,23.8981,2026-02-21T2100,85,,0.9,14,8,73,97,113,细颗粒物(PM2.5)
临沧市,市气象局,100.0894,23.882,2026-02-21T2100,35,41,0.5,7,9,86,95,50,
临汾市,临钢医院,111.5552,36.0791,2026-02-21T2100,88,366,0.6,19,8,75,93,223,颗粒物(PM10)
临汾市,技工学校,111.4984,36.0734,2026-02-21T2100,113,344,0.2,18,8,72,87,197,颗粒物(PM10)
临汾市,市委,111.5017,36.0857,2026-02-21T2100,69,329,0.4,20,6,71,89,190,颗粒物(PM10)
临汾市,唐尧大酒店,111.5048,36.1015,2026-02-21T2100,61,309,0.4,10,5,85,92,180,颗粒物(PM10)
临汾市,启星学校,111.4879,36.053,2026-02-21T2100,102,330,0.7,26,9,61,86,190,颗粒物(PM10)
临夏回族自治州,滨河东路1号,103.2464,35.6123,2026-02-21T2100,125,274,0.5,11,13,63,88,165,细颗粒物(PM2.5)
临夏回族自治州,新华街21号,103.207136,35.599807,2026-02-21T2100,96,489,0.4,6,12,61,78,387,颗粒物(PM10)
临沂市,沂河小区,118.3429,35.0532,2026-02-21T2100,52,100,0.7,28,19,70,98,75,颗粒物(PM10)
临沂市,鲁南制药厂,118.2962,35.0568,2026-02-21T2100,64,100,0.7,26,26,72,99,87,细颗粒物(PM2.5)
临沂市,新光毛纺厂,118.2793,34.9976,2026-02-21T2100,57,97,0.9,26,21,77,102,78,细颗粒物(PM2.5)
临沂市,河东保险公司,118.3955,35.0889,2026-02-21T2100,50,88,0.8,30,18,85,108,69,"颗粒物(PM10),细颗粒物(PM2.5)"
临沂市,十里堡居委,118.3563,35.0215,2026-02-21T2100,48,83,0.9,29,25,74,102,67,"颗粒物(PM10),细颗粒物(PM2.5)"
临沂市,南坊新区,118.359,35.1067,2026-02-21T2100,44,83,0.8,25,15,97,112,67,颗粒物(PM10)
临沂市,皇山花园小区,118.3915,35.0297,2026-02-21T2100,46,85,0.8,23,21,86,109,68,颗粒物(PM10)
柳州市,柳东小学,109.4854,24.3898,2026-02-21T2100,139,,1.2,23,9,40,52,185,细颗粒物(PM2.5)
柳州市,环保监测站,109.4109,24.3304,2026-02-21T2100,99,129,1.6,47,5,16,50,130,细颗粒物(PM2.5)
柳州市,河西水厂,109.3886,24.3408,2026-02-21T2100,118,144,1.3,30,8,22,57,155,细颗粒物(PM2.5)
柳州市,市四中,109.4263,24.2951,2026-02-21T2100,120,138,1.9,53,10,8,50,158,细颗粒物(PM2.5)
柳州市,市九中,109.396,24.3658,2026-02-21T2100,109,140,1.2,36,8,17,54,143,细颗粒物(PM2.5)
柳州市,古亭山,109.4912,24.3164,2026-02-21T2100,132,,1.3,34,8,19,52,175,细颗粒物(PM2.5)
柳州市,市二中,109.5422,24.3994,2026-02-21T2100,150,150,1.1,28,7,30,50,200,细颗粒物(PM2.5)
六安市,监测大楼,116.5078,31.7369,2026-02-21T2100,32,45,0.7,15,4,62,86,46,
六安市,皖西学院,116.4738,31.7642,2026-02-21T2100,33,47,0.5,16,6,65,94,48,
六安市,朝阳厂,116.4997,31.7904,2026-02-21T2100,38,43,0.7,23,6,60,86,54,细颗粒物(PM2.5)
六安市,开发区,116.5566,31.7885,2026-02-21T2100,40,47,0.7,9,7,70,96,57,细颗粒物(PM2.5)
六盘水市,黄土坡,104.8293,26.592,2026-02-21T2100,33,38,0.6,15,12,89,100,48,
六盘水市,民中,104.8481,26.5898,2026-02-21T2100,33,45,0.8,22,10,73,97,48,
六盘水市,双水,104.9541,26.5506,2026-02-21T2100,21,41,0.6,12,9,87,99,41,
六盘水市,钟山大道中段564号,104.8899,26.5685,2026-02-21T2100,25,40,0.5,9,8,90,96,40,
龙岩市,龙岩市监测站,117.022,25.1031,2026-02-21T2100,42,52,0.7,9,10,84,96,59,细颗粒物(PM2.5)
龙岩市,闽西职业技术学院,117.0257,25.0662,2026-02-21T2100,26,27,0.6,5,5,86,96,38,
龙岩市,龙岩学院,117.0195,25.0306,2026-02-21T2100,26,,/,6,5,69,98,,
陇南市,滨江中学,104.9344,33.3827,2026-02-21T2100,48,109,1.3,34,8,47,84,80,颗粒物(PM10)
陇南市,市总工会,104.9551,33.3709,2026-02-21T2100,45,104,0.7,8,3,73,86,77,颗粒物(PM10)
娄底市,市监测站,111.9984,27.7346,2026-02-21T2100,32,52,0.6,16,4,56,69,51,颗粒物(PM10)
娄底市,市政府,111.9888,27.7035,2026-02-21T2100,31,41,0.3,14,3,55,68,45,
娄底市,涟钢职大,111.9812,27.7591,2026-02-21T2100,38,52,0.8,15,2,52,73,54,细颗粒物(PM2.5)
娄底市,娄底体校,112.0303,27.7457,2026-02-21T2100,39,57,1.1,10,2,33,60,55,细颗粒物(PM2.5)
泸州市,小市上码头,105.4427,28.9063,2026-02-21T2100,45,62,0.5,11,8,113,128,63,细颗粒物(PM2.5)
泸州市,兰田宪桥,105.4241,28.8573,2026-02-21T2100,58,76,0.7,31,13,62,115,79,细颗粒物(PM2.5)
泸州市,市环监站,105.4378,28.8833,2026-02-21T2100,45,59,0.5,12,11,108,123,63,细颗粒物(PM2.5)
泸州市,纳溪中医医院,105.3689,28.7783,2026-02-21T2100,68,103,1.1,33,8,48,118,92,细颗粒物(PM2.5)
吕梁市,环保局,111.1447,37.5212,2026-02-21T2100,82,416,0.1,2,1,85,88,295,颗粒物(PM10)
吕梁市,自来水公司,111.1285,37.5338,2026-02-21T2100,67,445,0.2,2,3,92,96,332,颗粒物(PM10)
吕梁市,马茂庄小学,111.1225,37.5093,2026-02-21T2100,99,463,0.1,4,2,84,87,354,颗粒物(PM10)
洛阳市,市委党校,112.3934,34.6517,2026-02-21T2100,95,245,0.9,32,12,58,93,148,颗粒物(PM10)
洛阳市,河南林校,112.494,34.6883,2026-02-21T2100,76,254,0.6,28,14,74,102,152,颗粒物(PM10)
洛阳市,开发区管委会,112.3843,34.623,2026-02-21T2100,82,291,0.6,19,16,79,96,171,颗粒物(PM10)
洛阳市,市委新办公区,112.4263,34.6249,2026-02-21T2100,81,258,0.6,15,13,85,102,154,颗粒物(PM10)
洛阳市,伊滨,112.6005,34.6323,2026-02-21T2100,80,263,0.8,15,11,83,100,157,颗粒物(PM10)
洛阳市,中移产业园,112.495,34.6338,2026-02-21T2100,87,257,0.8,25,14,77,98,154,颗粒物(PM10)
洛阳市,吉利监测站,112.5736,34.8993,2026-02-21T2100,81,256,0.7,16,13,86,99,153,颗粒物(PM10)
洛阳市,河科大西苑校区,112.3678,34.6623,2026-02-21T2100,108,278,0.8,29,14,69,102,164,颗粒物(PM10)
洛阳市,英才小学,112.4387,34.678,2026-02-21T2100,90,276,0.8,35,16,71,102,163,颗粒物(PM10)
洛阳市,春都路1号院,112.460027,34.694929,2026-02-21T2100,98,290,0.8,31,12,69,94,170,颗粒物(PM10)
漯河市,三五一五工厂,114.051,33.5721,2026-02-21T2100,62,85,1.0,23,7,60,93,84,细颗粒物(PM2.5)
漯河市,漯河大学,114.0055,33.5698,2026-02-21T2100,75,83,0.8,23,7,62,92,100,细颗粒物(PM2.5)
漯河市,市水利局,114.0134,33.5826,2026-02-21T2100,70,92,0.8,19,10,70,96,94,细颗粒物(PM2.5)
漯河市,市广电局,114.0261,33.5697,2026-02-21T2100,56,78,0.7,18,8,62,86,77,细颗粒物(PM2.5)
漯河市,市图书馆,113.9691,33.568,2026-02-21T2100,64,86,0.7,14,8,68,86,87,细颗粒物(PM2.5)
漯河市,韶山路11号,114.089259,33.588274,2026-02-21T2100,58,108,0.8,21,9,68,96,79,"颗粒物(PM10),细颗粒物(PM2.5)"
马鞍山市,湖东路四小,118.5084,31.6838,2026-02-21T2100,26,42,0.5,27,13,57,93,42,
马鞍山市,开发区,118.5019,31.6449,2026-02-21T2100,23,44,0.6,23,14,65,97,44,
马鞍山市,雨山,118.4914,31.681,2026-02-21T2100,28,55,0.6,28,8,56,95,53,颗粒物(PM10)
马鞍山市,慈湖高新区,118.527362,31.722269,2026-02-21T2100,26,44,0.3,24,11,66,97,44,
茂名市,电白南海,111.0285,21.469,2026-02-21T2100,17,36,0.7,9,5,72,90,36,
茂名市,茂石化七小,110.9294,21.6533,2026-02-21T2100,21,31,0.6,13,5,70,93,31,
茂名市,健康路,110.9108,21.6688,2026-02-21T2100,20,24,0.7,10,4,80,104,29,
茂名市,高岭,110.8592,21.6826,2026-02-21T2100,16,36,/,10,2,78,99,36,
茂名市,电白水东,111.0101,21.5165,2026-02-21T2100,17,27,/,16,3,81,98,27,
眉山市,气象局,103.8414,30.0871,2026-02-21T2100,61,74,0.6,26,8,95,130,83,细颗粒物(PM2.5)
眉山市,区人社局,103.829,30.0563,2026-02-21T2100,64,101,1.2,71,10,43,115,87,细颗粒物(PM2.5)
眉山市,眉职院,103.8836,30.0695,2026-02-21T2100,48,76,0.8,30,6,57,116,67,细颗粒物(PM2.5)
梅州市,梅江月梅,116.1248,24.3307,2026-02-21T2100,47,50,/,12,/,106,100,65,细颗粒物(PM2.5)
梅州市,梅县新城,116.0798,24.2719,2026-02-21T2100,46,53,0.7,13,9,90,97,64,细颗粒物(PM2.5)
梅州市,梅龙,116.1234,24.2994,2026-02-21T2100,42,56,0.9,13,9,89,93,59,细颗粒物(PM2.5)
绵阳市,富乐山,104.7775,31.4741,2026-02-21T2100,40,54,0.6,9,9,106,125,57,细颗粒物(PM2.5)
绵阳市,高新区自来水公司,104.6698,31.4668,2026-02-21T2100,52,69,1.0,48,9,40,116,72,细颗粒物(PM2.5)
绵阳市,西科大附属小学,104.6899,31.5324,2026-02-21T2100,59,76,0.7,21,10,95,129,80,细颗粒物(PM2.5)
绵阳市,安州区旅游局,104.5647,31.5343,2026-02-21T2100,62,100,1.4,84,3,18,122,84,细颗粒物(PM2.5)
绵阳市,科技城新区公安局,104.7092,31.4972,2026-02-21T2100,51,59,0.9,31,8,102,129,70,细颗粒物(PM2.5)
绵阳市,绵阳市气象局,104.765114,31.453094,2026-02-21T2100,51,70,1.1,49,10,55,116,70,细颗粒物(PM2.5)
牡丹江市,环保大楼,129.61,44.561,2026-02-21T2100,74,,0.4,17,12,86,107,99,细颗粒物(PM2.5)
牡丹江市,机车工厂,129.6364,44.6075,2026-02-21T2100,99,114,1.0,48,15,13,90,130,细颗粒物(PM2.5)
牡丹江市,第一中学,129.6386,44.5462,2026-02-21T2100,127,298,0.9,42,82,54,101,174,颗粒物(PM10)
牡丹江市,东晓云街98号,129.5992,44.5964,2026-02-21T2100,144,187,1.1,46,26,35,90,192,细颗粒物(PM2.5)
内江市,市监测站,105.0703,29.61,2026-02-21T2100,84,124,1.3,64,9,24,132,112,细颗粒物(PM2.5)
内江市,内江二中,105.0657,29.5807,2026-02-21T2100,62,72,0.9,62,8,42,120,84,细颗粒物(PM2.5)
内江市,内江日报社,105.0407,29.5828,2026-02-21T2100,78,91,1.1,79,9,28,132,104,细颗粒物(PM2.5)
内江市,玉峰路西段888号,105.0433,29.6105,2026-02-21T2100,66,85,1.3,65,10,39,130,89,细颗粒物(PM2.5)
那曲市,那曲监测站,92.0653,31.4846,2026-02-21T2100,58,,1.1,39,18,64,100,79,细颗粒物(PM2.5)
那曲市,那曲市委宣传部,92.0515,31.4787,2026-02-21T2100,18,30,0.7,16,7,76,106,30,
南昌市,省林业公司,115.8887,28.7006,2026-02-21T2100,27,39,0.7,27,5,44,61,39,
南昌市,林科所,115.813,28.7443,2026-02-21T2100,24,31,0.9,8,8,50,67,35,
南昌市,建工学校,115.8518,28.687,2026-02-21T2100,30,50,0.6,21,6,46,60,50,
南昌市,象湖,115.8926,28.6425,2026-02-21T2100,39,79,1.3,46,9,7,60,65,颗粒物(PM10)
南昌市,机电学校,115.9084,28.6062,2026-02-21T2100,46,73,0.8,26,6,44,63,64,细颗粒物(PM2.5)
南昌市,外国语学校,115.9718,28.7032,2026-02-21T2100,38,49,1.1,33,8,36,62,54,细颗粒物(PM2.5)
南昌市,工业二路,115.7923,28.6873,2026-02-21T2100,58,86,1.2,49,4,17,58,79,细颗粒物(PM2.5)
南昌市,南京东路235号,115.931587,28.686774,2026-02-21T2100,46,71,0.8,47,6,20,64,64,细颗粒物(PM2.5)
南充市,南充市委,106.0791,30.8022,2026-02-21T2100,57,75,1.2,73,6,22,100,78,细颗粒物(PM2.5)
南充市,南充炼油厂,106.1038,30.8215,2026-02-21T2100,53,86,1.1,92,5,14,99,73,细颗粒物(PM2.5)
南充市,梨树横街98号,106.108336,30.788436,2026-02-21T2100,63,82,0.8,52,6,52,111,85,细颗粒物(PM2.5)
南充市,清泉寺北路188号,106.1172,30.843,2026-02-21T2100,47,50,0.4,12,6,105,117,65,细颗粒物(PM2.5)
南充市,同庆路1号,106.067,30.7616,2026-02-21T2100,61,81,1.6,99,7,2,99,83,细颗粒物(PM2.5)
南京市,迈皋桥,118.8033,32.1085,2026-02-21T2100,24,36,1.1,18,15,79,108,36,
南京市,草场门,118.7487,32.057,2026-02-21T2100,24,63,1.7,24,18,56,67,57,颗粒物(PM10)
南京市,中华门,118.770105,32.004342,2026-02-21T2100,17,34,0.8,17,6,69,94,34,
南京市,瑞金路,118.8059,32.0329,2026-02-21T2100,23,46,3.1,42,4,63,106,46,
南京市,玄武湖,118.7946,32.0774,2026-02-21T2100,20,36,1.2,36,15,68,99,36,
南京市,浦口,118.6415,32.0964,2026-02-21T2100,22,48,0.4,17,6,72,92,48,
南京市,奥体中心,118.730129,32.000956,2026-02-21T2100,16,36,1.1,21,15,65,85,36,
南京市,仙林大学城,118.9072,32.1047,2026-02-21T2100,19,39,0.7,20,8,79,102,39,
南京市,江宁彩虹桥,118.8443,31.919,2026-02-21T2100,23,35,0.5,11,4,86,112,35,
南京市,六合雄州,118.8497,32.3599,2026-02-21T2100,12,34,0.9,15,4,87,94,34,
南京市,新模范马路66号,118.7641,32.0841,2026-02-21T2100,14,36,1.7,1,6,96,115,36,
南京市,汶溪路181号,118.8707617,31.34017673,2026-02-21T2100,37,60,0.7,22,7,73,92,55,颗粒物(PM10)
南京市,中山西路1号,119.019,31.6512,2026-02-21T2100,32,53,1.0,40,4,26,95,52,颗粒物(PM10)
南宁市,二十一中,108.3098,22.788,2026-02-21T2100,35,,0.7,10,4,66,77,50,
南宁市,北湖,108.3135,22.8529,2026-02-21T2100,40,49,0.8,10,2,62,75,57,细颗粒物(PM2.5)
南宁市,市监测站,108.3205,22.8222,2026-02-21T2100,32,44,0.8,11,6,62,80,46,
南宁市,大自然花园,108.3828,22.8038,2026-02-21T2100,26,35,0.7,6,5,75,85,38,
南宁市,区农职院,108.2397,22.8462,2026-02-21T2100,36,50,0.6,15,5,57,72,52,细颗粒物(PM2.5)
南宁市,英华嘉园,108.3285,22.7356,2026-02-21T2100,34,40,0.7,8,3,67,79,49,
南宁市,红星社区,108.4829,22.762,2026-02-21T2100,26,43,0.7,6,4,76,88,43,
南宁市,起凤路9号,108.2927,23.1477,2026-02-21T2100,87,98,0.9,18,4,49,78,115,细颗粒物(PM2.5)
南宁市,乐贤路16号,108.2177,22.7774,2026-02-21T2100,34,46,0.6,14,2,61,74,49,
南平市,南平市监测站,118.1682,26.6371,2026-02-21T2100,47,60,0.8,23,6,35,80,65,细颗粒物(PM2.5)
南平市,南平七中,118.1757,26.6276,2026-02-21T2100,46,48,0.8,14,6,43,80,64,细颗粒物(PM2.5)
南通市,狼山街道,120.9056,31.9669,2026-02-21T2100,27,45,0.5,33,5,52,93,45,
南通市,城中,120.8635,32.0231,2026-02-21T2100,26,46,0.5,22,6,93,102,46,
南通市,星湖花园,120.9376,31.9301,2026-02-21T2100,39,52,0.5,29,6,76,99,55,细颗粒物(PM2.5)
南通市,紫琅学院,120.8053,32.046,2026-02-21T2100,27,41,0.4,88,7,22,91,44,
南通市,通州监测站,121.0631,32.0644,2026-02-21T2100,28,41,0.6,25,6,91,109,41,
南通市,环境教育馆,120.9348,31.9874,2026-02-21T2100,41,66,0.5,88,8,15,92,58,"颗粒物(PM10),细颗粒物(PM2.5)"
南通市,洪江路,120.8692,31.9885,2026-02-21T2100,35,50,0.7,27,9,77,90,50,
南阳市,瓦房庄,112.5338,33.0086,2026-02-21T2100,91,124,1.6,51,6,22,84,120,细颗粒物(PM2.5)
南阳市,汉画馆,112.5002,32.9734,2026-02-21T2100,96,202,2.1,41,8,23,84,127,细颗粒物(PM2.5)
南阳市,气象站,112.5778,33.0144,2026-02-21T2100,55,88,1.0,26,6,59,90,75,细颗粒物(PM2.5)
南阳市,理工学院,112.548,32.9687,2026-02-21T2100,64,84,1.3,27,7,57,84,87,细颗粒物(PM2.5)
南阳市,卧龙区政府,112.5233,32.9921,2026-02-21T2100,59,86,1.2,47,7,32,77,80,细颗粒物(PM2.5)
宁波市,区环保大楼,121.8352,29.9111,2026-02-21T2100,16,34,0.4,13,5,81,103,34,
宁波市,万里学院,121.5595,29.8208,2026-02-21T2100,12,28,0.5,10,3,85,99,28,
宁波市,龙赛医院,121.713,29.9564,2026-02-21T2100,26,44,0.6,10,4,80,95,44,
宁波市,太古小学,121.5855,29.8635,2026-02-21T2100,13,25,0.5,7,2,90,100,29,
宁波市,市环境监测中心,121.5239,29.8673,2026-02-21T2100,17,34,0.5,22,3,73,93,34,
宁波市,万里国际学校,121.6156,29.9015,2026-02-21T2100,14,28,0.5,8,3,94,100,30,
宁波市,白沙活动中心,121.5593,29.8976,2026-02-21T2100,,,,,,,96,,
宁波市,中科路88号,121.8962,29.7529,2026-02-21T2100,34,54,0.4,11,5,89,114,52,颗粒物(PM10)
宁德市,宁德市监测站,119.5387,26.6611,2026-02-21T2100,42,57,0.9,31,7,58,104,59,细颗粒物(PM2.5)
宁德市,宁德一中,119.5231,26.6562,2026-02-21T2100,37,52,1.2,13,7,,97,,
怒江傈僳族自治州,州监测站,98.859,25.8541,2026-02-21T2100,73,73,0.7,8,10,109,110,98,细颗粒物(PM2.5)
怒江傈僳族自治州,泸水一中,98.8607,25.8168,2026-02-21T2100,83,,1.2,16,6,76,93,110,细颗粒物(PM2.5)
攀枝花市,弄弄坪,101.6891,26.571,2026-02-21T2100,22,34,1.2,27,16,65,98,34,
攀枝花市,河门口,101.577,26.5914,2026-02-21T2100,29,35,0.6,11,21,75,99,42,
攀枝花市,仁和,101.7365,26.4986,2026-02-21T2100,20,31,0.7,13,8,59,98,31,
攀枝花市,四十中小,101.7222,26.567,2026-02-21T2100,56,,1.3,44,15,49,99,77,细颗粒物(PM2.5)
盘锦市,开发区,122.0303,41.1489,2026-02-21T2100,64,72,0.7,13,7,78,102,87,细颗粒物(PM2.5)
盘锦市,兴隆台,122.0486,41.0883,2026-02-21T2100,66,90,0.7,14,7,76,98,89,细颗粒物(PM2.5)
盘锦市,新生街道,121.8297,41.1026,2026-02-21T2100,54,69,0.7,20,7,56,97,74,细颗粒物(PM2.5)
平顶山市,新华旅馆,113.3257,33.7423,2026-02-21T2100,79,97,0.8,30,8,58,90,105,细颗粒物(PM2.5)
平顶山市,规划设计院,113.2917,33.737,2026-02-21T2100,73,124,1.0,33,9,49,87,98,细颗粒物(PM2.5)
平顶山市,平顶山工学院,113.182,33.7738,2026-02-21T2100,58,108,0.4,12,10,86,98,79,"颗粒物(PM10),细颗粒物(PM2.5)"
平顶山市,石龙区,112.8736,33.9068,2026-02-21T2100,61,232,0.3,6,8,91,98,141,颗粒物(PM10)
平顶山市,姚电大道23号,113.284,33.7139,2026-02-21T2100,67,108,0.7,18,7,78,90,90,细颗粒物(PM2.5)
平凉市,聚贤嘉苑,106.6633,35.5338,2026-02-21T2100,99,327,0.5,6,9,83,86,189,颗粒物(PM10)
平凉市,博物馆,106.7021,35.5307,2026-02-21T2100,94,322,0.6,5,8,85,87,186,颗粒物(PM10)
萍乡市,中医院,113.8384,27.6436,2026-02-21T2100,113,147,1.6,34,6,0,27,148,细颗粒物(PM2.5)
萍乡市,市环保局,113.8677,27.6438,2026-02-21T2100,79,103,1.7,35,10,1,28,105,细颗粒物(PM2.5)
萍乡市,安源区政府,113.8663,27.6202,2026-02-21T2100,46,77,1.7,28,7,0,21,64,"颗粒物(PM10),细颗粒物(PM2.5)"
萍乡市,联洪村委会,113.8686,27.6668,2026-02-21T2100,72,72,1.2,26,2,10,25,97,细颗粒物(PM2.5)
莆田市,荔城区仓后路,119.0142,25.4324,2026-02-21T2100,52,60,/,20,/,75,110,72,细颗粒物(PM2.5)
莆田市,莆田市监测站,119.0016,25.4553,2026-02-21T2100,43,51,0.5,13,5,74,117,60,细颗粒物(PM2.5)
莆田市,涵江区六中,119.112,25.4561,2026-02-21T2100,42,44,0.7,13,/,83,110,59,细颗粒物(PM2.5)
莆田市,秀屿区政府,119.1014,25.3215,2026-02-21T2100,57,,0.4,13,3,80,116,78,细颗粒物(PM2.5)
濮阳市,环保局,115.0312,35.7636,2026-02-21T2100,29,114,0.3,,7,66,85,,
濮阳市,濮水河管理处,115,35.7667,2026-02-21T2100,32,156,0.4,19,8,63,90,103,颗粒物(PM10)
濮阳市,中原东路68号,115.0552,35.7816,2026-02-21T2100,28,212,0.5,18,5,74,92,131,颗粒物(PM10)
濮阳市,任丘路479号,115.0923632,35.76857718,2026-02-21T2100,46,185,0.3,18,6,72,90,118,颗粒物(PM10)
普洱市,市环保局,100.9801,22.7634,2026-02-21T2100,30,57,0.6,9,5,63,91,54,颗粒物(PM10)
普洱市,普洱第二中学,100.9763,22.8237,2026-02-21T2100,30,50,0.7,16,6,,94,,
七台河市,中波台,131.0413,45.7795,2026-02-21T2100,32,39,0.4,8,10,69,93,46,
七台河市,人民广场,131.0136,45.7688,2026-02-21T2100,66,106,0.6,18,12,63,90,89,细颗粒物(PM2.5)
七台河市,新建矿广场,130.8639,45.8144,2026-02-21T2100,38,48,0.7,17,,64,94,,
齐齐哈尔市,安居小区,123.9307,47.3641,2026-02-21T2100,,,,,,,31,,
齐齐哈尔市,中心广场,123.9497,47.3389,2026-02-21T2100,70,107,0.9,16,11,75,76,94,细颗粒物(PM2.5)
齐齐哈尔市,农牧车辆厂,123.9483,47.3229,2026-02-21T2100,107,122,0.4,14,10,79,81,140,细颗粒物(PM2.5)
齐齐哈尔市,市环境监测站,123.9442,47.2994,2026-02-21T2100,78,91,0.6,15,6,80,81,104,细颗粒物(PM2.5)
齐齐哈尔市,富区青少年活动中心,123.6341,47.2079,2026-02-21T2100,60,62,0.6,7,6,78,82,82,细颗粒物(PM2.5)
黔东南苗族侗族自治州,市环境监测站,107.9765,26.5724,2026-02-21T2100,36,43,0.5,17,4,38,66,52,细颗粒物(PM2.5)
黔东南苗族侗族自治州,凯里学院,107.8909,26.531,2026-02-21T2100,33,39,0.6,8,2,59,65,48,
黔南布依族苗族自治州,小围寨,107.5223,26.2371,2026-02-21T2100,23,34,0.7,5,6,51,61,34,
黔南布依族苗族自治州,沙坝,107.5175,26.2977,2026-02-21T2100,24,44,0.7,6,4,54,62,44,
黔西南布依族苗族自治州,场坝街,104.9022,25.0943,2026-02-21T2100,40,65,0.8,8,5,63,72,58,颗粒物(PM10)
黔西南布依族苗族自治州,坪东大道,104.8812,25.0994,2026-02-21T2100,36,49,0.7,10,6,67,74,52,细颗粒物(PM2.5)
钦州市,市环保站,108.6238,21.9667,2026-02-21T2100,51,,0.7,17,2,56,85,70,细颗粒物(PM2.5)
钦州市,沙埠小学,108.655,21.9481,2026-02-21T2100,42,45,0.6,10,3,75,92,59,细颗粒物(PM2.5)
钦州市,港区一小,108.5989,21.7435,2026-02-21T2100,29,,0.8,21,1,71,88,,
钦州市,北职校,108.5959,21.9634,2026-02-21T2100,43,,0.7,10,2,71,83,60,细颗粒物(PM2.5)
秦皇岛市,建设大厦,119.5247,39.9346,2026-02-21T2100,135,618,0.9,22,12,80,63,500,颗粒物(PM10)
秦皇岛市,文明里,119.5979,39.938,2026-02-21T2100,126,524,1.0,40,21,63,58,424,颗粒物(PM10)
秦皇岛市,南园路157号,119.7458,39.9952,2026-02-21T2100,124,211,1.1,70,19,16,54,163,细颗粒物(PM2.5)
秦皇岛市,翠岛大街1号,119.5131,39.8858,2026-02-21T2100,144,607,0.9,18,15,79,68,500,颗粒物(PM10)
秦皇岛市,北戴河轮滑馆,119.509013,39.825305,2026-02-21T2100,136,777,0.6,18,10,89,71,500,颗粒物(PM10)
青岛市,市南区东部子站,120.404,36.0625,2026-02-21T2100,48,83,0.7,23,11,78,85,67,"颗粒物(PM10),细颗粒物(PM2.5)"
青岛市,四方区子站,120.362344,36.10282,2026-02-21T2100,65,134,0.8,39,12,68,93,92,颗粒物(PM10)
青岛市,市南区西部子站,120.294373,36.054183,2026-02-21T2100,42,56,0.7,29,5,84,92,59,细颗粒物(PM2.5)
青岛市,崂山区子站,120.4581,36.0858,2026-02-21T2100,47,73,0.5,16,8,83,86,65,细颗粒物(PM2.5)
青岛市,城阳区子站,120.3945,36.3083,2026-02-21T2100,47,78,1.0,26,11,91,95,65,细颗粒物(PM2.5)
青岛市,市北区南部,120.3454,36.0735,2026-02-21T2100,44,64,0.8,21,4,86,90,62,细颗粒物(PM2.5)
青岛市,李沧区北部,120.3897,36.18,2026-02-21T2100,50,80,0.7,24,12,83,89,69,细颗粒物(PM2.5)
青岛市,盟旺路653号,120.5222,36.4089,2026-02-21T2100,46,74,0.9,10,6,110,108,64,细颗粒物(PM2.5)
青岛市,珠江路669号,120.196923,35.954556,2026-02-21T2100,42,63,0.6,16,8,97,96,59,细颗粒物(PM2.5)
青岛市,黄岛区人民政府广场,120.0424,35.8656,2026-02-21T2100,47,100,0.9,32,10,71,88,75,颗粒物(PM10)
清远市,凤城街办,113.0218,23.7086,2026-02-21T2100,37,49,/,,/,90,108,,
清远市,技师学院,113.0479,23.6343,2026-02-21T2100,31,46,0.5,12,5,102,117,46,
清远市,清新太和,112.9898,23.7403,2026-02-21T2100,37,49,0.7,17,9,108,121,53,细颗粒物(PM2.5)
清远市,清城东城,113.076,23.72,2026-02-21T2100,38,54,/,27,/,88,109,54,细颗粒物(PM2.5)
庆阳市,庆阳五中,107.6325,35.7357,2026-02-21T2100,90,348,0.3,7,5,83,88,199,颗粒物(PM10)
庆阳市,市环保局,107.6361,35.7067,2026-02-21T2100,87,354,0.3,6,3,86,88,206,颗粒物(PM10)
曲靖市,环境监测站,103.7897,25.5036,2026-02-21T2100,33,37,0.7,21,20,70,102,48,
曲靖市,烟厂办公区,103.8013,25.5357,2026-02-21T2100,24,28,0.4,11,11,82,97,35,
曲靖市,南苑二区,103.7926,25.4651,2026-02-21T2100,23,35,0.5,10,14,80,91,35,
曲靖市,曲靖师范学院,103.7442,25.5259,2026-02-21T2100,28,41,0.4,8,15,82,99,41,
衢州市,环保大楼,118.8694,28.94,2026-02-21T2100,37,50,/,30,/,40,88,53,细颗粒物(PM2.5)
衢州市,衢州学院,118.8622,28.9809,2026-02-21T2100,30,40,0.8,35,5,,86,,
衢州市,衢州三中,118.9646,28.9832,2026-02-21T2100,20,30,0.6,11,6,62,81,30,
泉州市,涂山街,118.5818,24.9116,2026-02-21T2100,36,41,0.6,24,4,62,96,52,细颗粒物(PM2.5)
泉州市,津头埔,118.597,24.8976,2026-02-21T2100,38,43,0.6,16,3,70,100,54,细颗粒物(PM2.5)
泉州市,万安,118.6669,24.9422,2026-02-21T2100,34,40,0.6,14,3,60,90,49,
泉州市,霞新路6号,118.6355,24.9148,2026-02-21T2100,36,41,0.5,9,/,64,94,52,细颗粒物(PM2.5)
日喀则市,日喀则监测站,88.8873,29.2723,2026-02-21T2100,19,22,0.6,14,13,117,129,37,
日喀则市,林业技术推广中心,88.8775,29.2425,2026-02-21T2100,12,20,0.4,9,14,120,126,38,
日照市,监测站,119.4711,35.421,2026-02-21T2100,47,83,1.0,30,18,79,100,67,颗粒物(PM10)
日照市,市政府广场,119.523,35.4216,2026-02-21T2100,42,70,0.8,18,15,92,103,60,颗粒物(PM10)
日照市,港务局,119.5511,35.4113,2026-02-21T2100,40,78,1.0,23,12,94,94,64,颗粒物(PM10)
日照市,职业技术学院,119.5326,35.4627,2026-02-21T2100,43,70,1.2,24,16,89,104,60,"颗粒物(PM10),细颗粒物(PM2.5)"
日照市,岚山环保分局,119.3267,35.1043,2026-02-21T2100,55,80,0.9,20,15,86,103,75,细颗粒物(PM2.5)
三门峡市,市政府,111.1922,34.7752,2026-02-21T2100,108,291,1.4,61,14,13,80,171,颗粒物(PM10)
三门峡市,开发区,111.1588,34.794,2026-02-21T2100,91,279,0.6,26,11,56,86,165,颗粒物(PM10)
三门峡市,三门峡市第一小学,111.1911,34.7829,2026-02-21T2100,93,333,0.9,48,10,42,85,192,颗粒物(PM10)
三门峡市,富达温泉假日酒店,111.1031,34.719,2026-02-21T2100,84,423,0.6,20,15,60,88,304,颗粒物(PM10)
三明市,三钢,117.621,26.2626,2026-02-21T2100,26,38,0.4,15,5,41,70,38,
三明市,三明二中,117.6352,26.2714,2026-02-21T2100,35,47,0.5,21,5,28,68,50,
三明市,三元区政府,117.6028,26.2377,2026-02-21T2100,23,49,0.7,16,4,39,74,49,
三亚市,河西子站,109.4962,18.2682,2026-02-21T2100,17,29,0.3,4,1,68,81,29,
三亚市,君悦子站,109.7348,18.3443,2026-02-21T2100,13,47,,,3,65,78,,
三亚市,城东小学站,109.1714,18.3739,2026-02-21T2100,15,28,/,7,/,70,90,28,
山南市,山南监测站,91.7592,29.234,2026-02-21T2100,3,16,0.3,2,9,109,114,35,
山南市,山南人民医院,91.7701,29.2436,2026-02-21T2100,10,19,0.4,3,10,110,118,35,
汕头市,金平子站,116.6795,23.3666,2026-02-21T2100,45,46,0.6,10,4,111,113,63,细颗粒物(PM2.5)
汕头市,龙湖子站,116.7248,23.3632,2026-02-21T2100,48,,/,17,10,102,112,67,细颗粒物(PM2.5)
汕头市,濠江子站,116.7257,23.2774,2026-02-21T2100,48,48,/,16,8,103,110,67,细颗粒物(PM2.5)
汕头市,澄海子站,116.7518,23.4712,2026-02-21T2100,41,58,0.7,8,6,108,107,58,细颗粒物(PM2.5)
汕头市,潮阳子站,116.6088,23.2539,2026-02-21T2100,49,51,0.6,12,6,105,113,68,细颗粒物(PM2.5)
汕头市,潮南峡山,116.4539,23.2684,2026-02-21T2100,43,57,0.6,6,6,112,117,60,细颗粒物(PM2.5)
汕头市,潮南子站,116.4069,23.2533,2026-02-21T2100,52,73,/,8,6,93,105,72,细颗粒物(PM2.5)
汕尾市,市环保局,115.3653,22.7751,2026-02-21T2100,38,41,0.7,10,5,111,122,54,细颗粒物(PM2.5)
汕尾市,新城中学,115.362,22.7926,2026-02-21T2100,37,,0.7,9,6,109,120,53,细颗粒物(PM2.5)
商洛市,监测站,109.9155,33.8714,2026-02-21T2100,113,287,0.6,23,7,49,88,169,颗粒物(PM10)
商洛市,商州区中学,109.9647,33.8486,2026-02-21T2100,86,323,0.5,7,6,67,94,187,颗粒物(PM10)
商丘市,环境监测站,115.6701,34.4283,2026-02-21T2100,50,74,0.6,14,4,86,105,69,细颗粒物(PM2.5)
商丘市,粮食局,115.6458,34.4047,2026-02-21T2100,54,72,0.6,11,3,78,99,74,细颗粒物(PM2.5)
商丘市,梁园区档案局,115.6069,34.4465,2026-02-21T2100,50,59,0.6,9,3,89,107,69,细颗粒物(PM2.5)
商丘市,北海东路185号,115.6701,34.3767,2026-02-21T2100,46,69,0.5,8,4,91,104,64,细颗粒物(PM2.5)
商丘市,中山大街3号,115.6172,34.3704,2026-02-21T2100,62,96,0.6,20,6,71,97,84,细颗粒物(PM2.5)
上海市,普陀,121.401,31.2382,2026-02-21T2100,32,41,0.6,19,6,94,105,46,
上海市,十五厂,121.4774,31.2043,2026-02-21T2100,36,47,0.6,22,8,94,107,52,细颗粒物(PM2.5)
上海市,虹口,121.4673,31.3011,2026-02-21T2100,29,44,0.6,26,6,79,96,44,
上海市,静安监测站,121.4253,31.226,2026-02-21T2100,29,40,0.6,20,8,95,108,42,
上海市,浦东川沙,121.7029,31.1905,2026-02-21T2100,44,58,0.7,19,5,83,108,62,细颗粒物(PM2.5)
上海市,浦东新区监测站,121.5339,31.229,2026-02-21T2100,35,49,0.5,13,7,97,107,50,
上海市,浦东张江,121.5776,31.2038,2026-02-21T2100,31,44,0.3,24,7,98,114,45,
上海市,宝山庙行,121.4242,31.3303,2026-02-21T2100,32,46,0.5,20,10,89,105,46,
上海市,崇明上实东滩,121.8789,31.4662,2026-02-21T2100,22,32,0.1,19,5,81,105,32,
上海市,嘉定南翔,121.316,31.2839,2026-02-21T2100,34,48,0.5,42,6,73,100,49,
上海市,金山新城,121.3357,30.7455,2026-02-21T2100,28,37,0.7,11,4,92,102,40,
上海市,闵行浦江,121.4996,31.0741,2026-02-21T2100,40,54,0.1,18,8,87,107,57,细颗粒物(PM2.5)
上海市,青浦徐泾,121.2886,31.1663,2026-02-21T2100,42,56,0.6,17,7,83,101,59,细颗粒物(PM2.5)
上海市,松江图书馆,121.2193,31.0382,2026-02-21T2100,41,54,0.6,22,8,82,106,58,细颗粒物(PM2.5)
上海市,长宁仙霞,121.3904,31.206,2026-02-21T2100,31,43,0.3,11,8,94,103,45,
上海市,浦东惠南,121.7964,31.0507,2026-02-21T2100,34,44,0.7,21,6,76,112,49,
上海市,奉贤南桥新城,121.4891,30.925,2026-02-21T2100,46,61,0.5,18,4,87,109,64,细颗粒物(PM2.5)
上海市,冠生园路458号,121.417401,31.16637,2026-02-21T2100,33,49,0.4,23,6,88,98,49,
上海市,宁武路151号,121.541914,31.268301,2026-02-21T2100,32,40,0.4,18,6,94,105,46,
上饶市,市监测站,117.9758,28.4439,2026-02-21T2100,27,36,/,7,12,62,87,39,
上饶市,凤凰光学,117.9521,28.4637,2026-02-21T2100,54,84,1.0,48,7,11,76,74,细颗粒物(PM2.5)
上饶市,双创科技城,117.897,28.4316,2026-02-21T2100,37,40,1.0,30,5,53,90,53,细颗粒物(PM2.5)
上饶市,裕丰大道,118.190438,28.444845,2026-02-21T2100,48,85,0.8,31,12,23,80,68,颗粒物(PM10)
韶关市,市八中,113.5821,24.7733,2026-02-21T2100,48,66,0.7,21,9,66,98,67,细颗粒物(PM2.5)
韶关市,园林处,113.5916,24.7973,2026-02-21T2100,46,50,/,19,7,66,99,64,细颗粒物(PM2.5)
韶关市,曲江监测站,113.5971,24.6864,2026-02-21T2100,76,99,1.2,42,7,30,96,102,细颗粒物(PM2.5)
韶关市,大学路288号,113.6668,24.7756,2026-02-21T2100,43,53,/,19,7,49,96,60,细颗粒物(PM2.5)
韶关市,碧湖山庄,113.5556,24.8082,2026-02-21T2100,47,64,0.8,8,9,76,100,65,细颗粒物(PM2.5)
邵阳市,市化工厂,111.5277,27.2442,2026-02-21T2100,38,52,0.8,13,6,36,55,54,细颗粒物(PM2.5)
邵阳市,市环保局,111.4327,27.2276,2026-02-21T2100,39,,0.9,8,5,57,59,55,细颗粒物(PM2.5)
邵阳市,北塔二期4-26地块,111.446,27.2472,2026-02-21T2100,73,,1.8,45,8,5,46,98,细颗粒物(PM2.5)
邵阳市,邵水西路287号,111.4739,27.2282,2026-02-21T2100,72,79,1.6,35,5,11,55,97,细颗粒物(PM2.5)
绍兴市,城东开发委,120.6053,29.9927,2026-02-21T2100,24,32,0.6,28,7,45,87,35,
绍兴市,树下王站,120.5482,30.0003,2026-02-21T2100,18,31,0.5,18,7,60,87,31,
绍兴市,绍兴中专,120.5685,29.936,2026-02-21T2100,21,38,0.4,10,7,63,94,38,
绍兴市,柯桥区政府,120.4905,30.086,2026-02-21T2100,16,26,0.3,13,5,85,91,27,
绍兴市,重华小学,120.8751,30.0249,2026-02-21T2100,18,30,0.4,9,7,69,81,30,
绍兴市,上虞中学,120.837,30.0137,2026-02-21T2100,27,36,0.6,19,7,68,92,39,
绍兴市,柯桥妇保,120.4715,30.0414,2026-02-21T2100,18,27,0.4,14,6,72,79,27,
绍兴市,袍江中学,120.6156,30.0762,2026-02-21T2100,20,30,0.4,10,7,82,90,30,
深圳市,通心岭子站,114.0948,22.5506,2026-02-21T2100,24,34,0.5,5,4,108,117,35,
深圳市,洪湖,114.1153,22.5713,2026-02-21T2100,28,39,0.5,11,5,104,117,40,
深圳市,华侨城,113.9823,22.5398,2026-02-21T2100,22,34,/,14,/,91,109,34,
深圳市,南海子站,113.9181,22.517,2026-02-21T2100,31,36,0.4,18,6,90,108,45,
深圳市,盐田,114.2345,22.565,2026-02-21T2100,29,35,0.5,12,6,101,116,42,
深圳市,南澳,114.4911,22.5381,2026-02-21T2100,24,36,/,6,/,102,123,36,
深圳市,葵涌,114.41,22.6346,2026-02-21T2100,26,36,0.6,9,8,103,115,38,
深圳市,梅沙,114.2967,22.5978,2026-02-21T2100,26,40,/,17,/,100,118,40,
深圳市,观澜,114.0563,22.7353,2026-02-21T2100,28,39,0.6,8,8,103,117,40,
深圳市,莲花,114.0614,22.556,2026-02-21T2100,25,33,/,11,/,,109,,
深圳市,民治,114.0144,22.6163,2026-02-21T2100,34,45,/,7,/,88,96,49,
深圳市,横岗,114.1756,22.6421,2026-02-21T2100,26,44,/,9,/,108,113,44,
深圳市,坪山,114.344,22.7115,2026-02-21T2100,27,33,0.6,9,8,112,122,39,
深圳市,西乡,113.8952,22.586,2026-02-21T2100,21,37,0.6,14,6,86,99,37,
深圳市,黄阁路,114.214113,22.713717,2026-02-21T2100,25,35,0.7,12,8,102,117,36,
沈阳市,浑南东路,123.5058,41.7084,2026-02-21T2100,56,111,0.8,19,21,77,92,81,颗粒物(PM10)
沈阳市,新秀街,123.4238,41.6992,2026-02-21T2100,46,86,0.7,15,11,92,102,68,颗粒物(PM10)
沈阳市,东陵路,123.5903,41.8412,2026-02-21T2100,44,88,0.9,12,14,85,97,69,颗粒物(PM10)
沈阳市,陵东街,123.4267,41.8466,2026-02-21T2100,79,106,0.8,18,16,83,98,105,细颗粒物(PM2.5)
沈阳市,文化路,123.4116,41.7654,2026-02-21T2100,49,87,0.8,15,11,86,97,69,颗粒物(PM10)
沈阳市,小河沿,123.4673,41.787,2026-02-21T2100,54,94,0.9,17,13,90,100,74,细颗粒物(PM2.5)
沈阳市,太原街,123.4019,41.7978,2026-02-21T2100,103,195,0.7,17,17,90,109,135,细颗粒物(PM2.5)
沈阳市,京沈街,123.3778,41.9233,2026-02-21T2100,56,84,0.8,17,19,89,110,77,细颗粒物(PM2.5)
沈阳市,沈辽西路,123.2429,41.7341,2026-02-21T2100,53,90,0.7,13,12,80,92,73,细颗粒物(PM2.5)
沈阳市,裕农路,123.5951,41.9085,2026-02-21T2100,43,80,0.8,14,12,89,102,65,颗粒物(PM10)
十堰市,滨河新村,110.78,32.6494,2026-02-21T2100,101,161,2.3,67,/,14,82,133,细颗粒物(PM2.5)
十堰市,刘家沟,110.7305,32.6408,2026-02-21T2100,29,,/,11,/,63,92,42,
十堰市,铁二处,110.8843,32.5712,2026-02-21T2100,44,44,0.9,16,8,51,82,62,细颗粒物(PM2.5)
十堰市,郧阳区金沙路,110.8053,32.8401,2026-02-21T2100,51,104,1.2,28,8,48,84,77,颗粒物(PM10)
石河子市,艾青诗歌馆,86.0391,44.298,2026-02-21T2100,,,0.2,,,,83,,
石河子市,南区管委会,86.047,44.2331,2026-02-21T2100,73,,0.6,15,5,65,70,98,细颗粒物(PM2.5)
石河子市,世纪广场,86.0791,44.3018,2026-02-21T2100,33,47,0.3,10,8,80,83,48,
石河子市,城南景苑小区,86.0126,44.2349,2026-02-21T2100,60,105,0.7,11,5,77,82,82,细颗粒物(PM2.5)
石家庄市,高新区,114.5919,38.0328,2026-02-21T2100,86,457,0.3,3,4,89,92,347,颗粒物(PM10)
石家庄市,西南高教,114.4556,38.0136,2026-02-21T2100,106,544,0.4,2,2,86,93,444,颗粒物(PM10)
石家庄市,世纪公园,114.533,38.0177,2026-02-21T2100,88,502,0.4,7,2,87,90,402,颗粒物(PM10)
石家庄市,人民会堂,114.5105,38.0489,2026-02-21T2100,77,466,0.3,20,3,68,75,358,颗粒物(PM10)
石家庄市,鹿泉一中,114.2887,38.0905,2026-02-21T2100,54,419,0.3,2,3,91,94,299,颗粒物(PM10)
石家庄市,栾城区星河路,114.6491,37.9014,2026-02-21T2100,75,407,0.4,2,2,86,90,282,颗粒物(PM10)
石家庄市,裕华西路63号,114.4563,38.0365,2026-02-21T2100,96,499,0.4,4,3,85,92,399,颗粒物(PM10)
石家庄市,和平路363号,114.5586,38.0581,2026-02-21T2100,73,421,0.3,6,3,90,92,302,颗粒物(PM10)
石家庄市,廉州西路160号,114.8347,38.0213,2026-02-21T2100,108,609,0.3,6,2,85,90,500,颗粒物(PM10)
石家庄市,北城路41号,114.4498,38.0729,2026-02-21T2100,75,496,0.2,2,3,95,97,395,颗粒物(PM10)
石家庄市,矿区区委大楼,114.0494,38.059,2026-02-21T2100,166,759,0.6,28,10,81,89,500,颗粒物(PM10)
石嘴山市,大武口朝阳西街,106.3668,39.0145,2026-02-21T2100,294,1769,0.5,2,5,96,91,500,颗粒物(PM10)
石嘴山市,惠农南大街,106.7713,39.2278,2026-02-21T2100,290,1390,0.1,16,12,87,91,500,颗粒物(PM10)
石嘴山市,红果子镇惠新街,106.7074,39.1332,2026-02-21T2100,288,1318,0.7,2,11,105,97,500,颗粒物(PM10)
石嘴山市,妇女儿童医院,106.3495,38.9837,2026-02-21T2100,262,1719,0.4,5,5,95,92,500,颗粒物(PM10)
石嘴山市,石大公路,106.7495,39.2068,2026-02-21T2100,277,1465,0.4,4,3,99,93,500,颗粒物(PM10)
双鸭山市,双合村,131.1509,46.6936,2026-02-21T2100,53,62,0.7,27,7,51,62,73,细颗粒物(PM2.5)
双鸭山市,南小市,131.1651,46.6191,2026-02-21T2100,112,,0.6,28,9,37,52,147,细颗粒物(PM2.5)
双鸭山市,环保局,131.1526,46.6554,2026-02-21T2100,80,98,0.7,25,11,51,60,107,细颗粒物(PM2.5)
朔州市,平朔,112.4399,39.3521,2026-02-21T2100,127,837,0.3,4,4,77,88,500,颗粒物(PM10)
朔州市,朔唯,112.4574,39.362,2026-02-21T2100,176,811,/,2,4,78,89,500,颗粒物(PM10)
朔州市,区政府,112.426,39.3199,2026-02-21T2100,136,798,0.1,2,5,80,91,500,颗粒物(PM10)
朔州市,市环保局,112.4075,39.3277,2026-02-21T2100,172,798,/,5,3,77,85,500,颗粒物(PM10)
朔州市,市二中,112.4273,39.3682,2026-02-21T2100,146,784,/,2,4,86,100,500,颗粒物(PM10)
朔州市,一水厂,112.2938,39.5296,2026-02-21T2100,113,807,0.4,2,3,85,94,500,颗粒物(PM10)
四平市,境园,124.3744,43.1842,2026-02-21T2100,57,96,0.4,11,8,74,94,78,细颗粒物(PM2.5)
四平市,植物园,124.4029,43.1411,2026-02-21T2100,50,96,0.6,16,11,78,100,73,颗粒物(PM10)
四平市,世纪城,124.3286,43.1726,2026-02-21T2100,61,111,0.6,11,13,81,,83,细颗粒物(PM2.5)
松原市,江南,124.8007,45.1213,2026-02-21T2100,,210,0.7,35,2,50,94,130,颗粒物(PM10)
松原市,江北,124.7967,45.1721,2026-02-21T2100,124,215,0.8,26,2,62,98,163,细颗粒物(PM2.5)
苏州市,轧钢厂,120.5974,31.3247,2026-02-21T2100,44,65,0.7,29,10,66,92,62,细颗粒物(PM2.5)
苏州市,吴中区,120.6329,31.2741,2026-02-21T2100,37,68,0.5,24,11,71,97,59,颗粒物(PM10)
苏州市,苏州新区,120.5566,31.3049,2026-02-21T2100,30,44,0.7,37,8,64,99,44,
苏州市,苏州工业园区,120.668709,31.312523,2026-02-21T2100,32,46,0.7,18,8,86,104,46,
苏州市,相城区,120.6408,31.3707,2026-02-21T2100,34,51,0.8,17,10,81,103,51,颗粒物(PM10)
苏州市,方洲路,120.7431,31.3188,2026-02-21T2100,30,45,0.7,14,12,83,103,45,
苏州市,木渎中学,120.4979,31.2777,2026-02-21T2100,25,40,0.5,18,7,66,102,40,
苏州市,越秀幼儿园,120.642,31.1733,2026-02-21T2100,30,51,0.7,22,7,70,98,51,颗粒物(PM10)
苏州市,高铁新城,120.6502,31.4117,2026-02-21T2100,28,43,0.6,18,6,84,102,43,
苏州市,学森路9号,120.4282,31.3228,2026-02-21T2100,23,47,0.6,16,7,82,94,47,
宿迁市,宿迁学院,118.2924,33.933,2026-02-21T2100,41,69,0.6,15,6,85,106,60,颗粒物(PM10)
宿迁市,宿迁中学,118.2321,33.9572,2026-02-21T2100,56,83,0.4,17,8,74,98,77,细颗粒物(PM2.5)
宿迁市,市供电局,118.2781,33.9658,2026-02-21T2100,51,78,0.7,15,7,83,107,70,细颗粒物(PM2.5)
宿迁市,宿豫区政府,118.3243,33.95,2026-02-21T2100,44,64,0.5,19,8,82,101,62,细颗粒物(PM2.5)
宿迁市,春华路,118.352,33.7886,2026-02-21T2100,48,80,0.6,18,6,67,93,67,细颗粒物(PM2.5)
宿州市,远航博物馆,116.9508,33.666,2026-02-21T2100,35,49,0.5,9,5,92,100,50,
宿州市,社会福利中心,116.9708,33.5911,2026-02-21T2100,44,67,0.6,26,8,69,99,62,细颗粒物(PM2.5)
宿州市,皖北煤电集团,116.9647,33.6252,2026-02-21T2100,41,61,0.8,16,6,82,101,58,细颗粒物(PM2.5)
宿州市,中兴路,116.9929,33.6412,2026-02-21T2100,42,65,0.7,29,9,66,96,59,细颗粒物(PM2.5)
绥化市,人和东街,126.9783,46.6365,2026-02-21T2100,50,65,0.6,11,9,85,94,69,细颗粒物(PM2.5)
绥化市,党政办公中心,126.964,46.6527,2026-02-21T2100,58,80,0.7,14,8,87,94,79,细颗粒物(PM2.5)
随州市,市委党校,113.3587,31.7275,2026-02-21T2100,38,,0.7,17,6,84,90,,
随州市,市林业局,113.3745,31.6926,2026-02-21T2100,32,37,0.7,12,5,88,97,46,
随州市,市立交桥水厂,113.3984,31.7309,2026-02-21T2100,36,46,0.7,17,10,67,84,52,细颗粒物(PM2.5)
遂宁市,市监测站,105.5581,30.5231,2026-02-21T2100,38,58,0.5,53,4,39,106,54,"颗粒物(PM10),细颗粒物(PM2.5)"
遂宁市,美宁食品公司,105.5917,30.4727,2026-02-21T2100,93,,0.6,41,6,24,98,123,细颗粒物(PM2.5)
遂宁市,环岛商务中心9号楼,105.5911,30.5368,2026-02-21T2100,50,69,0.8,72,4,12,99,69,细颗粒物(PM2.5)
塔城地区,东门外小游园,82.9993,46.7432,2026-02-21T2100,19,27,0.3,6,5,71,79,28,
塔城地区,文化广场,82.9716,46.7464,2026-02-21T2100,14,26,0.5,7,1,67,74,26,
台州市,黄岩环保大楼,121.2727,28.6461,2026-02-21T2100,12,20,/,6,/,92,96,29,
台州市,台州环保大楼,121.4188,28.6545,2026-02-21T2100,18,33,0.5,9,/,86,100,33,
台州市,路桥田洋王,121.3768,28.5772,2026-02-21T2100,18,30,0.5,9,4,93,100,30,
台州市,台州科技职业学院,121.25678,28.66823971,2026-02-21T2100,12,25,0.5,4,6,89,97,28,
太原市,尖草坪,112.5138,37.8916,2026-02-21T2100,61,573,0.5,2,1,90,94,473,颗粒物(PM10)
太原市,晋源,112.4691,37.7125,2026-02-21T2100,54,419,0.2,1,1,95,98,299,颗粒物(PM10)
太原市,小店,112.5595,37.7391,2026-02-21T2100,47,485,0.0,2,2,93,96,382,颗粒物(PM10)
太原市,坞城,112.5705,37.8199,2026-02-21T2100,51,406,0.1,7,4,89,95,280,颗粒物(PM10)
太原市,南寨,112.5495,37.9853,2026-02-21T2100,71,450,0.2,3,3,89,92,338,颗粒物(PM10)
太原市,金胜,112.4702,37.7821,2026-02-21T2100,59,566,0.3,3,3,93,96,466,颗粒物(PM10)
太原市,育英中学,112.5608,37.8807,2026-02-21T2100,56,423,0.2,5,6,88,93,304,颗粒物(PM10)
太原市,西矿街336号,112.449,37.8509,2026-02-21T2100,82,505,0.3,4,1,92,99,405,颗粒物(PM10)
太原市,迎宾北路9号,112.4792,37.9393,2026-02-21T2100,71,531,0.5,5,3,91,96,431,颗粒物(PM10)
太原市,迎泽大街248号,112.551,37.8575,2026-02-21T2100,54,514,0.2,7,2,88,95,414,颗粒物(PM10)
泰安市,监测站,117.1436,36.1938,2026-02-21T2100,66,102,0.7,28,8,76,97,89,细颗粒物(PM2.5)
泰安市,人口学校,117.0905,36.2002,2026-02-21T2100,62,92,0.6,19,12,93,104,84,细颗粒物(PM2.5)
泰安市,电力学校,117.0992,36.1757,2026-02-21T2100,97,144,1.2,62,15,45,103,128,细颗粒物(PM2.5)
泰安市,国网新校,117.1812,36.2273,2026-02-21T2100,56,85,0.8,13,10,99,105,77,细颗粒物(PM2.5)
泰安市,交通技校,117.0315,36.2017,2026-02-21T2100,49,83,0.7,12,8,100,108,68,细颗粒物(PM2.5)
泰安市,山东第一医科大学,117.083,36.13,2026-02-21T2100,65,90,0.4,21,10,78,105,88,细颗粒物(PM2.5)
泰州市,公园路,119.9042,32.488,2026-02-21T2100,30,46,0.5,20,13,82,104,46,
泰州市,莲花,119.9189,32.4626,2026-02-21T2100,32,49,0.5,29,21,76,104,49,
泰州市,留学生创业园,119.8877,32.4636,2026-02-21T2100,29,50,0.5,20,17,77,100,50,
泰州市,王营,119.8767,32.3291,2026-02-21T2100,41,54,0.5,75,16,33,115,58,细颗粒物(PM2.5)
泰州市,姜堰区政府广场,120.1226,32.515,2026-02-21T2100,48,68,0.6,23,12,77,107,67,细颗粒物(PM2.5)
泰州市,周山河街区,119.9186,32.4322,2026-02-21T2100,48,66,0.4,31,22,61,100,67,细颗粒物(PM2.5)
唐山市,十二中,118.1707,39.6505,2026-02-21T2100,249,1460,0.3,7,3,81,98,500,颗粒物(PM10)
唐山市,小山,118.1868,39.6219,2026-02-21T2100,198,1309,0.4,3,9,72,84,500,颗粒物(PM10)
唐山市,冀东油田职工医院,118.4357,39.277,2026-02-21T2100,253,1623,0.4,2,6,80,85,500,颗粒物(PM10)
唐山市,正泰大街热力站,118.0927,39.5807,2026-02-21T2100,208,1414,0.6,2,3,65,84,500,颗粒物(PM10)
唐山市,丰润区政府,118.1561,39.8322,2026-02-21T2100,179,1304,0.3,2,7,72,83,500,颗粒物(PM10)
唐山市,金山小学,118.436906,39.73802,2026-02-21T2100,347,1801,1.2,4,3,26,86,500,颗粒物(PM10)
唐山市,政府服务中心,118.2449,39.6693,2026-02-21T2100,205,1293,0.3,12,6,62,84,500,颗粒物(PM10)
唐山市,消防缸窑路中队,118.2043,39.6703,2026-02-21T2100,213,1979,0.5,2,7,74,102,500,颗粒物(PM10)
唐山市,路南电大,118.1432,39.6203,2026-02-21T2100,227,1458,0.8,9,2,51,75,500,颗粒物(PM10)
唐山市,光明北路515号,118.1267,39.6579,2026-02-21T2100,289,1528,0.4,2,3,79,92,500,颗粒物(PM10)
唐山市,友谊北路34号,118.130859,39.636026,2026-02-21T2100,219,1341,0.8,2,3,60,77,500,颗粒物(PM10)
天津市,勤俭道,117.1446,39.1659,2026-02-21T2100,122,784,0.4,2,9,80,102,500,颗粒物(PM10)
天津市,前进道,117.2016,39.0928,2026-02-21T2100,145,992,0.3,3,5,94,110,500,颗粒物(PM10)
天津市,淮河道,117.1837,39.2134,2026-02-21T2100,112,846,0.3,5,4,86,107,500,颗粒物(PM10)
天津市,跃进路,117.308261,39.088386,2026-02-21T2100,170,1062,0.5,5,5,96,114,500,颗粒物(PM10)
天津市,第四大街,117.707,39.0344,2026-02-21T2100,164,,0.5,14,3,83,91,,
天津市,永明路,117.4573,38.8395,2026-02-21T2100,112,780,0.4,10,5,95,96,500,颗粒物(PM10)
天津市,汉北路,117.7641,39.1588,2026-02-21T2100,152,936,0.2,14,4,73,93,500,颗粒物(PM10)
天津市,河西一经路,117.7917,39.2473,2026-02-21T2100,186,1076,0.3,4,4,80,34,500,颗粒物(PM10)
天津市,津沽路,117.3747,38.9845,2026-02-21T2100,187,1030,0.3,5,4,99,107,500,颗粒物(PM10)
天津市,宾水西道,117.159,39.0844,2026-02-21T2100,130,916,0.2,4,6,77,96,500,颗粒物(PM10)
天津市,大理道,117.194,39.1069,2026-02-21T2100,142,826,0.4,8,5,87,102,500,颗粒物(PM10)
天津市,中山北路,117.2096,39.1698,2026-02-21T2100,117,847,0.2,6,3,82,101,500,颗粒物(PM10)
天津市,西四道,117.385,39.1483,2026-02-21T2100,133,958,0.4,3,4,88,106,500,颗粒物(PM10)
天津市,雍阳西道,117.0362,39.3827,2026-02-21T2100,75,569,0.4,6,5,65,109,469,颗粒物(PM10)
天津市,辛老路,117.0291,39.0612,2026-02-21T2100,118,1018,0.7,2,4,83,94,500,颗粒物(PM10)
天津市,地纬路,116.9638,38.9374,2026-02-21T2100,98,853,0.3,3,6,93,97,500,颗粒物(PM10)
天津市,北环路,117.4065,40.0583,2026-02-21T2100,50,288,0.3,2,2,82,99,169,颗粒物(PM10)
天津市,建设路,117.3041,39.7167,2026-02-21T2100,54,497,0.3,2,6,83,106,397,颗粒物(PM10)
天津市,滨水东路,117.8201,39.3519,2026-02-21T2100,137,806,0.3,3,4,77,94,500,颗粒物(PM10)
天津市,光华路,117.24369,39.102911,2026-02-21T2100,146,1006,0.4,8,2,83,98,500,颗粒物(PM10)
天水市,公园小学,105.72058,34.57859,2026-02-21T2100,62,107,1.2,36,14,49,98,84,细颗粒物(PM2.5)
天水市,麦积国土局,105.89428,34.55353,2026-02-21T2100,88,280,0.5,21,14,68,95,165,颗粒物(PM10)
铁岭市,水上乐园,123.865,42.292,2026-02-21T2100,37,72,0.7,18,16,81,98,61,颗粒物(PM10)
铁岭市,金沙江路北,123.7158,42.2218,2026-02-21T2100,50,70,0.5,15,6,82,101,69,细颗粒物(PM2.5)
铁岭市,新华街20号,123.835,42.2853,2026-02-21T2100,53,97,0.6,18,16,76,96,74,颗粒物(PM10)
通化市,光明,125.9359,41.7174,2026-02-21T2100,34,64,0.5,7,15,99,103,57,颗粒物(PM10)
通化市,铁路,125.9446,41.7323,2026-02-21T2100,32,68,0.6,10,12,99,101,59,颗粒物(PM10)
通辽市,艺术职业学校,122.253,43.6801,2026-02-21T2100,111,339,0.8,24,18,69,97,195,颗粒物(PM10)
通辽市,老干部活动中心,122.2584,43.6333,2026-02-21T2100,101,300,0.8,17,13,64,92,175,颗粒物(PM10)
通辽市,东方明珠社区,122.2923,43.6189,2026-02-21T2100,98,210,0.8,15,7,59,90,130,颗粒物(PM10)
铜川市,王益区政府,109.0696,35.0699,2026-02-21T2100,130,443,1.0,46,6,16,80,329,颗粒物(PM10)
铜川市,新区管委会,108.9345,34.9059,2026-02-21T2100,124,505,0.5,18,9,56,83,405,颗粒物(PM10)
铜川市,大唐三路,108.949652,34.870529,2026-02-21T2100,127,526,0.3,20,11,63,82,426,颗粒物(PM10)
铜陵市,市第四中学,117.8176,30.9412,2026-02-21T2100,23,43,0.7,20,14,64,62,43,
铜陵市,市新民污水厂,117.7806,30.9413,2026-02-21T2100,26,44,0.6,28,39,53,77,44,
铜陵市,车站新区,117.846,30.9414,2026-02-21T2100,20,43,0.6,18,12,72,84,43,
铜陵市,市职教基地,117.8472,30.9699,2026-02-21T2100,24,42,1.1,17,14,69,86,42,
铜仁市,铜仁卫校,109.1839,27.7344,2026-02-21T2100,48,60,1.1,31,2,16,54,67,细颗粒物(PM2.5)
铜仁市,铜仁七中,109.1752,27.6945,2026-02-21T2100,55,69,1.5,38,5,8,63,75,细颗粒物(PM2.5)
吐鲁番市,市环保局,89.1905,42.9419,2026-02-21T2100,69,288,0.9,30,3,66,88,169,颗粒物(PM10)
吐鲁番市,地区环保局,89.1674,42.9558,2026-02-21T2100,60,281,1.1,21,4,64,85,166,颗粒物(PM10)
威海市,华夏技校,122.121,37.4231,2026-02-21T2100,50,66,0.8,17,/,111,100,69,细颗粒物(PM2.5)
威海市,山大分校,122.0508,37.5236,2026-02-21T2100,52,66,/,12,/,111,101,72,细颗粒物(PM2.5)
威海市,市监测站,122.1067,37.5067,2026-02-21T2100,41,76,0.6,12,4,115,105,63,颗粒物(PM10)
威海市,文登开发区,122.0693,37.2175,2026-02-21T2100,50,75,/,11,/,113,102,69,细颗粒物(PM2.5)
威海市,临港区管委会,122.1379,37.3414,2026-02-21T2100,54,73,0.5,12,9,110,102,74,细颗粒物(PM2.5)
潍坊市,环保局,119.1436,36.7022,2026-02-21T2100,59,168,0.9,15,14,90,104,109,颗粒物(PM10)
潍坊市,坊子邮政,119.1638,36.6524,2026-02-21T2100,48,151,0.7,18,11,90,100,101,颗粒物(PM10)
潍坊市,潍坊七中,119.0587,36.7209,2026-02-21T2100,56,190,1.0,20,12,77,103,120,颗粒物(PM10)
潍坊市,高新实验学校,119.1978,36.6871,2026-02-21T2100,79,168,0.9,15,14,90,103,109,颗粒物(PM10)
潍坊市,潍坊学院,119.1758,36.7139,2026-02-21T2100,52,171,1.0,12,14,91,106,111,颗粒物(PM10)
潍坊市,寒亭区实验一小,119.2046,36.7696,2026-02-21T2100,50,188,0.6,12,12,83,103,119,颗粒物(PM10)
渭南市,体育馆,109.4605,34.4927,2026-02-21T2100,103,581,0.3,12,5,76,88,481,颗粒物(PM10)
渭南市,高新一小,109.4257,34.5067,2026-02-21T2100,122,477,0.3,14,6,71,86,372,颗粒物(PM10)
渭南市,渭花路4号,109.505065,34.492137,2026-02-21T2100,122,530,0.4,17,6,66,84,430,颗粒物(PM10)
温州市,瓯海,120.6342,28.0088,2026-02-21T2100,29,37,0.5,12,7,83,96,42,
温州市,南浦,120.6747,27.9881,2026-02-21T2100,35,52,0.6,10,6,93,102,51,颗粒物(PM10)
温州市,龙湾,120.76,27.9745,2026-02-21T2100,32,50,0.4,12,6,78,96,50,
温州市,茶山,120.6985,27.9252,2026-02-21T2100,19,36,/,12,/,73,99,36,
温州市,鹿城惠民路,120.6935,28.0114,2026-02-21T2100,23,36,0.4,8,/,94,100,36,
文山壮族苗族自治州,州水务局,104.2533,23.3595,2026-02-21T2100,23,30,0.3,6,6,73,81,33,
文山壮族苗族自治州,市便民服务中心,104.2319,23.3892,2026-02-21T2100,21,31,0.4,7,5,63,76,31,
乌海市,市林业局,106.8172,39.6972,2026-02-21T2100,258,815,0.4,3,2,86,91,500,颗粒物(PM10)
乌海市,中海勃湾学校,106.7907,39.6666,2026-02-21T2100,298,902,0.3,3,9,98,105,500,颗粒物(PM10)
乌海市,海北新区,106.8129,39.7274,2026-02-21T2100,221,973,0.3,3,12,85,90,500,颗粒物(PM10)
乌海市,海拉北路,106.8212,39.6741,2026-02-21T2100,219,997,0.3,1,8,83,88,500,颗粒物(PM10)
乌兰察布市,集宁新区,113.1306,40.9924,2026-02-21T2100,18,55,0.5,4,4,70,90,53,颗粒物(PM10)
乌兰察布市,光明街小学,113.1076,41.0385,2026-02-21T2100,32,87,0.5,10,5,71,84,69,颗粒物(PM10)
乌兰察布市,北京八中,113.1383,40.9513,2026-02-21T2100,9,53,0.5,1,3,75,82,52,颗粒物(PM10)
乌兰察布市,市委党校,113.1776,40.9779,2026-02-21T2100,23,61,0.3,5,2,85,94,56,颗粒物(PM10)
乌鲁木齐市,监测站,87.5796,43.8299,2026-02-21T2100,20,49,0.8,15,3,73,68,49,
乌鲁木齐市,收费所,87.6044,43.7679,2026-02-21T2100,54,69,0.6,28,6,76,70,74,细颗粒物(PM2.5)
乌鲁木齐市,铁路局,87.5529,43.8704,2026-02-21T2100,14,36,0.4,11,5,79,71,36,
乌鲁木齐市,三十一中学,87.6408,43.8258,2026-02-21T2100,34,53,0.4,24,2,78,61,52,颗粒物(PM10)
乌鲁木齐市,米东区环保局,87.7218,44.1747,2026-02-21T2100,12,,0.3,6,8,80,85,25,
乌鲁木齐市,培训基地,87.4652,43.4569,2026-02-21T2100,32,36,0.6,14,5,86,89,46,
乌鲁木齐市,达坂城区环保局,88.3088,43.3637,2026-02-21T2100,41,46,0.6,18,8,74,80,58,细颗粒物(PM2.5)
乌鲁木齐市,红光山片区,87.6132,43.8791,2026-02-21T2100,7,67,0.4,14,15,78,66,59,颗粒物(PM10)
乌鲁木齐市,新师大温泉校区,87.7008,43.8003,2026-02-21T2100,28,51,0.3,16,5,92,74,51,颗粒物(PM10)
乌鲁木齐市,大绿谷,87.4892,43.84,2026-02-21T2100,21,36,0.5,14,2,76,71,36,
无锡市,雪浪,120.2693,31.4864,2026-02-21T2100,24,46,0.3,21,7,79,98,46,
无锡市,黄巷,120.2761,31.621,2026-02-21T2100,38,70,0.6,28,6,66,92,60,颗粒物(PM10)
无锡市,漆塘,120.2422,31.5037,2026-02-21T2100,29,55,0.7,12,9,62,92,53,颗粒物(PM10)
无锡市,东亭,120.3489,31.5865,2026-02-21T2100,49,70,0.8,56,9,39,95,68,细颗粒物(PM2.5)
无锡市,旺庄,120.3538,31.5474,2026-02-21T2100,24,48,0.7,34,6,66,96,48,
无锡市,荣巷,120.2447,31.5633,2026-02-21T2100,71,105,,,8,43,100,,
无锡市,堰桥,120.2986,31.6816,2026-02-21T2100,28,53,0.6,29,6,72,91,52,颗粒物(PM10)
无锡市,清舒道1号,120.3138,31.4927,2026-02-21T2100,60,73,0.7,29,13,72,100,82,细颗粒物(PM2.5)
无锡市,健康路105号,120.2925,31.5685,2026-02-21T2100,45,73,1.0,48,6,54,88,63,细颗粒物(PM2.5)
吴忠市,教育园区,106.1535,37.9648,2026-02-21T2100,136,585,0.2,2,5,90,92,485,颗粒物(PM10)
吴忠市,新区二泵站,106.1851,37.9957,2026-02-21T2100,148,560,0.2,4,4,86,88,460,颗粒物(PM10)
吴忠市,文卫南街,106.2176,37.9832,2026-02-21T2100,180,544,0.2,4,5,90,94,444,颗粒物(PM10)
芜湖市,监测站,118.3603,31.3515,2026-02-21T2100,28,60,1.2,42,13,43,82,55,颗粒物(PM10)
芜湖市,科创中心,118.3716,31.4135,2026-02-21T2100,25,47,1.1,39,13,46,84,47,
芜湖市,四水厂,118.3671,31.3132,2026-02-21T2100,32,63,0.8,32,11,59,83,57,颗粒物(PM10)
芜湖市,市气象局,118.4209,31.3704,2026-02-21T2100,40,68,1.4,48,18,33,85,59,颗粒物(PM10)
芜湖市,清苑社区,118.4783,31.3226,2026-02-21T2100,59,88,0.5,38,12,49,91,80,细颗粒物(PM2.5)
芜湖市,扬子职业技术学院,118.2746,31.2326,2026-02-21T2100,48,73,0.7,18,25,62,95,67,细颗粒物(PM2.5)
芜湖市,湾沚区人民法院,118.5726,31.1371,2026-02-21T2100,33,56,1.2,20,11,58,82,53,颗粒物(PM10)
梧州市,市十一中,111.3126,23.4772,2026-02-21T2100,62,69,0.6,33,9,19,76,84,细颗粒物(PM2.5)
梧州市,龙新,111.26,23.4794,2026-02-21T2100,69,90,0.8,40,6,30,82,93,细颗粒物(PM2.5)
梧州市,政贤路18号,111.2416,23.4155,2026-02-21T2100,88,105,1.0,59,7,7,70,117,细颗粒物(PM2.5)
五家渠市,农水大厦,87.5352,44.1606,2026-02-21T2100,18,88,0.2,1,6,57,77,69,颗粒物(PM10)
五家渠市,经开区管委会,87.5461,44.1909,2026-02-21T2100,9,23,0.4,2,5,79,83,25,
五家渠市,建设西街760号,87.055284,43.999117,2026-02-21T2100,16,27,0.6,9,3,85,89,27,
武汉市,东湖梨园,114.3676,30.5584,2026-02-21T2100,44,45,0.9,17,10,79,98,62,细颗粒物(PM2.5)
武汉市,汉阳月湖,114.2527,30.5578,2026-02-21T2100,44,72,1.2,54,4,17,86,62,细颗粒物(PM2.5)
武汉市,汉口花桥,114.2819,30.6189,2026-02-21T2100,49,,1.2,48,4,44,89,68,细颗粒物(PM2.5)
武汉市,武昌紫阳,114.3024,30.5332,2026-02-21T2100,44,66,1.3,45,9,52,97,62,细颗粒物(PM2.5)
武汉市,青山钢花,114.3646,30.6217,2026-02-21T2100,73,81,1.4,39,11,52,91,98,细颗粒物(PM2.5)
武汉市,沌口新区,114.156697,30.482592,2026-02-21T2100,36,40,0.7,24,10,61,90,52,细颗粒物(PM2.5)
武汉市,汉口江滩,114.3013,30.5944,2026-02-21T2100,41,55,1.1,82,8,16,85,58,细颗粒物(PM2.5)
武汉市,吴家山,114.1285,30.6339,2026-02-21T2100,57,78,0.7,44,5,49,96,78,细颗粒物(PM2.5)
武汉市,民族大道182号,114.3876,30.4908,2026-02-21T2100,51,62,1.4,25,10,67,96,70,细颗粒物(PM2.5)
武威市,监测站,102.6203,37.925,2026-02-21T2100,53,298,0.3,2,10,80,76,174,颗粒物(PM10)
武威市,钟楼街149号,102.6447,37.9293,2026-02-21T2100,77,325,0.2,4,9,81,78,188,颗粒物(PM10)
西安市,兴庆小区,108.9931,34.2629,2026-02-21T2100,91,414,0.6,42,8,38,79,292,颗粒物(PM10)
西安市,纺织城,109.0595,34.2569,2026-02-21T2100,105,504,0.4,64,4,10,79,404,颗粒物(PM10)
西安市,小寨,108.9377,34.2178,2026-02-21T2100,101,396,0.5,25,4,60,88,266,颗粒物(PM10)
西安市,市人民体育场,108.9522,34.2739,2026-02-21T2100,113,492,0.8,60,4,26,79,390,颗粒物(PM10)
西安市,高新西区,108.8923,34.2322,2026-02-21T2100,107,454,0.3,25,4,52,84,343,颗粒物(PM10)
西安市,经开区,108.9386,34.3446,2026-02-21T2100,112,497,0.3,31,2,60,86,397,颗粒物(PM10)
西安市,长安区,108.894,34.1557,2026-02-21T2100,111,436,0.4,14,4,60,89,320,颗粒物(PM10)
西安市,临潼区,109.213,34.3748,2026-02-21T2100,104,452,0.3,7,5,80,86,340,颗粒物(PM10)
西安市,广运潭,109.0508,34.321,2026-02-21T2100,134,493,0.5,34,4,43,86,392,颗粒物(PM10)
西安市,无线电监控中心,109.1019,34.5302,2026-02-21T2100,115,505,0.2,18,5,68,87,405,颗粒物(PM10)
西安市,行知小学,108.8869,34.2662,2026-02-21T2100,119,469,0.5,32,6,51,81,362,颗粒物(PM10)
西安市,西苑北路977号,108.596239,34.118792,2026-02-21T2100,140,544,0.4,21,13,56,88,444,颗粒物(PM10)
西安市,曲江池东路988号,108.9817,34.2035,2026-02-21T2100,119,444,0.4,27,5,61,91,330,颗粒物(PM10)
西宁市,城北区政府,101.7775,36.643,2026-02-21T2100,34,71,0.8,18,9,74,101,61,颗粒物(PM10)
西宁市,世纪职校,101.8304,36.5785,2026-02-21T2100,25,53,0.5,13,11,72,83,52,颗粒物(PM10)
西宁市,海晏路105号,101.6769,36.6535,2026-02-21T2100,82,86,0.5,20,10,54,88,109,细颗粒物(PM2.5)
西双版纳傣族自治州,景洪市江南,100.8018,21.9995,2026-02-21T2100,54,109,0.9,20,8,49,81,80,颗粒物(PM10)
西双版纳傣族自治州,景洪市江北,100.7995,22.0238,2026-02-21T2100,57,93,0.6,25,8,47,90,78,细颗粒物(PM2.5)
锡林郭勒盟,市环保监测站,116.1048,43.9318,2026-02-21T2100,14,81,0.3,5,4,73,70,66,颗粒物(PM10)
锡林郭勒盟,市政府,116.0778,43.9312,2026-02-21T2100,8,78,0.2,4,4,82,78,64,颗粒物(PM10)
厦门市,洪文,118.1519,24.4768,2026-02-21T2100,18,30,0.6,11,4,90,113,30,
厦门市,鼓浪屿,118.0671,24.4447,2026-02-21T2100,26,34,/,11,1,90,105,38,
厦门市,湖里中学,118.0937,24.5054,2026-02-21T2100,21,33,0.6,12,2,80,104,33,
厦门市,集美中学,118.0961,24.5689,2026-02-21T2100,27,35,0.6,16,2,86,113,39,
厦门市,同安二实小,118.1502,24.7246,2026-02-21T2100,30,36,0.5,20,3,79,117,43,
咸宁市,长江产业园,114.3379,29.8683,2026-02-21T2100,42,44,0.7,26,6,48,94,59,细颗粒物(PM2.5)
咸宁市,双鹤路18号,114.3182,29.8447,2026-02-21T2100,39,52,1.2,26,4,49,90,55,细颗粒物(PM2.5)
咸宁市,碧桂路,114.284,29.8595,2026-02-21T2100,84,,0.9,39,7,36,94,112,细颗粒物(PM2.5)
咸阳市,实验中学,108.6726,34.315,2026-02-21T2100,164,461,0.8,36,6,45,82,352,颗粒物(PM10)
咸阳市,师范学院,108.7226,34.3622,2026-02-21T2100,106,469,0.5,25,6,55,82,362,颗粒物(PM10)
咸阳市,奥体中心,108.6394,34.408,2026-02-21T2100,146,497,0.6,19,6,60,85,397,颗粒物(PM10)
咸阳市,五陵塬路2号,108.6601,34.3767,2026-02-21T2100,173,584,0.6,29,6,58,83,484,颗粒物(PM10)
咸阳市,胭脂路9号,108.6372,34.3031,2026-02-21T2100,130,566,0.5,33,6,45,83,466,颗粒物(PM10)
湘潭市,板塘,112.9508,27.8626,2026-02-21T2100,35,47,1.1,18,3,39,58,50,
湘潭市,市监测站,112.9114,27.8404,2026-02-21T2100,31,42,1.0,22,4,30,54,45,
湘潭市,江麓,112.8935,27.8729,2026-02-21T2100,37,47,0.8,20,6,35,46,53,细颗粒物(PM2.5)
湘潭市,岳塘,112.9227,27.8159,2026-02-21T2100,37,,0.9,17,3,24,58,53,细颗粒物(PM2.5)
湘潭市,科大,112.9073,27.9118,2026-02-21T2100,34,52,1.2,12,1,39,58,51,颗粒物(PM10)
湘潭市,昭山,113.0048,27.9153,2026-02-21T2100,29,44,1.1,13,4,42,54,44,
湘西土家族苗族自治州,州政府,109.7298,28.3164,2026-02-21T2100,58,64,0.7,22,5,16,47,79,细颗粒物(PM2.5)
湘西土家族苗族自治州,吉首市计生局,109.6957,28.2676,2026-02-21T2100,36,45,0.8,34,4,16,58,52,细颗粒物(PM2.5)
襄阳市,襄城运动路,112.1555,32.0197,2026-02-21T2100,40,72,0.9,12,12,93,92,61,颗粒物(PM10)
襄阳市,高新管委会,112.1829,32.1146,2026-02-21T2100,45,61,1.0,13,9,93,94,63,细颗粒物(PM2.5)
襄阳市,襄州航空路,112.2105,32.0903,2026-02-21T2100,36,66,1.2,10,8,77,87,58,颗粒物(PM10)
襄阳市,襄城隆中路,112.0764,32.0089,2026-02-21T2100,53,66,0.9,11,17,88,89,73,细颗粒物(PM2.5)
襄阳市,高新台子湾,112.1154,32.103,2026-02-21T2100,52,66,0.8,24,11,82,85,72,细颗粒物(PM2.5)
襄阳市,铁院东路4号,112.1433,32.0581,2026-02-21T2100,30,57,0.8,12,11,89,89,54,颗粒物(PM10)
孝感市,东城区,113.9062,30.9378,2026-02-21T2100,46,64,0.9,13,4,88,108,64,细颗粒物(PM2.5)
孝感市,天仙南路1号,113.946,30.8999,2026-02-21T2100,80,130,0.7,15,4,65,97,107,细颗粒物(PM2.5)
忻州市,开发区,112.7313,38.457,2026-02-21T2100,110,666,0.4,3,4,95,94,500,颗粒物(PM10)
忻州市,会展中心,112.7023,38.4932,2026-02-21T2100,99,589,0,4,4,92,92,489,颗粒物(PM10)
忻州市,市政府,112.7279,38.4157,2026-02-21T2100,99,523,0.4,4,3,95,96,423,颗粒物(PM10)
新乡市,环保西院,113.836,35.3104,2026-02-21T2100,45,220,0.3,6,8,84,94,135,颗粒物(PM10)
新乡市,开发区,113.8847,35.2724,2026-02-21T2100,37,159,0.4,8,7,79,92,105,颗粒物(PM10)
新乡市,环保东院,113.8836,35.3028,2026-02-21T2100,33,186,0.4,12,5,79,90,118,颗粒物(PM10)
新乡市,市委党校,113.9194,35.2847,2026-02-21T2100,43,161,0.4,6,6,85,96,106,颗粒物(PM10)
新乡市,市政府,113.9189,35.3042,2026-02-21T2100,48,186,0.2,10,11,82,95,118,颗粒物(PM10)
新乡市,行政服务中心,113.9002,35.372,2026-02-21T2100,53,184,0.3,9,11,74,87,117,颗粒物(PM10)
