area,positionname,longitude,latitude,timepoint,pm2_5,pm10,co,no2,so2,o3,o3_8h,aqi,primarypollutant
阿坝藏族羌族自治州,马师校,102.2503,31.8896,2026-01-14T1500,6,36,0.4,6,3,76,46,36,
阿坝藏族羌族自治州,马尔康中学西区,102.2174,31.9016,2026-01-14T1500,3,33,0.4,4,5,75,46,33,
阿克苏地区,电视台,80.2899,41.1684,2026-01-14T1500,38,113,1.0,29,5,72,38,82,颗粒物(PM10)
阿克苏地区,艺术中心,80.2592,41.1541,2026-01-14T1500,63,95,0.9,27,7,76,40,85,细颗粒物(PM2.5)
阿拉善盟,蒙二幼,105.699,38.8409,2026-01-14T1500,89,258,0.5,4,9,84,81,154,颗粒物(PM10)
阿拉善盟,环保局新楼,105.7198,38.8508,2026-01-14T1500,67,277,0.4,4,5,76,75,164,颗粒物(PM10)
阿勒泰地区,市站,88.1266,47.8515,2026-01-14T1500,34,50,0.8,26,8,60,31,50,
阿勒泰地区,阿勒泰路33号,88.1198,47.7931,2026-01-14T1500,57,70,0.9,26,6,64,42,78,细颗粒物(PM2.5)
阿里地区,阿里监测站,80.1171,32.4999,2026-01-14T1500,3,6,0.4,2,7,72,56,23,
阿里地区,阿里藏医院,80.0906,32.5029,2026-01-14T1500,7,,0.5,2,11,84,61,27,
安康市,汉滨区检察院,109.0088,32.6974,2026-01-14T1500,49,68,0.7,11,6,64,28,68,细颗粒物(PM2.5)
安康市,市邮政管理局,109.0324,32.6913,2026-01-14T1500,51,77,0.7,17,6,50,22,70,细颗粒物(PM2.5)
安庆市,环科院,117.0806,30.5181,2026-01-14T1500,37,51,0.4,14,8,113,60,53,细颗粒物(PM2.5)
安庆市,马山宾馆,117.0331,30.5118,2026-01-14T1500,34,50,0.5,16,7,118,62,50,
安庆市,安庆大学,116.9897,30.6146,2026-01-14T1500,32,40,0.4,12,8,125,60,46,
安庆市,市人大,117.0598,30.5351,2026-01-14T1500,33,46,0.4,14,9,122,63,48,
安顺市,凤凰山,105.9408,26.2431,2026-01-14T1500,,,0.7,19,18,61,92,,
安顺市,金钟山,105.9443,26.2567,2026-01-14T1500,64,65,0.8,15,21,59,90,87,细颗粒物(PM2.5)
安顺市,娄家坡,105.8983,26.248,2026-01-14T1500,61,67,1.0,17,11,63,92,83,细颗粒物(PM2.5)
安阳市,红庙街,114.3552,36.1017,2026-01-14T1500,82,138,1.3,51,13,29,28,109,细颗粒物(PM2.5)
安阳市,银杏小区,114.361,36.0681,2026-01-14T1500,91,119,1.3,52,13,25,24,120,细颗粒物(PM2.5)
安阳市,信访局,114.3921,36.0879,2026-01-14T1500,84,122,1.3,54,12,25,28,112,细颗粒物(PM2.5)
安阳市,左辅环卫站,114.4706,36.0634,2026-01-14T1500,116,154,1.3,45,14,32,25,152,细颗粒物(PM2.5)
安阳市,钢三路198号,114.2918,36.0769,2026-01-14T1500,86,156,1.3,47,13,27,23,114,细颗粒物(PM2.5)
鞍山市,深沟寺,123.0441,41.1201,2026-01-14T1500,17,31,0.7,12,7,60,60,31,
鞍山市,太阳城,123.011,41.0931,2026-01-14T1500,17,106,0.8,13,11,69,69,78,颗粒物(PM10)
鞍山市,太平,123.0483,41.1445,2026-01-14T1500,17,37,0.6,15,8,57,54,37,
鞍山市,铁西三道街,122.964,41.0968,2026-01-14T1500,28,52,0.7,36,26,47,49,51,颗粒物(PM10)
鞍山市,明达新区,123.0219,41.0822,2026-01-14T1500,25,34,0.4,15,15,63,65,36,
鞍山市,兴盛南路290号,122.944647,41.082639,2026-01-14T1500,22,55,0.5,18,13,60,56,53,颗粒物(PM10)
巴彦淖尔市,附二中,107.4206,40.7609,2026-01-14T1500,32,149,0.4,4,3,75,70,100,颗粒物(PM10)
巴彦淖尔市,市环保大楼,107.37,40.7372,2026-01-14T1500,31,121,0.3,3,4,86,79,86,颗粒物(PM10)
巴音郭楞蒙古自治州,孔雀公园,86.1476,41.7529,2026-01-14T1500,33,80,0.6,17,11,78,20,65,颗粒物(PM10)
巴音郭楞蒙古自治州,棉纺厂,86.1971,41.7166,2026-01-14T1500,24,124,/,14,/,78,29,87,颗粒物(PM10)
巴音郭楞蒙古自治州,经济开发区,86.236,41.7172,2026-01-14T1500,16,84,0.4,,9,62,23,,
巴中市,市五中,106.776805,31.852614,2026-01-14T1500,60,82,0.8,25,6,57,19,82,细颗粒物(PM2.5)
巴中市,圣泉水务公司,106.7419,31.8654,2026-01-14T1500,52,63,0.7,17,5,67,26,72,细颗粒物(PM2.5)
巴中市,市中心医院,106.7617,31.8343,2026-01-14T1500,45,57,0.6,17,7,68,21,63,细颗粒物(PM2.5)
白城市,洮北区环保局,122.7909,45.608,2026-01-14T1500,16,26,0.2,9,6,59,48,26,
白城市,市环保局,122.8741,45.5725,2026-01-14T1500,12,34,0.4,8,7,55,40,34,
白山市,喜丰,126.4219,41.9172,2026-01-14T1500,18,190,1.1,47,95,26,28,120,颗粒物(PM10)
白山市,环保局,126.4082,41.9416,2026-01-14T1500,33,,1.0,30,12,36,30,48,
白银市,第三小学,104.1727,36.5448,2026-01-14T1500,45,197,0.5,18,8,74,75,124,颗粒物(PM10)
白银市,动力公司,104.1467,36.5482,2026-01-14T1500,50,203,0.5,13,9,77,76,127,颗粒物(PM10)
百色市,市监测站,106.6102,23.901,2026-01-14T1500,93,126,0.9,32,,112,46,123,细颗粒物(PM2.5)
百色市,市中心血站,106.6524,23.8842,2026-01-14T1500,109,132,1.2,32,26,129,48,143,细颗粒物(PM2.5)
百色市,龙景西路,106.6273,23.8798,2026-01-14T1500,97,155,1.0,32,30,133,42,128,细颗粒物(PM2.5)
蚌埠市,工人疗养院,117.396,32.9389,2026-01-14T1500,51,89,0.8,28,9,113,68,70,"颗粒物(PM10),细颗粒物(PM2.5)"
蚌埠市,百货大楼,117.3606,32.9428,2026-01-14T1500,60,92,0.5,22,10,122,72,82,细颗粒物(PM2.5)
蚌埠市,蚌埠学院,117.4183,32.8909,2026-01-14T1500,50,61,0.6,19,10,126,77,69,细颗粒物(PM2.5)
蚌埠市,淮上区政府,117.3534,32.9672,2026-01-14T1500,67,90,0.8,22,7,127,79,90,细颗粒物(PM2.5)
蚌埠市,高新区,117.3143,32.8977,2026-01-14T1500,67,85,0.5,21,12,111,73,90,细颗粒物(PM2.5)
蚌埠市,蚌埠田家炳中学,117.3091,32.9314,2026-01-14T1500,63,92,0.6,30,8,109,68,85,细颗粒物(PM2.5)
包头市,市环境监测站,109.8761,40.6533,2026-01-14T1500,75,645,0.2,10,3,82,54,500,颗粒物(PM10)
包头市,包头八中,109.9992,40.5843,2026-01-14T1500,49,536,0.4,11,3,77,62,436,颗粒物(PM10)
包头市,惠龙物流,109.8641,40.6288,2026-01-14T1500,69,558,0.6,10,9,81,69,458,颗粒物(PM10)
包头市,东河鸿龙湾,110.0376,40.5546,2026-01-14T1500,36,647,0.8,5,9,80,68,500,颗粒物(PM10)
包头市,滨河大厦,109.9154,40.5684,2026-01-14T1500,70,689,0.6,5,8,79,71,500,颗粒物(PM10)
包头市,包头市委党校,109.9449,40.6259,2026-01-14T1500,47,482,0.5,10,6,75,64,378,颗粒物(PM10)
包头市,昆区政府,109.8332,40.6577,2026-01-14T1500,36,454,0.6,15,7,73,53,343,颗粒物(PM10)
宝鸡市,竹园沟,107.0802,34.3129,2026-01-14T1500,26,100,0.2,14,6,88,44,75,颗粒物(PM10)
宝鸡市,监测站,107.1429,34.3549,2026-01-14T1500,31,150,0.5,20,5,78,39,100,颗粒物(PM10)
宝鸡市,技工学校,107.1172,34.3759,2026-01-14T1500,37,130,0.5,11,4,88,50,90,颗粒物(PM10)
宝鸡市,文理学院,107.2025,34.3518,2026-01-14T1500,31,126,0.3,17,4,79,39,88,颗粒物(PM10)
宝鸡市,三迪小学,107.2396,34.3626,2026-01-14T1500,37,,0.4,14,4,86,38,,
宝鸡市,滨河北路,107.1721,34.3558,2026-01-14T1500,25,63,0.3,14,5,83,36,57,颗粒物(PM10)
宝鸡市,陈仓区北开路21号,107.3898,34.3601,2026-01-14T1500,40,153,0.1,36,7,80,41,102,颗粒物(PM10)
保定市,游泳馆,115.4803,38.8568,2026-01-14T1500,60,86,0.5,44,,32,23,,
保定市,华电二区,115.509,38.8895,2026-01-14T1500,55,66,0.5,31,6,32,19,75,细颗粒物(PM2.5)
保定市,接待中心,115.4588,38.9037,2026-01-14T1500,62,86,0.6,36,4,33,22,84,细颗粒物(PM2.5)
保定市,地表水厂,115.4484,38.8344,2026-01-14T1500,72,110,0.6,51,7,22,13,97,细颗粒物(PM2.5)
保定市,满城区生态环境分局,115.3136,38.9511,2026-01-14T1500,61,97,0.6,40,6,38,18,83,细颗粒物(PM2.5)
保定市,清苑区第二中学,115.4709,38.7628,2026-01-14T1500,51,121,0.6,40,5,25,11,86,颗粒物(PM10)
保定市,徐水物探局,115.6231,39.0223,2026-01-14T1500,60,94,0.6,34,7,30,16,82,细颗粒物(PM2.5)
保定市,双鹰农机,115.4199,38.8665,2026-01-14T1500,,111,0.7,47,9,33,24,,
保定市,植保所站,115.515,38.8589,2026-01-14T1500,54,70,0.6,40,5,26,18,74,细颗粒物(PM2.5)
保山市,市环境监测站,99.1589,25.1137,2026-01-14T1500,7,18,0.1,6,2,90,58,29,
保山市,市环保局,99.1616,25.1381,2026-01-14T1500,21,29,0.3,4,4,92,64,30,
北海市,海滩公园,109.1435,21.4085,2026-01-14T1500,44,58,1.0,11,11,176,113,70,臭氧1小时(O3_1h)
北海市,新市环保局,109.0983,21.466,2026-01-14T1500,58,,0.5,16,7,166,116,79,细颗粒物(PM2.5)
北海市,北海工业园,109.1775,21.5232,2026-01-14T1500,46,55,0.8,10,9,174,116,68,臭氧1小时(O3_1h)
北海市,龙潭自来水厂,109.1844,21.4396,2026-01-14T1500,45,65,0.6,13,12,175,105,69,臭氧1小时(O3_1h)
北京市,万寿西宫,116.3611,39.8786,2026-01-14T1500,50,81,0.8,60,4,16,8,69,细颗粒物(PM2.5)
北京市,东四,116.4174,39.9289,2026-01-14T1500,49,89,1.0,53,6,17,10,70,颗粒物(PM10)
北京市,天坛,116.4073,39.8858,2026-01-14T1500,50,91,0.8,55,4,17,9,71,颗粒物(PM10)
北京市,农展馆,116.4622,39.9364,2026-01-14T1500,50,86,1.0,39,6,22,11,69,细颗粒物(PM2.5)
北京市,官园,116.3399,39.9293,2026-01-14T1500,53,93,1.0,51,6,18,11,73,细颗粒物(PM2.5)
北京市,海淀万柳,116.2879,39.9613,2026-01-14T1500,52,86,0.8,52,5,19,14,72,细颗粒物(PM2.5)
北京市,顺义新城,116.6635,40.1349,2026-01-14T1500,52,81,0.5,24,6,45,24,72,细颗粒物(PM2.5)
北京市,怀柔镇,116.6275,40.327,2026-01-14T1500,47,71,0.6,40,5,33,32,65,细颗粒物(PM2.5)
北京市,昌平镇,116.2295,40.217,2026-01-14T1500,47,84,0.8,39,7,27,25,67,颗粒物(PM10)
北京市,奥体中心,116.3968,39.982,2026-01-14T1500,51,96,1.1,70,5,19,11,73,颗粒物(PM10)
北京市,密云新城,116.8336,40.4095,2026-01-14T1500,39,66,0.5,17,5,51,28,58,颗粒物(PM10)
北京市,门头沟三家店,116.0879,39.9725,2026-01-14T1500,41,88,0.7,41,5,28,20,69,颗粒物(PM10)
北京市,丰台云岗,116.1507,39.8246,2026-01-14T1500,50,87,0.8,47,4,24,15,69,"颗粒物(PM10),细颗粒物(PM2.5)"
北京市,房山燕山,115.9578,39.7602,2026-01-14T1500,53,92,0.7,48,5,25,17,73,细颗粒物(PM2.5)
北京市,大兴旧宫,116.4669,39.7734,2026-01-14T1500,37,73,0.8,39,4,28,12,62,颗粒物(PM10)
北京市,延庆石河营,115.9859,40.4562,2026-01-14T1500,36,64,0.7,37,6,38,22,57,颗粒物(PM10)
北京市,怀柔新城,116.6151,40.3052,2026-01-14T1500,43,125,0.6,27,5,41,35,88,颗粒物(PM10)
北京市,丰台小屯,116.2542,39.8764,2026-01-14T1500,49,88,1.0,60,5,14,11,69,颗粒物(PM10)
北京市,密云镇,116.8399,40.3843,2026-01-14T1500,40,73,0.5,21,3,47,24,62,颗粒物(PM10)
北京市,延庆百泉,115.9423,40.4431,2026-01-14T1500,41,71,0.7,43,5,27,14,61,颗粒物(PM10)
北京市,通州新华,116.6598,39.9164,2026-01-14T1500,39,76,0.6,40,6,31,11,63,颗粒物(PM10)
北京市,石景山八角,116.1942,39.9158,2026-01-14T1500,,,,,,,48,,
北京市,平谷新城,117.078628,40.151726,2026-01-14T1500,34,60,0.6,19,2,50,32,55,颗粒物(PM10)
本溪市,大峪,123.8274146,41.31234549,2026-01-14T1500,20,44,0.6,21,11,52,34,44,
本溪市,彩屯,123.7169,41.3094,2026-01-14T1500,18,41,2.2,31,17,43,31,41,
本溪市,东明,123.7672166,41.28649327,2026-01-14T1500,11,25,0.6,12,9,58,44,25,
本溪市,新立屯,123.799345,41.266614,2026-01-14T1500,11,21,0.5,13,10,58,48,21,
本溪市,威宁,123.829144,41.336777,2026-01-14T1500,23,51,0.7,22,12,43,36,51,颗粒物(PM10)
毕节市,八中,105.287,27.3133,2026-01-14T1500,59,60,0.7,11,9,81,76,80,细颗粒物(PM2.5)
毕节市,师专,105.3079,27.2987,2026-01-14T1500,56,65,0.7,11,8,89,85,77,细颗粒物(PM2.5)
毕节市,工业大道,105.3688,27.3598,2026-01-14T1500,58,,/,19,10,87,,,
滨州市,第二水厂,117.9961,37.3604,2026-01-14T1500,121,188,1.4,76,27,18,13,159,细颗粒物(PM2.5)
滨州市,北中新校,117.9789,37.3931,2026-01-14T1500,124,175,1.5,74,27,25,13,163,细颗粒物(PM2.5)
滨州市,中海酒店,117.9379,37.3959,2026-01-14T1500,132,197,1.7,69,36,26,15,175,细颗粒物(PM2.5)
滨州市,开发区一中,117.9381509,37.35547456,2026-01-14T1500,127,193,1.1,67,31,23,13,168,细颗粒物(PM2.5)
滨州市,金海六路,118.0914,37.6938,2026-01-14T1500,95,176,1.3,59,21,41,25,125,细颗粒物(PM2.5)
滨州市,滨州市西街道办事处,117.9955,37.3752,2026-01-14T1500,134,188,1.2,65,,20,16,178,细颗粒物(PM2.5)
亳州市,污水处理厂,115.8071,33.8399,2026-01-14T1500,83,120,,22,6,99,45,110,细颗粒物(PM2.5)
亳州市,三国揽胜宫,115.7789,33.8519,2026-01-14T1500,85,150,0.7,22,6,101,50,113,细颗粒物(PM2.5)
亳州市,亳州学院,115.7631,33.803,2026-01-14T1500,85,112,0.7,18,5,105,50,113,细颗粒物(PM2.5)
博尔塔拉蒙古自治州,市党校,82.0482,44.8553,2026-01-14T1500,38,65,0.5,23,3,48,60,58,颗粒物(PM10)
博尔塔拉蒙古自治州,市环保局,82.0805,44.8966,2026-01-14T1500,47,87,1.2,28,9,46,62,69,颗粒物(PM10)
沧州市,沧县城建局,116.8733,38.2922,2026-01-14T1500,49,78,0.5,37,9,40,20,68,细颗粒物(PM2.5)
沧州市,电视转播站,116.8462,38.3189,2026-01-14T1500,56,82,0.5,42,5,34,15,77,细颗粒物(PM2.5)
沧州市,市环保局,116.8588,38.3161,2026-01-14T1500,53,83,0.5,34,8,33,15,73,细颗粒物(PM2.5)
沧州市,河北水利电力学院,116.8011,38.294,2026-01-14T1500,47,88,0.5,37,6,35,20,69,颗粒物(PM10)
昌都市,昌都监测站,97.1813,31.1289,2026-01-14T1500,15,54,0.3,4,3,83,46,52,颗粒物(PM10)
昌都市,昌都会议中心,97.1707,31.1428,2026-01-14T1500,42,43,0.3,1,3,78,51,59,细颗粒物(PM2.5)
昌吉回族自治州,新区政务中心,87.2722,44.0298,2026-01-14T1500,58,82,1.0,23,9,58,45,79,细颗粒物(PM2.5)
昌吉回族自治州,亚心广场,87.3069,44.0093,2026-01-14T1500,61,85,0.7,13,8,59,48,83,细颗粒物(PM2.5)
昌吉回族自治州,财政所,87.2057,43.9289,2026-01-14T1500,52,76,0.5,10,6,69,48,72,细颗粒物(PM2.5)
长春市,客车厂,125.2874,43.9024,2026-01-14T1500,49,60,0.6,20,10,62,40,68,细颗粒物(PM2.5)
长春市,邮电学院,125.2943,43.8508,2026-01-14T1500,30,54,0.6,16,12,66,40,52,颗粒物(PM10)
长春市,劳动公园,125.3648,43.8745,2026-01-14T1500,30,56,0.5,21,14,60,40,53,颗粒物(PM10)
长春市,园林处,125.3233,43.8781,2026-01-14T1500,53,55,0.6,18,12,59,38,73,细颗粒物(PM2.5)
长春市,净月潭,125.4604,43.7904,2026-01-14T1500,22,41,0.4,9,8,66,52,41,
长春市,经开区环卫处,125.38,43.8422,2026-01-14T1500,33,58,0.5,18,9,63,39,54,颗粒物(PM10)
长春市,高新区管委会,125.234,43.7761,2026-01-14T1500,32,61,0.5,15,10,66,43,56,颗粒物(PM10)
长春市,岱山公园,125.1695,43.83,2026-01-14T1500,37,66,0.8,28,9,53,35,58,颗粒物(PM10)
长春市,北亚泰大街1068号,125.334645,43.916281,2026-01-14T1500,42,59,0.8,27,12,56,35,59,细颗粒物(PM2.5)
长沙市,经开区环保局,113.082,28.2421,2026-01-14T1500,30,54,0.6,18,7,124,86,52,颗粒物(PM10)
长沙市,高开区环保局,112.8873,28.2202,2026-01-14T1500,43,64,0.9,13,12,122,85,60,细颗粒物(PM2.5)
长沙市,马坡岭,113.0785,28.2012,2026-01-14T1500,33,56,0.6,12,8,124,78,53,颗粒物(PM10)
长沙市,湖南师范大学,112.9448,28.1894,2026-01-14T1500,39,67,0.8,16,10,135,83,59,颗粒物(PM10)
长沙市,雨花区环保局,113.0177,28.1322,2026-01-14T1500,26,55,0.6,17,12,124,87,53,颗粒物(PM10)
长沙市,伍家岭,112.9795,28.2593,2026-01-14T1500,39,63,0.6,20,9,124,50,57,颗粒物(PM10)
长沙市,火车新站,113.002,28.1944,2026-01-14T1500,31,59,0.6,14,13,127,85,55,颗粒物(PM10)
长沙市,天心区环保局,112.9846,28.1177,2026-01-14T1500,34,54,,16,,130,88,,
长沙市,湖南中医药大学,112.8906,28.1307,2026-01-14T1500,42,67,1.0,19,14,131,63,59,"颗粒物(PM10),细颗粒物(PM2.5)"
长治市,清华站,113.1146,36.1547,2026-01-14T1500,,,0.4,9,11,86,47,,
长治市,审计局,113.0887,36.2126,2026-01-14T1500,12,35,0.5,12,10,79,31,35,
长治市,长治八中,113.0845,36.1856,2026-01-14T1500,,,0.5,6,10,84,34,,
长治市,德盛苑,113.1561,36.1912,2026-01-14T1500,14,39,0.5,10,10,84,68,39,
长治市,向阳小学,113.0603,36.0464,2026-01-14T1500,8,55,0.4,12,11,87,58,53,颗粒物(PM10)
长治市,屯留一中,112.8788,36.315,2026-01-14T1500,19,57,0.5,10,8,84,42,54,颗粒物(PM10)
长治市,英华南巷50号,113.113092,36.199482,2026-01-14T1500,14,44,0.6,11,8,83,37,44,
长治市,学府街1号,113.23666,36.33435,2026-01-14T1500,20,63,0.5,12,11,82,39,57,颗粒物(PM10)
常德市,市二中,111.696,28.9725,2026-01-14T1500,54,66,0.8,12,7,118,55,74,细颗粒物(PM2.5)
常德市,武陵区永安,111.7152,29.0288,2026-01-14T1500,43,61,0.7,8,6,117,60,60,细颗粒物(PM2.5)
常德市,鼎城区玉霞,111.6891,28.9881,2026-01-14T1500,54,68,0.6,14,9,116,53,74,细颗粒物(PM2.5)
常德市,武陵区长庚,111.6651,29.0526,2026-01-14T1500,43,52,0.6,12,,115,55,,
常州市,市监测站,119.9524,31.7586,2026-01-14T1500,19,36,0.5,20,4,103,60,36,
常州市,武进监测站,119.9351,31.703,2026-01-14T1500,27,42,0.2,26,10,97,58,42,
常州市,行政中心,119.9701,31.813,2026-01-14T1500,27,47,0.4,23,6,97,58,47,
常州市,经开区,120.0434,31.7726,2026-01-14T1500,23,,0.4,,4,97,56,,
常州市,钟楼,119.8919,31.7892,2026-01-14T1500,36,69,0.5,,9,95,58,,
常州市,武进经发区,119.8595,31.706,2026-01-14T1500,37,56,0.6,30,3,102,59,53,"颗粒物(PM10),细颗粒物(PM2.5)"
常州市,金坛城区,119.5812,31.7256,2026-01-14T1500,51,,0.8,44,25,78,53,70,细颗粒物(PM2.5)
常州市,崇义南街5-H号,119.9551,31.863,2026-01-14T1500,26,51,0.6,32,6,102,61,51,颗粒物(PM10)
朝阳市,西梁,120.4318,41.588,2026-01-14T1500,62,96,1.4,45,15,18,26,84,细颗粒物(PM2.5)
朝阳市,河畔小区,120.452,41.565,2026-01-14T1500,54,64,1.4,36,14,35,25,74,细颗粒物(PM2.5)
朝阳市,八里堡,120.4176,41.5648,2026-01-14T1500,37,50,1.0,41,9,35,27,53,细颗粒物(PM2.5)
潮州市,市政府,116.6179,23.6608,2026-01-14T1500,24,56,0.3,12,10,132,80,53,颗粒物(PM10)
潮州市,金山,116.646,23.676,2026-01-14T1500,25,51,0.3,9,6,134,86,51,颗粒物(PM10)
郴州市,市职中,113.0116,25.8228,2026-01-14T1500,28,40,0.5,6,8,121,59,40,
郴州市,市审计局,113.0381,25.8074,2026-01-14T1500,31,36,/,8,3,126,65,45,
郴州市,市环保局,113.0348,25.7757,2026-01-14T1500,28,42,0.3,8,5,120,76,42,
郴州市,好美居路49号,113.0138,25.8011,2026-01-14T1500,24,35,/,6,4,130,68,41,
成都市,金泉两河,103.9727,30.7242,2026-01-14T1500,62,112,0.8,24,3,106,50,84,细颗粒物(PM2.5)
成都市,十里店,104.1423,30.6765,2026-01-14T1500,45,67,,16,4,108,52,,
成都市,三瓦窑,104.0594,30.5765,2026-01-14T1500,51,71,0.6,23,4,104,53,70,细颗粒物(PM2.5)
成都市,沙河铺,104.1122,30.6306,2026-01-14T1500,45,75,0.7,,5,96,38,,
成都市,大石西路,104.0219,30.6561,2026-01-14T1500,45,67,0.9,21,6,104,44,63,细颗粒物(PM2.5)
成都市,龙泉驿区区政府,104.2724,30.559,2026-01-14T1500,48,63,0.5,17,7,108,87,67,细颗粒物(PM2.5)
成都市,金博路,104.0028,30.6891,2026-01-14T1500,53,64,0.9,24,6,108,47,73,细颗粒物(PM2.5)
成都市,华阳,104.056,30.5228,2026-01-14T1500,58,83,,21,4,106,58,,
成都市,青石路225号,104.387954,30.746684,2026-01-14T1500,52,75,0.6,21,3,107,56,72,细颗粒物(PM2.5)
成都市,科学城,104.0788,30.4054,2026-01-14T1500,66,72,0.1,14,7,108,60,89,细颗粒物(PM2.5)
成都市,光华大道三段,103.8505,30.6946,2026-01-14T1500,53,80,0.4,22,4,112,56,73,细颗粒物(PM2.5)
成都市,八角井街185号,104.3257,30.6406,2026-01-14T1500,58,69,0.6,19,4,102,73,79,细颗粒物(PM2.5)
成都市,鲸龙路1057号,104.2433276,30.53529463,2026-01-14T1500,53,59,0.5,15,5,107,71,73,细颗粒物(PM2.5)
承德市,铁路,117.9531,40.908,2026-01-14T1500,6,47,0.6,25,8,34,20,47,
承德市,中国银行,117.9397,40.9763,2026-01-14T1500,8,37,0.6,12,12,54,30,37,
承德市,杏林街1号,117.9462,40.95,2026-01-14T1500,34,49,0.8,23,10,38,24,49,
承德市,滨河大街98号,117.7994,40.9605,2026-01-14T1500,26,44,1.0,26,22,36,24,44,
池州市,池州学院,117.4698,30.6617,2026-01-14T1500,41,61,1.0,22,14,114,79,58,细颗粒物(PM2.5)
池州市,展览馆,117.4918,30.6617,2026-01-14T1500,26,65,1.1,,10,112,62,,
池州市,第八中学,117.5626,30.695,2026-01-14T1500,35,52,0.9,20,10,115,81,51,颗粒物(PM10)
池州市,第十二中学,117.5037,30.6242,2026-01-14T1500,43,64,0.8,24,12,115,76,60,细颗粒物(PM2.5)
赤峰市,松山一中,118.9229,42.2816,2026-01-14T1500,41,95,1.0,25,13,51,17,73,颗粒物(PM10)
赤峰市,哈达街,118.9588,42.2733,2026-01-14T1500,48,109,1.0,34,15,52,21,80,颗粒物(PM10)
赤峰市,天义路,118.8792,42.2551,2026-01-14T1500,15,57,0.5,15,5,66,25,54,颗粒物(PM10)
赤峰市,银河街,119.2656,42.0356,2026-01-14T1500,28,75,0.8,19,15,52,36,63,颗粒物(PM10)
赤峰市,桥北物流园区,118.9359,42.3146,2026-01-14T1500,72,102,1.3,45,44,39,27,97,细颗粒物(PM2.5)
崇左市,市环保局江州分局,107.3473,22.4137,2026-01-14T1500,51,86,0.7,15,13,140,70,70,细颗粒物(PM2.5)
崇左市,石景林东路7号,107.375,22.3736,2026-01-14T1500,66,84,0.6,15,14,147,72,89,细颗粒物(PM2.5)
滁州市,市政府原办公楼,118.31131,32.3033,2026-01-14T1500,33,52,0.3,11,8,120,56,51,颗粒物(PM10)
滁州市,图书馆,118.3268,32.2633,2026-01-14T1500,21,45,0.4,14,12,113,69,45,
滁州市,银山路666号,118.3196,32.3335,2026-01-14T1500,32,46,0.4,15,27,115,50,46,
滁州市,黄山路555号,118.3426,32.2979,2026-01-14T1500,35,59,0.7,27,15,128,71,55,颗粒物(PM10)
楚雄彝族自治州,市经济开发区,101.5379,25.0492,2026-01-14T1500,8,10,0.4,3,2,75,34,24,
楚雄彝族自治州,团结路562号,101.5536,25.0343,2026-01-14T1500,3,17,0.5,4,3,,10,,
达州市,市环境监测站,107.5087,31.2186,2026-01-14T1500,112,151,1.0,60,8,32,14,147,细颗粒物(PM2.5)
达州市,凤凰小区,107.4988,31.2132,2026-01-14T1500,117,166,1.0,54,6,28,12,153,细颗粒物(PM2.5)
达州市,达县机关宾馆,107.5081,31.1987,2026-01-14T1500,111,173,1.0,67,5,30,13,145,细颗粒物(PM2.5)
达州市,市政中心,107.4644,31.2124,2026-01-14T1500,185,233,0.9,48,8,44,16,235,细颗粒物(PM2.5)
大理白族自治州,大理市环境监测站,100.2168,25.5818,2026-01-14T1500,17,26,0.7,10,6,76,69,26,
大理白族自治州,大理古城,100.1542,25.7055,2026-01-14T1500,11,26,0.6,6,8,99,70,31,
大连市,甘井子,121.6119,38.974,2026-01-14T1500,22,41,0.2,22,8,65,71,41,
大连市,周水子,121.565,38.9509,2026-01-14T1500,23,38,0.3,21,6,61,67,38,
大连市,星海三站,121.5637,38.8849,2026-01-14T1500,26,33,0.4,18,6,66,70,38,
大连市,青泥洼桥,121.6301,38.9117,2026-01-14T1500,23,44,0.5,17,8,64,68,44,
大连市,傅家庄,121.6248,38.8643,2026-01-14T1500,19,52,0.2,15,8,62,64,51,颗粒物(PM10)
大连市,七贤岭,121.5117,38.8636,2026-01-14T1500,22,40,0.4,19,9,59,65,40,
大连市,金州,121.7507,39.1339,2026-01-14T1500,37,52,0.9,24,9,43,71,53,细颗粒物(PM2.5)
大连市,开发区,121.7811,39.0495,2026-01-14T1500,30,44,0.7,38,6,26,60,44,
大连市,双D港,121.9762,39.0631,2026-01-14T1500,26,42,0.4,17,7,56,78,42,
大连市,旅顺,121.2548,38.8188,2026-01-14T1500,,,,,,,68,,
大庆市,大同区,124.8085,46.0381,2026-01-14T1500,,,0.5,,7,60,48,,
大庆市,龙凤区,125.1166,46.5255,2026-01-14T1500,17,20,0.7,22,9,52,39,25,
大庆市,红岗区,124.8894,46.4007,2026-01-14T1500,21,21,0.5,11,6,52,39,30,
大庆市,萨尔图区,125.1391,46.578,2026-01-14T1500,7,26,0.3,12,9,55,41,26,
大庆市,让胡路区,124.9026,46.6217,2026-01-14T1500,19,,0.4,4,7,72,60,28,
大庆市,萨区政府监测点,125.127,46.6277,2026-01-14T1500,7,20,0.4,8,9,64,46,20,
大同市,云冈宾馆,113.2926,40.0759,2026-01-14T1500,46,256,0.5,17,5,59,60,153,颗粒物(PM10)
大同市,大同大学,113.3437,40.0921,2026-01-14T1500,,171,0.3,17,3,65,62,,
大同市,安家小村,113.2637,40.129,2026-01-14T1500,63,236,0.3,19,6,46,61,143,颗粒物(PM10)
大同市,大同市卫生学校,113.3399,40.0586,2026-01-14T1500,58,190,0.3,22,4,60,57,120,颗粒物(PM10)
大同市,云冈站,113.1371,40.1122,2026-01-14T1500,68,206,0.5,20,5,57,64,128,颗粒物(PM10)
大同市,图书馆,113.1186,40.2556,2026-01-14T1500,63,178,0.4,10,5,71,70,114,颗粒物(PM10)
大同市,区一中,113.5931,40.0459,2026-01-14T1500,,,,,,,65,,
大同市,魏都大道141号,113.2798248,40.09972476,2026-01-14T1500,56,223,0.5,17,5,59,60,137,颗粒物(PM10)
大兴安岭地区,科技局,124.1068,50.4091,2026-01-14T1500,8,17,0.3,2,5,55,54,18,
大兴安岭地区,红旗社区,124.117,50.4279,2026-01-14T1500,3,7,0.2,,5,53,59,,
丹东市,江湾东路,124.33,40.0625,2026-01-14T1500,38,56,0.7,28,11,36,34,54,细颗粒物(PM2.5)
丹东市,临江后街,124.4242,40.1513,2026-01-14T1500,25,39,0.6,16,9,47,34,39,
丹东市,元宝山,124.3935,40.1461,2026-01-14T1500,27,41,0.6,28,16,32,25,41,
丹东市,民主桥,124.3634,40.1093,2026-01-14T1500,28,50,0.8,28,14,32,30,50,
儋州市,第一中学子站,109.5726195,19.51688767,2026-01-14T1500,16,30,0.5,3,3,88,77,30,
儋州市,东坡学校子站,109.5567,19.5187,2026-01-14T1500,18,26,0.4,2,5,100,81,32,
德宏傣族景颇族自治州,德宏州监测站,98.5611,24.4273,2026-01-14T1500,27,32,0.5,10,8,91,38,39,
德宏傣族景颇族自治州,芒市人民政府综合楼,98.5887,24.4366,2026-01-14T1500,36,59,0.6,10,7,84,36,55,颗粒物(PM10)
德阳市,东山公园,104.424,31.1209,2026-01-14T1500,53,110,0.6,23,5,96,68,80,颗粒物(PM10)
德阳市,西小区,104.3827,31.1318,2026-01-14T1500,45,131,0.7,21,4,93,41,91,颗粒物(PM10)
德阳市,耐火材料厂,104.3553,31.1091,2026-01-14T1500,46,72,0.8,24,2,95,44,64,细颗粒物(PM2.5)
德阳市,市林业局,104.4144,31.1495,2026-01-14T1500,69,79,,,,,34,,
德州市,儿童乐园,116.3034,37.4675,2026-01-14T1500,122,202,1.4,56,21,32,18,160,细颗粒物(PM2.5)
德州市,监理站,116.2992,37.4449,2026-01-14T1500,122,200,1.4,58,23,40,26,160,细颗粒物(PM2.5)
德州市,九衢泉纯净水厂,116.2722,37.438,2026-01-14T1500,132,193,1.3,59,15,31,16,175,细颗粒物(PM2.5)
德州市,开发区人民医院,116.3693,37.44,2026-01-14T1500,119,205,1.2,61,23,38,24,156,细颗粒物(PM2.5)
德州市,陵城艺术中心,116.5687,37.3331,2026-01-14T1500,124,205,1.4,61,23,28,15,163,细颗粒物(PM2.5)
德州市,新河东路,116.352738,37.420875,2026-01-14T1500,124,195,1.3,65,25,32,18,163,细颗粒物(PM2.5)
迪庆藏族自治州,迪庆州站,99.7054,27.8319,2026-01-14T1500,6,10,0.3,6,4,87,67,28,
迪庆藏族自治州,质量技术监督局,99.7122,27.8129,2026-01-14T1500,6,16,0.3,9,5,94,66,30,
定西市,将台街,104.6092,35.5962,2026-01-14T1500,29,127,0.2,6,10,96,55,89,颗粒物(PM10)
定西市,正龙路62号,104.6159,35.5701,2026-01-14T1500,35,134,0.5,5,9,92,60,92,颗粒物(PM10)
东莞市,东城石井,113.7943,23.0132,2026-01-14T1500,29,52,0.5,29,8,193,110,92,臭氧1小时(O3_1h)
东莞市,南城西平,113.7384,22.9659,2026-01-14T1500,29,44,,28,,158,82,,
东莞市,万江金泰,113.7283,23.041,2026-01-14T1500,33,55,0.8,23,6,189,113,87,臭氧1小时(O3_1h)
东莞市,裕兴路,113.8666,23.1062,2026-01-14T1500,34,80,0.8,30,7,225,116,113,臭氧1小时(O3_1h)
东莞市,教育路1号,114.0076,22.9739,2026-01-14T1500,23,42,0.5,23,5,168,101,60,臭氧1小时(O3_1h)
东莞市,长怡路1号,113.7981,22.8124,2026-01-14T1500,28,56,0.7,40,8,97,75,53,颗粒物(PM10)
东营市,市环保局,118.6612,37.4313,2026-01-14T1500,112,183,1.5,76,33,43,22,147,细颗粒物(PM2.5)
东营市,开发区管委会,118.6903,37.4337,2026-01-14T1500,117,199,1.2,77,8,41,30,153,细颗粒物(PM2.5)
东营市,垦利区民丰路,118.5721,37.5654,2026-01-14T1500,110,190,1.3,77,14,24,24,144,细颗粒物(PM2.5)
东营市,河口城区,118.5063,37.8606,2026-01-14T1500,71,141,1.4,63,19,33,28,96,颗粒物(PM10)
东营市,胜利站,118.4979,37.4623,2026-01-14T1500,117,169,1.5,86,29,20,21,153,细颗粒物(PM2.5)
东营市,理想之城,118.5753,37.4405,2026-01-14T1500,107,173,1.7,85,47,21,18,140,细颗粒物(PM2.5)
鄂尔多斯市,综合楼,110.0024,39.8127,2026-01-14T1500,44,405,0.4,6,4,80,77,279,颗粒物(PM10)
鄂尔多斯市,巴音孟克林场办事处,109.9485,39.8259,2026-01-14T1500,53,368,0.2,4,5,85,82,226,颗粒物(PM10)
鄂尔多斯市,康泽苑,109.7734,39.5987,2026-01-14T1500,51,417,0.3,5,5,89,84,296,颗粒物(PM10)
鄂尔多斯市,华泰汽车城,109.8121,39.5987,2026-01-14T1500,48,395,0.4,6,4,88,84,265,颗粒物(PM10)
鄂尔多斯市,奥林花园,109.9734,39.7884,2026-01-14T1500,46,395,0.3,18,17,71,68,265,颗粒物(PM10)
鄂州市,市政府,114.894,30.3989,2026-01-14T1500,33,51,0.7,31,9,98,85,51,颗粒物(PM10)
鄂州市,赵家坝,114.8986,30.3714,2026-01-14T1500,,,0.9,,12,107,90,,
鄂州市,精准医疗中心,114.8093,30.4091,2026-01-14T1500,23,60,0.6,17,15,114,83,55,颗粒物(PM10)
恩施土家族苗族自治州,湖北民院,109.4978,30.2979,2026-01-14T1500,101,,1.4,34,6,13,9,133,细颗粒物(PM2.5)
恩施土家族苗族自治州,龙凤新区,109.5061,30.3771,2026-01-14T1500,94,113,0.8,29,7,20,8,124,细颗粒物(PM2.5)
防城港市,沙万,108.3411,21.6159,2026-01-14T1500,36,72,0.7,19,18,148,100,61,颗粒物(PM10)
防城港市,防城档案局,108.3515,21.7733,2026-01-14T1500,31,58,0.5,12,9,144,85,54,颗粒物(PM10)
防城港市,大海花园,108.3506,21.6414,2026-01-14T1500,54,84,0.8,17,23,167,112,74,细颗粒物(PM2.5)
佛山市,湾梁,113.1293,23.0065,2026-01-14T1500,19,48,/,23,/,136,77,48,
佛山市,华材职中,113.1082,23.0477,2026-01-14T1500,33,44,0.4,22,6,132,77,48,
佛山市,南海气象局,113.1439,23.045,2026-01-14T1500,42,53,/,22,/,129,74,59,细颗粒物(PM2.5)
佛山市,顺德苏岗,113.2879,22.8094,2026-01-14T1500,19,48,0.7,22,/,119,66,48,
佛山市,高明孔堂,112.8384,22.8678,2026-01-14T1500,60,81,/,35,/,196,86,95,臭氧1小时(O3_1h)
佛山市,三水监测站,112.8835,23.1584,2026-01-14T1500,46,73,0.7,42,2,167,67,64,细颗粒物(PM2.5)
佛山市,三水云东海,112.8668,23.185,2026-01-14T1500,44,77,/,45,/,182,73,78,臭氧1小时(O3_1h)
佛山市,容桂街道办,113.2568,22.7629,2026-01-14T1500,24,44,/,23,/,122,72,44,
福州市,师大,119.2681,26.0506,2026-01-14T1500,24,54,0.5,23,4,131,89,52,颗粒物(PM10)
福州市,五四北路,119.2983,26.1028,2026-01-14T1500,23,44,0.7,19,5,125,89,44,
福州市,杨桥西路,119.2648,26.0769,2026-01-14T1500,24,49,/,17,5,127,86,49,
福州市,九龙,119.5799,26.0937,2026-01-14T1500,18,44,0.6,12,6,128,105,44,
福州市,吴航,119.5188,25.9666,2026-01-14T1500,14,31,0.6,11,5,125,80,40,
福州市,路通桥巷6号,119.3106,26.0648,2026-01-14T1500,25,60,/,17,/,123,83,55,颗粒物(PM10)
抚顺市,望花区,123.7974,41.8494,2026-01-14T1500,28,49,0.8,30,7,41,34,49,
抚顺市,顺城区,123.9161,41.8827,2026-01-14T1500,22,,0.7,24,8,48,41,,
抚顺市,东洲区,124.0437,41.8615,2026-01-14T1500,14,36,0.6,10,5,53,45,36,
抚顺市,新抚区,123.9246,41.8638,2026-01-14T1500,22,36,0.7,23,8,54,45,36,
抚顺市,大伙房水库,124.0972,41.8961,2026-01-14T1500,18,34,0.7,8,11,60,53,34,
抚顺市,沈抚新城,123.708,41.8386,2026-01-14T1500,73,101,2.8,54,21,23,24,98,细颗粒物(PM2.5)
抚州市,市站,116.3544,27.9833,2026-01-14T1500,17,29,0.4,10,6,110,61,35,
抚州市,血防站,116.3562,27.9631,2026-01-14T1500,16,32,0.5,20,6,106,55,34,
抚州市,采茶剧团,116.3561,28.0007,2026-01-14T1500,6,28,0.9,4,5,121,66,38,
抚州市,医学分院,116.3854,27.9648,2026-01-14T1500,6,30,0.5,4,7,111,64,35,
阜新市,工业园区,121.6095,41.9978,2026-01-14T1500,37,60,0.5,27,13,39,28,55,颗粒物(PM10)
阜新市,长青街,121.6567,42.0188,2026-01-14T1500,40,65,0.6,31,11,39,25,58,颗粒物(PM10)
阜新市,农业园区,121.6672,42.07,2026-01-14T1500,39,72,0.5,26,11,45,39,61,颗粒物(PM10)
阜新市,玉龙新城,121.6343,42.0455,2026-01-14T1500,34,85,0.6,31,14,41,30,68,颗粒物(PM10)
阜阳市,市监测站,115.8276,32.8929,2026-01-14T1500,43,75,0.5,25,6,102,68,63,颗粒物(PM10)
阜阳市,开发区,115.8551,32.8606,2026-01-14T1500,49,51,0.5,19,6,108,67,68,细颗粒物(PM2.5)
阜阳市,阜阳职业技术学院,115.783962,32.889217,2026-01-14T1500,37,64,0.5,11,8,113,78,57,颗粒物(PM10)
阜阳市,市规划展馆,115.79,32.8614,2026-01-14T1500,45,59,0.7,19,8,119,82,63,细颗粒物(PM2.5)
阜阳市,枣园社区,115.835101,32.918568,2026-01-14T1500,52,65,0.6,20,6,110,64,72,细颗粒物(PM2.5)
甘南藏族自治州,州政府,102.9097,34.9841,2026-01-14T1500,22,69,0.2,1,2,99,58,60,颗粒物(PM10)
甘南藏族自治州,甘肃民族师范学院,102.8915,34.9618,2026-01-14T1500,6,67,0.4,2,6,96,60,59,颗粒物(PM10)
甘孜藏族自治州,水桥子,101.96,30.048,2026-01-14T1500,12,40,0.7,7,7,100,57,40,
甘孜藏族自治州,州环保局,101.9534,29.9976,2026-01-14T1500,14,41,0.6,8,6,100,67,41,
赣州市,地委,114.9368,25.8663,2026-01-14T1500,36,46,0.8,24,10,151,68,52,细颗粒物(PM2.5)
赣州市,气象台,114.946,25.8483,2026-01-14T1500,33,55,0.4,26,6,149,74,53,颗粒物(PM10)
赣州市,市图书馆,114.932,25.8332,2026-01-14T1500,36,54,0.9,27,5,117,0,52,"颗粒物(PM10),细颗粒物(PM2.5)"
赣州市,华坚鞋城,114.8905,25.8472,2026-01-14T1500,28,48,0.5,18,10,125,64,48,
赣州市,赣县区卫计委,115.0094,25.8614,2026-01-14T1500,46,75,0.7,27,7,127,57,64,细颗粒物(PM2.5)
固原市,监测站,106.2753,36.0057,2026-01-14T1500,18,79,0.4,4,4,85,77,65,颗粒物(PM10)
固原市,新区,106.2384,36.0189,2026-01-14T1500,11,89,0.1,3,2,87,80,70,颗粒物(PM10)
广安市,市委,106.6307,30.4577,2026-01-14T1500,122,133,0.9,15,10,88,38,160,细颗粒物(PM2.5)
广安市,友谊中学,106.6266,30.4662,2026-01-14T1500,118,131,1.1,17,7,82,34,155,细颗粒物(PM2.5)
广安市,广电花园,106.6386,30.4551,2026-01-14T1500,111,137,,,10,75,36,145,细颗粒物(PM2.5)
广安市,北辰小学,106.6347,30.4868,2026-01-14T1500,122,127,1.1,16,3,83,33,160,细颗粒物(PM2.5)
广元市,老城,105.8211,32.4444,2026-01-14T1500,15,36,0.4,11,16,88,72,36,
广元市,监测站,105.8629,32.429,2026-01-14T1500,14,57,0.5,9,1,88,73,54,颗粒物(PM10)
广元市,经开区,105.8047,32.4167,2026-01-14T1500,15,42,0.5,10,2,80,71,42,
广州市,广雅中学,113.2346,23.1423,2026-01-14T1500,36,60,1.0,20,3,151,79,55,颗粒物(PM10)
广州市,市五中,113.2611,23.105,2026-01-14T1500,29,48,/,30,8,159,97,50,
广州市,广东商学院,113.3477,23.0916,2026-01-14T1500,39,63,0.4,27,7,147,82,57,颗粒物(PM10)
广州市,市八十六中,113.4332,23.105,2026-01-14T1500,38,70,/,42,10,224,102,112,臭氧1小时(O3_1h)
广州市,番禺中学,113.3506,22.9488,2026-01-14T1500,21,40,0.5,19,3,134,85,42,
广州市,花都师范,113.2147,23.3918,2026-01-14T1500,50,89,0.5,37,8,171,77,70,颗粒物(PM10)
广州市,市监测站,113.2599,23.1329,2026-01-14T1500,37,61,/,33,2,156,84,56,颗粒物(PM10)
广州市,九龙镇镇龙,113.5618,23.3119,2026-01-14T1500,66,111,0.6,34,8,216,82,108,臭氧1小时(O3_1h)
广州市,麓湖,113.2764,23.1544,2026-01-14T1500,42,66,0.4,26,9,171,90,64,臭氧1小时(O3_1h)
广州市,体育西,113.3209,23.1323,2026-01-14T1500,37,67,,,7,159,82,,
广州市,从化街口,113.5718,23.5493,2026-01-14T1500,27,40,0.5,15,10,139,76,44,
广州市,白云竹料,113.3463,23.369,2026-01-14T1500,30,54,0.5,28,5,153,77,52,颗粒物(PM10)
广州市,白云嘉禾,113.2981,23.2365,2026-01-14T1500,44,80,/,38,8,226,95,113,臭氧1小时(O3_1h)
广州市,黄埔科学城,113.4256,23.1716,2026-01-14T1500,48,76,0.6,34,8,233,102,117,臭氧1小时(O3_1h)
广州市,番禺大学城,113.3942,23.0485,2026-01-14T1500,27,59,0.5,23,12,158,104,55,颗粒物(PM10)
广州市,南沙黄阁,113.4923,22.8169,2026-01-14T1500,21,45,/,27,6,140,86,45,
广州市,南沙街,113.534,22.7893,2026-01-14T1500,20,56,0.5,24,6,130,85,53,颗粒物(PM10)
广州市,花都梯面,113.2905,23.5541,2026-01-14T1500,32,55,/,29,6,141,80,53,颗粒物(PM10)
广州市,从化良口,113.786,23.7479,2026-01-14T1500,35,43,/,9,10,141,75,50,
广州市,增城荔城,113.805,23.2614,2026-01-14T1500,38,64,0.5,19,9,185,97,82,臭氧1小时(O3_1h)
贵港市,江南子站,109.604387,23.066791,2026-01-14T1500,42,68,0.6,11,10,166,89,59,"颗粒物(PM10),细颗粒物(PM2.5)"
贵港市,荷城子站,109.5669,23.1065,2026-01-14T1500,46,66,1.0,16,14,152,95,64,细颗粒物(PM2.5)
贵港市,新世纪学校,109.5886,23.1172,2026-01-14T1500,46,68,0.6,11,/,162,99,64,细颗粒物(PM2.5)
贵港市,中山路155-3号,109.5933,23.095,2026-01-14T1500,39,67,0.5,14,/,165,96,59,颗粒物(PM10)
贵阳市,马鞍山,106.6863,26.6035,2026-01-14T1500,83,83,/,20,7,58,82,110,细颗粒物(PM2.5)
贵阳市,鉴湖路,106.6241,26.6266,2026-01-14T1500,63,92,0.7,20,5,73,84,85,细颗粒物(PM2.5)
贵阳市,燕子冲,106.7468,26.6344,2026-01-14T1500,107,110,0.8,22,6,65,76,140,细颗粒物(PM2.5)
贵阳市,碧云窝,106.6556,26.4362,2026-01-14T1500,75,95,/,21,7,63,102,100,细颗粒物(PM2.5)
贵阳市,红边门,106.6963,26.6063,2026-01-14T1500,90,97,/,26,11,57,72,119,细颗粒物(PM2.5)
贵阳市,新华路,106.7162383,26.56964667,2026-01-14T1500,90,107,0.8,26,10,55,63,119,细颗粒物(PM2.5)
贵阳市,太慈桥,106.6742,26.542,2026-01-14T1500,75,85,/,30,5,51,72,100,细颗粒物(PM2.5)
贵阳市,花果园大街66号,106.688212,26.56952,2026-01-14T1500,104,,/,24,4,53,68,137,细颗粒物(PM2.5)
贵阳市,漓江路57号,106.687268,26.516892,2026-01-14T1500,75,90,1.2,30,8,49,72,100,细颗粒物(PM2.5)
桂林市,龙隐路小学,110.3091,25.2705,2026-01-14T1500,58,78,0.7,13,10,136,66,79,细颗粒物(PM2.5)
桂林市,八中,110.2849361,25.22909545,2026-01-14T1500,60,,0.6,15,11,108,52,,
桂林市,旅游学院,110.296,25.1254,2026-01-14T1500,41,56,0.4,10,9,135,60,58,细颗粒物(PM2.5)
桂林市,环湖路276号,110.1835,25.2444,2026-01-14T1500,48,66,0.5,13,12,121,48,67,细颗粒物(PM2.5)
桂林市,信义路13号,110.2803,25.2773,2026-01-14T1500,53,79,0.9,14,8,142,61,73,细颗粒物(PM2.5)
果洛藏族自治州,玛沁县大武镇,100.2262,34.4854,2026-01-14T1500,8,23,0.2,2,13,105,92,33,
哈尔滨市,松北商大,126.5557,45.8109,2026-01-14T1500,18,29,0.5,13,6,58,48,29,
哈尔滨市,南岗学府路,126.6162,45.719,2026-01-14T1500,33,47,0.8,19,12,52,47,48,
哈尔滨市,太平宏伟公园,126.6894,45.7733,2026-01-14T1500,31,43,0.6,21,16,53,45,45,
哈尔滨市,道外承德广场,126.6361,45.7672,2026-01-14T1500,28,56,0.4,31,21,45,41,53,颗粒物(PM10)
哈尔滨市,动力和平路,126.644,45.7261,2026-01-14T1500,36,49,0.5,21,14,52,46,52,细颗粒物(PM2.5)
哈尔滨市,道里建国路,126.5933,45.7479,2026-01-14T1500,39,40,,24,13,49,39,,
哈尔滨市,平房东轻厂,126.6127,45.6119,2026-01-14T1500,41,48,0.8,20,6,60,43,58,细颗粒物(PM2.5)
哈尔滨市,呼兰师专,126.5875,45.9827,2026-01-14T1500,22,30,0.5,9,6,56,45,32,
哈尔滨市,省农科院,126.6299,45.6799,2026-01-14T1500,37,47,,27,,52,45,,
哈尔滨市,华山路1号,126.6769,45.7379,2026-01-14T1500,32,,,23,17,47,39,,
哈尔滨市,解放大街52号,126.9717,45.5356,2026-01-14T1500,51,60,0.9,19,14,62,47,70,细颗粒物(PM2.5)
哈密市,地区监测站,93.5124,42.8176,2026-01-14T1500,193,1184,0.0,15,4,56,55,500,颗粒物(PM10)
哈密市,哈密师范学校,93.5014,42.8312,2026-01-14T1500,257,1144,0.2,18,2,53,46,500,颗粒物(PM10)
海北藏族自治州,海晏县西海镇,100.9016,36.9464,2026-01-14T1500,14,54,0.3,1,7,88,78,52,颗粒物(PM10)
海东市,平安区公安局北苑,102.074,36.5056,2026-01-14T1500,17,83,0.5,,9,79,41,,
海东市,滨河路,102.0984,36.5119,2026-01-14T1500,28,93,0.4,8,6,90,46,72,颗粒物(PM10)
海口市,海南大学,110.3189,20.0596,2026-01-14T1500,25,39,0.3,13,7,214,187,107,臭氧1小时(O3_1h)
海口市,秀英海南医院,110.2827,20.0051,2026-01-14T1500,26,56,0.4,13,8,186,154,83,臭氧1小时(O3_1h)
海口市,海南师范大学,110.3391,19.9979,2026-01-14T1500,24,60,0.7,13,7,190,170,88,臭氧1小时(O3_1h)
海口市,龙华路环保局宿舍,110.3303,20.0359,2026-01-14T1500,25,52,0.7,11,/,195,166,94,臭氧1小时(O3_1h)
海口市,桂林洋子站,110.5111,19.9737,2026-01-14T1500,19,28,/,9,/,157,125,50,
海口市,长滨二路9号,110.1952,20.0451,2026-01-14T1500,28,38,/,12,/,196,148,95,臭氧1小时(O3_1h)
海南藏族自治州,共和县恰卜恰镇,100.6158,36.2985,2026-01-14T1500,69,,0.3,1,10,98,87,93,细颗粒物(PM2.5)
海西蒙古族藏族自治州,德令哈市,97.373,37.376,2026-01-14T1500,10,85,0.6,5,13,88,76,68,颗粒物(PM10)
邯郸市,矿院,114.492,36.5712,2026-01-14T1500,102,125,1.3,,14,27,22,134,细颗粒物(PM2.5)
邯郸市,丛台公园,114.4839,36.6136,2026-01-14T1500,100,127,1.7,54,19,31,27,132,细颗粒物(PM2.5)
邯郸市,香泉濮院小区,114.7893,36.5592,2026-01-14T1500,75,100,0.9,39,12,44,26,100,细颗粒物(PM2.5)
邯郸市,峰峰矿区临水派出所,114.1998,36.4439,2026-01-14T1500,144,149,3.4,60,35,33,32,192,细颗粒物(PM2.5)
邯郸市,建安街268号,114.5209,36.7697,2026-01-14T1500,78,116,1.5,52,25,33,17,104,细颗粒物(PM2.5)
邯郸市,丛台东路558号,114.5488,36.6177,2026-01-14T1500,79,118,1.5,46,14,32,22,105,细颗粒物(PM2.5)
汉中市,市监测站,107.0155,33.0707,2026-01-14T1500,83,114,1.0,30,6,68,30,110,细颗粒物(PM2.5)
汉中市,鑫源开发区,107.0083,33.114,2026-01-14T1500,86,94,0.9,36,6,67,26,114,细颗粒物(PM2.5)
汉中市,南郑大河坎水厂,107.0072,33.0323,2026-01-14T1500,94,124,1.1,36,5,54,27,124,细颗粒物(PM2.5)
杭州市,滨江,120.2073,30.2111,2026-01-14T1500,28,50,0.4,26,8,98,64,50,
杭州市,西溪,120.0625,30.2737,2026-01-14T1500,41,142,0.9,27,10,96,47,96,颗粒物(PM10)
杭州市,下沙,120.3417,30.315,2026-01-14T1500,33,57,0.6,42,9,92,71,54,颗粒物(PM10)
杭州市,卧龙桥,120.1252,30.2465,2026-01-14T1500,28,50,0.2,25,10,103,55,50,
杭州市,浙江农大,120.1902,30.2691,2026-01-14T1500,23,38,0.4,28,6,104,62,38,
杭州市,和睦小学,120.1195,30.3121,2026-01-14T1500,39,55,0.6,21,7,97,47,55,细颗粒物(PM2.5)
杭州市,临平镇,120.3076,30.4146,2026-01-14T1500,29,57,0.4,21,8,100,52,54,颗粒物(PM10)
杭州市,城厢镇,120.2753,30.1839,2026-01-14T1500,46,72,0.6,44,9,91,64,64,细颗粒物(PM2.5)
杭州市,云栖,120.0883,30.1808,2026-01-14T1500,32,98,0.4,34,5,99,53,74,颗粒物(PM10)
杭州市,镇二中,119.9463,30.0496,2026-01-14T1500,29,44,0.7,34,6,83,48,44,
杭州市,市府大楼,119.7184,30.2367,2026-01-14T1500,19,37,0.5,17,12,106,68,37,
杭州市,消防大队,120.1554,30.2863,2026-01-14T1500,29,51,0.4,24,7,88,45,51,颗粒物(PM10)
合肥市,明珠广场,117.1957,31.7845,2026-01-14T1500,31,53,0.4,48,10,68,37,52,颗粒物(PM10)
合肥市,三里街,117.307,31.8765,2026-01-14T1500,31,53,0.6,39,6,72,50,52,颗粒物(PM10)
合肥市,琥珀山庄,117.2587,31.8703,2026-01-14T1500,36,58,0.6,36,8,81,57,54,颗粒物(PM10)
合肥市,庐阳区,117.2593,31.9376,2026-01-14T1500,36,68,0.6,45,6,87,52,59,颗粒物(PM10)
合肥市,瑶海区,117.345251,31.861615,2026-01-14T1500,29,61,0.5,35,7,90,71,56,颗粒物(PM10)
合肥市,包河区,117.3033,31.7967,2026-01-14T1500,34,61,0.8,24,11,99,58,56,颗粒物(PM10)
合肥市,滨湖新区,117.278,31.7392,2026-01-14T1500,44,58,0.7,22,9,111,76,62,细颗粒物(PM2.5)
合肥市,高新区,117.1324,31.8395,2026-01-14T1500,28,51,0.5,33,6,82,40,51,颗粒物(PM10)
合肥市,高教基地,117.3802,31.9148,2026-01-14T1500,40,56,0.6,28,10,87,67,57,细颗粒物(PM2.5)
合肥市,中国科学技术大学,117.2518,31.8404,2026-01-14T1500,28,41,0.5,35,9,83,53,41,
和田地区,地区环保局,79.9241,37.0878,2026-01-14T1500,22,117,0.1,8,1,81,61,84,颗粒物(PM10)
和田地区,市环保局,79.9132,37.1137,2026-01-14T1500,16,131,0.0,11,2,83,58,91,颗粒物(PM10)
河池市,市环保站,108.0496,24.6957,2026-01-14T1500,65,92,0.8,14,13,125,46,88,细颗粒物(PM2.5)
河池市,上任中路54号,108.0901,24.6945,2026-01-14T1500,67,92,0.8,13,14,115,40,90,细颗粒物(PM2.5)
河源市,东埔,114.6962,23.7538,2026-01-14T1500,27,40,0.8,13,8,140,74,44,
河源市,老城,114.6895,23.7232,2026-01-14T1500,28,52,0.5,9,8,146,71,51,颗粒物(PM10)
菏泽市,定陶老年大学,115.5562,35.089,2026-01-14T1500,161,249,1.0,52,7,37,24,211,细颗粒物(PM2.5)
菏泽市,黄河路600号,115.4239,35.2593,2026-01-14T1500,175,250,1.1,74,9,33,22,225,细颗粒物(PM2.5)
菏泽市,菏泽市人社局,115.5025,35.2727,2026-01-14T1500,162,234,0.6,58,9,32,14,212,细颗粒物(PM2.5)
菏泽市,永昌路1号,115.479691,35.244011,2026-01-14T1500,168,254,0.9,69,7,25,17,218,细颗粒物(PM2.5)
菏泽市,长城路999号,115.471542,35.280012,2026-01-14T1500,160,234,1.0,72,12,38,23,210,细颗粒物(PM2.5)
贺州市,环保小区,111.5264,24.4178,2026-01-14T1500,51,79,0.4,33,11,155,71,70,细颗粒物(PM2.5)
贺州市,政协大楼,111.561,24.4074,2026-01-14T1500,49,70,0.8,17,14,195,84,94,臭氧1小时(O3_1h)
贺州市,西湾,111.4744,24.455,2026-01-14T1500,39,72,0.5,20,11,163,67,61,颗粒物(PM10)
鹤壁市,市监测站,114.17,35.9019,2026-01-14T1500,116,169,1.7,51,23,20,22,152,细颗粒物(PM2.5)
鹤壁市,市交警支队,114.2953,35.7512,2026-01-14T1500,109,192,1.5,62,18,17,15,143,细颗粒物(PM2.5)
鹤壁市,迎宾馆,114.2877,35.7302,2026-01-14T1500,104,198,1.6,59,17,21,15,137,细颗粒物(PM2.5)
鹤壁市,大新区,114.2616,35.6824,2026-01-14T1500,113,178,1.6,62,16,24,18,148,细颗粒物(PM2.5)
鹤壁市,南山宾馆,114.1573,35.9607,2026-01-14T1500,91,171,1.6,44,22,30,28,120,细颗粒物(PM2.5)
鹤岗市,哈啤分公司,130.2537,47.3416,2026-01-14T1500,17,22,0.5,4,6,67,60,25,
鹤岗市,斯达机电,130.2683,47.3087,2026-01-14T1500,19,23,0.4,6,6,60,55,28,
鹤岗市,东山纸板厂,130.3114,47.3388,2026-01-14T1500,13,19,,,8,63,48,,
黑河市,交通局,127.4832,50.2524,2026-01-14T1500,36,,0.3,8,4,53,54,52,细颗粒物(PM2.5)
黑河市,环保局,127.5146,50.2339,2026-01-14T1500,17,19,0.2,9,5,53,52,25,
衡水市,电机北厂,115.6839,37.754,2026-01-14T1500,70,97,0.7,40,14,33,12,94,细颗粒物(PM2.5)
衡水市,市监测站,115.6303,37.7318,2026-01-14T1500,51,95,0.8,52,13,26,17,73,颗粒物(PM10)
衡水市,市城管局,115.6684,37.7216,2026-01-14T1500,62,105,0.8,54,14,26,16,84,细颗粒物(PM2.5)
衡水市,地表水厂,115.599,37.5491,2026-01-14T1500,61,98,0.7,35,13,39,20,83,细颗粒物(PM2.5)
衡阳市,衡阳化工总厂,112.6209,26.9268,2026-01-14T1500,45,81,0.9,15,18,123,59,66,颗粒物(PM10)
衡阳市,珠晖区环保局,112.621,26.8957,2026-01-14T1500,52,76,0.9,14,16,123,54,72,细颗粒物(PM2.5)
衡阳市,市委党校,112.628,26.8654,2026-01-14T1500,39,64,0.9,12,19,123,54,57,颗粒物(PM10)
衡阳市,市监测站,112.6007,26.8977,2026-01-14T1500,54,84,1.0,18,17,106,49,74,细颗粒物(PM2.5)
衡阳市,真空机电公司,112.5658,26.9013,2026-01-14T1500,66,,1.3,41,24,,42,,
衡阳市,师范学院,112.6703,26.8817,2026-01-14T1500,41,65,0.9,16,12,126,62,58,"颗粒物(PM10),细颗粒物(PM2.5)"
红河哈尼族彝族自治州,州图书馆,103.3757,23.3679,2026-01-14T1500,27,46,0.6,8,6,85,70,46,
红河哈尼族彝族自治州,蒙自市朝阳路,103.401,23.3561,2026-01-14T1500,36,,0.6,4,6,85,64,52,细颗粒物(PM2.5)
呼和浩特市,呼市一监,111.6506,40.7517,2026-01-14T1500,77,500,0.5,19,10,58,24,400,颗粒物(PM10)
呼和浩特市,如意水处理厂,111.7516,40.8369,2026-01-14T1500,91,349,0.5,26,14,50,22,200,颗粒物(PM10)
呼和浩特市,二十九中,111.727798,40.806187,2026-01-14T1500,94,532,0.5,20,14,53,24,432,颗粒物(PM10)
呼和浩特市,化肥厂生活区,111.717,40.7617,2026-01-14T1500,89,398,0.7,24,9,53,25,269,颗粒物(PM10)
呼和浩特市,海东办,111.6519,40.8389,2026-01-14T1500,70,364,0.6,20,7,55,17,220,颗粒物(PM10)
呼和浩特市,成吉思汗西街8号,111.591512,40.827312,2026-01-14T1500,73,320,0.7,28,8,46,18,185,颗粒物(PM10)
呼和浩特市,公园东路75号,111.6597,40.8077,2026-01-14T1500,82,483,0.6,34,8,42,23,379,颗粒物(PM10)
呼和浩特市,金海路35号,111.5427,40.7846,2026-01-14T1500,87,467,0.7,27,10,48,19,359,颗粒物(PM10)
呼伦贝尔市,国华电力东,119.7511,49.1576,2026-01-14T1500,10,22,0.4,17,10,57,50,22,
呼伦贝尔市,伊敏大街东7号,119.7569,49.2222,2026-01-14T1500,35,44,1.1,32,8,31,31,50,
湖州市,城西水厂,120.075,30.867,2026-01-14T1500,41,62,0.4,52,8,69,39,58,细颗粒物(PM2.5)
湖州市,仁皇山新区,120.083,30.8929,2026-01-14T1500,42,61,0.5,60,9,65,35,59,细颗粒物(PM2.5)
湖州市,吴兴区站,120.1846,30.8592,2026-01-14T1500,38,62,0.7,36,9,85,49,56,颗粒物(PM10)
湖州市,南浔区站,120.4146,30.8538,2026-01-14T1500,38,67,0.7,40,8,81,46,59,颗粒物(PM10)
葫芦岛市,龙港区,120.904878,40.721091,2026-01-14T1500,32,52,0.6,22,10,48,53,51,颗粒物(PM10)
葫芦岛市,化工街,120.8382,40.7521,2026-01-14T1500,36,68,0.6,22,24,47,31,59,颗粒物(PM10)
葫芦岛市,新区,120.8339,40.7078,2026-01-14T1500,30,46,0.5,27,12,45,36,46,
葫芦岛市,东城区,120.8697,40.7679,2026-01-14T1500,39,,0.7,28,19,46,31,55,细颗粒物(PM2.5)
怀化市,河西地税局,109.9297,27.5383,2026-01-14T1500,48,52,/,14,4,99,42,67,细颗粒物(PM2.5)
怀化市,市四医院,109.9783,27.5342,2026-01-14T1500,46,71,,12,8,93,35,,
怀化市,监测楼,109.9971,27.5579,2026-01-14T1500,46,51,0,10,5,107,47,64,细颗粒物(PM2.5)
淮安市,钵池山,119.0566,33.5991,2026-01-14T1500,,,1.2,,11,93,38,,
淮安市,北京南路,119.0083,33.578,2026-01-14T1500,86,102,0.7,29,12,93,32,114,细颗粒物(PM2.5)
淮安市,市监测站,118.9938,33.6083,2026-01-14T1500,66,95,1.4,33,18,93,41,89,细颗粒物(PM2.5)
淮安市,楚州区监测站,119.135,33.5038,2026-01-14T1500,96,137,0.9,36,17,86,32,127,细颗粒物(PM2.5)
淮安市,新华书店,118.8757,33.2897,2026-01-14T1500,76,87,1.3,26,12,105,41,102,细颗粒物(PM2.5)
淮安市,枚皋中路89号,119.119691,33.550006,2026-01-14T1500,101,141,0.6,29,15,98,38,133,细颗粒物(PM2.5)
淮安市,承德北路606号,119.028838,33.631911,2026-01-14T1500,103,136,1.2,42,21,83,32,135,细颗粒物(PM2.5)
淮北市,监测站,116.8005,33.9749,2026-01-14T1500,143,205,0.9,58,14,61,37,190,细颗粒物(PM2.5)
淮北市,烈山区政府,116.8094,33.9008,2026-01-14T1500,122,164,0.7,47,18,71,38,160,细颗粒物(PM2.5)
淮北市,市博物馆,116.7926,33.9534,2026-01-14T1500,152,334,1.2,56,10,70,37,202,细颗粒物(PM2.5)
淮北市,杜集区第一实验学校,116.8322,33.9884,2026-01-14T1500,141,196,0.9,50,13,61,33,188,细颗粒物(PM2.5)
淮南市,潘集区政府,116.8304,32.7726,2026-01-14T1500,56,81,0.8,21,10,113,64,77,细颗粒物(PM2.5)
淮南市,谢家集区政府,116.8569,32.5949,2026-01-14T1500,46,74,0.7,31,9,102,73,64,细颗粒物(PM2.5)
淮南市,八公山区政府,116.8279,32.6333,2026-01-14T1500,45,71,0.6,22,13,106,84,63,细颗粒物(PM2.5)
淮南市,经济技术开发区消防队,117.0561,32.6536,2026-01-14T1500,59,99,0.7,35,10,103,61,80,细颗粒物(PM2.5)
淮南市,山南新区,117.011,32.5891,2026-01-14T1500,41,69,0.8,24,5,116,70,60,颗粒物(PM10)
淮南市,国庆中路369号,117.003137,32.644456,2026-01-14T1500,46,77,0.8,27,12,98,46,64,"颗粒物(PM10),细颗粒物(PM2.5)"
黄冈市,职工中心,114.9021,30.474,2026-01-14T1500,36,54,0.8,20,14,114,76,52,"颗粒物(PM10),细颗粒物(PM2.5)"
黄冈市,红卫路,114.8858,30.4519,2026-01-14T1500,32,48,0.5,19,12,112,78,48,
黄冈市,市林业局,114.9134,30.4446,2026-01-14T1500,34,60,0.6,28,9,110,75,55,颗粒物(PM10)
黄南藏族自治州,同仁县隆务镇,102.02,35.5101,2026-01-14T1500,19,38,0.2,1,8,88,71,38,
黄山市,延安路89号,118.2905,29.6965,2026-01-14T1500,15,31,0.5,10,4,104,63,33,
黄山市,黄山区政府5号楼,118.1369,30.2755,2026-01-14T1500,14,23,0.5,5,2,94,62,30,
黄山市,滨江东路7-2号,118.335445,29.720283,2026-01-14T1500,23,35,/,9,/,106,48,35,
黄石市,沈家营,115.0547,30.2332,2026-01-14T1500,44,83,1.8,37,21,103,74,67,颗粒物(PM10)
黄石市,铁山,114.899,30.211,2026-01-14T1500,36,43,0.5,19,13,119,85,52,细颗粒物(PM2.5)
黄石市,团城山,115.0259,30.2108,2026-01-14T1500,44,84,1.2,31,8,101,76,67,颗粒物(PM10)
黄石市,笔架山北路,115.0174,30.1591,2026-01-14T1500,43,90,1.2,16,14,103,82,70,颗粒物(PM10)
黄石市,磁湖东路29号,115.078022,30.21118,2026-01-14T1500,60,77,1.4,39,15,97,66,82,细颗粒物(PM2.5)
惠州市,河南岸金山湖子站,114.4181,23.0528,2026-01-14T1500,32,52,0.6,23,5,130,79,51,颗粒物(PM10)
惠州市,下埔横江三路子站,114.4055,23.0824,2026-01-14T1500,25,46,0.6,13,7,142,88,46,
惠州市,惠阳区承修路船湖子站,114.4645,22.7832,2026-01-14T1500,17,32,0.2,17,,138,93,,
惠州市,大亚湾管委会子站,114.5316,22.7423,2026-01-14T1500,19,39,0.5,10,7,132,83,42,
惠州市,惠阳秋长,114.4334,22.8134,2026-01-14T1500,16,36,/,16,/,168,111,60,臭氧1小时(O3_1h)
惠州市,大亚湾霞涌,114.6521,22.7755,2026-01-14T1500,22,36,/,14,/,150,124,47,
惠州市,文华一路1号,114.4089,23.1147,2026-01-14T1500,26,44,/,15,/,156,92,49,
鸡西市,环保局,130.9618,45.2926,2026-01-14T1500,16,23,0.5,6,6,60,56,23,
鸡西市,第一中学,130.9294,45.2959,2026-01-14T1500,11,18,0.4,5,3,61,56,20,
鸡西市,欧美日汽修厂,131.0069,45.2988,2026-01-14T1500,8,26,0.3,6,7,59,54,26,
吉安市,红声器材厂,114.9753,27.0803,2026-01-14T1500,28,56,0.5,22,10,118,63,53,颗粒物(PM10)
吉安市,市环境监测站,114.9903,27.1313,2026-01-14T1500,34,52,/,21,9,119,60,51,颗粒物(PM10)
吉安市,青原区法院,115.009527,27.096792,2026-01-14T1500,28,54,0.6,18,11,111,54,52,颗粒物(PM10)
吉林市,哈达湾,126.54,43.8622,2026-01-14T1500,19,30,0.9,11,9,72,60,30,
吉林市,东局子,126.5843,43.8358,2026-01-14T1500,20,26,0.9,15,7,62,50,29,
吉林市,电力学院,126.5051,43.8243,2026-01-14T1500,,,0.6,11,13,68,51,,
吉林市,江北,126.6133,43.8971,2026-01-14T1500,18,33,0.9,15,9,64,51,33,
吉林市,江南公园,126.5549,43.8304,2026-01-14T1500,26,34,0.6,14,10,65,54,38,
吉林市,九站,126.4737,43.953,2026-01-14T1500,25,78,0.8,33,16,52,50,64,颗粒物(PM10)
济南市,科干所,116.9866,36.6118,2026-01-14T1500,73,132,0.6,29,11,88,41,98,细颗粒物(PM2.5)
济南市,农科所,116.9379,36.6652,2026-01-14T1500,93,193,1.2,88,20,6,6,123,细颗粒物(PM2.5)
济南市,开发区,117.1265,36.6736,2026-01-14T1500,115,232,1.6,103,19,4,6,150,细颗粒物(PM2.5)
济南市,省种子仓库,117.0616,36.6865,2026-01-14T1500,110,212,1.3,85,26,8,8,144,细颗粒物(PM2.5)
济南市,机床二厂,116.9495185,36.644937,2026-01-14T1500,110,164,0.8,63,23,44,12,144,细颗粒物(PM2.5)
济南市,市监测站,117.0496,36.6629,2026-01-14T1500,147,212,1.4,84,19,6,7,196,细颗粒物(PM2.5)
济南市,长清党校,116.7674,36.5458,2026-01-14T1500,100,147,1.0,,16,73,46,132,细颗粒物(PM2.5)
济南市,东山小学,117.5323,36.6865,2026-01-14T1500,105,190,,69,17,41,37,138,细颗粒物(PM2.5)
济南市,泰兴公司,117.7181,36.205,2026-01-14T1500,122,178,2.1,71,19,37,22,160,细颗粒物(PM2.5)
济南市,莱芜战役纪念馆,117.6861,36.2172,2026-01-14T1500,129,190,2.2,69,18,39,21,170,细颗粒物(PM2.5)
济南市,济阳区政府,117.1673,36.9782,2026-01-14T1500,98,190,1.2,74,20,15,14,129,细颗粒物(PM2.5)
济南市,锦屏中学,117.1168,36.6299,2026-01-14T1500,100,195,1.5,97,11,11,22,132,细颗粒物(PM2.5)
济南市,山财大街5号,117.7107,36.2385,2026-01-14T1500,109,185,2.3,79,22,47,28,143,细颗粒物(PM2.5)
济南市,无影山路12号,116.9744,36.6889,2026-01-14T1500,129,193,1.3,82,26,9,10,170,细颗粒物(PM2.5)
济宁市,火炬城,116.6229,35.4288,2026-01-14T1500,119,152,0.9,40,7,52,31,156,细颗粒物(PM2.5)
济宁市,北湖一中,116.5808,35.3703,2026-01-14T1500,126,176,0.9,38,11,49,27,166,细颗粒物(PM2.5)
济宁市,服务中心,116.8251,35.5592,2026-01-14T1500,122,178,1.2,67,17,43,18,160,细颗粒物(PM2.5)
济宁市,市第七中学,116.5907,35.4054,2026-01-14T1500,110,157,1.0,43,15,55,34,144,细颗粒物(PM2.5)
济宁市,任和路,116.6075,35.4566,2026-01-14T1500,115,187,1.1,47,11,46,17,150,细颗粒物(PM2.5)
济宁市,文体南路1号,116.5648,35.3921,2026-01-14T1500,116,181,1.0,45,12,48,28,152,细颗粒物(PM2.5)
佳木斯市,佳纺,130.2749,46.8028,2026-01-14T1500,15,21,0.4,8,6,54,48,22,
佳木斯市,环保局,130.3258,46.7975,2026-01-14T1500,14,22,0.3,12,8,55,50,22,
佳木斯市,顺和街,130.363,46.806,2026-01-14T1500,17,24,0.3,13,11,47,45,25,
佳木斯市,长安路196号,130.3952,46.8268,2026-01-14T1500,10,14,0.4,9,6,54,50,17,
嘉兴市,清河小学,120.7439,30.778,2026-01-14T1500,41,68,0.2,37,7,100,66,59,颗粒物(PM10)
嘉兴市,嘉兴学院,120.7261,30.7477,2026-01-14T1500,40,67,0.6,36,9,100,68,59,颗粒物(PM10)
嘉兴市,南湖区残联,120.7845,30.7524,2026-01-14T1500,46,66,0.5,32,,121,77,,
嘉兴市,秀洲住建,120.6915,30.7741,2026-01-14T1500,39,67,0.5,37,8,100,64,59,颗粒物(PM10)
嘉峪关市,气象局,98.291,39.7705,2026-01-14T1500,29,100,0.4,12,15,82,70,75,颗粒物(PM10)
嘉峪关市,酒钢宾馆,98.2672,39.7978,2026-01-14T1500,34,110,0.6,13,26,77,71,80,颗粒物(PM10)
嘉峪关市,雄关区,98.2644,39.7723,2026-01-14T1500,18,69,0.5,14,18,80,65,60,颗粒物(PM10)
江门市,北街,113.1063,22.6058,2026-01-14T1500,23,54,/,17,/,150,87,52,颗粒物(PM10)
江门市,西区,113.073,22.5835,2026-01-14T1500,18,26,/,17,/,127,82,40,
江门市,圭峰西,113.0218,22.531,2026-01-14T1500,16,30,/,8,/,130,121,41,
江门市,东湖,113.0826,22.5947,2026-01-14T1500,28,30,0.8,19,8,144,90,45,
江门市,江海富民,113.1077,22.5647,2026-01-14T1500,42,85,0.7,19,/,146,97,68,颗粒物(PM10)
江门市,新会银湖,113.0496,22.4669,2026-01-14T1500,23,53,0.4,11,7,132,85,52,颗粒物(PM10)
焦作市,马村街道办,113.3137,35.2643,2026-01-14T1500,78,120,1.3,52,21,31,16,104,细颗粒物(PM2.5)
焦作市,焦作技师学院,113.2464,35.2374,2026-01-14T1500,70,132,1.5,58,22,30,16,94,细颗粒物(PM2.5)
焦作市,中站许衡医院,113.1656,35.2536,2026-01-14T1500,87,152,1.5,68,50,34,25,115,细颗粒物(PM2.5)
焦作市,原李万街道办,113.2456,35.18,2026-01-14T1500,75,146,1.1,55,15,26,16,100,细颗粒物(PM2.5)
焦作市,新安路1731号,113.234,35.219,2026-01-14T1500,76,139,1.2,52,18,29,15,102,细颗粒物(PM2.5)
焦作市,人民路3066号,113.2722,35.2121,2026-01-14T1500,69,127,1.3,57,16,29,16,93,细颗粒物(PM2.5)
揭阳市,新兴,116.3701,23.5345,2026-01-14T1500,26,58,0.5,21,13,142,68,54,颗粒物(PM10)
揭阳市,西马,116.3261,23.5442,2026-01-14T1500,22,57,0.4,15,9,144,71,54,颗粒物(PM10)
揭阳市,东兴,116.361,23.5627,2026-01-14T1500,28,55,/,15,12,135,66,53,颗粒物(PM10)
揭阳市,渔湖,116.4151,23.5295,2026-01-14T1500,20,62,/,21,10,147,83,56,颗粒物(PM10)
揭阳市,曲溪,116.4028,23.5699,2026-01-14T1500,39,48,0.5,20,9,142,80,55,细颗粒物(PM2.5)
金昌市,天庆家园,102.1691,38.5166,2026-01-14T1500,28,122,0.5,9,75,84,66,86,颗粒物(PM10)
金昌市,金川区人防中心,102.1648,38.5369,2026-01-14T1500,33,136,0.6,10,47,82,70,93,颗粒物(PM10)
金昌市,长春路96号,102.193042,38.531887,2026-01-14T1500,24,120,0.7,6,14,83,68,85,颗粒物(PM10)
金华市,十五中,119.6478,29.0773,2026-01-14T1500,48,66,0.5,33,5,128,68,67,细颗粒物(PM2.5)
金华市,监测站,119.6859,29.1032,2026-01-14T1500,44,79,0.4,31,5,93,46,65,颗粒物(PM10)
金华市,气象局,119.656,29.1132,2026-01-14T1500,42,77,0.5,34,4,112,62,64,颗粒物(PM10)
锦州市,南山,121.1114,41.0879,2026-01-14T1500,36,51,0.5,26,9,53,48,52,细颗粒物(PM2.5)
锦州市,开发区,121.060361,40.842794,2026-01-14T1500,27,42,0.6,40,8,27,48,42,
锦州市,百股街道,121.1836,41.1118,2026-01-14T1500,22,40,0.8,22,7,55,49,40,
锦州市,天安街道,121.1176,41.1224,2026-01-14T1500,26,44,0.8,25,11,51,39,44,
锦州市,北湖公园,121.1303,41.1385,2026-01-14T1500,24,44,0.5,22,9,47,33,44,
晋城市,自来水公司,112.8496,35.5051,2026-01-14T1500,36,86,1.1,22,11,64,35,68,颗粒物(PM10)
晋城市,市环保局,112.8509,35.4886,2026-01-14T1500,27,54,0.9,19,9,78,41,52,颗粒物(PM10)
晋城市,泽州一中,112.8258,35.4804,2026-01-14T1500,31,68,0.6,20,7,78,44,59,颗粒物(PM10)
晋城市,前书院路,112.8246,35.5152,2026-01-14T1500,22,74,0.8,20,10,71,45,62,颗粒物(PM10)
晋城市,祥云街666号,112.8864,35.4773,2026-01-14T1500,23,68,0.7,11,6,74,43,59,颗粒物(PM10)
晋中市,榆次区政府,112.6992,37.6984,2026-01-14T1500,18,114,0.4,15,11,78,24,82,颗粒物(PM10)
晋中市,榆次三中,112.7195,37.683,2026-01-14T1500,22,132,0.4,13,11,77,22,91,颗粒物(PM10)
晋中市,广安街188号,112.7375,37.7215,2026-01-14T1500,25,101,0.3,16,17,75,28,76,颗粒物(PM10)
晋中市,迎宾街26号,112.7478,37.6954,2026-01-14T1500,24,129,0.6,15,13,77,24,90,颗粒物(PM10)
荆门市,竹园小学,112.2012,31.048,2026-01-14T1500,113,128,1.5,23,5,107,56,148,细颗粒物(PM2.5)
荆门市,掇刀,112.1968,30.9892,2026-01-14T1500,101,125,0.6,22,8,120,67,133,细颗粒物(PM2.5)
荆门市,西山林语,112.1849,31.0361,2026-01-14T1500,93,123,0.7,24,11,114,63,123,细颗粒物(PM2.5)
荆门市,龙泉中学南校,112.1631,31.0134,2026-01-14T1500,100,127,1.1,11,8,118,80,132,细颗粒物(PM2.5)
荆门市,新台西路6号,112.2213,31.0654,2026-01-14T1500,130,143,0.8,21,16,106,56,172,细颗粒物(PM2.5)
荆州市,市图书馆,112.2493,30.3198,2026-01-14T1500,68,,0.9,15,11,134,84,92,细颗粒物(PM2.5)
荆州市,市委党校,112.2009,30.3543,2026-01-14T1500,74,75,0.9,22,7,112,61,99,细颗粒物(PM2.5)
荆州市,管委会,112.2749,30.3124,2026-01-14T1500,67,,0.9,17,11,124,72,90,细颗粒物(PM2.5)
荆州市,学苑路85号,112.1722,30.3366,2026-01-14T1500,64,81,0.9,24,14,132,75,87,细颗粒物(PM2.5)
景德镇市,老干部活动中心,117.2114,29.2931,2026-01-14T1500,25,30,0.5,14,12,88,46,36,
景德镇市,兽医站,117.1893,29.2789,2026-01-14T1500,21,43,0.5,18,12,101,56,43,
景德镇市,陶研所,117.246,29.2958,2026-01-14T1500,28,32,0.4,17,10,90,45,40,
景德镇市,青少年活动中心,117.154766,29.256967,2026-01-14T1500,24,38,/,19,17,82,44,38,
九江市,十里,115.9873,29.6816,2026-01-14T1500,37,58,0.8,25,11,97,52,54,颗粒物(PM10)
九江市,茅山头,115.9583,29.7047,2026-01-14T1500,38,54,0.9,26,12,105,61,54,细颗粒物(PM2.5)
九江市,西园,115.9877,29.7295,2026-01-14T1500,20,50,0.7,32,8,113,65,50,
九江市,综合工业园,115.9112,29.6038,2026-01-14T1500,24,,0.5,15,4,125,84,40,
九江市,外国语学校,116.0254,29.6995,2026-01-14T1500,34,43,0.7,22,10,91,58,49,
九江市,莲花大道8号,116.010205,29.659402,2026-01-14T1500,26,54,0.5,15,8,105,70,52,颗粒物(PM10)
酒泉市,玉门东路5号,98.495752,39.733935,2026-01-14T1500,24,127,0.4,7,12,80,56,89,颗粒物(PM10)
酒泉市,北大街108号,98.5099,39.7506,2026-01-14T1500,28,134,0.3,11,13,77,58,92,颗粒物(PM10)
喀什地区,巡警大队,76.0071,39.466,2026-01-14T1500,53,110,1.1,29,7,67,22,80,颗粒物(PM10)
喀什地区,吾办,75.9756,39.4693,2026-01-14T1500,54,99,1.3,40,6,27,12,75,颗粒物(PM10)
喀什地区,老干局,75.9485,39.4688,2026-01-14T1500,55,147,1.7,48,8,49,19,99,颗粒物(PM10)
开封市,肿瘤医院,114.3389,34.778,2026-01-14T1500,92,137,1.1,70,14,21,26,122,细颗粒物(PM2.5)
开封市,世纪星幼儿园,114.2884,34.7966,2026-01-14T1500,110,132,1.0,71,14,20,26,144,细颗粒物(PM2.5)
开封市,龙亭公园,114.3434,34.8101,2026-01-14T1500,95,151,1.2,68,14,23,24,125,细颗粒物(PM2.5)
开封市,汴京公园,114.3645,34.7955,2026-01-14T1500,97,153,1.1,71,12,22,25,128,细颗粒物(PM2.5)
开封市,技师学院,114.2485,34.8306,2026-01-14T1500,73,134,1.2,63,14,25,22,98,细颗粒物(PM2.5)
开封市,祥符区生态环境局,114.4518,34.7503,2026-01-14T1500,96,176,1.1,71,13,21,25,127,细颗粒物(PM2.5)
克拉玛依市,长征新村,84.886,45.6029,2026-01-14T1500,38,59,0.6,31,6,51,70,55,颗粒物(PM10)
克拉玛依市,南林小区,84.8894,45.5827,2026-01-14T1500,,,0.8,19,,55,72,,
克拉玛依市,独山子区,84.896,44.3328,2026-01-14T1500,44,46,0.6,13,6,57,48,62,细颗粒物(PM2.5)
克拉玛依市,乌尔禾区商贸楼,85.6888,46.0909,2026-01-14T1500,29,46,0.6,28,7,62,51,46,
克拉玛依市,白碱滩区新站,85.1045,45.6895,2026-01-14T1500,34,56,0.6,28,9,66,75,53,颗粒物(PM10)
克孜勒苏柯尔克孜自治州,市人民政府,76.1457,39.7143,2026-01-14T1500,48,132,0.5,15,4,88,64,91,颗粒物(PM10)
克孜勒苏柯尔克孜自治州,克州文化中心,76.1654,39.7157,2026-01-14T1500,40,106,0.6,11,6,84,55,78,颗粒物(PM10)
昆明市,呈贡新区,102.8203,24.889,2026-01-14T1500,13,,0.6,,1,79,59,,
昆明市,龙泉镇,102.7253,25.0904,2026-01-14T1500,7,,0.3,8,3,84,49,,
昆明市,东风东路,102.7267,25.0378,2026-01-14T1500,15,20,0.4,10,10,93,65,30,
昆明市,金鼎山,102.6744,25.0671,2026-01-14T1500,3,18,0.5,6,2,87,52,28,
昆明市,碧鸡广场,102.6643,25.0401,2026-01-14T1500,13,15,0.3,7,7,90,54,29,
昆明市,官渡区博物馆,102.7491,25.012,2026-01-14T1500,10,29,0.1,10,13,99,59,31,
昆明市,青年创业园,102.8016,24.8336,2026-01-14T1500,10,14,0.4,2,5,90,66,29,
昆明市,昆明学院,102.8,24.9787,2026-01-14T1500,11,18,0.2,8,14,98,63,31,
昆明市,晋宁区生态环境分局,102.5969,24.6738,2026-01-14T1500,7,14,0.3,3,2,73,55,23,
昆明市,云天化总部,102.6673,24.9861,2026-01-14T1500,11,20,0.3,10,20,97,63,31,
拉萨市,八廓街,91.132,29.6515,2026-01-14T1500,13,26,0.2,7,7,90,67,29,
拉萨市,市环保局,91.1221,29.6748,2026-01-14T1500,20,25,0.5,14,6,84,49,29,
拉萨市,区监测站,91.0874,29.6476,2026-01-14T1500,11,20,,10,4,84,56,,
拉萨市,西藏大学,91.1774,29.6541,2026-01-14T1500,7,23,0.3,11,4,81,60,26,
拉萨市,区辐射站,90.9798,29.6586,2026-01-14T1500,6,26,0.4,14,3,84,39,27,
拉萨市,拉萨火车站,91.0831,29.6292,2026-01-14T1500,9,25,0.5,12,4,80,46,25,
来宾市,来宾技工学校,109.2203,23.7252,2026-01-14T1500,80,115,0.9,14,17,153,59,107,细颗粒物(PM2.5)
来宾市,兴宾区政府,109.1781,23.7293,2026-01-14T1500,126,163,0.9,20,20,170,84,166,细颗粒物(PM2.5)
来宾市,中南小学,109.2312,23.7428,2026-01-14T1500,73,104,0.9,14,10,166,65,98,细颗粒物(PM2.5)
兰州市,铁路设计院,103.8309,36.0467,2026-01-14T1500,,,,,,,,,
兰州市,百合公园,103.7439,36.0841,2026-01-14T1500,54,206,1.0,40,19,64,22,128,颗粒物(PM10)
兰州市,和平,103.9613,35.9985,2026-01-14T1500,59,277,0.7,15,9,71,64,164,颗粒物(PM10)
兰州市,庄浪东路808号,103.629272,36.093822,2026-01-14T1500,70,233,1.0,51,28,79,39,142,颗粒物(PM10)
兰州市,安宁西路88号,103.7251,36.104344,2026-01-14T1500,42,224,0.8,43,22,86,34,137,颗粒物(PM10)
兰州市,北滨河东路1号,103.846982,36.067567,2026-01-14T1500,32,211,1.0,54,16,64,27,131,颗粒物(PM10)
廊坊市,药材公司,116.6712,39.5109,2026-01-14T1500,48,78,1.0,37,7,31,18,67,细颗粒物(PM2.5)
廊坊市,开发区,116.7215,39.5592,2026-01-14T1500,49,78,0.7,34,6,35,15,68,细颗粒物(PM2.5)
廊坊市,北华航天学院,116.7246,39.5273,2026-01-14T1500,47,80,0.8,33,7,34,16,65,"颗粒物(PM10),细颗粒物(PM2.5)"
廊坊市,河北工业大学,116.7022,39.5454,2026-01-14T1500,53,85,0.8,35,7,33,13,73,细颗粒物(PM2.5)
乐山市,牛耳桥,103.7629,29.5844,2026-01-14T1500,34,40,0.5,17,9,95,35,49,
乐山市,市第三水厂,103.7501,29.6002,2026-01-14T1500,32,41,0.4,16,7,102,39,46,
乐山市,市监测站,103.7571,29.5664,2026-01-14T1500,38,41,0.6,10,8,94,39,54,细颗粒物(PM2.5)
乐山市,理工大学,103.7313,29.563,2026-01-14T1500,31,40,0.2,9,6,98,42,45,
丽江市,丽江古城,100.2497,26.8802,2026-01-14T1500,13,21,0.3,9,9,91,76,29,
丽江市,市中心,100.2203,26.8906,2026-01-14T1500,,,,,6,89,73,,
丽水市,监测站大楼,119.9141,28.4513,2026-01-14T1500,34,60,0.4,24,7,111,52,55,颗粒物(PM10)
丽水市,莲都小学,119.93,28.4589,2026-01-14T1500,24,50,/,23,/,118,54,50,
丽水市,余庄前,119.8794,28.4232,2026-01-14T1500,35,61,0.4,43,6,99,57,56,颗粒物(PM10)
连云港市,市环境监测站,119.1759,34.5885,2026-01-14T1500,132,168,0.9,47,18,53,66,175,细颗粒物(PM2.5)
连云港市,德源药业,119.3577,34.6971,2026-01-14T1500,114,168,1.1,46,10,57,51,149,细颗粒物(PM2.5)
连云港市,新城一中,119.178,34.8442,2026-01-14T1500,145,165,1.2,67,14,39,35,193,细颗粒物(PM2.5)
连云港市,胡沟管理处,119.3607,34.7519,2026-01-14T1500,83,132,0.9,81,11,21,56,110,细颗粒物(PM2.5)
连云港市,矿山设计院,119.1478,34.5913,2026-01-14T1500,119,166,1.1,49,16,60,65,156,细颗粒物(PM2.5)
连云港市,工贸学校,119.2414,34.6539,2026-01-14T1500,133,180,1.3,46,17,59,61,176,细颗粒物(PM2.5)
连云港市,连云街道,119.4171,34.734,2026-01-14T1500,97,192,1.0,94,10,7,64,128,细颗粒物(PM2.5)
凉山彝族自治州,西昌市政府,102.2629,27.8981,2026-01-14T1500,26,45,0.7,12,10,88,41,45,
凉山彝族自治州,凉山州政府,102.2686,27.885,2026-01-14T1500,33,39,0.5,13,12,85,39,48,
凉山彝族自治州,凯乐南路30号,102.2342,27.8859,2026-01-14T1500,24,42,0.4,16,8,90,36,42,
辽阳市,宏伟区,123.1978,41.2036,2026-01-14T1500,18,34,0.5,6,6,68,68,34,
辽阳市,新华园,123.1684,41.2497,2026-01-14T1500,16,27,0.3,10,7,67,63,27,
辽阳市,滨河路,123.2355,41.2663,2026-01-14T1500,15,20,0.1,8,14,54,54,22,
辽阳市,铁西路150号,123.153,41.2874,2026-01-14T1500,16,55,0.6,12,10,58,58,53,颗粒物(PM10)
辽源市,环保局,125.1359,42.8845,2026-01-14T1500,22,33,0.6,23,13,58,37,33,
辽源市,安宁大街333号,125.0998,42.9134,2026-01-14T1500,17,32,0.6,15,16,60,38,32,
聊城市,区政府,115.9789,36.4372,2026-01-14T1500,118,188,1.3,55,18,34,25,155,细颗粒物(PM2.5)
聊城市,监控中心,115.9772,36.4986,2026-01-14T1500,119,183,1.3,54,15,36,24,156,细颗粒物(PM2.5)
聊城市,九州社区,116.0443,36.436,2026-01-14T1500,117,178,0.9,34,11,45,33,153,细颗粒物(PM2.5)
聊城市,星美广场,116.0564,36.4609,2026-01-14T1500,114,187,1.1,35,9,40,27,149,细颗粒物(PM2.5)
聊城市,利民路,116.0091,36.4495,2026-01-14T1500,127,189,1.2,51,14,31,20,168,细颗粒物(PM2.5)
林芝市,林芝监测站,94.3683,29.6373,2026-01-14T1500,3,11,0.3,4,4,82,56,26,
林芝市,林芝人民医院,94.3616,29.6634,2026-01-14T1500,3,12,0.4,6,2,,48,,
临沧市,市环保局,100.0779,23.8981,2026-01-14T1500,22,,0.4,6,4,94,48,32,
临沧市,市气象局,100.0894,23.882,2026-01-14T1500,21,29,0.3,8,7,94,46,30,
临汾市,临钢医院,111.5552,36.0791,2026-01-14T1500,101,205,3.0,43,,62,24,133,细颗粒物(PM2.5)
临汾市,技工学校,111.4984,36.0734,2026-01-14T1500,104,215,2.9,53,29,49,22,137,细颗粒物(PM2.5)
临汾市,市委,111.5017,36.0857,2026-01-14T1500,109,210,2.9,48,31,54,23,143,细颗粒物(PM2.5)
临汾市,唐尧大酒店,111.5048,36.1015,2026-01-14T1500,111,200,2.8,50,27,54,20,145,细颗粒物(PM2.5)
临汾市,启星学校,111.4879,36.053,2026-01-14T1500,95,193,3.2,56,36,55,21,125,细颗粒物(PM2.5)
临夏回族自治州,滨河东路1号,103.2464,35.6123,2026-01-14T1500,23,150,0.3,10,6,88,34,100,颗粒物(PM10)
临夏回族自治州,新华街21号,103.207136,35.599807,2026-01-14T1500,27,150,0.4,18,9,79,35,100,颗粒物(PM10)
临沂市,沂河小区,118.3429,35.0532,2026-01-14T1500,126,190,1.5,72,28,48,24,166,细颗粒物(PM2.5)
临沂市,鲁南制药厂,118.2962,35.0568,2026-01-14T1500,160,229,1.8,114,26,32,15,210,细颗粒物(PM2.5)
临沂市,新光毛纺厂,118.2793,34.9976,2026-01-14T1500,154,234,1.6,104,34,39,23,204,细颗粒物(PM2.5)
临沂市,河东保险公司,118.3955,35.0889,2026-01-14T1500,110,180,1.6,72,28,45,21,144,细颗粒物(PM2.5)
临沂市,十里堡居委,118.3563,35.0215,2026-01-14T1500,122,190,1.3,64,27,50,27,160,细颗粒物(PM2.5)
临沂市,南坊新区,118.359,35.1067,2026-01-14T1500,127,188,1.9,93,20,33,27,168,细颗粒物(PM2.5)
临沂市,皇山花园小区,118.3915,35.0297,2026-01-14T1500,128,195,1.6,57,25,59,26,169,细颗粒物(PM2.5)
柳州市,柳东小学,109.4854,24.3898,2026-01-14T1500,73,87,0.7,16,15,174,80,98,细颗粒物(PM2.5)
柳州市,环保监测站,109.4109,24.3304,2026-01-14T1500,74,103,0.9,17,11,159,74,99,细颗粒物(PM2.5)
柳州市,河西水厂,109.3886,24.3408,2026-01-14T1500,83,118,0.8,20,12,172,66,110,细颗粒物(PM2.5)
柳州市,市四中,109.4263,24.2951,2026-01-14T1500,64,115,0.6,22,15,157,59,87,细颗粒物(PM2.5)
柳州市,市九中,109.396,24.3658,2026-01-14T1500,97,99,0.9,20,18,164,69,128,细颗粒物(PM2.5)
柳州市,古亭山,109.4912,24.3164,2026-01-14T1500,58,106,0.8,19,17,159,67,79,细颗粒物(PM2.5)
柳州市,市二中,109.5422,24.3994,2026-01-14T1500,64,89,0.8,22,21,158,70,87,细颗粒物(PM2.5)
六安市,监测大楼,116.5078,31.7369,2026-01-14T1500,41,,0.2,21,4,90,52,58,细颗粒物(PM2.5)
六安市,皖西学院,116.4738,31.7642,2026-01-14T1500,19,44,0.4,20,5,101,51,44,
六安市,朝阳厂,116.4997,31.7904,2026-01-14T1500,25,33,0.4,23,6,91,43,36,
六安市,开发区,116.5566,31.7885,2026-01-14T1500,23,24,0.3,20,6,121,70,38,
六盘水市,黄土坡,104.8293,26.592,2026-01-14T1500,44,46,0.9,19,16,72,39,62,细颗粒物(PM2.5)
六盘水市,民中,104.8481,26.5898,2026-01-14T1500,46,51,0.7,20,8,68,39,64,细颗粒物(PM2.5)
六盘水市,双水,104.9541,26.5506,2026-01-14T1500,45,53,0.6,11,4,81,56,63,细颗粒物(PM2.5)
六盘水市,钟山大道中段564号,104.8899,26.5685,2026-01-14T1500,50,63,2.2,24,10,60,46,69,细颗粒物(PM2.5)
龙岩市,龙岩市监测站,117.022,25.1031,2026-01-14T1500,19,35,0.4,12,11,129,73,41,
龙岩市,闽西职业技术学院,117.0257,25.0662,2026-01-14T1500,19,39,0.5,11,9,138,77,44,
龙岩市,龙岩学院,117.0195,25.0306,2026-01-14T1500,21,42,/,14,10,141,81,45,
陇南市,滨江中学,104.9344,33.3827,2026-01-14T1500,23,90,0.7,17,6,80,36,70,颗粒物(PM10)
陇南市,市总工会,104.9551,33.3709,2026-01-14T1500,27,63,0.6,11,9,85,38,57,颗粒物(PM10)
娄底市,市监测站,111.9984,27.7346,2026-01-14T1500,63,81,0.8,14,17,133,60,85,细颗粒物(PM2.5)
娄底市,市政府,111.9888,27.7035,2026-01-14T1500,52,95,0.8,21,17,122,54,73,颗粒物(PM10)
娄底市,涟钢职大,111.9812,27.7591,2026-01-14T1500,30,57,0.6,11,14,132,54,54,颗粒物(PM10)
娄底市,娄底体校,112.0303,27.7457,2026-01-14T1500,54,74,0.6,18,13,110,46,74,细颗粒物(PM2.5)
泸州市,小市上码头,105.4427,28.9063,2026-01-14T1500,116,162,1.3,19,12,94,40,152,细颗粒物(PM2.5)
泸州市,兰田宪桥,105.4241,28.8573,2026-01-14T1500,112,159,1.4,26,9,108,55,147,细颗粒物(PM2.5)
泸州市,市环监站,105.4378,28.8833,2026-01-14T1500,122,158,1.2,18,10,115,57,160,细颗粒物(PM2.5)
泸州市,纳溪中医医院,105.3689,28.7783,2026-01-14T1500,129,147,1.1,16,9,108,36,170,细颗粒物(PM2.5)
吕梁市,环保局,111.1447,37.5212,2026-01-14T1500,81,247,0.3,16,5,59,22,149,颗粒物(PM10)
吕梁市,自来水公司,111.1285,37.5338,2026-01-14T1500,79,241,0.6,20,5,54,19,146,颗粒物(PM10)
吕梁市,马茂庄小学,111.1225,37.5093,2026-01-14T1500,106,352,0.4,17,,53,21,203,颗粒物(PM10)
洛阳市,市委党校,112.3934,34.6517,2026-01-14T1500,41,91,0.8,33,13,58,30,71,颗粒物(PM10)
洛阳市,河南林校,112.494,34.6883,2026-01-14T1500,52,111,0.9,36,16,52,20,81,颗粒物(PM10)
洛阳市,开发区管委会,112.3843,34.623,2026-01-14T1500,49,95,0.9,28,16,60,36,73,颗粒物(PM10)
洛阳市,市委新办公区,112.4263,34.6249,2026-01-14T1500,48,95,0.6,32,14,64,42,73,颗粒物(PM10)
洛阳市,伊滨,112.6005,34.6323,2026-01-14T1500,56,108,0.7,30,12,54,28,79,颗粒物(PM10)
洛阳市,中移产业园,112.495,34.6338,2026-01-14T1500,50,97,0.7,27,14,54,28,74,颗粒物(PM10)
洛阳市,吉利监测站,112.5736,34.8993,2026-01-14T1500,45,89,0.8,31,14,62,34,70,颗粒物(PM10)
洛阳市,河科大西苑校区,112.3678,34.6623,2026-01-14T1500,47,98,0.8,31,13,63,33,74,颗粒物(PM10)
洛阳市,英才小学,112.4387,34.678,2026-01-14T1500,54,102,0.8,35,16,56,24,76,颗粒物(PM10)
洛阳市,春都路1号院,112.460027,34.694929,2026-01-14T1500,48,119,0.9,26,13,58,25,85,颗粒物(PM10)
漯河市,三五一五工厂,114.051,33.5721,2026-01-14T1500,144,225,0.9,51,18,48,20,192,细颗粒物(PM2.5)
漯河市,漯河大学,114.0055,33.5698,2026-01-14T1500,112,177,1.1,45,16,47,19,147,细颗粒物(PM2.5)
漯河市,市水利局,114.0134,33.5826,2026-01-14T1500,122,188,1.0,50,16,36,14,160,细颗粒物(PM2.5)
漯河市,市广电局,114.0261,33.5697,2026-01-14T1500,124,188,1.0,48,16,50,24,163,细颗粒物(PM2.5)
漯河市,市图书馆,113.9691,33.568,2026-01-14T1500,165,236,1.0,46,15,41,28,215,细颗粒物(PM2.5)
漯河市,韶山路11号,114.089259,33.588274,2026-01-14T1500,138,212,1.1,55,18,43,19,183,细颗粒物(PM2.5)
马鞍山市,湖东路四小,118.5084,31.6838,2026-01-14T1500,32,68,0.6,37,9,81,46,59,颗粒物(PM10)
马鞍山市,开发区,118.5019,31.6449,2026-01-14T1500,46,76,0.7,53,13,70,41,64,细颗粒物(PM2.5)
马鞍山市,雨山,118.4914,31.681,2026-01-14T1500,38,66,0.6,39,12,84,48,58,颗粒物(PM10)
马鞍山市,慈湖高新区,118.527362,31.722269,2026-01-14T1500,37,70,0.5,47,10,75,42,60,颗粒物(PM10)
茂名市,电白南海,111.0285,21.469,2026-01-14T1500,31,75,1.1,25,11,145,129,63,颗粒物(PM10)
茂名市,茂石化七小,110.9294,21.6533,2026-01-14T1500,22,100,0.5,14,6,141,132,75,颗粒物(PM10)
茂名市,健康路,110.9108,21.6688,2026-01-14T1500,17,39,0.6,14,8,156,134,49,
茂名市,高岭,110.8592,21.6826,2026-01-14T1500,19,73,/,22,7,143,118,62,颗粒物(PM10)
茂名市,电白水东,111.0101,21.5165,2026-01-14T1500,27,51,/,12,9,147,135,51,颗粒物(PM10)
眉山市,气象局,103.8414,30.0871,2026-01-14T1500,29,29,0.3,11,12,109,50,42,
眉山市,区人社局,103.829,30.0563,2026-01-14T1500,27,47,0.3,7,10,108,46,47,
眉山市,眉职院,103.8836,30.0695,2026-01-14T1500,24,42,0.4,7,2,105,40,42,
梅州市,梅江月梅,116.1248,24.3307,2026-01-14T1500,31,36,/,15,/,134,68,45,
梅州市,梅县新城,116.0798,24.2719,2026-01-14T1500,24,42,0.6,14,8,131,67,42,
梅州市,梅龙,116.1234,24.2994,2026-01-14T1500,25,34,0.7,10,8,122,64,39,
绵阳市,富乐山,104.7775,31.4741,2026-01-14T1500,,,,22,9,78,36,,
绵阳市,高新区自来水公司,104.6698,31.4668,2026-01-14T1500,48,72,0.7,16,9,80,29,67,细颗粒物(PM2.5)
绵阳市,西科大附属小学,104.6899,31.5324,2026-01-14T1500,62,81,0.3,20,9,91,38,84,细颗粒物(PM2.5)
绵阳市,安州区旅游局,104.5647,31.5343,2026-01-14T1500,44,61,0.4,20,12,91,42,62,细颗粒物(PM2.5)
绵阳市,科技城新区公安局,104.7092,31.4972,2026-01-14T1500,46,62,0.6,22,9,99,51,64,细颗粒物(PM2.5)
绵阳市,绵阳市气象局,104.765114,31.453094,2026-01-14T1500,61,89,0.6,27,8,77,25,83,细颗粒物(PM2.5)
牡丹江市,环保大楼,129.61,44.561,2026-01-14T1500,20,25,0.3,13,4,65,58,29,
牡丹江市,机车工厂,129.6364,44.6075,2026-01-14T1500,20,31,0.3,11,1,62,51,31,
牡丹江市,第一中学,129.6386,44.5462,2026-01-14T1500,7,27,0.3,8,5,63,54,27,
牡丹江市,东晓云街98号,129.5992,44.5964,2026-01-14T1500,14,23,0.5,10,4,64,54,23,
内江市,市监测站,105.0703,29.61,2026-01-14T1500,71,,0.8,12,7,125,66,95,细颗粒物(PM2.5)
内江市,内江二中,105.0657,29.5807,2026-01-14T1500,75,,0.8,20,5,109,50,100,细颗粒物(PM2.5)
内江市,内江日报社,105.0407,29.5828,2026-01-14T1500,70,70,0.6,17,2,118,61,94,细颗粒物(PM2.5)
内江市,玉峰路西段888号,105.0433,29.6105,2026-01-14T1500,68,,,19,1,119,57,,
那曲市,那曲监测站,92.0653,31.4846,2026-01-14T1500,,0,,8,6,86,51,,
那曲市,那曲市委宣传部,92.0515,31.4787,2026-01-14T1500,3,24,0.4,3,3,89,52,28,
南昌市,省林业公司,115.8887,28.7006,2026-01-14T1500,44,61,0.9,46,8,92,36,62,细颗粒物(PM2.5)
南昌市,林科所,115.813,28.7443,2026-01-14T1500,39,66,0.4,41,12,98,54,58,颗粒物(PM10)
南昌市,建工学校,115.8518,28.687,2026-01-14T1500,51,90,0.9,46,19,87,39,70,"颗粒物(PM10),细颗粒物(PM2.5)"
南昌市,象湖,115.8926,28.6425,2026-01-14T1500,44,53,0.5,37,14,88,43,62,细颗粒物(PM2.5)
南昌市,机电学校,115.9084,28.6062,2026-01-14T1500,39,62,0.5,,10,100,54,,
南昌市,外国语学校,115.9718,28.7032,2026-01-14T1500,56,78,0.7,40,18,101,53,77,细颗粒物(PM2.5)
南昌市,工业二路,115.7923,28.6873,2026-01-14T1500,57,67,0.8,40,11,92,43,78,细颗粒物(PM2.5)
南昌市,南京东路235号,115.931587,28.686774,2026-01-14T1500,48,77,1.0,37,9,104,53,67,细颗粒物(PM2.5)
南充市,南充市委,106.0791,30.8022,2026-01-14T1500,98,110,0.8,26,5,58,28,129,细颗粒物(PM2.5)
南充市,南充炼油厂,106.1038,30.8215,2026-01-14T1500,88,106,0.9,22,6,65,32,117,细颗粒物(PM2.5)
南充市,梨树横街98号,106.108336,30.788436,2026-01-14T1500,74,106,0.8,28,6,67,29,99,细颗粒物(PM2.5)
南充市,清泉寺北路188号,106.1172,30.843,2026-01-14T1500,77,,0.6,15,6,79,41,103,细颗粒物(PM2.5)
南充市,同庆路1号,106.067,30.7616,2026-01-14T1500,80,87,0.8,15,7,70,32,107,细颗粒物(PM2.5)
南京市,迈皋桥,118.8033,32.1085,2026-01-14T1500,,,0.7,,7,94,62,,
南京市,草场门,118.7487,32.057,2026-01-14T1500,31,61,0.7,31,12,14,7,56,颗粒物(PM10)
南京市,中华门,118.770105,32.004342,2026-01-14T1500,19,41,0.8,30,8,92,44,41,
南京市,瑞金路,118.8059,32.0329,2026-01-14T1500,24,44,1.0,14,4,88,39,44,
南京市,玄武湖,118.7946,32.0774,2026-01-14T1500,21,51,1.0,13,4,89,47,51,颗粒物(PM10)
南京市,浦口,118.6415,32.0964,2026-01-14T1500,42,71,0.7,43,12,69,40,61,颗粒物(PM10)
南京市,奥体中心,118.730129,32.000956,2026-01-14T1500,29,56,1.0,27,17,96,44,53,颗粒物(PM10)
南京市,仙林大学城,118.9072,32.1047,2026-01-14T1500,22,56,1.3,34,15,81,50,53,颗粒物(PM10)
南京市,江宁彩虹桥,118.8443,31.919,2026-01-14T1500,29,66,0.9,24,10,91,45,58,颗粒物(PM10)
南京市,六合雄州,118.8497,32.3599,2026-01-14T1500,30,54,0.8,20,11,104,54,52,颗粒物(PM10)
南京市,新模范马路66号,118.7641,32.0841,2026-01-14T1500,22,66,0.1,30,4,116,60,58,颗粒物(PM10)
南京市,汶溪路181号,118.8707617,31.34017673,2026-01-14T1500,21,24,0.6,17,7,104,62,33,
南京市,中山西路1号,119.019,31.6512,2026-01-14T1500,25,,0.6,19,,89,59,,
南宁市,二十一中,108.3098,22.788,2026-01-14T1500,49,79,0.6,13,6,141,80,68,细颗粒物(PM2.5)
南宁市,北湖,108.3135,22.8529,2026-01-14T1500,55,76,1.0,27,7,138,74,75,细颗粒物(PM2.5)
南宁市,市监测站,108.3205,22.8222,2026-01-14T1500,52,86,0.8,16,10,142,93,72,细颗粒物(PM2.5)
南宁市,大自然花园,108.3828,22.8038,2026-01-14T1500,53,70,0.7,11,8,147,91,73,细颗粒物(PM2.5)
南宁市,区农职院,108.2397,22.8462,2026-01-14T1500,47,73,1.0,15,10,146,74,65,细颗粒物(PM2.5)
南宁市,英华嘉园,108.3285,22.7356,2026-01-14T1500,48,68,0.9,20,6,139,76,67,细颗粒物(PM2.5)
南宁市,红星社区,108.4829,22.762,2026-01-14T1500,42,63,0.9,12,7,143,79,59,细颗粒物(PM2.5)
南宁市,起凤路9号,108.2927,23.1477,2026-01-14T1500,62,81,0.8,16,6,167,71,84,细颗粒物(PM2.5)
南宁市,乐贤路16号,108.2177,22.7774,2026-01-14T1500,50,74,0.7,16,4,144,68,69,细颗粒物(PM2.5)
南平市,南平市监测站,118.1682,26.6371,2026-01-14T1500,15,28,0.3,10,5,102,63,32,
南平市,南平七中,118.1757,26.6276,2026-01-14T1500,16,45,0.5,10,6,102,62,45,
南通市,狼山街道,120.9056,31.9669,2026-01-14T1500,59,74,0.5,41,6,87,56,80,细颗粒物(PM2.5)
南通市,城中,120.8635,32.0231,2026-01-14T1500,51,93,0.8,60,7,72,54,72,颗粒物(PM10)
南通市,星湖花园,120.9376,31.9301,2026-01-14T1500,50,77,0.5,45,9,92,61,69,细颗粒物(PM2.5)
南通市,紫琅学院,120.8053,32.046,2026-01-14T1500,54,87,0.7,75,9,59,41,74,细颗粒物(PM2.5)
南通市,通州监测站,121.0631,32.0644,2026-01-14T1500,34,63,0.8,44,9,96,64,57,颗粒物(PM10)
南通市,环境教育馆,120.9348,31.9874,2026-01-14T1500,44,70,0.9,53,9,92,54,62,细颗粒物(PM2.5)
南通市,洪江路,120.8692,31.9885,2026-01-14T1500,53,74,0.8,49,7,70,47,73,细颗粒物(PM2.5)
南阳市,瓦房庄,112.5338,33.0086,2026-01-14T1500,76,94,0.8,17,10,89,33,102,细颗粒物(PM2.5)
南阳市,汉画馆,112.5002,32.9734,2026-01-14T1500,69,98,0.7,12,10,102,36,93,细颗粒物(PM2.5)
南阳市,气象站,112.5778,33.0144,2026-01-14T1500,78,126,0.9,25,9,80,38,104,细颗粒物(PM2.5)
南阳市,理工学院,112.548,32.9687,2026-01-14T1500,61,97,0.8,22,8,83,27,83,细颗粒物(PM2.5)
南阳市,卧龙区政府,112.5233,32.9921,2026-01-14T1500,71,117,0.7,24,9,88,30,95,细颗粒物(PM2.5)
宁波市,区环保大楼,121.8352,29.9111,2026-01-14T1500,24,52,0.5,36,6,113,96,51,颗粒物(PM10)
宁波市,万里学院,121.5595,29.8208,2026-01-14T1500,20,48,0.4,33,5,124,98,48,
宁波市,龙赛医院,121.713,29.9564,2026-01-14T1500,21,47,0.6,18,4,122,86,47,
宁波市,太古小学,121.5855,29.8635,2026-01-14T1500,23,42,0.5,18,5,131,102,42,
宁波市,市环境监测中心,121.5239,29.8673,2026-01-14T1500,22,60,0.4,18,8,120,96,55,颗粒物(PM10)
宁波市,万里国际学校,121.6156,29.9015,2026-01-14T1500,20,43,0.3,24,5,136,111,43,
宁波市,白沙活动中心,121.5593,29.8976,2026-01-14T1500,21,49,0.6,20,5,120,96,49,
宁波市,中科路88号,121.8962,29.7529,2026-01-14T1500,16,38,0.2,14,6,137,94,43,
宁德市,宁德市监测站,119.5387,26.6611,2026-01-14T1500,17,50,0.4,14,8,124,79,50,
宁德市,宁德一中,119.5231,26.6562,2026-01-14T1500,31,41,0.3,15,7,125,82,45,
怒江傈僳族自治州,州监测站,98.859,25.8541,2026-01-14T1500,14,27,0.4,6,8,83,48,27,
怒江傈僳族自治州,泸水一中,98.8607,25.8168,2026-01-14T1500,28,30,0.6,7,6,74,36,40,
攀枝花市,弄弄坪,101.6891,26.571,2026-01-14T1500,29,37,1.0,14,18,98,44,42,
攀枝花市,河门口,101.577,26.5914,2026-01-14T1500,32,47,2.0,19,27,102,48,47,
攀枝花市,仁和,101.7365,26.4986,2026-01-14T1500,34,51,1.0,18,24,102,46,51,颗粒物(PM10)
攀枝花市,四十中小,101.7222,26.567,2026-01-14T1500,38,60,1.1,10,17,98,38,55,颗粒物(PM10)
盘锦市,开发区,122.0303,41.1489,2026-01-14T1500,28,30,0.8,17,5,54,48,40,
盘锦市,兴隆台,122.0486,41.0883,2026-01-14T1500,22,31,0.6,33,8,45,42,32,
盘锦市,新生街道,121.8297,41.1026,2026-01-14T1500,13,26,0.5,15,5,65,56,26,
平顶山市,新华旅馆,113.3257,33.7423,2026-01-14T1500,63,111,0.5,36,9,48,20,85,细颗粒物(PM2.5)
平顶山市,规划设计院,113.2917,33.737,2026-01-14T1500,68,132,0.8,34,11,41,21,92,细颗粒物(PM2.5)
平顶山市,平顶山工学院,113.182,33.7738,2026-01-14T1500,68,120,0.5,31,11,48,32,92,细颗粒物(PM2.5)
平顶山市,石龙区,112.8736,33.9068,2026-01-14T1500,32,89,0.4,18,8,71,37,70,颗粒物(PM10)
平顶山市,姚电大道23号,113.284,33.7139,2026-01-14T1500,65,143,0.6,,12,43,20,,
平凉市,聚贤嘉苑,106.6633,35.5338,2026-01-14T1500,17,58,0.6,3,6,99,89,54,颗粒物(PM10)
平凉市,博物馆,106.7021,35.5307,2026-01-14T1500,15,63,0.3,5,8,96,86,57,颗粒物(PM10)
萍乡市,中医院,113.8384,27.6436,2026-01-14T1500,31,69,1.1,22,8,136,85,60,颗粒物(PM10)
萍乡市,市环保局,113.8677,27.6438,2026-01-14T1500,42,70,1.0,17,,151,81,,
萍乡市,安源区政府,113.8663,27.6202,2026-01-14T1500,52,65,1.2,19,17,119,58,72,细颗粒物(PM2.5)
萍乡市,联洪村委会,113.8686,27.6668,2026-01-14T1500,36,58,0.7,17,5,130,84,54,颗粒物(PM10)
莆田市,荔城区仓后路,119.0142,25.4324,2026-01-14T1500,18,48,/,12,/,126,96,48,
莆田市,莆田市监测站,119.0016,25.4553,2026-01-14T1500,17,45,0.5,10,3,131,109,45,
莆田市,涵江区六中,119.112,25.4561,2026-01-14T1500,20,42,0.5,9,/,131,110,42,
莆田市,秀屿区政府,119.1014,25.3215,2026-01-14T1500,25,49,0.4,11,4,131,110,49,
濮阳市,环保局,115.0312,35.7636,2026-01-14T1500,85,158,0.8,60,12,23,15,113,细颗粒物(PM2.5)
濮阳市,濮水河管理处,115,35.7667,2026-01-14T1500,72,171,1.0,58,13,24,16,111,颗粒物(PM10)
濮阳市,中原东路68号,115.0552,35.7816,2026-01-14T1500,91,177,1.0,62,12,26,15,120,细颗粒物(PM2.5)
濮阳市,任丘路479号,115.0923632,35.76857718,2026-01-14T1500,96,179,1.1,64,14,19,12,127,细颗粒物(PM2.5)
普洱市,市环保局,100.9801,22.7634,2026-01-14T1500,8,48,0.4,8,4,66,34,48,
普洱市,普洱第二中学,100.9763,22.8237,2026-01-14T1500,22,47,0.3,6,5,66,29,47,
七台河市,中波台,131.0413,45.7795,2026-01-14T1500,12,19,0.3,6,6,61,52,20,
七台河市,人民广场,131.0136,45.7688,2026-01-14T1500,22,,0.4,,6,61,51,,
七台河市,新建矿广场,130.8639,45.8144,2026-01-14T1500,22,27,0.3,6,4,57,41,32,
齐齐哈尔市,安居小区,123.9307,47.3641,2026-01-14T1500,,,,9,10,64,50,,
齐齐哈尔市,中心广场,123.9497,47.3389,2026-01-14T1500,3,11,0.5,10,6,56,46,18,
齐齐哈尔市,农牧车辆厂,123.9483,47.3229,2026-01-14T1500,10,17,0.3,6,6,61,45,20,
齐齐哈尔市,市环境监测站,123.9442,47.2994,2026-01-14T1500,9,17,0.5,6,6,63,49,20,
齐齐哈尔市,富区青少年活动中心,123.6341,47.2079,2026-01-14T1500,9,23,0.4,7,6,66,51,23,
黔东南苗族侗族自治州,市环境监测站,107.9765,26.5724,2026-01-14T1500,113,141,1.3,64,8,17,16,148,细颗粒物(PM2.5)
黔东南苗族侗族自治州,凯里学院,107.8909,26.531,2026-01-14T1500,92,97,0.8,40,4,39,57,122,细颗粒物(PM2.5)
黔南布依族苗族自治州,小围寨,107.5223,26.2371,2026-01-14T1500,61,75,0.9,15,9,71,87,83,细颗粒物(PM2.5)
黔南布依族苗族自治州,沙坝,107.5175,26.2977,2026-01-14T1500,73,97,1.2,22,8,72,79,98,细颗粒物(PM2.5)
黔西南布依族苗族自治州,场坝街,104.9022,25.0943,2026-01-14T1500,29,36,0.6,11,5,71,53,42,
黔西南布依族苗族自治州,坪东大道,104.8812,25.0994,2026-01-14T1500,45,45,0.7,10,6,72,49,63,细颗粒物(PM2.5)
钦州市,市环保站,108.6238,21.9667,2026-01-14T1500,46,95,0.6,20,8,183,94,79,臭氧1小时(O3_1h)
钦州市,沙埠小学,108.655,21.9481,2026-01-14T1500,54,101,0.5,18,9,188,97,85,臭氧1小时(O3_1h)
钦州市,港区一小,108.5989,21.7435,2026-01-14T1500,39,95,0.8,23,14,148,98,73,颗粒物(PM10)
钦州市,北职校,108.5959,21.9634,2026-01-14T1500,43,81,0.8,21,14,180,86,75,臭氧1小时(O3_1h)
秦皇岛市,建设大厦,119.5247,39.9346,2026-01-14T1500,50,84,0.7,22,7,48,,69,细颗粒物(PM2.5)
秦皇岛市,文明里,119.5979,39.938,2026-01-14T1500,38,79,0.6,34,12,43,22,65,颗粒物(PM10)
秦皇岛市,南园路157号,119.7458,39.9952,2026-01-14T1500,54,87,0.6,48,9,23,22,74,细颗粒物(PM2.5)
秦皇岛市,翠岛大街1号,119.5131,39.8858,2026-01-14T1500,60,94,0.6,17,10,48,27,82,细颗粒物(PM2.5)
秦皇岛市,北戴河轮滑馆,119.509013,39.825305,2026-01-14T1500,46,82,0.7,26,8,49,23,66,颗粒物(PM10)
青岛市,市南区东部子站,120.404,36.0625,2026-01-14T1500,36,88,0.6,16,10,82,71,69,颗粒物(PM10)
青岛市,四方区子站,120.362344,36.10282,2026-01-14T1500,58,105,0.8,13,5,81,73,79,细颗粒物(PM2.5)
青岛市,市南区西部子站,120.294373,36.054183,2026-01-14T1500,34,88,1.1,37,10,74,66,69,颗粒物(PM10)
青岛市,崂山区子站,120.4581,36.0858,2026-01-14T1500,29,102,0.5,13,9,90,77,76,颗粒物(PM10)
青岛市,城阳区子站,120.3945,36.3083,2026-01-14T1500,46,112,1.0,44,9,69,72,81,颗粒物(PM10)
青岛市,市北区南部,120.3454,36.0735,2026-01-14T1500,39,84,0.7,14,2,84,75,67,颗粒物(PM10)
青岛市,李沧区北部,120.3897,36.18,2026-01-14T1500,63,114,1.0,40,11,72,64,85,细颗粒物(PM2.5)
青岛市,盟旺路653号,120.5222,36.4089,2026-01-14T1500,51,113,0.7,39,6,86,75,82,颗粒物(PM10)
青岛市,珠江路669号,120.196923,35.954556,2026-01-14T1500,46,75,0.8,20,11,78,81,64,细颗粒物(PM2.5)
青岛市,黄岛区人民政府广场,120.0424,35.8656,2026-01-14T1500,41,100,0.9,,,71,73,,
清远市,凤城街办,113.0218,23.7086,2026-01-14T1500,59,84,/,36,/,176,89,80,细颗粒物(PM2.5)
清远市,技师学院,113.0479,23.6343,2026-01-14T1500,41,63,0.5,34,7,154,81,58,细颗粒物(PM2.5)
清远市,清新太和,112.9898,23.7403,2026-01-14T1500,65,94,0.5,35,7,191,97,89,臭氧1小时(O3_1h)
清远市,清城东城,113.076,23.72,2026-01-14T1500,50,83,/,35,/,179,91,74,臭氧1小时(O3_1h)
庆阳市,庆阳五中,107.6325,35.7357,2026-01-14T1500,41,135,0.2,5,4,90,76,93,颗粒物(PM10)
庆阳市,市环保局,107.6361,35.7067,2026-01-14T1500,24,127,0.4,6,4,90,78,89,颗粒物(PM10)
曲靖市,环境监测站,103.7897,25.5036,2026-01-14T1500,,,0.3,11,7,103,73,,
曲靖市,烟厂办公区,103.8013,25.5357,2026-01-14T1500,12,28,0.4,10,4,99,72,31,
曲靖市,南苑二区,103.7926,25.4651,2026-01-14T1500,13,32,0.4,7,4,106,76,34,
曲靖市,曲靖师范学院,103.7442,25.5259,2026-01-14T1500,21,23,0.3,10,4,102,72,32,
衢州市,环保大楼,118.8694,28.94,2026-01-14T1500,42,68,/,24,/,114,64,59,"颗粒物(PM10),细颗粒物(PM2.5)"
衢州市,衢州学院,118.8622,28.9809,2026-01-14T1500,42,65,0.5,26,8,100,52,59,细颗粒物(PM2.5)
衢州市,衢州三中,118.9646,28.9832,2026-01-14T1500,41,64,0.7,31,7,92,48,58,细颗粒物(PM2.5)
泉州市,涂山街,118.5818,24.9116,2026-01-14T1500,19,44,0.4,12,4,132,92,44,
泉州市,津头埔,118.597,24.8976,2026-01-14T1500,21,55,0.5,17,6,133,92,53,颗粒物(PM10)
泉州市,万安,118.6669,24.9422,2026-01-14T1500,23,50,0.5,12,4,134,101,50,
泉州市,霞新路6号,118.6355,24.9148,2026-01-14T1500,23,41,0.4,13,/,140,106,44,
日喀则市,日喀则监测站,88.8873,29.2723,2026-01-14T1500,7,18,0.3,6,18,84,37,27,
日喀则市,林业技术推广中心,88.8775,29.2425,2026-01-14T1500,3,17,0.4,6,10,97,50,31,
日照市,监测站,119.4711,35.421,2026-01-14T1500,,,,,20,41,18,,
日照市,市政府广场,119.523,35.4216,2026-01-14T1500,63,117,1.2,53,18,43,59,85,细颗粒物(PM2.5)
日照市,港务局,119.5511,35.4113,2026-01-14T1500,73,134,1.1,68,14,28,54,98,细颗粒物(PM2.5)
日照市,职业技术学院,119.5326,35.4627,2026-01-14T1500,68,134,1.7,60,20,50,59,92,"颗粒物(PM10),细颗粒物(PM2.5)"
日照市,岚山环保分局,119.3267,35.1043,2026-01-14T1500,92,158,1.3,65,19,44,64,122,细颗粒物(PM2.5)
三门峡市,市政府,111.1922,34.7752,2026-01-14T1500,85,117,0.9,43,19,48,17,113,细颗粒物(PM2.5)
三门峡市,开发区,111.1588,34.794,2026-01-14T1500,92,154,1.0,46,10,47,18,122,细颗粒物(PM2.5)
三门峡市,三门峡市第一小学,111.1911,34.7829,2026-01-14T1500,88,137,0.9,46,18,43,15,117,细颗粒物(PM2.5)
三门峡市,富达温泉假日酒店,111.1031,34.719,2026-01-14T1500,89,117,1.0,58,22,38,16,118,细颗粒物(PM2.5)
三明市,三钢,117.621,26.2626,2026-01-14T1500,18,33,0.4,10,7,114,61,36,
三明市,三明二中,117.6352,26.2714,2026-01-14T1500,19,32,0.5,7,2,109,65,35,
三明市,三元区政府,117.6028,26.2377,2026-01-14T1500,24,32,1.4,23,15,105,62,35,
三亚市,河西子站,109.4962,18.2682,2026-01-14T1500,26,44,0.4,20,2,150,128,47,
三亚市,君悦子站,109.7348,18.3443,2026-01-14T1500,30,61,0.5,8,6,184,132,80,臭氧1小时(O3_1h)
三亚市,城东小学站,109.1714,18.3739,2026-01-14T1500,21,43,/,9,/,136,97,43,
山南市,山南监测站,91.7592,29.234,2026-01-14T1500,10,18,0.4,3,5,80,46,25,
山南市,山南人民医院,91.7701,29.2436,2026-01-14T1500,3,8,0.3,3,7,80,48,25,
汕头市,金平子站,116.6795,23.3666,2026-01-14T1500,16,35,0.6,12,5,130,85,41,
汕头市,龙湖子站,116.7248,23.3632,2026-01-14T1500,21,38,/,10,10,126,,40,
汕头市,濠江子站,116.7257,23.2774,2026-01-14T1500,25,45,/,17,8,129,104,45,
汕头市,澄海子站,116.7518,23.4712,2026-01-14T1500,17,65,,13,,134,92,,
汕头市,潮阳子站,116.6088,23.2539,2026-01-14T1500,14,27,0.5,8,7,132,90,42,
汕头市,潮南峡山,116.4539,23.2684,2026-01-14T1500,21,39,0.5,14,11,139,96,44,
汕头市,潮南子站,116.4069,23.2533,2026-01-14T1500,24,44,/,18,9,132,82,44,
汕尾市,市环保局,115.3653,22.7751,2026-01-14T1500,20,45,0.5,22,8,114,97,45,
汕尾市,新城中学,115.362,22.7926,2026-01-14T1500,17,51,0.4,12,6,128,101,51,颗粒物(PM10)
商洛市,监测站,109.9155,33.8714,2026-01-14T1500,25,89,0.4,12,4,82,52,70,颗粒物(PM10)
商洛市,商州区中学,109.9647,33.8486,2026-01-14T1500,21,113,0.4,10,5,82,45,82,颗粒物(PM10)
商丘市,环境监测站,115.6701,34.4283,2026-01-14T1500,167,192,0.8,46,9,59,34,217,细颗粒物(PM2.5)
商丘市,粮食局,115.6458,34.4047,2026-01-14T1500,165,195,1.0,48,8,46,34,215,细颗粒物(PM2.5)
商丘市,梁园区档案局,115.6069,34.4465,2026-01-14T1500,167,200,0.9,52,11,43,30,217,细颗粒物(PM2.5)
商丘市,北海东路185号,115.6701,34.3767,2026-01-14T1500,149,219,0.9,38,7,61,34,199,细颗粒物(PM2.5)
商丘市,中山大街3号,115.6172,34.3704,2026-01-14T1500,174,236,0.6,40,10,58,35,224,细颗粒物(PM2.5)
上海市,普陀,121.401,31.2382,2026-01-14T1500,47,60,0.6,31,8,121,90,65,细颗粒物(PM2.5)
上海市,十五厂,121.4774,31.2043,2026-01-14T1500,47,73,0.8,42,10,131,78,65,细颗粒物(PM2.5)
上海市,虹口,121.4673,31.3011,2026-01-14T1500,42,73,0.5,32,9,120,76,62,颗粒物(PM10)
上海市,静安监测站,121.4253,31.226,2026-01-14T1500,43,63,0.4,35,8,125,93,60,细颗粒物(PM2.5)
上海市,浦东川沙,121.7029,31.1905,2026-01-14T1500,43,74,0.5,28,8,133,90,62,颗粒物(PM10)
上海市,浦东新区监测站,121.5339,31.229,2026-01-14T1500,40,69,0.7,40,10,132,89,60,颗粒物(PM10)
上海市,浦东张江,121.5776,31.2038,2026-01-14T1500,37,70,0.5,30,10,141,92,60,颗粒物(PM10)
上海市,宝山庙行,121.4242,31.3303,2026-01-14T1500,47,71,0.4,32,9,115,82,65,细颗粒物(PM2.5)
上海市,崇明上实东滩,121.8789,31.4662,2026-01-14T1500,36,64,0.5,29,6,127,76,57,颗粒物(PM10)
上海市,嘉定南翔,121.316,31.2839,2026-01-14T1500,43,57,0.5,35,6,109,74,60,细颗粒物(PM2.5)
上海市,金山新城,121.3357,30.7455,2026-01-14T1500,52,70,0.5,28,10,131,105,72,细颗粒物(PM2.5)
上海市,闵行浦江,121.4996,31.0741,2026-01-14T1500,37,67,0.5,39,10,131,97,59,颗粒物(PM10)
上海市,青浦徐泾,121.2886,31.1663,2026-01-14T1500,41,62,0.6,27,6,120,84,58,细颗粒物(PM2.5)
上海市,松江图书馆,121.2193,31.0382,2026-01-14T1500,38,67,0.6,30,9,140,94,59,颗粒物(PM10)
上海市,长宁仙霞,121.3904,31.206,2026-01-14T1500,41,67,0.3,42,8,112,83,59,颗粒物(PM10)
上海市,浦东惠南,121.7964,31.0507,2026-01-14T1500,34,67,0.5,35,7,122,85,59,颗粒物(PM10)
上海市,奉贤南桥新城,121.4891,30.925,2026-01-14T1500,42,72,0.4,36,5,134,105,61,颗粒物(PM10)
上海市,冠生园路458号,121.417401,31.16637,2026-01-14T1500,47,65,0.5,35,8,117,77,65,细颗粒物(PM2.5)
上海市,宁武路151号,121.541914,31.268301,2026-01-14T1500,45,92,0.7,56,8,108,72,71,颗粒物(PM10)
上饶市,市监测站,117.9758,28.4439,2026-01-14T1500,29,51,/,16,8,96,60,51,颗粒物(PM10)
上饶市,凤凰光学,117.9521,28.4637,2026-01-14T1500,18,44,0.6,24,10,91,48,44,
上饶市,双创科技城,117.897,28.4316,2026-01-14T1500,34,51,0.7,24,6,96,57,51,颗粒物(PM10)
上饶市,裕丰大道,118.190438,28.444845,2026-01-14T1500,21,46,0.6,10,12,113,66,46,
韶关市,市八中,113.5821,24.7733,2026-01-14T1500,52,74,0.6,24,17,140,61,72,细颗粒物(PM2.5)
韶关市,园林处,113.5916,24.7973,2026-01-14T1500,48,,/,,19,147,61,,
韶关市,曲江监测站,113.5971,24.6864,2026-01-14T1500,47,61,0.5,23,18,130,54,65,细颗粒物(PM2.5)
韶关市,大学路288号,113.6668,24.7756,2026-01-14T1500,50,76,/,21,16,139,65,69,细颗粒物(PM2.5)
韶关市,碧湖山庄,113.5556,24.8082,2026-01-14T1500,45,73,0.6,21,13,141,66,63,细颗粒物(PM2.5)
邵阳市,市化工厂,111.5277,27.2442,2026-01-14T1500,52,69,1.1,18,16,120,56,72,细颗粒物(PM2.5)
邵阳市,市环保局,111.4327,27.2276,2026-01-14T1500,41,90,1.2,9,8,117,56,70,颗粒物(PM10)
邵阳市,北塔二期4-26地块,111.446,27.2472,2026-01-14T1500,53,90,0.9,10,10,106,50,73,细颗粒物(PM2.5)
邵阳市,邵水西路287号,111.4739,27.2282,2026-01-14T1500,53,80,0.7,14,16,,36,,
绍兴市,城东开发委,120.6053,29.9927,2026-01-14T1500,39,59,0.4,23,8,112,72,55,"颗粒物(PM10),细颗粒物(PM2.5)"
绍兴市,树下王站,120.5482,30.0003,2026-01-14T1500,24,38,0.4,18,7,112,74,38,
绍兴市,绍兴中专,120.5685,29.936,2026-01-14T1500,,40,0.4,15,,112,71,,
绍兴市,柯桥区政府,120.4905,30.086,2026-01-14T1500,17,26,0.3,14,6,112,76,35,
绍兴市,重华小学,120.8751,30.0249,2026-01-14T1500,25,31,0.2,19,7,114,97,36,
绍兴市,上虞中学,120.837,30.0137,2026-01-14T1500,29,32,0.4,22,8,125,92,42,
绍兴市,柯桥妇保,120.4715,30.0414,2026-01-14T1500,19,28,0.4,15,6,106,67,34,
绍兴市,袍江中学,120.6156,30.0762,2026-01-14T1500,37,67,0.6,27,3,117,75,59,颗粒物(PM10)
深圳市,通心岭子站,114.0948,22.5506,2026-01-14T1500,13,20,0.3,5,7,120,101,38,
深圳市,洪湖,114.1153,22.5713,2026-01-14T1500,14,26,0.6,9,8,121,91,38,
深圳市,华侨城,113.9823,22.5398,2026-01-14T1500,11,23,/,14,/,113,97,36,
深圳市,南海子站,113.9181,22.517,2026-01-14T1500,12,23,0.5,12,6,115,103,36,
深圳市,盐田,114.2345,22.565,2026-01-14T1500,18,33,0.5,10,8,130,93,41,
深圳市,南澳,114.4911,22.5381,2026-01-14T1500,18,27,/,11,/,134,122,42,
深圳市,葵涌,114.41,22.6346,2026-01-14T1500,18,34,0.6,15,9,128,86,40,
深圳市,梅沙,114.2967,22.5978,2026-01-14T1500,19,36,/,,/,142,122,,
深圳市,观澜,114.0563,22.7353,2026-01-14T1500,20,46,0.5,29,8,116,78,46,
深圳市,莲花,114.0614,22.556,2026-01-14T1500,13,21,/,13,/,107,95,34,
深圳市,民治,114.0144,22.6163,2026-01-14T1500,16,19,/,12,/,112,84,35,
深圳市,横岗,114.1756,22.6421,2026-01-14T1500,15,25,/,14,/,117,94,37,
深圳市,坪山,114.344,22.7115,2026-01-14T1500,19,32,0.5,15,9,127,85,40,
深圳市,西乡,113.8952,22.586,2026-01-14T1500,24,46,0.7,,8,112,89,,
深圳市,黄阁路,114.214113,22.713717,2026-01-14T1500,18,32,0.5,11,7,128,92,40,
沈阳市,浑南东路,123.5058,41.7084,2026-01-14T1500,31,46,1.1,29,12,48,34,46,
沈阳市,新秀街,123.4238,41.6992,2026-01-14T1500,28,,0.7,21,10,54,27,40,
沈阳市,东陵路,123.5903,41.8412,2026-01-14T1500,28,,0.8,21,12,51,28,40,
沈阳市,陵东街,123.4267,41.8466,2026-01-14T1500,30,54,1.0,32,15,40,22,52,颗粒物(PM10)
沈阳市,文化路,123.4116,41.7654,2026-01-14T1500,29,45,0.9,30,13,49,30,45,
沈阳市,小河沿,123.4673,41.787,2026-01-14T1500,27,48,1.1,28,12,52,32,48,
沈阳市,太原街,123.4019,41.7978,2026-01-14T1500,27,39,1.6,41,15,35,23,39,
沈阳市,京沈街,123.3778,41.9233,2026-01-14T1500,30,40,0.9,44,13,36,29,43,
沈阳市,沈辽西路,123.2429,41.7341,2026-01-14T1500,24,45,0.6,23,10,54,30,45,
沈阳市,裕农路,123.5951,41.9085,2026-01-14T1500,38,64,1.3,43,8,37,43,57,颗粒物(PM10)
十堰市,滨河新村,110.78,32.6494,2026-01-14T1500,47,68,1.0,31,/,41,27,65,细颗粒物(PM2.5)
十堰市,刘家沟,110.7305,32.6408,2026-01-14T1500,43,62,/,20,/,57,34,60,细颗粒物(PM2.5)
十堰市,铁二处,110.8843,32.5712,2026-01-14T1500,76,85,1.1,46,8,25,11,102,细颗粒物(PM2.5)
十堰市,郧阳区金沙路,110.8053,32.8401,2026-01-14T1500,44,46,0.8,28,7,55,42,62,细颗粒物(PM2.5)
石河子市,艾青诗歌馆,86.0391,44.298,2026-01-14T1500,129,148,1.4,18,8,66,45,170,细颗粒物(PM2.5)
石河子市,南区管委会,86.047,44.2331,2026-01-14T1500,112,,1.3,28,8,57,45,147,细颗粒物(PM2.5)
石河子市,世纪广场,86.0791,44.3018,2026-01-14T1500,136,158,1.4,33,8,62,47,180,细颗粒物(PM2.5)
石河子市,城南景苑小区,86.0126,44.2349,2026-01-14T1500,148,198,1.3,26,4,67,51,198,细颗粒物(PM2.5)
石家庄市,高新区,114.5919,38.0328,2026-01-14T1500,65,111,0.9,45,10,24,14,88,细颗粒物(PM2.5)
石家庄市,西南高教,114.4556,38.0136,2026-01-14T1500,83,124,0.9,55,5,21,13,110,细颗粒物(PM2.5)
石家庄市,世纪公园,114.533,38.0177,2026-01-14T1500,61,96,1.0,46,11,17,16,83,细颗粒物(PM2.5)
石家庄市,人民会堂,114.5105,38.0489,2026-01-14T1500,73,106,0.9,49,4,26,17,98,细颗粒物(PM2.5)
石家庄市,鹿泉一中,114.2887,38.0905,2026-01-14T1500,61,129,1.0,49,6,24,13,90,颗粒物(PM10)
石家庄市,栾城区星河路,114.6491,37.9014,2026-01-14T1500,74,115,0.8,52,17,18,12,99,细颗粒物(PM2.5)
石家庄市,裕华西路63号,114.4563,38.0365,2026-01-14T1500,66,105,1.1,53,5,21,16,89,细颗粒物(PM2.5)
石家庄市,和平路363号,114.5586,38.0581,2026-01-14T1500,80,116,0.9,48,8,23,14,107,细颗粒物(PM2.5)
石家庄市,廉州西路160号,114.8347,38.0213,2026-01-14T1500,85,127,0.8,33,5,16,8,113,细颗粒物(PM2.5)
石家庄市,北城路41号,114.4498,38.0729,2026-01-14T1500,61,129,0.9,48,5,31,21,90,颗粒物(PM10)
石家庄市,矿区区委大楼,114.0494,38.059,2026-01-14T1500,74,,0.8,45,18,40,13,,
石嘴山市,大武口朝阳西街,106.3668,39.0145,2026-01-14T1500,43,134,0.3,5,2,89,68,92,颗粒物(PM10)
石嘴山市,惠农南大街,106.7713,39.2278,2026-01-14T1500,45,150,0.3,4,7,87,83,100,颗粒物(PM10)
石嘴山市,红果子镇惠新街,106.7074,39.1332,2026-01-14T1500,40,189,0.4,9,16,80,80,120,颗粒物(PM10)
石嘴山市,妇女儿童医院,106.3495,38.9837,2026-01-14T1500,22,181,0.3,8,5,96,68,116,颗粒物(PM10)
石嘴山市,石大公路,106.7495,39.2068,2026-01-14T1500,27,140,0.5,6,6,83,78,95,颗粒物(PM10)
双鸭山市,双合村,131.1509,46.6936,2026-01-14T1500,14,14,0.4,5,4,55,52,20,
双鸭山市,南小市,131.1651,46.6191,2026-01-14T1500,12,22,0.4,7,9,50,46,22,
双鸭山市,环保局,131.1526,46.6554,2026-01-14T1500,10,28,0.6,12,5,50,46,28,
朔州市,平朔,112.4399,39.3521,2026-01-14T1500,88,343,,,4,74,69,197,颗粒物(PM10)
朔州市,朔唯,112.4574,39.362,2026-01-14T1500,75,323,/,7,4,65,61,187,颗粒物(PM10)
朔州市,区政府,112.426,39.3199,2026-01-14T1500,72,335,0.3,6,4,81,72,193,颗粒物(PM10)
朔州市,市环保局,112.4075,39.3277,2026-01-14T1500,78,315,/,11,3,78,71,183,颗粒物(PM10)
朔州市,市二中,112.4273,39.3682,2026-01-14T1500,85,341,/,8,4,78,72,196,颗粒物(PM10)
朔州市,一水厂,112.2938,39.5296,2026-01-14T1500,60,231,0.5,4,2,75,71,141,颗粒物(PM10)
四平市,境园,124.3744,43.1842,2026-01-14T1500,20,36,0.3,19,12,52,34,36,
四平市,植物园,124.4029,43.1411,2026-01-14T1500,21,36,0.3,13,10,61,46,36,
四平市,世纪城,124.3286,43.1726,2026-01-14T1500,21,33,0.4,15,10,57,39,33,
松原市,江南,124.8007,45.1213,2026-01-14T1500,10,24,0.1,,11,56,42,,
松原市,江北,124.7967,45.1721,2026-01-14T1500,10,16,0.3,8,9,63,49,20,
苏州市,轧钢厂,120.5974,31.3247,2026-01-14T1500,51,90,0.4,43,9,90,56,70,"颗粒物(PM10),细颗粒物(PM2.5)"
苏州市,吴中区,120.6329,31.2741,2026-01-14T1500,48,76,0.6,46,10,68,38,67,细颗粒物(PM2.5)
苏州市,苏州新区,120.5566,31.3049,2026-01-14T1500,52,133,0.6,54,10,81,50,92,颗粒物(PM10)
苏州市,苏州工业园区,120.668709,31.312523,2026-01-14T1500,76,,0.7,65,10,86,52,102,细颗粒物(PM2.5)
苏州市,相城区,120.6408,31.3707,2026-01-14T1500,47,78,,52,14,99,66,,
苏州市,方洲路,120.7431,31.3188,2026-01-14T1500,61,90,0.5,54,11,89,55,83,细颗粒物(PM2.5)
苏州市,木渎中学,120.4979,31.2777,2026-01-14T1500,52,71,0.6,44,8,90,56,72,细颗粒物(PM2.5)
苏州市,越秀幼儿园,120.642,31.1733,2026-01-14T1500,68,103,0.8,51,9,94,55,92,细颗粒物(PM2.5)
苏州市,高铁新城,120.6502,31.4117,2026-01-14T1500,46,84,0.3,48,10,87,50,67,颗粒物(PM10)
苏州市,学森路9号,120.4282,31.3228,2026-01-14T1500,,,0.5,55,12,88,59,,
宿迁市,宿迁学院,118.2924,33.933,2026-01-14T1500,126,181,0.7,52,8,90,38,166,细颗粒物(PM2.5)
宿迁市,宿迁中学,118.2321,33.9572,2026-01-14T1500,130,181,0.9,45,10,80,39,172,细颗粒物(PM2.5)
宿迁市,市供电局,118.2781,33.9658,2026-01-14T1500,127,184,1.0,,9,85,37,168,细颗粒物(PM2.5)
宿迁市,宿豫区政府,118.3243,33.95,2026-01-14T1500,124,188,1.0,51,11,85,34,163,细颗粒物(PM2.5)
宿迁市,春华路,118.352,33.7886,2026-01-14T1500,123,140,0.7,33,11,80,32,162,细颗粒物(PM2.5)
宿州市,远航博物馆,116.9508,33.666,2026-01-14T1500,75,115,0.7,26,8,98,42,100,细颗粒物(PM2.5)
宿州市,社会福利中心,116.9708,33.5911,2026-01-14T1500,86,121,0.9,31,10,93,46,114,细颗粒物(PM2.5)
宿州市,皖北煤电集团,116.9647,33.6252,2026-01-14T1500,81,131,0.9,34,8,93,46,108,细颗粒物(PM2.5)
宿州市,中兴路,116.9929,33.6412,2026-01-14T1500,108,164,0.9,33,11,92,43,142,细颗粒物(PM2.5)
绥化市,人和东街,126.9783,46.6365,2026-01-14T1500,45,61,0.6,17,6,52,46,63,细颗粒物(PM2.5)
绥化市,党政办公中心,126.964,46.6527,2026-01-14T1500,44,52,0.6,23,6,49,42,62,细颗粒物(PM2.5)
随州市,市委党校,113.3587,31.7275,2026-01-14T1500,68,79,0.7,18,8,122,57,92,细颗粒物(PM2.5)
随州市,市林业局,113.3745,31.6926,2026-01-14T1500,70,95,0.9,20,8,114,51,94,细颗粒物(PM2.5)
随州市,市立交桥水厂,113.3984,31.7309,2026-01-14T1500,93,94,0.7,22,9,111,59,123,细颗粒物(PM2.5)
遂宁市,市监测站,105.5581,30.5231,2026-01-14T1500,57,77,0.6,13,5,86,33,78,细颗粒物(PM2.5)
遂宁市,美宁食品公司,105.5917,30.4727,2026-01-14T1500,60,83,0.5,13,8,86,37,82,细颗粒物(PM2.5)
遂宁市,环岛商务中心9号楼,105.5911,30.5368,2026-01-14T1500,58,73,0.5,12,9,82,35,79,细颗粒物(PM2.5)
塔城地区,东门外小游园,82.9993,46.7432,2026-01-14T1500,22,41,0.5,6,8,74,60,41,
塔城地区,文化广场,82.9716,46.7464,2026-01-14T1500,34,48,,11,6,65,66,,
台州市,黄岩环保大楼,121.2727,28.6461,2026-01-14T1500,27,56,/,14,/,131,94,53,颗粒物(PM10)
台州市,台州环保大楼,121.4188,28.6545,2026-01-14T1500,28,60,0.4,20,/,126,85,55,颗粒物(PM10)
台州市,路桥田洋王,121.3768,28.5772,2026-01-14T1500,23,58,0.6,18,7,130,83,54,颗粒物(PM10)
台州市,台州科技职业学院,121.25678,28.66823971,2026-01-14T1500,21,54,0.5,18,7,130,80,52,颗粒物(PM10)
太原市,尖草坪,112.5138,37.8916,2026-01-14T1500,36,119,0.6,29,14,66,19,85,颗粒物(PM10)
太原市,晋源,112.4691,37.7125,2026-01-14T1500,37,152,0.5,,,79,23,101,颗粒物(PM10)
太原市,小店,112.5595,37.7391,2026-01-14T1500,32,84,0.4,16,14,75,22,67,颗粒物(PM10)
太原市,坞城,112.5705,37.8199,2026-01-14T1500,62,117,1.9,,38,45,15,,
太原市,南寨,112.5495,37.9853,2026-01-14T1500,30,120,0.2,6,5,89,27,85,颗粒物(PM10)
太原市,金胜,112.4702,37.7821,2026-01-14T1500,40,114,0.9,33,21,66,20,82,颗粒物(PM10)
太原市,育英中学,112.5608,37.8807,2026-01-14T1500,43,103,1.2,42,21,57,20,77,颗粒物(PM10)
太原市,西矿街336号,112.449,37.8509,2026-01-14T1500,35,115,0.3,6,4,89,29,83,颗粒物(PM10)
太原市,迎宾北路9号,112.4792,37.9393,2026-01-14T1500,40,124,0.3,8,3,88,25,87,颗粒物(PM10)
太原市,迎泽大街248号,112.551,37.8575,2026-01-14T1500,30,112,1.3,48,25,46,14,81,颗粒物(PM10)
泰安市,监测站,117.1436,36.1938,2026-01-14T1500,99,168,1.0,37,12,62,38,130,细颗粒物(PM2.5)
泰安市,人口学校,117.0905,36.2002,2026-01-14T1500,128,161,1.1,44,13,68,47,169,细颗粒物(PM2.5)
泰安市,电力学校,117.0992,36.1757,2026-01-14T1500,133,163,1.0,50,13,60,41,176,细颗粒物(PM2.5)
泰安市,国网新校,117.1812,36.2273,2026-01-14T1500,100,156,1.1,40,11,66,45,132,细颗粒物(PM2.5)
泰安市,交通技校,117.0315,36.2017,2026-01-14T1500,115,139,1.1,38,10,75,51,150,细颗粒物(PM2.5)
泰安市,山东第一医科大学,117.083,36.13,2026-01-14T1500,119,146,0.7,43,11,52,29,156,细颗粒物(PM2.5)
泰州市,公园路,119.9042,32.488,2026-01-14T1500,51,68,0.7,45,12,86,49,70,细颗粒物(PM2.5)
泰州市,莲花,119.9189,32.4626,2026-01-14T1500,53,76,0.9,45,15,100,61,73,细颗粒物(PM2.5)
泰州市,留学生创业园,119.8877,32.4636,2026-01-14T1500,63,89,0.8,52,17,90,56,85,细颗粒物(PM2.5)
泰州市,王营,119.8767,32.3291,2026-01-14T1500,39,73,0.7,34,13,94,46,62,颗粒物(PM10)
泰州市,姜堰区政府广场,120.1226,32.515,2026-01-14T1500,72,106,0.8,54,14,80,46,97,细颗粒物(PM2.5)
泰州市,周山河街区,119.9186,32.4322,2026-01-14T1500,53,93,0.7,45,17,83,45,73,细颗粒物(PM2.5)
唐山市,十二中,118.1707,39.6505,2026-01-14T1500,50,75,1.2,28,9,41,21,69,细颗粒物(PM2.5)
唐山市,小山,118.1868,39.6219,2026-01-14T1500,47,66,1.0,22,12,45,24,65,细颗粒物(PM2.5)
唐山市,冀东油田职工医院,118.4357,39.277,2026-01-14T1500,63,92,1.2,25,13,47,27,85,细颗粒物(PM2.5)
唐山市,正泰大街热力站,118.0927,39.5807,2026-01-14T1500,49,92,1.3,33,10,29,13,71,颗粒物(PM10)
唐山市,丰润区政府,118.1561,39.8322,2026-01-14T1500,27,66,1.0,17,10,44,27,58,颗粒物(PM10)
唐山市,金山小学,118.436906,39.73802,2026-01-14T1500,53,77,1.4,29,12,41,33,73,细颗粒物(PM2.5)
唐山市,政府服务中心,118.2449,39.6693,2026-01-14T1500,44,68,1.2,34,18,32,9,62,细颗粒物(PM2.5)
唐山市,消防缸窑路中队,118.2043,39.6703,2026-01-14T1500,39,88,1.5,27,16,43,19,69,颗粒物(PM10)
唐山市,路南电大,118.1432,39.6203,2026-01-14T1500,56,84,1.2,31,10,33,23,77,细颗粒物(PM2.5)
唐山市,光明北路515号,118.1267,39.6579,2026-01-14T1500,51,104,1.3,,6,22,16,,
唐山市,友谊北路34号,118.130859,39.636026,2026-01-14T1500,64,94,1.3,35,10,32,23,87,细颗粒物(PM2.5)
天津市,勤俭道,117.1446,39.1659,2026-01-14T1500,49,88,1.1,56,12,19,10,69,颗粒物(PM10)
天津市,前进道,117.2016,39.0928,2026-01-14T1500,54,99,1.4,52,12,20,14,75,颗粒物(PM10)
天津市,淮河道,117.1837,39.2134,2026-01-14T1500,48,92,1.2,50,10,14,8,71,颗粒物(PM10)
天津市,跃进路,117.308261,39.088386,2026-01-14T1500,,,,54,12,17,10,,
天津市,第四大街,117.707,39.0344,2026-01-14T1500,68,121,1.1,60,10,10,8,92,细颗粒物(PM2.5)
天津市,永明路,117.4573,38.8395,2026-01-14T1500,68,119,1.7,61,12,11,15,92,细颗粒物(PM2.5)
天津市,汉北路,117.7641,39.1588,2026-01-14T1500,65,122,1.6,65,15,3,15,88,细颗粒物(PM2.5)
天津市,河西一经路,117.7917,39.2473,2026-01-14T1500,75,154,2.6,66,12,9,5,102,颗粒物(PM10)
天津市,津沽路,117.3747,38.9845,2026-01-14T1500,60,104,1.4,52,13,20,14,82,细颗粒物(PM2.5)
天津市,宾水西道,117.159,39.0844,2026-01-14T1500,49,86,1.1,44,12,25,12,68,"颗粒物(PM10),细颗粒物(PM2.5)"
天津市,大理道,117.194,39.1069,2026-01-14T1500,56,102,1.4,53,13,18,12,77,细颗粒物(PM2.5)
天津市,中山北路,117.2096,39.1698,2026-01-14T1500,56,103,1.2,57,10,12,7,77,"颗粒物(PM10),细颗粒物(PM2.5)"
天津市,西四道,117.385,39.1483,2026-01-14T1500,53,98,1.5,51,14,19,12,74,颗粒物(PM10)
天津市,雍阳西道,117.0362,39.3827,2026-01-14T1500,40,76,1.1,40,11,27,16,63,颗粒物(PM10)
天津市,辛老路,117.0291,39.0612,2026-01-14T1500,53,96,0.6,41,15,31,13,73,"颗粒物(PM10),细颗粒物(PM2.5)"
天津市,地纬路,116.9638,38.9374,2026-01-14T1500,43,72,0.5,47,10,24,11,61,颗粒物(PM10)
天津市,北环路,117.4065,40.0583,2026-01-14T1500,53,87,2.1,34,15,38,32,73,细颗粒物(PM2.5)
天津市,建设路,117.3041,39.7167,2026-01-14T1500,47,85,0.9,35,14,35,19,68,颗粒物(PM10)
天津市,滨水东路,117.8201,39.3519,2026-01-14T1500,63,115,1.3,38,14,28,18,85,细颗粒物(PM2.5)
天津市,光华路,117.24369,39.102911,2026-01-14T1500,54,100,1.2,57,12,14,10,75,颗粒物(PM10)
天水市,公园小学,105.72058,34.57859,2026-01-14T1500,29,143,0.4,13,16,91,50,97,颗粒物(PM10)
天水市,麦积国土局,105.89428,34.55353,2026-01-14T1500,29,169,0.9,12,9,92,41,110,颗粒物(PM10)
铁岭市,水上乐园,123.865,42.292,2026-01-14T1500,22,36,0.5,28,12,51,50,36,
铁岭市,金沙江路北,123.7158,42.2218,2026-01-14T1500,25,32,0.7,21,8,57,56,36,
铁岭市,新华街20号,123.835,42.2853,2026-01-14T1500,15,45,0.6,23,11,55,50,45,
通化市,光明,125.9359,41.7174,2026-01-14T1500,39,76,0.9,40,22,34,24,63,颗粒物(PM10)
通化市,铁路,125.9446,41.7323,2026-01-14T1500,33,76,0.6,38,27,34,21,63,颗粒物(PM10)
通辽市,艺术职业学校,122.253,43.6801,2026-01-14T1500,37,62,0.8,34,44,34,35,56,颗粒物(PM10)
通辽市,老干部活动中心,122.2584,43.6333,2026-01-14T1500,31,61,0.6,25,14,48,43,56,颗粒物(PM10)
通辽市,东方明珠社区,122.2923,43.6189,2026-01-14T1500,52,63,0.7,25,17,44,34,72,细颗粒物(PM2.5)
铜川市,王益区政府,109.0696,35.0699,2026-01-14T1500,24,161,0.6,12,3,80,35,106,颗粒物(PM10)
铜川市,新区管委会,108.9345,34.9059,2026-01-14T1500,40,222,0.3,6,3,86,68,136,颗粒物(PM10)
铜川市,大唐三路,108.949652,34.870529,2026-01-14T1500,30,268,0.2,8,1,85,66,159,颗粒物(PM10)
铜陵市,市第四中学,117.8176,30.9412,2026-01-14T1500,34,74,1.3,21,20,101,79,62,颗粒物(PM10)
铜陵市,市新民污水厂,117.7806,30.9413,2026-01-14T1500,38,,,28,18,102,69,,
铜陵市,车站新区,117.846,30.9414,2026-01-14T1500,34,58,0.5,24,16,94,68,54,颗粒物(PM10)
铜陵市,市职教基地,117.8472,30.9699,2026-01-14T1500,32,58,1.2,21,15,98,66,54,颗粒物(PM10)
铜仁市,铜仁卫校,109.1839,27.7344,2026-01-14T1500,82,112,1.4,52,1,14,12,109,细颗粒物(PM2.5)
铜仁市,铜仁七中,109.1752,27.6945,2026-01-14T1500,85,85,1.0,50,,27,20,113,细颗粒物(PM2.5)
吐鲁番市,市环保局,89.1905,42.9419,2026-01-14T1500,120,188,1.7,19,4,49,31,158,细颗粒物(PM2.5)
吐鲁番市,地区环保局,89.1674,42.9558,2026-01-14T1500,124,191,1.6,18,4,47,25,163,细颗粒物(PM2.5)
威海市,华夏技校,122.121,37.4231,2026-01-14T1500,18,34,0.2,14,/,76,72,34,
威海市,山大分校,122.0508,37.5236,2026-01-14T1500,22,39,/,13,/,81,75,39,
威海市,市监测站,122.1067,37.5067,2026-01-14T1500,20,51,0.4,18,5,80,77,51,颗粒物(PM10)
威海市,文登开发区,122.0693,37.2175,2026-01-14T1500,9,48,/,12,/,78,71,48,
威海市,临港区管委会,122.1379,37.3414,2026-01-14T1500,21,46,0.4,12,5,81,74,46,
潍坊市,环保局,119.1436,36.7022,2026-01-14T1500,77,149,1.0,43,11,57,48,103,细颗粒物(PM2.5)
潍坊市,坊子邮政,119.1638,36.6524,2026-01-14T1500,78,144,1.0,39,13,67,57,104,细颗粒物(PM2.5)
潍坊市,潍坊七中,119.0587,36.7209,2026-01-14T1500,82,136,0.9,29,9,66,45,109,细颗粒物(PM2.5)
潍坊市,高新实验学校,119.1978,36.6871,2026-01-14T1500,77,134,0.7,29,7,72,57,103,细颗粒物(PM2.5)
潍坊市,潍坊学院,119.1758,36.7139,2026-01-14T1500,64,136,0.9,36,10,65,55,93,颗粒物(PM10)
潍坊市,寒亭区实验一小,119.2046,36.7696,2026-01-14T1500,70,119,0.7,33,10,69,58,94,细颗粒物(PM2.5)
渭南市,体育馆,109.4605,34.4927,2026-01-14T1500,63,337,0.4,20,4,74,31,194,颗粒物(PM10)
渭南市,高新一小,109.4257,34.5067,2026-01-14T1500,85,321,0.4,18,,72,32,186,颗粒物(PM10)
渭南市,渭花路4号,109.505065,34.492137,2026-01-14T1500,41,268,0.3,16,5,76,33,159,颗粒物(PM10)
温州市,瓯海,120.6342,28.0088,2026-01-14T1500,38,54,0.4,25,9,127,66,54,细颗粒物(PM2.5)
温州市,南浦,120.6747,27.9881,2026-01-14T1500,39,65,0.4,28,8,128,72,58,颗粒物(PM10)
温州市,龙湾,120.76,27.9745,2026-01-14T1500,43,102,0.5,36,8,124,68,76,颗粒物(PM10)
温州市,茶山,120.6985,27.9252,2026-01-14T1500,31,60,/,29,/,130,85,55,颗粒物(PM10)
温州市,鹿城惠民路,120.6935,28.0114,2026-01-14T1500,33,74,0.4,26,/,128,76,62,颗粒物(PM10)
文山壮族苗族自治州,州水务局,104.2533,23.3595,2026-01-14T1500,,13,0.4,,3,82,69,,
文山壮族苗族自治州,市便民服务中心,104.2319,23.3892,2026-01-14T1500,37,40,0.6,15,7,71,69,53,细颗粒物(PM2.5)
乌海市,市林业局,106.8172,39.6972,2026-01-14T1500,43,251,0.4,3,9,93,90,151,颗粒物(PM10)
乌海市,中海勃湾学校,106.7907,39.6666,2026-01-14T1500,44,270,0.3,2,7,97,92,160,颗粒物(PM10)
乌海市,海北新区,106.8129,39.7274,2026-01-14T1500,48,327,0.3,4,12,87,81,189,颗粒物(PM10)
乌海市,海拉北路,106.8212,39.6741,2026-01-14T1500,45,298,0.2,4,16,82,76,174,颗粒物(PM10)
乌兰察布市,集宁新区,113.1306,40.9924,2026-01-14T1500,112,333,0.4,14,5,71,63,192,颗粒物(PM10)
乌兰察布市,光明街小学,113.1076,41.0385,2026-01-14T1500,,,,,,,59,,
乌兰察布市,北京八中,113.1383,40.9513,2026-01-14T1500,110,428,0.6,14,6,60,53,310,颗粒物(PM10)
乌兰察布市,市委党校,113.1776,40.9779,2026-01-14T1500,90,389,0.4,16,3,70,61,256,颗粒物(PM10)
乌鲁木齐市,监测站,87.5796,43.8299,2026-01-14T1500,79,105,1.0,23,4,51,28,105,细颗粒物(PM2.5)
乌鲁木齐市,收费所,87.6044,43.7679,2026-01-14T1500,83,91,1.2,32,5,40,28,110,细颗粒物(PM2.5)
乌鲁木齐市,铁路局,87.5529,43.8704,2026-01-14T1500,82,92,0.9,29,3,55,41,109,细颗粒物(PM2.5)
乌鲁木齐市,三十一中学,87.6408,43.8258,2026-01-14T1500,80,100,0.8,27,8,43,29,107,细颗粒物(PM2.5)
乌鲁木齐市,米东区环保局,87.7218,44.1747,2026-01-14T1500,183,214,1.5,35,13,72,48,233,细颗粒物(PM2.5)
乌鲁木齐市,培训基地,87.4652,43.4569,2026-01-14T1500,3,17,0.4,14,5,80,76,25,
乌鲁木齐市,达坂城区环保局,88.3088,43.3637,2026-01-14T1500,34,61,0.5,15,8,76,73,56,颗粒物(PM10)
乌鲁木齐市,红光山片区,87.6132,43.8791,2026-01-14T1500,83,,0.9,33,8,49,37,110,细颗粒物(PM2.5)
乌鲁木齐市,新师大温泉校区,87.7008,43.8003,2026-01-14T1500,90,99,1.0,,5,53,29,119,细颗粒物(PM2.5)
乌鲁木齐市,大绿谷,87.4892,43.84,2026-01-14T1500,81,99,0.9,29,4,43,25,108,细颗粒物(PM2.5)
无锡市,雪浪,120.2693,31.4864,2026-01-14T1500,36,58,0.9,31,8,96,63,54,颗粒物(PM10)
无锡市,黄巷,120.2761,31.621,2026-01-14T1500,34,83,0.7,34,6,83,49,67,颗粒物(PM10)
无锡市,漆塘,120.2422,31.5037,2026-01-14T1500,51,98,0.7,45,12,89,58,74,颗粒物(PM10)
无锡市,东亭,120.3489,31.5865,2026-01-14T1500,34,58,0.5,37,10,88,48,54,颗粒物(PM10)
无锡市,旺庄,120.3538,31.5474,2026-01-14T1500,27,48,0.7,29,5,94,51,48,
无锡市,荣巷,120.2447,31.5633,2026-01-14T1500,46,73,0.8,38,9,93,56,64,细颗粒物(PM2.5)
无锡市,堰桥,120.2986,31.6816,2026-01-14T1500,27,44,0,50,10,,35,,
无锡市,清舒道1号,120.3138,31.4927,2026-01-14T1500,43,,0.6,36,10,98,64,60,细颗粒物(PM2.5)
无锡市,健康路105号,120.2925,31.5685,2026-01-14T1500,,,,54,8,71,40,,
吴忠市,教育园区,106.1535,37.9648,2026-01-14T1500,49,196,0.2,2,6,88,80,123,颗粒物(PM10)
吴忠市,新区二泵站,106.1851,37.9957,2026-01-14T1500,37,343,0.2,2,4,84,75,197,颗粒物(PM10)
吴忠市,文卫南街,106.2176,37.9832,2026-01-14T1500,27,273,0.2,5,5,85,77,162,颗粒物(PM10)
芜湖市,监测站,118.3603,31.3515,2026-01-14T1500,45,68,1.3,40,17,87,43,63,细颗粒物(PM2.5)
芜湖市,科创中心,118.3716,31.4135,2026-01-14T1500,46,69,1.1,53,16,76,33,64,细颗粒物(PM2.5)
芜湖市,四水厂,118.3671,31.3132,2026-01-14T1500,45,65,0.9,40,16,82,38,63,细颗粒物(PM2.5)
芜湖市,市气象局,118.4209,31.3704,2026-01-14T1500,48,76,0.9,32,15,86,41,67,细颗粒物(PM2.5)
芜湖市,清苑社区,118.4783,31.3226,2026-01-14T1500,29,39,0.4,35,12,97,52,42,
芜湖市,扬子职业技术学院,118.2746,31.2326,2026-01-14T1500,42,63,0.9,31,16,82,53,59,细颗粒物(PM2.5)
芜湖市,湾沚区人民法院,118.5726,31.1371,2026-01-14T1500,20,28,0.6,11,8,98,62,31,
梧州市,市十一中,111.3126,23.4772,2026-01-14T1500,37,60,0.0,13,12,184,80,80,臭氧1小时(O3_1h)
梧州市,龙新,111.26,23.4794,2026-01-14T1500,42,81,0.2,8,6,182,63,78,臭氧1小时(O3_1h)
梧州市,政贤路18号,111.2416,23.4155,2026-01-14T1500,42,85,0.4,19,9,168,59,68,颗粒物(PM10)
五家渠市,农水大厦,87.5352,44.1606,2026-01-14T1500,161,193,1.5,2,10,60,46,211,细颗粒物(PM2.5)
五家渠市,经开区管委会,87.5461,44.1909,2026-01-14T1500,203,220,1.7,23,9,67,53,253,细颗粒物(PM2.5)
五家渠市,建设西街760号,87.055284,43.999117,2026-01-14T1500,72,,0.7,12,6,69,58,97,细颗粒物(PM2.5)
武汉市,东湖梨园,114.3676,30.5584,2026-01-14T1500,42,63,0.9,25,7,86,50,59,细颗粒物(PM2.5)
武汉市,汉阳月湖,114.2527,30.5578,2026-01-14T1500,29,49,0.8,32,7,81,44,49,
武汉市,汉口花桥,114.2819,30.6189,2026-01-14T1500,46,68,0.9,37,11,78,47,64,细颗粒物(PM2.5)
武汉市,武昌紫阳,114.3024,30.5332,2026-01-14T1500,39,49,0.6,25,11,89,48,55,细颗粒物(PM2.5)
武汉市,青山钢花,114.3646,30.6217,2026-01-14T1500,46,57,0.9,37,6,86,55,64,细颗粒物(PM2.5)
武汉市,沌口新区,114.156697,30.482592,2026-01-14T1500,42,62,1.0,30,10,85,48,59,细颗粒物(PM2.5)
武汉市,汉口江滩,114.3013,30.5944,2026-01-14T1500,64,72,0.7,60,9,62,46,87,细颗粒物(PM2.5)
武汉市,吴家山,114.1285,30.6339,2026-01-14T1500,34,51,0.6,32,10,91,39,51,颗粒物(PM10)
武汉市,民族大道182号,114.3876,30.4908,2026-01-14T1500,26,51,0.6,13,6,98,56,51,颗粒物(PM10)
武威市,监测站,102.6203,37.925,2026-01-14T1500,38,59,0.2,5,11,84,48,55,颗粒物(PM10)
武威市,钟楼街149号,102.6447,37.9293,2026-01-14T1500,20,60,0.3,5,9,82,51,55,颗粒物(PM10)
西安市,兴庆小区,108.9931,34.2629,2026-01-14T1500,50,340,0.4,10,3,76,38,195,颗粒物(PM10)
西安市,纺织城,109.0595,34.2569,2026-01-14T1500,55,315,0.2,14,2,74,32,183,颗粒物(PM10)
西安市,小寨,108.9377,34.2178,2026-01-14T1500,65,198,0.5,9,6,83,40,124,颗粒物(PM10)
西安市,市人民体育场,108.9522,34.2739,2026-01-14T1500,48,427,0.6,,,77,39,309,颗粒物(PM10)
西安市,高新西区,108.8923,34.2322,2026-01-14T1500,39,254,,9,,82,38,152,颗粒物(PM10)
西安市,经开区,108.9386,34.3446,2026-01-14T1500,67,415,0.4,9,1,71,37,293,颗粒物(PM10)
西安市,长安区,108.894,34.1557,2026-01-14T1500,47,332,0.2,6,3,83,43,191,颗粒物(PM10)
西安市,临潼区,109.213,34.3748,2026-01-14T1500,55,362,0.4,12,4,77,58,218,颗粒物(PM10)
西安市,广运潭,109.0508,34.321,2026-01-14T1500,64,407,0.4,10,1,80,36,282,颗粒物(PM10)
西安市,无线电监控中心,109.1019,34.5302,2026-01-14T1500,68,438,0.2,12,3,75,36,323,颗粒物(PM10)
西安市,行知小学,108.8869,34.2662,2026-01-14T1500,44,301,0.3,12,3,78,38,176,颗粒物(PM10)
西安市,西苑北路977号,108.596239,34.118792,2026-01-14T1500,41,258,0.2,11,1,92,58,154,颗粒物(PM10)
西安市,曲江池东路988号,108.9817,34.2035,2026-01-14T1500,38,294,0.3,4,1,84,44,172,颗粒物(PM10)
西宁市,城北区政府,101.7775,36.643,2026-01-14T1500,9,93,0.6,2,5,100,77,72,颗粒物(PM10)
西宁市,世纪职校,101.8304,36.5785,2026-01-14T1500,3,34,0.4,8,5,93,71,34,
西宁市,海晏路105号,101.6769,36.6535,2026-01-14T1500,16,55,0.2,3,2,91,79,53,颗粒物(PM10)
西双版纳傣族自治州,景洪市江南,100.8018,21.9995,2026-01-14T1500,37,46,0.8,11,6,83,35,53,细颗粒物(PM2.5)
西双版纳傣族自治州,景洪市江北,100.7995,22.0238,2026-01-14T1500,21,36,0.6,10,4,91,46,36,
锡林郭勒盟,市环保监测站,116.1048,43.9318,2026-01-14T1500,,,0.3,9,5,72,60,,
锡林郭勒盟,市政府,116.0778,43.9312,2026-01-14T1500,9,60,0.3,7,6,80,65,55,颗粒物(PM10)
厦门市,洪文,118.1519,24.4768,2026-01-14T1500,27,55,0.4,13,4,158,97,53,颗粒物(PM10)
厦门市,鼓浪屿,118.0671,24.4447,2026-01-14T1500,27,46,/,22,4,147,76,46,
厦门市,湖里中学,118.0937,24.5054,2026-01-14T1500,19,43,0.6,25,4,116,71,43,
厦门市,集美中学,118.0961,24.5689,2026-01-14T1500,20,34,0.4,13,3,140,88,44,
厦门市,同安二实小,118.1502,24.7246,2026-01-14T1500,14,23,0.4,9,3,132,92,42,
咸宁市,长江产业园,114.3379,29.8683,2026-01-14T1500,25,34,0.4,18,6,102,70,36,
咸宁市,双鹤路18号,114.3182,29.8447,2026-01-14T1500,20,38,0.5,12,3,115,78,38,
咸宁市,碧桂路,114.284,29.8595,2026-01-14T1500,19,32,0.4,12,4,118,74,37,
咸阳市,实验中学,108.6726,34.315,2026-01-14T1500,49,376,0.3,4,3,86,48,238,颗粒物(PM10)
咸阳市,师范学院,108.7226,34.3622,2026-01-14T1500,56,427,0.3,10,3,88,55,309,颗粒物(PM10)
咸阳市,奥体中心,108.6394,34.408,2026-01-14T1500,56,417,0.3,7,3,79,64,296,颗粒物(PM10)
咸阳市,五陵塬路2号,108.6601,34.3767,2026-01-14T1500,64,353,0.8,17,2,81,61,205,颗粒物(PM10)
咸阳市,胭脂路9号,108.6372,34.3031,2026-01-14T1500,54,281,0.3,12,2,83,43,166,颗粒物(PM10)
湘潭市,板塘,112.9508,27.8626,2026-01-14T1500,34,47,0.5,7,6,90,65,49,
湘潭市,市监测站,112.9114,27.8404,2026-01-14T1500,32,49,0.9,13,10,124,91,49,
湘潭市,江麓,112.8935,27.8729,2026-01-14T1500,37,64,1.8,18,17,123,26,57,颗粒物(PM10)
湘潭市,岳塘,112.9227,27.8159,2026-01-14T1500,35,72,0.6,18,1,136,101,61,颗粒物(PM10)
湘潭市,科大,112.9073,27.9118,2026-01-14T1500,33,53,,11,11,99,70,,
湘潭市,昭山,113.0048,27.9153,2026-01-14T1500,28,46,0.3,12,6,122,78,46,
湘西土家族苗族自治州,州政府,109.7298,28.3164,2026-01-14T1500,76,85,0.6,28,4,60,26,102,细颗粒物(PM2.5)
湘西土家族苗族自治州,吉首市计生局,109.6957,28.2676,2026-01-14T1500,81,89,1.0,44,10,53,27,108,细颗粒物(PM2.5)
襄阳市,襄城运动路,112.1555,32.0197,2026-01-14T1500,80,107,0.8,21,10,88,43,107,细颗粒物(PM2.5)
襄阳市,高新管委会,112.1829,32.1146,2026-01-14T1500,86,104,0.7,20,14,74,35,114,细颗粒物(PM2.5)
襄阳市,襄州航空路,112.2105,32.0903,2026-01-14T1500,63,105,0.8,22,12,73,34,85,细颗粒物(PM2.5)
襄阳市,襄城隆中路,112.0764,32.0089,2026-01-14T1500,72,113,0.6,25,10,84,44,97,细颗粒物(PM2.5)
襄阳市,高新台子湾,112.1154,32.103,2026-01-14T1500,61,113,0.5,20,7,75,38,83,细颗粒物(PM2.5)
襄阳市,铁院东路4号,112.1433,32.0581,2026-01-14T1500,,,0.6,,,78,38,,
孝感市,东城区,113.9062,30.9378,2026-01-14T1500,,89,0.8,23,10,106,63,,
孝感市,天仙南路1号,113.946,30.8999,2026-01-14T1500,46,64,0.7,29,9,91,56,64,细颗粒物(PM2.5)
忻州市,开发区,112.7313,38.457,2026-01-14T1500,32,174,0.4,5,7,86,50,112,颗粒物(PM10)
忻州市,会展中心,112.7023,38.4932,2026-01-14T1500,33,201,0.4,8,4,84,47,126,颗粒物(PM10)
忻州市,市政府,112.7279,38.4157,2026-01-14T1500,32,159,0.3,11,4,87,53,105,颗粒物(PM10)
新乡市,环保西院,113.836,35.3104,2026-01-14T1500,100,180,1.6,62,20,20,12,132,细颗粒物(PM2.5)
新乡市,开发区,113.8847,35.2724,2026-01-14T1500,112,144,1.2,63,19,25,16,147,细颗粒物(PM2.5)
新乡市,环保东院,113.8836,35.3028,2026-01-14T1500,93,167,1.3,59,17,23,16,123,细颗粒物(PM2.5)
新乡市,市委党校,113.9194,35.2847,2026-01-14T1500,109,146,1.0,59,20,28,18,143,细颗粒物(PM2.5)
