area,positionname,longitude,latitude,timepoint,pm2_5,pm10,co,no2,so2,o3,o3_8h,aqi,primarypollutant
阿坝藏族羌族自治州,马师校,102.2503,31.8896,2026-01-07T1800,18,26,0.4,7,4,79,71,26,
阿坝藏族羌族自治州,马尔康中学西区,102.2174,31.9016,2026-01-07T1800,14,15,0.5,7,5,77,72,25,
阿克苏地区,电视台,80.2899,41.1684,2026-01-07T1800,50,75,0.6,25,5,61,39,69,细颗粒物(PM2.5)
阿克苏地区,艺术中心,80.2592,41.1541,2026-01-07T1800,47,57,0.6,15,5,69,47,65,细颗粒物(PM2.5)
阿拉善盟,蒙二幼,105.699,38.8409,2026-01-07T1800,14,54,0.5,10,10,79,76,52,颗粒物(PM10)
阿拉善盟,环保局新楼,105.7198,38.8508,2026-01-07T1800,15,49,0.6,7,9,77,72,49,
阿勒泰地区,市站,88.1266,47.8515,2026-01-07T1800,9,13,0.2,24,8,67,63,21,
阿勒泰地区,阿勒泰路33号,88.1198,47.7931,2026-01-07T1800,3,14,0.3,8,4,82,70,26,
阿里地区,阿里监测站,80.1171,32.4999,2026-01-07T1800,3,6,0.4,2,8,45,76,15,
阿里地区,阿里藏医院,80.0906,32.5029,2026-01-07T1800,3,6,0.5,1,9,83,72,26,
安康市,汉滨区检察院,109.0088,32.6974,2026-01-07T1800,27,45,0.6,20,5,70,53,45,
安康市,市邮政管理局,109.0324,32.6913,2026-01-07T1800,44,68,1.2,44,5,37,43,62,细颗粒物(PM2.5)
安庆市,环科院,117.0806,30.5181,2026-01-07T1800,32,42,0.4,24,6,80,81,46,
安庆市,马山宾馆,117.0331,30.5118,2026-01-07T1800,32,39,0.4,24,6,86,78,46,
安庆市,安庆大学,116.9897,30.6146,2026-01-07T1800,38,52,0.5,39,5,64,80,54,细颗粒物(PM2.5)
安庆市,市人大,117.0598,30.5351,2026-01-07T1800,29,37,0.4,24,7,87,81,42,
安顺市,凤凰山,105.9408,26.2431,2026-01-07T1800,44,47,0.5,17,18,70,73,62,细颗粒物(PM2.5)
安顺市,金钟山,105.9443,26.2567,2026-01-07T1800,43,45,0.8,14,19,72,74,60,细颗粒物(PM2.5)
安顺市,娄家坡,105.8983,26.248,2026-01-07T1800,50,55,0.8,18,26,70,72,69,细颗粒物(PM2.5)
安阳市,红庙街,114.3552,36.1017,2026-01-07T1800,24,50,0.5,19,4,64,62,50,
安阳市,银杏小区,114.361,36.0681,2026-01-07T1800,30,51,0.4,21,6,65,67,51,颗粒物(PM10)
安阳市,信访局,114.3921,36.0879,2026-01-07T1800,29,45,0.6,21,6,61,64,45,
安阳市,左辅环卫站,114.4706,36.0634,2026-01-07T1800,28,63,0.5,22,5,58,70,57,颗粒物(PM10)
安阳市,钢三路198号,114.2918,36.0769,2026-01-07T1800,32,68,0.5,29,4,55,59,59,颗粒物(PM10)
鞍山市,深沟寺,123.0441,41.1201,2026-01-07T1800,22,46,0.9,18,9,49,62,46,
鞍山市,太阳城,123.011,41.0931,2026-01-07T1800,16,48,1.2,24,28,50,63,48,
鞍山市,太平,123.0483,41.1445,2026-01-07T1800,22,62,0.6,29,16,40,58,56,颗粒物(PM10)
鞍山市,铁西三道街,122.964,41.0968,2026-01-07T1800,19,54,0.6,22,11,52,64,52,颗粒物(PM10)
鞍山市,明达新区,123.0219,41.0822,2026-01-07T1800,16,41,1.0,21,24,46,59,41,
鞍山市,兴盛南路290号,122.944647,41.082639,2026-01-07T1800,24,60,0.5,40,13,39,59,55,颗粒物(PM10)
巴彦淖尔市,附二中,107.4206,40.7609,2026-01-07T1800,26,54,0.4,10,3,63,61,52,颗粒物(PM10)
巴彦淖尔市,市环保大楼,107.37,40.7372,2026-01-07T1800,35,54,0.4,10,4,69,70,52,颗粒物(PM10)
巴音郭楞蒙古自治州,孔雀公园,86.1476,41.7529,2026-01-07T1800,30,60,0.4,9,7,61,39,55,颗粒物(PM10)
巴音郭楞蒙古自治州,棉纺厂,86.1971,41.7166,2026-01-07T1800,25,63,/,11,/,64,46,57,颗粒物(PM10)
巴音郭楞蒙古自治州,经济开发区,86.236,41.7172,2026-01-07T1800,12,53,0.4,12,6,57,44,52,颗粒物(PM10)
巴中市,市五中,106.776805,31.852614,2026-01-07T1800,37,51,0.8,23,6,73,60,53,细颗粒物(PM2.5)
巴中市,圣泉水务公司,106.7419,31.8654,2026-01-07T1800,44,52,,27,5,70,68,,
巴中市,市中心医院,106.7617,31.8343,2026-01-07T1800,39,58,0.8,40,7,52,62,55,细颗粒物(PM2.5)
白城市,洮北区环保局,122.7909,45.608,2026-01-07T1800,27,48,0.3,27,4,37,56,48,
白城市,市环保局,122.8741,45.5725,2026-01-07T1800,18,29,0.3,16,6,45,57,29,
白山市,喜丰,126.4219,41.9172,2026-01-07T1800,6,42,0.4,12,10,58,65,42,
白山市,环保局,126.4082,41.9416,2026-01-07T1800,14,22,0.9,8,10,61,63,22,
白银市,第三小学,104.1727,36.5448,2026-01-07T1800,10,26,0.4,12,4,84,68,27,
白银市,动力公司,104.1467,36.5482,2026-01-07T1800,9,39,0.4,10,4,85,75,39,
百色市,市监测站,106.6102,23.901,2026-01-07T1800,30,38,0.6,13,7,69,63,43,
百色市,市中心血站,106.6524,23.8842,2026-01-07T1800,34,38,0.7,13,8,84,70,49,
百色市,龙景西路,106.6273,23.8798,2026-01-07T1800,30,38,0.6,9,8,85,67,43,
蚌埠市,工人疗养院,117.396,32.9389,2026-01-07T1800,41,81,0.6,32,7,50,56,66,颗粒物(PM10)
蚌埠市,百货大楼,117.3606,32.9428,2026-01-07T1800,41,76,0.6,32,7,45,57,63,颗粒物(PM10)
蚌埠市,蚌埠学院,117.4183,32.8909,2026-01-07T1800,,,0.4,,6,62,62,,
蚌埠市,淮上区政府,117.3534,32.9672,2026-01-07T1800,53,85,0.6,39,4,46,61,73,细颗粒物(PM2.5)
蚌埠市,高新区,117.3143,32.8977,2026-01-07T1800,49,85,0.4,32,8,48,55,68,"颗粒物(PM10),细颗粒物(PM2.5)"
蚌埠市,蚌埠田家炳中学,117.3091,32.9314,2026-01-07T1800,53,77,0.5,28,7,56,58,73,细颗粒物(PM2.5)
包头市,市环境监测站,109.8761,40.6533,2026-01-07T1800,40,86,0.4,16,5,66,38,68,颗粒物(PM10)
包头市,包头八中,109.9992,40.5843,2026-01-07T1800,46,142,0.7,39,5,45,43,96,颗粒物(PM10)
包头市,惠龙物流,109.8641,40.6288,2026-01-07T1800,48,99,0.3,17,8,66,38,75,颗粒物(PM10)
包头市,东河鸿龙湾,110.0376,40.5546,2026-01-07T1800,64,116,1.4,55,12,35,50,87,细颗粒物(PM2.5)
包头市,滨河大厦,109.9154,40.5684,2026-01-07T1800,48,98,1.2,42,12,33,42,74,颗粒物(PM10)
包头市,包头市委党校,109.9449,40.6259,2026-01-07T1800,40,123,0.5,16,8,62,40,87,颗粒物(PM10)
包头市,昆区政府,109.8332,40.6577,2026-01-07T1800,26,71,0.6,21,6,64,40,61,颗粒物(PM10)
宝鸡市,竹园沟,107.0802,34.3129,2026-01-07T1800,30,50,0.4,22,6,61,71,50,
宝鸡市,监测站,107.1429,34.3549,2026-01-07T1800,20,34,0.4,29,5,75,58,34,
宝鸡市,技工学校,107.1172,34.3759,2026-01-07T1800,22,38,0.3,28,5,68,62,38,
宝鸡市,文理学院,107.2025,34.3518,2026-01-07T1800,18,28,0.3,23,5,85,69,28,
宝鸡市,三迪小学,107.2396,34.3626,2026-01-07T1800,24,48,0.3,27,4,80,64,48,
宝鸡市,滨河北路,107.1721,34.3558,2026-01-07T1800,18,30,0.6,33,5,79,66,30,
宝鸡市,陈仓区北开路21号,107.3898,34.3601,2026-01-07T1800,,,,,,,70,,
保定市,游泳馆,115.4803,38.8568,2026-01-07T1800,19,48,0.5,36,4,45,56,48,
保定市,华电二区,115.509,38.8895,2026-01-07T1800,77,88,1.0,3,4,57,62,103,细颗粒物(PM2.5)
保定市,接待中心,115.4588,38.9037,2026-01-07T1800,20,44,0.2,20,2,52,55,44,
保定市,地表水厂,115.4484,38.8344,2026-01-07T1800,23,57,0.3,39,3,45,55,54,颗粒物(PM10)
保定市,满城区生态环境分局,115.3136,38.9511,2026-01-07T1800,27,56,0.5,43,4,42,62,53,颗粒物(PM10)
保定市,清苑区第二中学,115.4709,38.7628,2026-01-07T1800,25,78,0.3,36,5,34,56,64,颗粒物(PM10)
保定市,徐水物探局,115.6231,39.0223,2026-01-07T1800,26,59,0.5,45,6,34,53,55,颗粒物(PM10)
保定市,双鹰农机,115.4199,38.8665,2026-01-07T1800,27,46,0.3,27,5,53,61,46,
保定市,植保所站,115.515,38.8589,2026-01-07T1800,32,47,0.4,38,2,41,52,47,
保山市,市环境监测站,99.1589,25.1137,2026-01-07T1800,27,,0.3,7,3,89,88,,
保山市,市环保局,99.1616,25.1381,2026-01-07T1800,14,32,0.4,5,4,91,80,32,
北海市,海滩公园,109.1435,21.4085,2026-01-07T1800,27,40,0.4,14,9,127,109,40,
北海市,新市环保局,109.0983,21.466,2026-01-07T1800,24,36,0.6,13,4,114,106,36,
北海市,北海工业园,109.1775,21.5232,2026-01-07T1800,22,30,0.6,12,7,104,100,33,
北海市,龙潭自来水厂,109.1844,21.4396,2026-01-07T1800,29,38,0.5,20,8,118,103,42,
北京市,万寿西宫,116.3611,39.8786,2026-01-07T1800,22,34,0.3,15,2,61,62,34,
北京市,东四,116.4174,39.9289,2026-01-07T1800,16,40,0.2,16,5,55,58,40,
北京市,天坛,116.4073,39.8858,2026-01-07T1800,15,34,0.3,14,2,57,63,34,
北京市,农展馆,116.4622,39.9364,2026-01-07T1800,17,34,0.5,13,5,60,62,34,
北京市,官园,116.3399,39.9293,2026-01-07T1800,27,40,0.5,15,5,57,60,40,
北京市,海淀万柳,116.2879,39.9613,2026-01-07T1800,22,47,0.4,29,3,43,56,47,
北京市,顺义新城,116.6635,40.1349,2026-01-07T1800,10,21,0.3,11,2,62,65,21,
北京市,怀柔镇,116.6275,40.327,2026-01-07T1800,11,21,0.4,22,7,49,53,21,
北京市,昌平镇,116.2295,40.217,2026-01-07T1800,19,46,0.6,21,6,52,62,46,
北京市,奥体中心,116.3968,39.982,2026-01-07T1800,16,39,0.5,17,4,61,63,39,
北京市,密云新城,116.8336,40.4095,2026-01-07T1800,7,16,0.3,6,3,65,64,21,
北京市,门头沟三家店,116.0879,39.9725,2026-01-07T1800,19,34,0.5,10,4,64,73,34,
北京市,丰台云岗,116.1507,39.8246,2026-01-07T1800,22,39,0.5,30,2,45,62,39,
北京市,房山燕山,115.9578,39.7602,2026-01-07T1800,20,42,0.3,26,6,41,65,42,
北京市,大兴旧宫,116.4669,39.7734,2026-01-07T1800,11,22,0.3,11,2,59,58,22,
北京市,延庆石河营,115.9859,40.4562,2026-01-07T1800,19,36,0.5,36,3,34,52,36,
北京市,怀柔新城,116.6151,40.3052,2026-01-07T1800,8,18,0.2,14,4,55,56,18,
北京市,丰台小屯,116.2542,39.8764,2026-01-07T1800,18,43,0.4,35,4,33,55,43,
北京市,密云镇,116.8399,40.3843,2026-01-07T1800,6,18,0.4,17,1,56,62,18,
北京市,延庆百泉,115.9423,40.4431,2026-01-07T1800,26,54,0.5,18,3,43,49,52,颗粒物(PM10)
北京市,通州新华,116.6598,39.9164,2026-01-07T1800,14,36,0.9,22,4,50,54,36,
北京市,石景山八角,116.1942,39.9158,2026-01-07T1800,17,40,0.3,10,1,60,54,40,
北京市,平谷新城,117.078628,40.151726,2026-01-07T1800,8,17,0.3,16,2,53,57,17,
本溪市,大峪,123.8274146,41.31234549,2026-01-07T1800,13,43,0.6,27,8,37,57,43,
本溪市,彩屯,123.7169,41.3094,2026-01-07T1800,22,46,0.8,31,6,42,67,46,
本溪市,东明,123.7672166,41.28649327,2026-01-07T1800,15,28,0.6,18,6,50,64,28,
本溪市,新立屯,123.799345,41.266614,2026-01-07T1800,9,22,0.9,17,9,46,61,22,
本溪市,威宁,123.829144,41.336777,2026-01-07T1800,22,42,0.8,,,25,60,,
毕节市,八中,105.287,27.3133,2026-01-07T1800,32,37,0.6,9,11,72,68,46,
毕节市,师专,105.3079,27.2987,2026-01-07T1800,30,36,0.5,10,10,78,72,43,
毕节市,工业大道,105.3688,27.3598,2026-01-07T1800,40,50,/,8,10,69,68,57,细颗粒物(PM2.5)
滨州市,第二水厂,117.9961,37.3604,2026-01-07T1800,3,29,0.3,29,11,44,59,29,
滨州市,北中新校,117.9789,37.3931,2026-01-07T1800,12,22,0.4,28,6,50,65,22,
滨州市,中海酒店,117.9379,37.3959,2026-01-07T1800,14,31,0.6,27,9,51,66,31,
滨州市,开发区一中,117.9381509,37.35547456,2026-01-07T1800,14,29,0.5,18,11,56,65,29,
滨州市,金海六路,118.0914,37.6938,2026-01-07T1800,3,27,0.6,34,11,51,73,27,
滨州市,滨州市西街道办事处,117.9955,37.3752,2026-01-07T1800,12,24,0.3,25,8,49,66,24,
亳州市,污水处理厂,115.8071,33.8399,2026-01-07T1800,,,,,4,64,72,,
亳州市,三国揽胜宫,115.7789,33.8519,2026-01-07T1800,25,57,0.4,23,4,64,64,54,颗粒物(PM10)
亳州市,亳州学院,115.7631,33.803,2026-01-07T1800,23,54,0.2,31,4,63,65,52,颗粒物(PM10)
博尔塔拉蒙古自治州,市党校,82.0482,44.8553,2026-01-07T1800,71,122,1.2,,,39,40,,
博尔塔拉蒙古自治州,市环保局,82.0805,44.8966,2026-01-07T1800,68,116,1.3,54,22,34,32,92,细颗粒物(PM2.5)
沧州市,沧县城建局,116.8733,38.2922,2026-01-07T1800,18,40,0.4,38,1,48,67,40,
沧州市,电视转播站,116.8462,38.3189,2026-01-07T1800,17,35,0.4,26,3,56,65,35,
沧州市,市环保局,116.8588,38.3161,2026-01-07T1800,33,41,0.3,24,4,52,61,48,
沧州市,河北水利电力学院,116.8011,38.294,2026-01-07T1800,16,31,0.3,30,4,50,60,31,
昌都市,昌都监测站,97.1813,31.1289,2026-01-07T1800,6,15,0.5,10,2,83,74,26,
昌都市,昌都会议中心,97.1707,31.1428,2026-01-07T1800,3,7,0.4,1,2,81,68,26,
昌吉回族自治州,新区政务中心,87.2722,44.0298,2026-01-07T1800,157,209,1.6,36,4,52,42,207,细颗粒物(PM2.5)
昌吉回族自治州,亚心广场,87.3069,44.0093,2026-01-07T1800,168,217,1.7,33,8,45,41,218,细颗粒物(PM2.5)
昌吉回族自治州,财政所,87.2057,43.9289,2026-01-07T1800,151,187,1.2,34,5,48,45,201,细颗粒物(PM2.5)
长春市,客车厂,125.2874,43.9024,2026-01-07T1800,34,,0.7,55,11,13,51,49,
长春市,邮电学院,125.2943,43.8508,2026-01-07T1800,23,26,0.3,22,8,37,50,33,
长春市,劳动公园,125.3648,43.8745,2026-01-07T1800,19,21,0.6,22,10,44,53,28,
长春市,园林处,125.3233,43.8781,2026-01-07T1800,23,33,,21,10,37,49,,
长春市,净月潭,125.4604,43.7904,2026-01-07T1800,13,17,0.3,18,9,44,54,19,
长春市,经开区环卫处,125.38,43.8422,2026-01-07T1800,16,19,0.3,33,23,31,50,23,
长春市,高新区管委会,125.234,43.7761,2026-01-07T1800,24,32,0.6,46,7,23,58,35,
长春市,岱山公园,125.1695,43.83,2026-01-07T1800,30,34,0.6,62,12,13,51,43,
长春市,北亚泰大街1068号,125.334645,43.916281,2026-01-07T1800,31,,0.6,36,8,26,50,45,
长沙市,经开区环保局,113.082,28.2421,2026-01-07T1800,38,,0.4,34,4,78,75,54,细颗粒物(PM2.5)
长沙市,高开区环保局,112.8873,28.2202,2026-01-07T1800,33,41,,17,,85,72,,
长沙市,马坡岭,113.0785,28.2012,2026-01-07T1800,40,,0.8,35,4,76,82,57,细颗粒物(PM2.5)
长沙市,湖南师范大学,112.9448,28.1894,2026-01-07T1800,30,39,0.4,32,6,76,76,43,
长沙市,雨花区环保局,113.0177,28.1322,2026-01-07T1800,33,51,0.4,30,8,84,69,51,颗粒物(PM10)
长沙市,伍家岭,112.9795,28.2593,2026-01-07T1800,40,40,0.4,41,6,75,69,57,细颗粒物(PM2.5)
长沙市,火车新站,113.002,28.1944,2026-01-07T1800,39,52,0.4,25,9,89,69,55,细颗粒物(PM2.5)
长沙市,天心区环保局,112.9846,28.1177,2026-01-07T1800,37,37,,22,,89,76,,
长沙市,湖南中医药大学,112.8906,28.1307,2026-01-07T1800,28,36,0.5,39,6,79,77,40,
长治市,清华站,113.1146,36.1547,2026-01-07T1800,29,42,0.5,16,11,73,73,42,
长治市,审计局,113.0887,36.2126,2026-01-07T1800,22,35,0.5,14,8,70,70,35,
长治市,长治八中,113.0845,36.1856,2026-01-07T1800,,,0.5,11,9,68,71,,
长治市,德盛苑,113.1561,36.1912,2026-01-07T1800,27,46,0.5,14,8,77,74,46,
长治市,向阳小学,113.0603,36.0464,2026-01-07T1800,29,83,0.5,19,9,76,81,67,颗粒物(PM10)
长治市,屯留一中,112.8788,36.315,2026-01-07T1800,21,59,0.1,12,4,68,74,55,颗粒物(PM10)
长治市,英华南巷50号,113.113092,36.199482,2026-01-07T1800,34,44,0.4,11,7,76,73,49,
长治市,学府街1号,113.23666,36.33435,2026-01-07T1800,26,49,0.5,18,9,68,69,49,
常德市,市二中,111.696,28.9725,2026-01-07T1800,17,29,0.3,22,4,74,72,29,
常德市,武陵区永安,111.7152,29.0288,2026-01-07T1800,18,32,0.5,17,4,79,78,32,
常德市,鼎城区玉霞,111.6891,28.9881,2026-01-07T1800,16,28,0.5,14,7,84,76,28,
常德市,武陵区长庚,111.6651,29.0526,2026-01-07T1800,22,26,,20,,83,79,,
常州市,市监测站,119.9524,31.7586,2026-01-07T1800,32,46,0.7,34,5,69,79,46,
常州市,武进监测站,119.9351,31.703,2026-01-07T1800,33,38,0.4,38,8,64,79,48,
常州市,行政中心,119.9701,31.813,2026-01-07T1800,26,47,0.5,32,6,65,74,47,
常州市,经开区,120.0434,31.7726,2026-01-07T1800,23,46,0.5,19,6,80,81,46,
常州市,钟楼,119.8919,31.7892,2026-01-07T1800,37,60,0.5,47,8,49,71,55,颗粒物(PM10)
常州市,武进经发区,119.8595,31.706,2026-01-07T1800,36,44,0.5,34,9,65,82,52,细颗粒物(PM2.5)
常州市,金坛城区,119.5812,31.7256,2026-01-07T1800,27,38,0.6,29,8,60,67,39,
常州市,崇义南街5-H号,119.9551,31.863,2026-01-07T1800,24,47,0.5,43,6,58,74,47,
朝阳市,西梁,120.4318,41.588,2026-01-07T1800,11,40,0.5,21,5,55,66,40,
朝阳市,河畔小区,120.452,41.565,2026-01-07T1800,9,24,0.4,15,6,62,69,24,
朝阳市,八里堡,120.4176,41.5648,2026-01-07T1800,35,41,0.8,31,14,44,66,50,
潮州市,市政府,116.6179,23.6608,2026-01-07T1800,51,,0.4,,,96,96,,
潮州市,金山,116.646,23.676,2026-01-07T1800,49,,0.4,13,6,107,93,68,细颗粒物(PM2.5)
郴州市,市职中,113.0116,25.8228,2026-01-07T1800,29,36,0.4,8,8,95,89,42,
郴州市,市审计局,113.0381,25.8074,2026-01-07T1800,33,45,/,17,9,94,91,48,
郴州市,市环保局,113.0348,25.7757,2026-01-07T1800,26,45,0.6,20,11,86,87,45,
郴州市,好美居路49号,113.0138,25.8011,2026-01-07T1800,29,39,/,13,6,99,96,42,
成都市,金泉两河,103.9727,30.7242,2026-01-07T1800,44,,0.5,24,3,103,76,62,细颗粒物(PM2.5)
成都市,十里店,104.1423,30.6765,2026-01-07T1800,46,63,0.4,27,4,94,64,64,细颗粒物(PM2.5)
成都市,三瓦窑,104.0594,30.5765,2026-01-07T1800,61,74,0.6,32,8,98,67,83,细颗粒物(PM2.5)
成都市,沙河铺,104.1122,30.6306,2026-01-07T1800,44,70,0.4,,4,78,54,,
成都市,大石西路,104.0219,30.6561,2026-01-07T1800,60,78,0.5,23,6,94,69,82,细颗粒物(PM2.5)
成都市,龙泉驿区区政府,104.2724,30.559,2026-01-07T1800,31,41,0.6,21,7,62,55,45,
成都市,金博路,104.0028,30.6891,2026-01-07T1800,47,66,0.5,24,5,104,73,65,细颗粒物(PM2.5)
成都市,华阳,104.056,30.5228,2026-01-07T1800,39,51,0.5,19,4,104,79,55,细颗粒物(PM2.5)
成都市,青石路225号,104.387954,30.746684,2026-01-07T1800,54,82,0.4,57,1,66,60,74,细颗粒物(PM2.5)
成都市,科学城,104.0788,30.4054,2026-01-07T1800,58,65,0.4,17,8,103,80,79,细颗粒物(PM2.5)
成都市,光华大道三段,103.8505,30.6946,2026-01-07T1800,57,77,0.5,20,5,117,85,78,细颗粒物(PM2.5)
成都市,八角井街185号,104.3257,30.6406,2026-01-07T1800,33,63,0.5,30,7,85,63,57,颗粒物(PM10)
成都市,鲸龙路1057号,104.2433276,30.53529463,2026-01-07T1800,34,48,0.2,21,7,96,78,49,
承德市,铁路,117.9531,40.908,2026-01-07T1800,21,30,0.4,23,4,47,56,30,
承德市,中国银行,117.9397,40.9763,2026-01-07T1800,11,28,0.3,21,2,41,59,28,
承德市,杏林街1号,117.9462,40.95,2026-01-07T1800,7,13,0.2,6,4,66,60,21,
承德市,滨河大街98号,117.7994,40.9605,2026-01-07T1800,29,29,0.2,10,2,50,57,42,
池州市,池州学院,117.4698,30.6617,2026-01-07T1800,36,49,0.9,27,12,75,78,52,细颗粒物(PM2.5)
池州市,展览馆,117.4918,30.6617,2026-01-07T1800,30,54,0.9,36,10,75,77,52,颗粒物(PM10)
池州市,第八中学,117.5626,30.695,2026-01-07T1800,27,38,0.7,31,8,76,82,39,
池州市,第十二中学,117.5037,30.6242,2026-01-07T1800,35,53,0.4,31,7,82,81,52,颗粒物(PM10)
赤峰市,松山一中,118.9229,42.2816,2026-01-07T1800,7,24,0.6,17,4,54,59,24,
赤峰市,哈达街,118.9588,42.2733,2026-01-07T1800,6,17,0.6,15,5,60,64,19,
赤峰市,天义路,118.8792,42.2551,2026-01-07T1800,17,,0.6,20,5,58,69,25,
赤峰市,银河街,119.2656,42.0356,2026-01-07T1800,13,36,0.6,15,14,57,70,36,
赤峰市,桥北物流园区,118.9359,42.3146,2026-01-07T1800,25,,0.6,20,5,52,64,36,
崇左市,市环保局江州分局,107.3473,22.4137,2026-01-07T1800,19,34,0.4,,8,91,78,,
崇左市,石景林东路7号,107.375,22.3736,2026-01-07T1800,26,27,0.4,10,8,93,83,38,
滁州市,市政府原办公楼,118.31131,32.3033,2026-01-07T1800,31,52,0.5,26,6,62,78,51,颗粒物(PM10)
滁州市,图书馆,118.3268,32.2633,2026-01-07T1800,17,34,0.4,16,9,72,77,34,
滁州市,银山路666号,118.3196,32.3335,2026-01-07T1800,34,44,0.6,17,8,64,75,49,
滁州市,黄山路555号,118.3426,32.2979,2026-01-07T1800,33,59,0.6,16,9,76,85,55,颗粒物(PM10)
楚雄彝族自治州,市经济开发区,101.5379,25.0492,2026-01-07T1800,13,14,0.8,7,2,41,29,19,
楚雄彝族自治州,团结路562号,101.5536,25.0343,2026-01-07T1800,13,,0.7,,,39,31,,
达州市,市环境监测站,107.5087,31.2186,2026-01-07T1800,78,108,0.7,72,10,23,30,104,细颗粒物(PM2.5)
达州市,凤凰小区,107.4988,31.2132,2026-01-07T1800,73,114,0.7,74,9,17,33,98,细颗粒物(PM2.5)
达州市,达县机关宾馆,107.5081,31.1987,2026-01-07T1800,72,112,1.0,66,5,20,30,97,细颗粒物(PM2.5)
达州市,市政中心,107.4644,31.2124,2026-01-07T1800,,134,,45,10,36,38,,
大理白族自治州,大理市环境监测站,100.2168,25.5818,2026-01-07T1800,11,19,0.5,10,6,74,71,24,
大理白族自治州,大理古城,100.1542,25.7055,2026-01-07T1800,22,22,0.7,18,8,66,80,32,
大连市,甘井子,121.6119,38.974,2026-01-07T1800,13,37,0.6,23,9,62,74,37,
大连市,周水子,121.565,38.9509,2026-01-07T1800,15,32,0.3,19,3,61,70,32,
大连市,星海三站,121.5637,38.8849,2026-01-07T1800,13,23,0.4,19,7,59,69,23,
大连市,青泥洼桥,121.6301,38.9117,2026-01-07T1800,12,33,0.3,24,9,54,62,33,
大连市,傅家庄,121.6248,38.8643,2026-01-07T1800,15,26,0.2,19,8,54,60,26,
大连市,七贤岭,121.5117,38.8636,2026-01-07T1800,14,32,0.6,13,7,60,65,32,
大连市,金州,121.7507,39.1339,2026-01-07T1800,23,43,0.3,19,9,66,72,43,
大连市,开发区,121.7811,39.0495,2026-01-07T1800,11,26,0.5,13,5,62,66,26,
大连市,双D港,121.9762,39.0631,2026-01-07T1800,12,24,0.5,10,12,71,77,24,
大连市,旅顺,121.2548,38.8188,2026-01-07T1800,19,34,0.6,13,6,61,71,34,
大庆市,大同区,124.8085,46.0381,2026-01-07T1800,20,41,0.4,11,5,52,59,41,
大庆市,龙凤区,125.1166,46.5255,2026-01-07T1800,25,,0.5,26,6,39,53,36,
大庆市,红岗区,124.8894,46.4007,2026-01-07T1800,27,29,0.5,11,4,46,53,39,
大庆市,萨尔图区,125.1391,46.578,2026-01-07T1800,9,27,0.4,34,7,22,52,27,
大庆市,让胡路区,124.9026,46.6217,2026-01-07T1800,20,,0.4,11,6,49,58,29,
大庆市,萨区政府监测点,125.127,46.6277,2026-01-07T1800,9,21,0.6,19,8,36,57,21,
大同市,云冈宾馆,113.2926,40.0759,2026-01-07T1800,24,57,0.6,27,8,48,41,54,颗粒物(PM10)
大同市,大同大学,113.3437,40.0921,2026-01-07T1800,36,53,0.9,36,10,37,44,52,"颗粒物(PM10),细颗粒物(PM2.5)"
大同市,安家小村,113.2637,40.129,2026-01-07T1800,33,50,0.7,44,12,31,48,50,
大同市,大同市卫生学校,113.3399,40.0586,2026-01-07T1800,28,52,0.4,27,7,49,22,51,颗粒物(PM10)
大同市,云冈站,113.1371,40.1122,2026-01-07T1800,21,44,0.6,18,6,52,55,44,
大同市,图书馆,113.1186,40.2556,2026-01-07T1800,27,54,0.5,18,5,49,49,52,颗粒物(PM10)
大同市,区一中,113.5931,40.0459,2026-01-07T1800,,,0.5,,5,63,48,,
大同市,魏都大道141号,113.2798248,40.09972476,2026-01-07T1800,31,65,0.7,33,9,43,42,58,颗粒物(PM10)
大兴安岭地区,科技局,124.1068,50.4091,2026-01-07T1800,19,20,0.4,16,6,41,51,28,
大兴安岭地区,红旗社区,124.117,50.4279,2026-01-07T1800,3,7,0.2,3,6,60,59,19,
丹东市,江湾东路,124.33,40.0625,2026-01-07T1800,17,35,0.4,15,6,55,63,35,
丹东市,临江后街,124.4242,40.1513,2026-01-07T1800,10,34,0.4,13,5,60,67,34,
丹东市,元宝山,124.3935,40.1461,2026-01-07T1800,14,32,0.4,7,7,62,64,32,
丹东市,民主桥,124.3634,40.1093,2026-01-07T1800,8,37,0.4,16,8,53,63,37,
儋州市,第一中学子站,109.5726195,19.51688767,2026-01-07T1800,26,38,0.6,6,5,99,89,38,
儋州市,东坡学校子站,109.5567,19.5187,2026-01-07T1800,24,37,0.6,8,3,106,94,37,
德宏傣族景颇族自治州,德宏州监测站,98.5611,24.4273,2026-01-07T1800,21,38,0.4,14,5,84,64,38,
德宏傣族景颇族自治州,芒市人民政府综合楼,98.5887,24.4366,2026-01-07T1800,24,37,0.5,9,4,79,57,37,
德阳市,东山公园,104.424,31.1209,2026-01-07T1800,49,62,0.6,24,5,93,62,68,细颗粒物(PM2.5)
德阳市,西小区,104.3827,31.1318,2026-01-07T1800,55,73,0.6,28,4,87,60,75,细颗粒物(PM2.5)
德阳市,耐火材料厂,104.3553,31.1091,2026-01-07T1800,56,68,0.6,32,3,89,76,77,细颗粒物(PM2.5)
德阳市,市林业局,104.4144,31.1495,2026-01-07T1800,48,,0.6,26,4,88,60,67,细颗粒物(PM2.5)
德州市,儿童乐园,116.3034,37.4675,2026-01-07T1800,12,39,0.8,31,11,59,70,39,
德州市,监理站,116.2992,37.4449,2026-01-07T1800,3,27,0.5,19,12,74,79,27,
德州市,九衢泉纯净水厂,116.2722,37.438,2026-01-07T1800,14,34,0.5,25,12,64,71,34,
德州市,开发区人民医院,116.3693,37.44,2026-01-07T1800,7,53,0.4,66,10,48,71,52,颗粒物(PM10)
德州市,陵城艺术中心,116.5687,37.3331,2026-01-07T1800,22,44,0.3,46,12,44,64,44,
德州市,新河东路,116.352738,37.420875,2026-01-07T1800,12,34,0.7,50,9,56,71,34,
迪庆藏族自治州,迪庆州站,99.7054,27.8319,2026-01-07T1800,13,25,0.4,6,5,87,89,28,
迪庆藏族自治州,质量技术监督局,99.7122,27.8129,2026-01-07T1800,10,27,0.4,7,6,90,94,29,
定西市,将台街,104.6092,35.5962,2026-01-07T1800,32,73,0.3,9,11,91,78,62,颗粒物(PM10)
定西市,正龙路62号,104.6159,35.5701,2026-01-07T1800,40,79,0.5,9,14,81,74,65,颗粒物(PM10)
东莞市,东城石井,113.7943,23.0132,2026-01-07T1800,19,29,0.5,27,7,87,104,29,
东莞市,南城西平,113.7384,22.9659,2026-01-07T1800,20,26,0.5,22,9,92,102,29,
东莞市,万江金泰,113.7283,23.041,2026-01-07T1800,24,35,0.6,20,6,95,100,35,
东莞市,裕兴路,113.8666,23.1062,2026-01-07T1800,24,38,,22,7,125,122,,
东莞市,教育路1号,114.0076,22.9739,2026-01-07T1800,20,34,0.5,31,5,91,102,34,
东莞市,长怡路1号,113.7981,22.8124,2026-01-07T1800,23,43,0.5,23,9,104,109,43,
东营市,市环保局,118.6612,37.4313,2026-01-07T1800,,,0.6,,,60,70,,
东营市,开发区管委会,118.6903,37.4337,2026-01-07T1800,3,10,0.7,18,9,73,78,23,
东营市,垦利区民丰路,118.5721,37.5654,2026-01-07T1800,7,24,0.8,24,5,56,72,24,
东营市,河口城区,118.5063,37.8606,2026-01-07T1800,3,29,0.6,25,6,66,79,29,
东营市,胜利站,118.4979,37.4623,2026-01-07T1800,12,17,0.8,26,18,59,71,19,
东营市,理想之城,118.5753,37.4405,2026-01-07T1800,12,22,0.6,34,5,52,69,22,
鄂尔多斯市,综合楼,110.0024,39.8127,2026-01-07T1800,19,46,0.6,16,4,67,67,46,
鄂尔多斯市,巴音孟克林场办事处,109.9485,39.8259,2026-01-07T1800,17,56,0.3,13,6,70,68,53,颗粒物(PM10)
鄂尔多斯市,康泽苑,109.7734,39.5987,2026-01-07T1800,31,68,0.4,8,6,76,74,59,颗粒物(PM10)
鄂尔多斯市,华泰汽车城,109.8121,39.5987,2026-01-07T1800,24,66,0.4,12,5,68,68,58,颗粒物(PM10)
鄂尔多斯市,奥林花园,109.9734,39.7884,2026-01-07T1800,17,61,0.4,12,2,73,69,56,颗粒物(PM10)
鄂州市,市政府,114.894,30.3989,2026-01-07T1800,30,34,0.7,27,5,70,57,43,
鄂州市,赵家坝,114.8986,30.3714,2026-01-07T1800,43,47,0.4,19,8,82,71,60,细颗粒物(PM2.5)
鄂州市,精准医疗中心,114.8093,30.4091,2026-01-07T1800,42,47,0.3,27,4,87,74,59,细颗粒物(PM2.5)
恩施土家族苗族自治州,湖北民院,109.4978,30.2979,2026-01-07T1800,33,38,0.6,28,6,57,70,48,
恩施土家族苗族自治州,龙凤新区,109.5061,30.3771,2026-01-07T1800,25,42,0.3,12,6,57,53,42,
防城港市,沙万,108.3411,21.6159,2026-01-07T1800,28,37,0.4,12,6,96,90,40,
防城港市,防城档案局,108.3515,21.7733,2026-01-07T1800,22,52,0.4,,6,83,84,,
防城港市,大海花园,108.3506,21.6414,2026-01-07T1800,25,37,0.5,7,7,106,99,37,
佛山市,湾梁,113.1293,23.0065,2026-01-07T1800,28,48,/,26,/,100,97,48,
佛山市,华材职中,113.1082,23.0477,2026-01-07T1800,21,48,0.5,28,8,91,93,48,
佛山市,南海气象局,113.1439,23.045,2026-01-07T1800,33,40,/,25,/,97,94,48,
佛山市,顺德苏岗,113.2879,22.8094,2026-01-07T1800,29,48,0.6,27,/,97,93,48,
佛山市,高明孔堂,112.8384,22.8678,2026-01-07T1800,35,39,/,22,/,101,99,50,
佛山市,三水监测站,112.8835,23.1584,2026-01-07T1800,26,44,0.5,21,,88,85,,
佛山市,三水云东海,112.8668,23.185,2026-01-07T1800,21,48,/,18,/,89,92,48,
佛山市,容桂街道办,113.2568,22.7629,2026-01-07T1800,29,46,/,28,/,93,90,46,
福州市,师大,119.2681,26.0506,2026-01-07T1800,39,52,0.6,36,4,86,96,55,细颗粒物(PM2.5)
福州市,五四北路,119.2983,26.1028,2026-01-07T1800,36,61,0.7,38,5,77,89,56,颗粒物(PM10)
福州市,杨桥西路,119.2648,26.0769,2026-01-07T1800,42,52,/,31,5,83,93,59,细颗粒物(PM2.5)
福州市,九龙,119.5799,26.0937,2026-01-07T1800,31,32,0.6,15,5,100,101,45,
福州市,吴航,119.5188,25.9666,2026-01-07T1800,26,33,0.6,19,5,101,100,38,
福州市,路通桥巷6号,119.3106,26.0648,2026-01-07T1800,36,64,/,30,/,80,90,57,颗粒物(PM10)
抚顺市,望花区,123.7974,41.8494,2026-01-07T1800,16,34,0.7,25,9,43,60,34,
抚顺市,顺城区,123.9161,41.8827,2026-01-07T1800,18,31,0.5,23,8,46,60,31,
抚顺市,东洲区,124.0437,41.8615,2026-01-07T1800,22,34,0.6,22,6,47,61,34,
抚顺市,新抚区,123.9246,41.8638,2026-01-07T1800,17,28,0.7,27,8,48,64,28,
抚顺市,大伙房水库,124.0972,41.8961,2026-01-07T1800,32,36,0.7,35,12,30,58,46,
抚顺市,沈抚新城,123.708,41.8386,2026-01-07T1800,17,29,0.7,27,7,45,64,29,
抚州市,市站,116.3544,27.9833,2026-01-07T1800,22,31,0.3,12,9,92,89,32,
抚州市,血防站,116.3562,27.9631,2026-01-07T1800,19,35,,13,,94,92,,
抚州市,采茶剧团,116.3561,28.0007,2026-01-07T1800,17,31,0.6,11,13,96,95,31,
抚州市,医学分院,116.3854,27.9648,2026-01-07T1800,18,33,0.5,6,5,101,99,33,
阜新市,工业园区,121.6095,41.9978,2026-01-07T1800,20,45,0.5,25,7,48,70,45,
阜新市,长青街,121.6567,42.0188,2026-01-07T1800,7,18,0.3,9,6,61,66,20,
阜新市,农业园区,121.6672,42.07,2026-01-07T1800,3,26,0.2,10,5,55,61,26,
阜新市,玉龙新城,121.6343,42.0455,2026-01-07T1800,8,27,0.3,28,4,42,63,27,
阜阳市,市监测站,115.8276,32.8929,2026-01-07T1800,30,62,0.6,23,,77,72,,
阜阳市,开发区,115.8551,32.8606,2026-01-07T1800,25,52,0.4,23,7,77,73,51,颗粒物(PM10)
阜阳市,阜阳职业技术学院,115.783962,32.889217,2026-01-07T1800,30,62,0.4,19,9,78,75,56,颗粒物(PM10)
阜阳市,市规划展馆,115.79,32.8614,2026-01-07T1800,33,44,0.4,22,8,81,77,48,
阜阳市,枣园社区,115.835101,32.918568,2026-01-07T1800,37,54,0.2,32,8,75,74,53,细颗粒物(PM2.5)
甘南藏族自治州,州政府,102.9097,34.9841,2026-01-07T1800,18,21,0.3,,2,88,77,,
甘南藏族自治州,甘肃民族师范学院,102.8915,34.9618,2026-01-07T1800,3,20,0.5,1,2,95,82,30,
甘孜藏族自治州,水桥子,101.96,30.048,2026-01-07T1800,10,,0.8,6,6,85,72,27,
甘孜藏族自治州,州环保局,101.9534,29.9976,2026-01-07T1800,8,19,0.6,11,6,81,73,26,
赣州市,地委,114.9368,25.8663,2026-01-07T1800,20,28,0.8,17,8,90,92,29,
赣州市,气象台,114.946,25.8483,2026-01-07T1800,18,48,0.5,25,4,91,95,48,
赣州市,市图书馆,114.932,25.8332,2026-01-07T1800,15,29,0.5,18,4,90,91,29,
赣州市,华坚鞋城,114.8905,25.8472,2026-01-07T1800,13,29,0.3,14,6,87,84,29,
赣州市,赣县区卫计委,115.0094,25.8614,2026-01-07T1800,24,,0.4,12,7,98,90,35,
固原市,监测站,106.2753,36.0057,2026-01-07T1800,14,37,0.3,9,5,83,83,37,
固原市,新区,106.2384,36.0189,2026-01-07T1800,8,36,0.4,7,4,91,91,36,
广安市,市委,106.6307,30.4577,2026-01-07T1800,50,64,0.8,32,8,63,45,69,细颗粒物(PM2.5)
广安市,友谊中学,106.6266,30.4662,2026-01-07T1800,54,64,0.7,28,7,65,52,74,细颗粒物(PM2.5)
广安市,广电花园,106.6386,30.4551,2026-01-07T1800,45,67,0.6,38,9,56,42,63,细颗粒物(PM2.5)
广安市,北辰小学,106.6347,30.4868,2026-01-07T1800,53,72,,33,,66,54,,
广元市,老城,105.8211,32.4444,2026-01-07T1800,31,,0.7,34,9,76,57,45,
广元市,监测站,105.8629,32.429,2026-01-07T1800,29,48,0.7,48,3,46,52,48,
广元市,经开区,105.8047,32.4167,2026-01-07T1800,27,44,0.7,56,3,24,38,44,
广州市,广雅中学,113.2346,23.1423,2026-01-07T1800,21,33,0.5,24,4,87,95,33,
广州市,市五中,113.2611,23.105,2026-01-07T1800,21,32,/,19,10,110,108,35,
广州市,广东商学院,113.3477,23.0916,2026-01-07T1800,22,32,0.2,16,7,96,96,32,
广州市,市八十六中,113.4332,23.105,2026-01-07T1800,20,31,/,19,8,100,100,32,
广州市,番禺中学,113.3506,22.9488,2026-01-07T1800,28,35,0.3,31,4,99,100,40,
广州市,花都师范,113.2147,23.3918,2026-01-07T1800,21,35,0.5,20,8,97,55,35,
广州市,市监测站,113.2599,23.1329,2026-01-07T1800,21,31,/,24,3,93,97,31,
广州市,九龙镇镇龙,113.5618,23.3119,2026-01-07T1800,23,35,0.4,19,8,90,91,35,
广州市,麓湖,113.2764,23.1544,2026-01-07T1800,19,27,0.4,18,9,90,95,29,
广州市,体育西,113.3209,23.1323,2026-01-07T1800,,,0.5,21,8,,99,,
广州市,从化街口,113.5718,23.5493,2026-01-07T1800,25,34,0.6,14,10,98,98,36,
广州市,白云竹料,113.3463,23.369,2026-01-07T1800,24,36,0.4,17,6,101,103,36,
广州市,白云嘉禾,113.2981,23.2365,2026-01-07T1800,20,40,/,27,6,95,100,40,
广州市,黄埔科学城,113.4256,23.1716,2026-01-07T1800,22,28,0.6,20,6,103,107,33,
广州市,番禺大学城,113.3942,23.0485,2026-01-07T1800,21,36,0.4,18,10,109,105,36,
广州市,南沙黄阁,113.4923,22.8169,2026-01-07T1800,30,52,/,33,6,100,104,51,颗粒物(PM10)
广州市,南沙街,113.534,22.7893,2026-01-07T1800,28,47,0.3,28,6,94,99,47,
广州市,花都梯面,113.2905,23.5541,2026-01-07T1800,21,28,/,15,8,97,96,31,
广州市,从化良口,113.786,23.7479,2026-01-07T1800,20,25,/,10,8,95,96,30,
广州市,增城荔城,113.805,23.2614,2026-01-07T1800,20,26,0.4,15,6,93,97,30,
贵港市,江南子站,109.604387,23.066791,2026-01-07T1800,29,,0.5,10,5,115,108,,
贵港市,荷城子站,109.5669,23.1065,2026-01-07T1800,27,39,0.3,12,4,102,96,39,
贵港市,新世纪学校,109.5886,23.1172,2026-01-07T1800,27,44,0.4,11,/,105,97,44,
贵港市,中山路155-3号,109.5933,23.095,2026-01-07T1800,30,46,0.4,12,/,108,100,46,
贵阳市,马鞍山,106.6863,26.6035,2026-01-07T1800,53,58,/,18,10,59,65,73,细颗粒物(PM2.5)
贵阳市,鉴湖路,106.6241,26.6266,2026-01-07T1800,44,63,0.5,23,6,67,68,62,细颗粒物(PM2.5)
贵阳市,燕子冲,106.7468,26.6344,2026-01-07T1800,90,,0.7,,12,67,62,119,细颗粒物(PM2.5)
贵阳市,碧云窝,106.6556,26.4362,2026-01-07T1800,53,75,/,26,18,49,43,73,细颗粒物(PM2.5)
贵阳市,红边门,106.6963,26.6063,2026-01-07T1800,46,53,/,22,16,60,47,64,细颗粒物(PM2.5)
贵阳市,新华路,106.7162383,26.56964667,2026-01-07T1800,46,61,0.7,19,10,59,54,64,细颗粒物(PM2.5)
贵阳市,太慈桥,106.6742,26.542,2026-01-07T1800,53,66,/,23,10,61,54,73,细颗粒物(PM2.5)
贵阳市,花果园大街66号,106.688212,26.56952,2026-01-07T1800,37,63,/,24,9,57,48,57,颗粒物(PM10)
贵阳市,漓江路57号,106.687268,26.516892,2026-01-07T1800,53,63,0.9,27,15,60,52,73,细颗粒物(PM2.5)
桂林市,龙隐路小学,110.3091,25.2705,2026-01-07T1800,18,32,0.1,10,7,88,90,32,
桂林市,八中,110.2849361,25.22909545,2026-01-07T1800,18,31,0.3,20,7,81,83,31,
桂林市,旅游学院,110.296,25.1254,2026-01-07T1800,12,24,0.7,12,4,94,96,30,
桂林市,环湖路276号,110.1835,25.2444,2026-01-07T1800,19,24,0.4,12,6,87,80,28,
桂林市,信义路13号,110.2803,25.2773,2026-01-07T1800,13,28,0.3,14,5,90,94,29,
果洛藏族自治州,玛沁县大武镇,100.2262,34.4854,2026-01-07T1800,24,30,0.3,1,8,104,92,35,
哈尔滨市,松北商大,126.5557,45.8109,2026-01-07T1800,17,17,0.5,20,6,38,52,25,
哈尔滨市,南岗学府路,126.6162,45.719,2026-01-07T1800,10,23,0.6,22,25,35,46,23,
哈尔滨市,太平宏伟公园,126.6894,45.7733,2026-01-07T1800,20,,0.5,17,27,41,52,29,
哈尔滨市,道外承德广场,126.6361,45.7672,2026-01-07T1800,14,33,0.8,13,8,48,53,33,
哈尔滨市,动力和平路,126.644,45.7261,2026-01-07T1800,12,20,0.5,12,10,46,53,20,
哈尔滨市,道里建国路,126.5933,45.7479,2026-01-07T1800,14,,0.8,18,6,38,48,20,
哈尔滨市,平房东轻厂,126.6127,45.6119,2026-01-07T1800,27,37,0.5,33,9,,49,,
哈尔滨市,呼兰师专,126.5875,45.9827,2026-01-07T1800,16,21,0.5,8,7,42,48,23,
哈尔滨市,省农科院,126.6299,45.6799,2026-01-07T1800,14,18,0.2,16,13,47,56,20,
哈尔滨市,华山路1号,126.6769,45.7379,2026-01-07T1800,11,12,,12,6,,50,,
哈尔滨市,解放大街52号,126.9717,45.5356,2026-01-07T1800,18,26,0.6,18,13,44,54,26,
哈密市,地区监测站,93.5124,42.8176,2026-01-07T1800,29,85,0.2,10,4,53,51,68,颗粒物(PM10)
哈密市,哈密师范学校,93.5014,42.8312,2026-01-07T1800,24,66,0.2,11,5,52,49,58,颗粒物(PM10)
海北藏族自治州,海晏县西海镇,100.9016,36.9464,2026-01-07T1800,8,12,0.3,,6,84,84,,
海东市,平安区公安局北苑,102.074,36.5056,2026-01-07T1800,3,22,0.5,14,7,74,66,24,
海东市,滨河路,102.0984,36.5119,2026-01-07T1800,14,26,0.6,19,5,71,65,26,
海口市,海南大学,110.3189,20.0596,2026-01-07T1800,24,31,0.2,9,8,120,104,38,
海口市,秀英海南医院,110.2827,20.0051,2026-01-07T1800,23,35,0.3,10,9,109,96,35,
海口市,海南师范大学,110.3391,19.9979,2026-01-07T1800,24,33,0.5,12,7,121,105,38,
海口市,龙华路环保局宿舍,110.3303,20.0359,2026-01-07T1800,22,32,0.4,10,/,123,106,39,
海口市,桂林洋子站,110.5111,19.9737,2026-01-07T1800,22,35,/,10,/,110,102,35,
海口市,长滨二路9号,110.1952,20.0451,2026-01-07T1800,23,33,/,7,/,115,101,36,
海南藏族自治州,共和县恰卜恰镇,100.6158,36.2985,2026-01-07T1800,14,19,0.2,3,10,97,88,31,
海西蒙古族藏族自治州,德令哈市,97.373,37.376,2026-01-07T1800,11,31,0.7,,,91,86,,
邯郸市,矿院,114.492,36.5712,2026-01-07T1800,29,39,0.4,20,4,61,69,42,
邯郸市,丛台公园,114.4839,36.6136,2026-01-07T1800,22,37,0.4,20,2,68,70,37,
邯郸市,香泉濮院小区,114.7893,36.5592,2026-01-07T1800,27,39,0.4,21,3,68,76,39,
邯郸市,峰峰矿区临水派出所,114.1998,36.4439,2026-01-07T1800,39,,0.7,22,7,70,75,55,细颗粒物(PM2.5)
邯郸市,建安街268号,114.5209,36.7697,2026-01-07T1800,27,64,0.3,60,2,19,55,57,颗粒物(PM10)
邯郸市,丛台东路558号,114.5488,36.6177,2026-01-07T1800,30,43,0.6,29,4,58,71,43,
汉中市,市监测站,107.0155,33.0707,2026-01-07T1800,49,61,0.8,33,10,68,64,68,细颗粒物(PM2.5)
汉中市,鑫源开发区,107.0083,33.114,2026-01-07T1800,46,56,0.4,24,8,77,65,64,细颗粒物(PM2.5)
汉中市,南郑大河坎水厂,107.0072,33.0323,2026-01-07T1800,51,67,0.9,30,11,66,59,70,细颗粒物(PM2.5)
杭州市,滨江,120.2073,30.2111,2026-01-07T1800,22,34,0.5,33,7,66,74,34,
杭州市,西溪,120.0625,30.2737,2026-01-07T1800,21,34,0.8,20,8,64,84,34,
杭州市,下沙,120.3417,30.315,2026-01-07T1800,32,41,0.2,50,8,65,78,46,
杭州市,卧龙桥,120.1252,30.2465,2026-01-07T1800,23,36,0.3,31,9,48,78,36,
杭州市,浙江农大,120.1902,30.2691,2026-01-07T1800,31,45,0.5,86,6,20,68,45,
杭州市,和睦小学,120.1195,30.3121,2026-01-07T1800,33,37,0.5,21,5,85,84,48,
杭州市,临平镇,120.3076,30.4146,2026-01-07T1800,24,43,0.4,14,8,85,85,43,
杭州市,城厢镇,120.2753,30.1839,2026-01-07T1800,24,55,0.3,38,8,73,80,53,颗粒物(PM10)
杭州市,云栖,120.0883,30.1808,2026-01-07T1800,14,32,0.5,23,4,60,83,32,
杭州市,镇二中,119.9463,30.0496,2026-01-07T1800,34,38,0.7,32,6,70,73,49,
杭州市,市府大楼,119.7184,30.2367,2026-01-07T1800,25,41,0.4,19,10,80,82,41,
杭州市,消防大队,120.1554,30.2863,2026-01-07T1800,33,44,0.4,34,6,66,79,48,
合肥市,明珠广场,117.1957,31.7845,2026-01-07T1800,22,68,0.6,51,7,42,58,59,颗粒物(PM10)
合肥市,三里街,117.307,31.8765,2026-01-07T1800,14,36,0.6,26,6,68,67,36,
合肥市,琥珀山庄,117.2587,31.8703,2026-01-07T1800,21,44,0.7,25,9,69,72,44,
合肥市,庐阳区,117.2593,31.9376,2026-01-07T1800,19,36,0.6,27,7,70,73,36,
合肥市,瑶海区,117.345251,31.861615,2026-01-07T1800,17,31,0.4,26,5,72,71,31,
合肥市,包河区,117.3033,31.7967,2026-01-07T1800,22,36,0.7,36,7,57,63,36,
合肥市,滨湖新区,117.278,31.7392,2026-01-07T1800,31,46,0.7,43,5,52,66,46,
合肥市,高新区,117.1324,31.8395,2026-01-07T1800,16,44,0.6,25,5,74,76,44,
合肥市,高教基地,117.3802,31.9148,2026-01-07T1800,23,46,0.6,31,8,65,72,46,
合肥市,中国科学技术大学,117.2518,31.8404,2026-01-07T1800,13,,,24,10,78,80,,
和田地区,地区环保局,79.9241,37.0878,2026-01-07T1800,24,53,0.7,13,3,66,56,52,颗粒物(PM10)
和田地区,市环保局,79.9132,37.1137,2026-01-07T1800,22,52,0.2,16,2,66,56,51,颗粒物(PM10)
河池市,市环保站,108.0496,24.6957,2026-01-07T1800,19,23,0.6,15,2,66,72,28,
河池市,上任中路54号,108.0901,24.6945,2026-01-07T1800,22,22,0.6,18,6,69,73,32,
河源市,东埔,114.6962,23.7538,2026-01-07T1800,21,22,0.4,13,7,103,103,33,
河源市,老城,114.6895,23.7232,2026-01-07T1800,19,34,0.7,12,6,95,98,34,
菏泽市,定陶老年大学,115.5562,35.089,2026-01-07T1800,29,66,0.6,23,6,68,62,58,颗粒物(PM10)
菏泽市,黄河路600号,115.4239,35.2593,2026-01-07T1800,46,,0.2,,,64,66,,
菏泽市,菏泽市人社局,115.5025,35.2727,2026-01-07T1800,34,67,0.5,33,6,56,66,59,颗粒物(PM10)
菏泽市,永昌路1号,115.479691,35.244011,2026-01-07T1800,39,70,0.5,32,10,71,71,60,颗粒物(PM10)
菏泽市,长城路999号,115.471542,35.280012,2026-01-07T1800,31,75,0.5,25,12,68,69,63,颗粒物(PM10)
贺州市,环保小区,111.5264,24.4178,2026-01-07T1800,23,42,0.4,15,8,98,92,42,
贺州市,政协大楼,111.561,24.4074,2026-01-07T1800,27,40,0.5,16,9,93,95,40,
贺州市,西湾,111.4744,24.455,2026-01-07T1800,22,34,,,9,78,90,,
鹤壁市,市监测站,114.17,35.9019,2026-01-07T1800,26,66,0.6,35,6,54,60,58,颗粒物(PM10)
鹤壁市,市交警支队,114.2953,35.7512,2026-01-07T1800,30,57,0.5,30,6,49,56,54,颗粒物(PM10)
鹤壁市,迎宾馆,114.2877,35.7302,2026-01-07T1800,34,71,0.7,31,8,54,61,61,颗粒物(PM10)
鹤壁市,大新区,114.2616,35.6824,2026-01-07T1800,25,43,0.5,27,7,55,60,43,
鹤壁市,南山宾馆,114.1573,35.9607,2026-01-07T1800,38,68,0.5,23,7,59,64,59,颗粒物(PM10)
鹤岗市,哈啤分公司,130.2537,47.3416,2026-01-07T1800,17,26,0.4,6,6,68,69,26,
鹤岗市,斯达机电,130.2683,47.3087,2026-01-07T1800,19,,0.4,7,5,65,64,28,
鹤岗市,东山纸板厂,130.3114,47.3388,2026-01-07T1800,11,18,0.3,6,6,67,66,21,
黑河市,交通局,127.4832,50.2524,2026-01-07T1800,17,55,0.4,10,4,52,54,53,颗粒物(PM10)
黑河市,环保局,127.5146,50.2339,2026-01-07T1800,18,,0.4,11,5,51,50,26,
衡水市,电机北厂,115.6839,37.754,2026-01-07T1800,32,34,0.3,20,4,59,66,46,
衡水市,市监测站,115.6303,37.7318,2026-01-07T1800,22,46,0.4,22,5,57,67,46,
衡水市,市城管局,115.6684,37.7216,2026-01-07T1800,21,31,0.3,30,6,56,66,31,
衡水市,地表水厂,115.599,37.5491,2026-01-07T1800,14,33,0.3,50,3,31,66,33,
衡阳市,衡阳化工总厂,112.6209,26.9268,2026-01-07T1800,41,56,0.7,20,13,90,77,58,细颗粒物(PM2.5)
衡阳市,珠晖区环保局,112.621,26.8957,2026-01-07T1800,48,,0.9,19,9,83,71,67,细颗粒物(PM2.5)
衡阳市,市委党校,112.628,26.8654,2026-01-07T1800,41,,0.9,15,13,98,81,58,细颗粒物(PM2.5)
衡阳市,市监测站,112.6007,26.8977,2026-01-07T1800,40,52,0.7,19,10,90,75,57,细颗粒物(PM2.5)
衡阳市,真空机电公司,112.5658,26.9013,2026-01-07T1800,41,56,0.8,25,10,89,83,58,细颗粒物(PM2.5)
衡阳市,师范学院,112.6703,26.8817,2026-01-07T1800,30,42,0.6,20,5,96,80,43,
红河哈尼族彝族自治州,州图书馆,103.3757,23.3679,2026-01-07T1800,34,37,0.7,12,6,32,36,49,
红河哈尼族彝族自治州,蒙自市朝阳路,103.401,23.3561,2026-01-07T1800,27,,0.7,9,5,32,34,39,
呼和浩特市,呼市一监,111.6506,40.7517,2026-01-07T1800,,,,,,,46,,
呼和浩特市,如意水处理厂,111.7516,40.8369,2026-01-07T1800,42,81,0.7,42,10,28,40,66,颗粒物(PM10)
呼和浩特市,二十九中,111.727798,40.806187,2026-01-07T1800,38,81,0.5,38,12,31,40,66,颗粒物(PM10)
呼和浩特市,化肥厂生活区,111.717,40.7617,2026-01-07T1800,45,83,0.6,36,6,36,45,67,颗粒物(PM10)
呼和浩特市,海东办,111.6519,40.8389,2026-01-07T1800,43,88,0.5,37,10,32,42,69,颗粒物(PM10)
呼和浩特市,成吉思汗西街8号,111.591512,40.827312,2026-01-07T1800,46,107,0.7,40,17,28,36,79,颗粒物(PM10)
呼和浩特市,公园东路75号,111.6597,40.8077,2026-01-07T1800,41,85,0.5,38,24,32,40,68,颗粒物(PM10)
呼和浩特市,金海路35号,111.5427,40.7846,2026-01-07T1800,51,90,0.8,34,9,29,39,70,"颗粒物(PM10),细颗粒物(PM2.5)"
呼伦贝尔市,国华电力东,119.7511,49.1576,2026-01-07T1800,26,,0.4,22,6,46,58,38,
呼伦贝尔市,伊敏大街东7号,119.7569,49.2222,2026-01-07T1800,22,22,0.5,17,7,47,56,32,
湖州市,城西水厂,120.075,30.867,2026-01-07T1800,28,45,0.4,55,11,47,80,45,
湖州市,仁皇山新区,120.083,30.8929,2026-01-07T1800,31,42,0.5,35,11,73,87,45,
湖州市,吴兴区站,120.1846,30.8592,2026-01-07T1800,33,44,0.6,37,7,70,86,48,
湖州市,南浔区站,120.4146,30.8538,2026-01-07T1800,31,44,0.7,25,7,78,84,45,
葫芦岛市,龙港区,120.904878,40.721091,2026-01-07T1800,48,68,0.7,39,11,37,68,67,细颗粒物(PM2.5)
葫芦岛市,化工街,120.8382,40.7521,2026-01-07T1800,14,46,0.5,28,13,49,65,46,
葫芦岛市,新区,120.8339,40.7078,2026-01-07T1800,18,30,0.6,27,8,49,66,30,
葫芦岛市,东城区,120.8697,40.7679,2026-01-07T1800,14,24,0.5,18,15,59,68,24,
怀化市,河西地税局,109.9297,27.5383,2026-01-07T1800,26,33,/,13,3,75,68,38,
怀化市,市四医院,109.9783,27.5342,2026-01-07T1800,27,69,,,11,62,58,,
怀化市,监测楼,109.9971,27.5579,2026-01-07T1800,24,33,0.0,19,9,79,72,35,
淮安市,钵池山,119.0566,33.5991,2026-01-07T1800,42,56,0.3,20,9,72,65,59,细颗粒物(PM2.5)
淮安市,北京南路,119.0083,33.578,2026-01-07T1800,43,80,0.7,47,9,36,52,65,颗粒物(PM10)
淮安市,市监测站,118.9938,33.6083,2026-01-07T1800,39,56,0.8,32,10,56,62,55,细颗粒物(PM2.5)
淮安市,楚州区监测站,119.135,33.5038,2026-01-07T1800,,,0.7,,,52,58,,
淮安市,新华书店,118.8757,33.2897,2026-01-07T1800,36,60,1.2,31,10,54,57,55,颗粒物(PM10)
淮安市,枚皋中路89号,119.119691,33.550006,2026-01-07T1800,31,55,0.5,24,10,67,70,53,颗粒物(PM10)
淮安市,承德北路606号,119.028838,33.631911,2026-01-07T1800,40,66,0.6,40,9,46,61,58,颗粒物(PM10)
淮北市,监测站,116.8005,33.9749,2026-01-07T1800,,,0.7,,,62,60,,
淮北市,烈山区政府,116.8094,33.9008,2026-01-07T1800,36,66,0.4,22,12,63,61,58,颗粒物(PM10)
淮北市,市博物馆,116.7926,33.9534,2026-01-07T1800,34,73,0.6,32,7,61,60,62,颗粒物(PM10)
淮北市,杜集区第一实验学校,116.8322,33.9884,2026-01-07T1800,28,86,0.5,27,12,63,63,68,颗粒物(PM10)
淮南市,潘集区政府,116.8304,32.7726,2026-01-07T1800,47,81,0.6,23,8,61,63,66,颗粒物(PM10)
淮南市,谢家集区政府,116.8569,32.5949,2026-01-07T1800,20,67,0.4,22,10,66,60,59,颗粒物(PM10)
淮南市,八公山区政府,116.8279,32.6333,2026-01-07T1800,22,51,0.5,18,12,70,66,51,颗粒物(PM10)
淮南市,经济技术开发区消防队,117.0561,32.6536,2026-01-07T1800,37,67,0.5,26,8,61,63,59,颗粒物(PM10)
淮南市,山南新区,117.011,32.5891,2026-01-07T1800,17,75,0.5,30,4,59,60,63,颗粒物(PM10)
淮南市,国庆中路369号,117.003137,32.644456,2026-01-07T1800,30,69,0.6,30,9,,47,,
黄冈市,职工中心,114.9021,30.474,2026-01-07T1800,20,41,0.7,32,8,93,86,41,
黄冈市,红卫路,114.8858,30.4519,2026-01-07T1800,20,40,0.7,31,8,96,81,40,
黄冈市,市林业局,114.9134,30.4446,2026-01-07T1800,16,40,0.6,33,6,94,83,40,
黄南藏族自治州,同仁县隆务镇,102.02,35.5101,2026-01-07T1800,3,27,0.4,5,9,77,77,27,
黄山市,延安路89号,118.2905,29.6965,2026-01-07T1800,31,,0.4,9,4,96,87,45,
黄山市,黄山区政府5号楼,118.1369,30.2755,2026-01-07T1800,30,43,0.3,18,3,66,76,43,
黄山市,滨江东路7-2号,118.335445,29.720283,2026-01-07T1800,30,49,/,21,/,70,80,49,
黄石市,沈家营,115.0547,30.2332,2026-01-07T1800,30,44,1.2,18,8,87,85,44,
黄石市,铁山,114.899,30.211,2026-01-07T1800,41,53,0.4,37,8,78,89,58,细颗粒物(PM2.5)
黄石市,团城山,115.0259,30.2108,2026-01-07T1800,32,42,0.5,20,7,92,90,46,
黄石市,笔架山北路,115.0174,30.1591,2026-01-07T1800,30,54,1.0,24,7,76,82,52,颗粒物(PM10)
黄石市,磁湖东路29号,115.078022,30.21118,2026-01-07T1800,35,51,0.8,37,8,57,70,51,颗粒物(PM10)
惠州市,河南岸金山湖子站,114.4181,23.0528,2026-01-07T1800,26,37,0.6,36,5,81,93,38,
惠州市,下埔横江三路子站,114.4055,23.0824,2026-01-07T1800,23,34,0.3,14,7,103,101,34,
惠州市,惠阳区承修路船湖子站,114.4645,22.7832,2026-01-07T1800,29,42,0.4,18,7,103,101,42,
惠州市,大亚湾管委会子站,114.5316,22.7423,2026-01-07T1800,26,38,0.4,17,8,95,96,38,
惠州市,惠阳秋长,114.4334,22.8134,2026-01-07T1800,24,46,/,19,/,105,104,46,
惠州市,大亚湾霞涌,114.6521,22.7755,2026-01-07T1800,22,43,/,12,/,100,99,43,
惠州市,文华一路1号,114.4089,23.1147,2026-01-07T1800,22,35,/,18,/,104,104,35,
鸡西市,环保局,130.9618,45.2926,2026-01-07T1800,25,46,0.5,10,6,50,50,46,
鸡西市,第一中学,130.9294,45.2959,2026-01-07T1800,,,,9,,53,52,,
鸡西市,欧美日汽修厂,131.0069,45.2988,2026-01-07T1800,27,56,0.6,13,6,56,51,53,颗粒物(PM10)
吉安市,红声器材厂,114.9753,27.0803,2026-01-07T1800,14,29,0.4,14,10,98,89,31,
吉安市,市环境监测站,114.9903,27.1313,2026-01-07T1800,18,28,/,13,15,96,85,30,
吉安市,青原区法院,115.009527,27.096792,2026-01-07T1800,19,29,0.5,23,11,82,82,29,
吉林市,哈达湾,126.54,43.8622,2026-01-07T1800,14,47,0.8,,6,56,64,,
吉林市,东局子,126.5843,43.8358,2026-01-07T1800,24,36,1.0,20,3,40,52,36,
吉林市,电力学院,126.5051,43.8243,2026-01-07T1800,18,53,0.6,12,10,52,59,52,颗粒物(PM10)
吉林市,江北,126.6133,43.8971,2026-01-07T1800,26,43,1.0,19,20,44,55,43,
吉林市,江南公园,126.5549,43.8304,2026-01-07T1800,17,39,0.5,15,23,53,61,39,
吉林市,九站,126.4737,43.953,2026-01-07T1800,19,40,0.5,21,31,43,54,40,
济南市,科干所,116.9866,36.6118,2026-01-07T1800,10,36,0.7,31,5,49,57,36,
济南市,农科所,116.9379,36.6652,2026-01-07T1800,7,39,0.5,26,5,50,60,39,
济南市,开发区,117.1265,36.6736,2026-01-07T1800,17,44,0.7,40,5,48,60,44,
济南市,省种子仓库,117.0616,36.6865,2026-01-07T1800,17,34,0.5,25,5,65,64,34,
济南市,机床二厂,116.9495185,36.644937,2026-01-07T1800,10,37,0.6,32,6,56,61,37,
济南市,市监测站,117.0496,36.6629,2026-01-07T1800,7,29,0.6,20,5,60,60,29,
济南市,长清党校,116.7674,36.5458,2026-01-07T1800,10,34,0.6,27,6,55,57,34,
济南市,东山小学,117.5323,36.6865,2026-01-07T1800,15,39,0.8,22,5,64,69,39,
济南市,泰兴公司,117.7181,36.205,2026-01-07T1800,27,48,0.6,35,7,60,71,48,
济南市,莱芜战役纪念馆,117.6861,36.2172,2026-01-07T1800,30,58,0.4,35,11,54,63,54,颗粒物(PM10)
济南市,济阳区政府,117.1673,36.9782,2026-01-07T1800,12,39,0.4,34,6,47,32,39,
济南市,锦屏中学,117.1168,36.6299,2026-01-07T1800,10,37,0.6,30,5,56,64,37,
济南市,山财大街5号,117.7107,36.2385,2026-01-07T1800,11,77,0.5,32,10,67,75,64,颗粒物(PM10)
济南市,无影山路12号,116.9744,36.6889,2026-01-07T1800,3,40,0.4,27,,54,60,,
济宁市,火炬城,116.6229,35.4288,2026-01-07T1800,53,58,0.4,26,7,62,56,73,细颗粒物(PM2.5)
济宁市,北湖一中,116.5808,35.3703,2026-01-07T1800,51,54,0.5,26,7,62,55,70,细颗粒物(PM2.5)
济宁市,服务中心,116.8251,35.5592,2026-01-07T1800,34,80,0.7,41,13,43,47,65,颗粒物(PM10)
济宁市,市第七中学,116.5907,35.4054,2026-01-07T1800,41,55,0.7,29,9,64,60,58,细颗粒物(PM2.5)
济宁市,任和路,116.6075,35.4566,2026-01-07T1800,40,80,0.5,30,8,58,54,65,颗粒物(PM10)
济宁市,文体南路1号,116.5648,35.3921,2026-01-07T1800,35,66,0.5,30,6,58,53,58,颗粒物(PM10)
佳木斯市,佳纺,130.2749,46.8028,2026-01-07T1800,45,52,0.6,21,11,40,48,63,细颗粒物(PM2.5)
佳木斯市,环保局,130.3258,46.7975,2026-01-07T1800,32,41,0.9,27,9,36,51,46,
佳木斯市,顺和街,130.363,46.806,2026-01-07T1800,36,40,0.7,30,10,32,43,52,细颗粒物(PM2.5)
佳木斯市,长安路196号,130.3952,46.8268,2026-01-07T1800,30,49,0.5,20,7,42,52,49,
嘉兴市,清河小学,120.7439,30.778,2026-01-07T1800,40,60,0.7,36,7,66,77,57,细颗粒物(PM2.5)
嘉兴市,嘉兴学院,120.7261,30.7477,2026-01-07T1800,33,50,1.0,30,8,70,78,50,
嘉兴市,南湖区残联,120.7845,30.7524,2026-01-07T1800,45,51,0.6,36,6,78,88,63,细颗粒物(PM2.5)
嘉兴市,秀洲住建,120.6915,30.7741,2026-01-07T1800,39,57,0.5,28,8,76,83,55,细颗粒物(PM2.5)
嘉峪关市,气象局,98.291,39.7705,2026-01-07T1800,7,27,0.3,8,5,85,77,27,
嘉峪关市,酒钢宾馆,98.2672,39.7978,2026-01-07T1800,17,63,0.7,12,20,71,75,57,颗粒物(PM10)
嘉峪关市,雄关区,98.2644,39.7723,2026-01-07T1800,11,31,0.2,10,12,84,79,31,
江门市,北街,113.1063,22.6058,2026-01-07T1800,29,46,/,26,/,103,100,46,
江门市,西区,113.073,22.5835,2026-01-07T1800,38,50,/,35,/,94,95,54,细颗粒物(PM2.5)
江门市,圭峰西,113.0218,22.531,2026-01-07T1800,42,56,/,27,/,104,96,59,细颗粒物(PM2.5)
江门市,东湖,113.0826,22.5947,2026-01-07T1800,32,47,0.5,30,9,102,100,47,
江门市,江海富民,113.1077,22.5647,2026-01-07T1800,31,45,0.5,38,/,103,101,45,
江门市,新会银湖,113.0496,22.4669,2026-01-07T1800,37,58,0.4,31,9,97,96,54,颗粒物(PM10)
焦作市,马村街道办,113.3137,35.2643,2026-01-07T1800,27,53,0.4,14,6,81,78,52,颗粒物(PM10)
焦作市,焦作技师学院,113.2464,35.2374,2026-01-07T1800,27,57,0.3,14,8,81,78,54,颗粒物(PM10)
焦作市,中站许衡医院,113.1656,35.2536,2026-01-07T1800,31,52,0.4,11,5,83,79,51,颗粒物(PM10)
焦作市,原李万街道办,113.2456,35.18,2026-01-07T1800,17,53,0.4,7,7,87,82,52,颗粒物(PM10)
焦作市,新安路1731号,113.234,35.219,2026-01-07T1800,24,56,0.4,14,5,80,77,53,颗粒物(PM10)
焦作市,人民路3066号,113.2722,35.2121,2026-01-07T1800,22,63,0.4,8,6,74,70,57,颗粒物(PM10)
揭阳市,新兴,116.3701,23.5345,2026-01-07T1800,32,53,0.6,,9,94,95,,
揭阳市,西马,116.3261,23.5442,2026-01-07T1800,24,50,0.8,19,5,82,92,50,
揭阳市,东兴,116.361,23.5627,2026-01-07T1800,26,41,/,20,8,78,90,41,
揭阳市,渔湖,116.4151,23.5295,2026-01-07T1800,23,63,/,26,4,98,95,57,颗粒物(PM10)
揭阳市,曲溪,116.4028,23.5699,2026-01-07T1800,30,52,0.6,25,4,101,103,51,颗粒物(PM10)
金昌市,天庆家园,102.1691,38.5166,2026-01-07T1800,8,31,0.5,8,5,81,80,31,
金昌市,金川区人防中心,102.1648,38.5369,2026-01-07T1800,13,18,0.6,8,4,84,82,27,
金昌市,长春路96号,102.193042,38.531887,2026-01-07T1800,10,35,0.5,6,5,82,81,35,
金华市,十五中,119.6478,29.0773,2026-01-07T1800,37,52,0.4,32,5,89,92,53,细颗粒物(PM2.5)
金华市,监测站,119.6859,29.1032,2026-01-07T1800,36,51,0.4,35,5,75,76,52,细颗粒物(PM2.5)
金华市,气象局,119.656,29.1132,2026-01-07T1800,37,65,0.9,49,4,66,80,58,颗粒物(PM10)
锦州市,南山,121.1114,41.0879,2026-01-07T1800,28,,0.5,24,13,51,71,40,
锦州市,开发区,121.060361,40.842794,2026-01-07T1800,36,46,0.7,31,16,40,64,52,细颗粒物(PM2.5)
锦州市,百股街道,121.1836,41.1118,2026-01-07T1800,22,44,0.9,20,8,53,69,44,
锦州市,天安街道,121.1176,41.1224,2026-01-07T1800,17,34,0.6,17,18,62,79,34,
锦州市,北湖公园,121.1303,41.1385,2026-01-07T1800,35,36,0.7,15,14,54,71,50,
晋城市,自来水公司,112.8496,35.5051,2026-01-07T1800,29,72,0.8,28,7,62,70,61,颗粒物(PM10)
晋城市,市环保局,112.8509,35.4886,2026-01-07T1800,29,48,0.6,24,6,76,78,48,
晋城市,泽州一中,112.8258,35.4804,2026-01-07T1800,22,62,0.3,12,5,86,81,56,颗粒物(PM10)
晋城市,前书院路,112.8246,35.5152,2026-01-07T1800,22,62,0.4,22,6,66,71,56,颗粒物(PM10)
晋城市,祥云街666号,112.8864,35.4773,2026-01-07T1800,40,67,0.5,21,6,77,77,59,颗粒物(PM10)
晋中市,榆次区政府,112.6992,37.6984,2026-01-07T1800,27,83,0.4,16,11,70,72,67,颗粒物(PM10)
晋中市,榆次三中,112.7195,37.683,2026-01-07T1800,,,0.5,,7,76,74,,
晋中市,广安街188号,112.7375,37.7215,2026-01-07T1800,25,86,0.3,11,8,72,73,68,颗粒物(PM10)
晋中市,迎宾街26号,112.7478,37.6954,2026-01-07T1800,22,88,0.5,15,8,74,74,69,颗粒物(PM10)
荆门市,竹园小学,112.2012,31.048,2026-01-07T1800,55,,0.5,27,1,80,77,75,细颗粒物(PM2.5)
荆门市,掇刀,112.1968,30.9892,2026-01-07T1800,46,,0.4,20,4,88,79,64,细颗粒物(PM2.5)
荆门市,西山林语,112.1849,31.0361,2026-01-07T1800,44,44,0.4,21,8,77,83,62,细颗粒物(PM2.5)
荆门市,龙泉中学南校,112.1631,31.0134,2026-01-07T1800,37,51,0.6,17,8,87,80,53,细颗粒物(PM2.5)
荆门市,新台西路6号,112.2213,31.0654,2026-01-07T1800,62,76,0.5,,9,80,74,,
荆州市,市图书馆,112.2493,30.3198,2026-01-07T1800,40,,0.6,17,7,95,86,57,细颗粒物(PM2.5)
荆州市,市委党校,112.2009,30.3543,2026-01-07T1800,38,42,,24,4,79,72,,
荆州市,管委会,112.2749,30.3124,2026-01-07T1800,35,39,0.7,19,5,89,83,50,
荆州市,学苑路85号,112.1722,30.3366,2026-01-07T1800,30,40,0.6,17,12,96,85,43,
景德镇市,老干部活动中心,117.2114,29.2931,2026-01-07T1800,30,,0.5,11,10,85,74,43,
景德镇市,兽医站,117.1893,29.2789,2026-01-07T1800,25,34,0.7,14,9,90,79,36,
景德镇市,陶研所,117.246,29.2958,2026-01-07T1800,35,36,0.4,17,3,72,72,50,
景德镇市,青少年活动中心,117.154766,29.256967,2026-01-07T1800,23,44,/,23,16,91,82,44,
九江市,十里,115.9873,29.6816,2026-01-07T1800,29,41,0.8,35,6,84,92,42,
九江市,茅山头,115.9583,29.7047,2026-01-07T1800,27,43,0.8,21,6,82,88,43,
九江市,西园,115.9877,29.7295,2026-01-07T1800,23,36,0.7,46,3,77,90,36,
九江市,综合工业园,115.9112,29.6038,2026-01-07T1800,31,43,0.8,38,5,72,89,45,
九江市,外国语学校,116.0254,29.6995,2026-01-07T1800,17,41,0.8,31,8,73,81,41,
九江市,莲花大道8号,116.010205,29.659402,2026-01-07T1800,33,52,0.4,28,4,67,84,51,颗粒物(PM10)
酒泉市,玉门东路5号,98.495752,39.733935,2026-01-07T1800,33,80,,22,,64,64,,
酒泉市,北大街108号,98.5099,39.7506,2026-01-07T1800,19,83,0.5,14,10,67,64,67,颗粒物(PM10)
喀什地区,巡警大队,76.0071,39.466,2026-01-07T1800,53,79,0.9,19,6,62,31,73,细颗粒物(PM2.5)
喀什地区,吾办,75.9756,39.4693,2026-01-07T1800,67,101,,15,6,62,36,,
喀什地区,老干局,75.9485,39.4688,2026-01-07T1800,53,89,1.2,14,4,67,38,73,细颗粒物(PM2.5)
开封市,肿瘤医院,114.3389,34.778,2026-01-07T1800,24,50,0.5,23,4,69,71,50,
开封市,世纪星幼儿园,114.2884,34.7966,2026-01-07T1800,25,54,0.4,27,3,67,79,52,颗粒物(PM10)
开封市,龙亭公园,114.3434,34.8101,2026-01-07T1800,26,58,0.3,32,8,67,71,54,颗粒物(PM10)
开封市,汴京公园,114.3645,34.7955,2026-01-07T1800,24,52,0.5,28,5,63,66,51,颗粒物(PM10)
开封市,技师学院,114.2485,34.8306,2026-01-07T1800,22,51,0.5,22,6,66,73,51,颗粒物(PM10)
开封市,祥符区生态环境局,114.4518,34.7503,2026-01-07T1800,26,70,0.5,39,6,55,69,60,颗粒物(PM10)
克拉玛依市,长征新村,84.886,45.6029,2026-01-07T1800,85,156,1.2,33,6,48,34,113,细颗粒物(PM2.5)
克拉玛依市,南林小区,84.8894,45.5827,2026-01-07T1800,68,125,1.2,22,4,45,29,92,细颗粒物(PM2.5)
克拉玛依市,独山子区,84.896,44.3328,2026-01-07T1800,70,126,0.9,38,6,91,73,94,细颗粒物(PM2.5)
克拉玛依市,乌尔禾区商贸楼,85.6888,46.0909,2026-01-07T1800,94,103,1.2,32,5,47,31,124,细颗粒物(PM2.5)
克拉玛依市,白碱滩区新站,85.1045,45.6895,2026-01-07T1800,100,129,1.0,12,8,55,37,132,细颗粒物(PM2.5)
克孜勒苏柯尔克孜自治州,市人民政府,76.1457,39.7143,2026-01-07T1800,64,88,0.2,8,6,74,48,87,细颗粒物(PM2.5)
克孜勒苏柯尔克孜自治州,克州文化中心,76.1654,39.7157,2026-01-07T1800,60,76,0.7,10,4,70,44,82,细颗粒物(PM2.5)
昆明市,呈贡新区,102.8203,24.889,2026-01-07T1800,31,34,0.5,20,3,24,37,45,
昆明市,龙泉镇,102.7253,25.0904,2026-01-07T1800,35,37,0.9,28,2,17,27,50,
昆明市,东风东路,102.7267,25.0378,2026-01-07T1800,36,57,0.8,40,4,13,32,54,颗粒物(PM10)
昆明市,金鼎山,102.6744,25.0671,2026-01-07T1800,29,40,0.9,21,2,28,31,42,
昆明市,碧鸡广场,102.6643,25.0401,2026-01-07T1800,29,34,0.7,24,2,28,31,42,
昆明市,官渡区博物馆,102.7491,25.012,2026-01-07T1800,39,47,0.9,46,2,11,33,55,细颗粒物(PM2.5)
昆明市,青年创业园,102.8016,24.8336,2026-01-07T1800,25,34,0.7,13,3,31,39,36,
昆明市,昆明学院,102.8,24.9787,2026-01-07T1800,44,59,1.0,34,3,18,38,62,细颗粒物(PM2.5)
昆明市,晋宁区生态环境分局,102.5969,24.6738,2026-01-07T1800,24,34,0.7,16,2,24,27,35,
昆明市,云天化总部,102.6673,24.9861,2026-01-07T1800,24,33,0.9,18,5,34,34,35,
拉萨市,八廓街,91.132,29.6515,2026-01-07T1800,8,27,0.5,3,8,98,84,31,
拉萨市,市环保局,91.1221,29.6748,2026-01-07T1800,8,36,0.5,8,8,91,73,36,
拉萨市,区监测站,91.0874,29.6476,2026-01-07T1800,9,29,0.5,8,4,92,76,29,
拉萨市,西藏大学,91.1774,29.6541,2026-01-07T1800,6,24,0.3,14,6,91,80,29,
拉萨市,区辐射站,90.9798,29.6586,2026-01-07T1800,9,23,0.3,16,4,87,76,28,
拉萨市,拉萨火车站,91.0831,29.6292,2026-01-07T1800,9,25,0.4,6,3,94,81,30,
来宾市,来宾技工学校,109.2203,23.7252,2026-01-07T1800,23,30,0.2,8,,105,94,,
来宾市,兴宾区政府,109.1781,23.7293,2026-01-07T1800,21,30,0.4,7,6,110,102,35,
来宾市,中南小学,109.2312,23.7428,2026-01-07T1800,20,29,0.4,13,5,100,97,32,
兰州市,铁路设计院,103.8309,36.0467,2026-01-07T1800,,,,,,,,,
兰州市,百合公园,103.7439,36.0841,2026-01-07T1800,50,61,0.9,46,17,54,41,69,细颗粒物(PM2.5)
兰州市,和平,103.9613,35.9985,2026-01-07T1800,71,80,1.0,29,21,68,64,95,细颗粒物(PM2.5)
兰州市,庄浪东路808号,103.629272,36.093822,2026-01-07T1800,70,110,1.5,72,24,38,51,94,细颗粒物(PM2.5)
兰州市,安宁西路88号,103.7251,36.104344,2026-01-07T1800,46,75,0.8,42,18,72,56,64,细颗粒物(PM2.5)
兰州市,北滨河东路1号,103.846982,36.067567,2026-01-07T1800,53,72,0.9,33,17,86,53,73,细颗粒物(PM2.5)
廊坊市,药材公司,116.6712,39.5109,2026-01-07T1800,,,0.6,,2,42,62,,
廊坊市,开发区,116.7215,39.5592,2026-01-07T1800,10,40,0.3,25,4,52,64,40,
廊坊市,北华航天学院,116.7246,39.5273,2026-01-07T1800,9,28,0.4,28,1,51,63,28,
廊坊市,河北工业大学,116.7022,39.5454,2026-01-07T1800,10,32,0.3,25,4,53,62,32,
乐山市,牛耳桥,103.7629,29.5844,2026-01-07T1800,28,36,0.4,18,8,88,60,40,
乐山市,市第三水厂,103.7501,29.6002,2026-01-07T1800,30,39,0.4,20,6,90,55,43,
乐山市,市监测站,103.7571,29.5664,2026-01-07T1800,30,37,0.4,15,6,86,53,43,
乐山市,理工大学,103.7313,29.563,2026-01-07T1800,27,37,0.3,10,5,96,55,39,
丽江市,丽江古城,100.2497,26.8802,2026-01-07T1800,7,22,0.4,11,8,90,89,29,
丽江市,市中心,100.2203,26.8906,2026-01-07T1800,3,22,0.4,15,7,87,88,28,
丽水市,监测站大楼,119.9141,28.4513,2026-01-07T1800,40,47,0.4,23,6,81,77,57,细颗粒物(PM2.5)
丽水市,莲都小学,119.93,28.4589,2026-01-07T1800,28,41,/,22,/,90,81,41,
丽水市,余庄前,119.8794,28.4232,2026-01-07T1800,32,42,0.5,21,5,60,81,46,
连云港市,市环境监测站,119.1759,34.5885,2026-01-07T1800,73,105,1.1,45,13,40,48,98,细颗粒物(PM2.5)
连云港市,德源药业,119.3577,34.6971,2026-01-07T1800,51,122,0.4,,,19,43,,
连云港市,新城一中,119.178,34.8442,2026-01-07T1800,54,98,1.3,65,14,16,44,74,"颗粒物(PM10),细颗粒物(PM2.5)"
连云港市,胡沟管理处,119.3607,34.7519,2026-01-07T1800,48,85,1.0,62,12,26,51,68,颗粒物(PM10)
连云港市,矿山设计院,119.1478,34.5913,2026-01-07T1800,70,124,1.3,53,15,31,51,94,细颗粒物(PM2.5)
连云港市,工贸学校,119.2414,34.6539,2026-01-07T1800,74,109,0.9,38,16,42,51,99,细颗粒物(PM2.5)
连云港市,连云街道,119.4171,34.734,2026-01-07T1800,56,89,1.0,38,11,47,46,77,细颗粒物(PM2.5)
凉山彝族自治州,西昌市政府,102.2629,27.8981,2026-01-07T1800,50,,0.9,24,7,50,50,69,细颗粒物(PM2.5)
凉山彝族自治州,凉山州政府,102.2686,27.885,2026-01-07T1800,27,35,0.3,22,7,52,52,39,
凉山彝族自治州,凯乐南路30号,102.2342,27.8859,2026-01-07T1800,21,34,0.8,18,7,56,52,34,
辽阳市,宏伟区,123.1978,41.2036,2026-01-07T1800,18,47,0.4,12,6,45,59,47,
辽阳市,新华园,123.1684,41.2497,2026-01-07T1800,19,44,0.7,16,6,46,60,44,
辽阳市,滨河路,123.2355,41.2663,2026-01-07T1800,18,51,0.4,15,5,45,59,51,颗粒物(PM10)
辽阳市,铁西路150号,123.153,41.2874,2026-01-07T1800,,,,,,,61,,
辽源市,环保局,125.1359,42.8845,2026-01-07T1800,16,74,0.5,18,4,50,62,62,颗粒物(PM10)
辽源市,安宁大街333号,125.0998,42.9134,2026-01-07T1800,13,35,0.3,14,6,56,68,35,
聊城市,区政府,115.9789,36.4372,2026-01-07T1800,9,27,0.5,22,10,64,66,27,
聊城市,监控中心,115.9772,36.4986,2026-01-07T1800,14,28,0.3,30,8,61,69,28,
聊城市,九州社区,116.0443,36.436,2026-01-07T1800,17,42,0.3,22,3,64,76,42,
聊城市,星美广场,116.0564,36.4609,2026-01-07T1800,13,55,0.3,34,3,37,63,53,颗粒物(PM10)
聊城市,利民路,116.0091,36.4495,2026-01-07T1800,3,22,0.3,25,8,58,62,22,
林芝市,林芝监测站,94.3683,29.6373,2026-01-07T1800,6,7,0.3,2,4,89,85,28,
林芝市,林芝人民医院,94.3616,29.6634,2026-01-07T1800,6,16,0.4,3,7,83,77,26,
临沧市,市环保局,100.0779,23.8981,2026-01-07T1800,29,,0.3,,7,82,67,,
临沧市,市气象局,100.0894,23.882,2026-01-07T1800,11,17,0.3,5,5,80,66,25,
临汾市,临钢医院,111.5552,36.0791,2026-01-07T1800,33,67,0.6,23,7,63,66,59,颗粒物(PM10)
临汾市,技工学校,111.4984,36.0734,2026-01-07T1800,36,63,0.6,18,7,70,62,57,颗粒物(PM10)
临汾市,市委,111.5017,36.0857,2026-01-07T1800,25,65,0.9,25,9,70,71,58,颗粒物(PM10)
临汾市,唐尧大酒店,111.5048,36.1015,2026-01-07T1800,22,65,0.9,19,7,78,73,58,颗粒物(PM10)
临汾市,启星学校,111.4879,36.053,2026-01-07T1800,31,65,0.9,29,9,71,69,58,颗粒物(PM10)
临夏回族自治州,滨河东路1号,103.2464,35.6123,2026-01-07T1800,48,60,0.7,19,6,74,67,67,细颗粒物(PM2.5)
临夏回族自治州,新华街21号,103.207136,35.599807,2026-01-07T1800,39,66,0.7,19,8,72,63,58,颗粒物(PM10)
临沂市,沂河小区,118.3429,35.0532,2026-01-07T1800,54,80,1.0,52,14,36,52,74,细颗粒物(PM2.5)
临沂市,鲁南制药厂,118.2962,35.0568,2026-01-07T1800,49,80,0.8,51,20,44,53,68,细颗粒物(PM2.5)
临沂市,新光毛纺厂,118.2793,34.9976,2026-01-07T1800,56,92,1.0,52,24,41,55,77,细颗粒物(PM2.5)
临沂市,河东保险公司,118.3955,35.0889,2026-01-07T1800,39,80,0.9,55,12,31,52,65,颗粒物(PM10)
临沂市,十里堡居委,118.3563,35.0215,2026-01-07T1800,41,68,0.9,48,16,46,52,59,颗粒物(PM10)
临沂市,南坊新区,118.359,35.1067,2026-01-07T1800,44,68,0.9,37,12,47,55,62,细颗粒物(PM2.5)
临沂市,皇山花园小区,118.3915,35.0297,2026-01-07T1800,43,85,0.8,50,15,43,55,68,颗粒物(PM10)
柳州市,柳东小学,109.4854,24.3898,2026-01-07T1800,25,31,0.5,9,9,104,94,36,
柳州市,环保监测站,109.4109,24.3304,2026-01-07T1800,24,46,,21,8,88,85,,
柳州市,河西水厂,109.3886,24.3408,2026-01-07T1800,30,46,0.5,24,12,92,89,46,
柳州市,市四中,109.4263,24.2951,2026-01-07T1800,27,36,0.4,17,10,95,94,39,
柳州市,市九中,109.396,24.3658,2026-01-07T1800,29,52,0.6,28,12,90,88,51,颗粒物(PM10)
柳州市,古亭山,109.4912,24.3164,2026-01-07T1800,26,48,0.5,9,10,92,91,48,
柳州市,市二中,109.5422,24.3994,2026-01-07T1800,35,40,0.5,17,10,111,95,50,
六安市,监测大楼,116.5078,31.7369,2026-01-07T1800,23,36,0.3,18,4,79,78,36,
六安市,皖西学院,116.4738,31.7642,2026-01-07T1800,27,42,0.4,18,6,84,86,42,
六安市,朝阳厂,116.4997,31.7904,2026-01-07T1800,21,50,0.5,35,7,70,80,50,
六安市,开发区,116.5566,31.7885,2026-01-07T1800,,67,0.4,32,5,66,78,,
六盘水市,黄土坡,104.8293,26.592,2026-01-07T1800,41,43,0.7,18,14,62,49,58,细颗粒物(PM2.5)
六盘水市,民中,104.8481,26.5898,2026-01-07T1800,39,50,0.6,31,5,48,45,55,细颗粒物(PM2.5)
六盘水市,双水,104.9541,26.5506,2026-01-07T1800,33,44,0.5,10,4,70,60,48,
六盘水市,钟山大道中段564号,104.8899,26.5685,2026-01-07T1800,41,54,1.0,12,11,67,56,58,细颗粒物(PM2.5)
龙岩市,龙岩市监测站,117.022,25.1031,2026-01-07T1800,22,28,0.4,15,10,98,99,32,
龙岩市,闽西职业技术学院,117.0257,25.0662,2026-01-07T1800,22,,0.4,9,8,101,102,32,
龙岩市,龙岩学院,117.0195,25.0306,2026-01-07T1800,18,33,/,12,9,90,96,33,
陇南市,滨江中学,104.9344,33.3827,2026-01-07T1800,,146,,,19,29,62,,
陇南市,市总工会,104.9551,33.3709,2026-01-07T1800,20,55,0.5,8,7,76,62,53,颗粒物(PM10)
娄底市,市监测站,111.9984,27.7346,2026-01-07T1800,30,46,0.8,15,8,93,75,46,
娄底市,市政府,111.9888,27.7035,2026-01-07T1800,24,49,1.0,20,6,94,82,49,
娄底市,涟钢职大,111.9812,27.7591,2026-01-07T1800,47,47,0.7,18,8,97,75,65,细颗粒物(PM2.5)
娄底市,娄底体校,112.0303,27.7457,2026-01-07T1800,26,32,0.6,16,5,87,66,38,
泸州市,小市上码头,105.4427,28.9063,2026-01-07T1800,36,52,0.9,13,10,92,52,52,细颗粒物(PM2.5)
泸州市,兰田宪桥,105.4241,28.8573,2026-01-07T1800,36,43,0.8,16,7,65,50,52,细颗粒物(PM2.5)
泸州市,市环监站,105.4378,28.8833,2026-01-07T1800,32,44,0.8,17,8,89,48,46,
泸州市,纳溪中医医院,105.3689,28.7783,2026-01-07T1800,52,73,0.8,22,8,69,48,72,细颗粒物(PM2.5)
吕梁市,环保局,111.1447,37.5212,2026-01-07T1800,41,92,0.5,12,6,60,51,71,颗粒物(PM10)
吕梁市,自来水公司,111.1285,37.5338,2026-01-07T1800,39,97,0.4,13,5,57,53,74,颗粒物(PM10)
吕梁市,马茂庄小学,111.1225,37.5093,2026-01-07T1800,40,101,0.6,14,6,58,48,76,颗粒物(PM10)
洛阳市,市委党校,112.3934,34.6517,2026-01-07T1800,24,64,0.4,18,8,75,76,57,颗粒物(PM10)
洛阳市,河南林校,112.494,34.6883,2026-01-07T1800,3,64,0.5,20,10,78,75,57,颗粒物(PM10)
洛阳市,开发区管委会,112.3843,34.623,2026-01-07T1800,28,71,0.3,14,9,73,73,61,颗粒物(PM10)
洛阳市,市委新办公区,112.4263,34.6249,2026-01-07T1800,25,69,0.4,11,9,80,78,60,颗粒物(PM10)
洛阳市,伊滨,112.6005,34.6323,2026-01-07T1800,23,57,0.3,8,7,78,77,54,颗粒物(PM10)
洛阳市,中移产业园,112.495,34.6338,2026-01-07T1800,27,65,0.4,19,9,77,76,58,颗粒物(PM10)
洛阳市,吉利监测站,112.5736,34.8993,2026-01-07T1800,23,52,0.6,21,8,87,88,51,颗粒物(PM10)
洛阳市,河科大西苑校区,112.3678,34.6623,2026-01-07T1800,24,74,0.4,17,7,76,77,62,颗粒物(PM10)
洛阳市,英才小学,112.4387,34.678,2026-01-07T1800,28,64,0.5,27,10,83,83,57,颗粒物(PM10)
洛阳市,春都路1号院,112.460027,34.694929,2026-01-07T1800,18,58,0.6,18,8,79,75,54,颗粒物(PM10)
漯河市,三五一五工厂,114.051,33.5721,2026-01-07T1800,35,51,0.6,15,8,81,82,51,颗粒物(PM10)
漯河市,漯河大学,114.0055,33.5698,2026-01-07T1800,22,48,0.6,20,7,79,81,48,
漯河市,市水利局,114.0134,33.5826,2026-01-07T1800,24,51,0.5,,,67,76,,
漯河市,市广电局,114.0261,33.5697,2026-01-07T1800,26,39,0.5,14,8,83,86,39,
漯河市,市图书馆,113.9691,33.568,2026-01-07T1800,22,47,0.6,12,5,68,71,47,
漯河市,韶山路11号,114.089259,33.588274,2026-01-07T1800,23,55,0.4,22,7,73,74,53,颗粒物(PM10)
马鞍山市,湖东路四小,118.5084,31.6838,2026-01-07T1800,16,37,0.4,29,5,64,70,37,
马鞍山市,开发区,118.5019,31.6449,2026-01-07T1800,21,41,0.5,33,5,61,71,41,
马鞍山市,雨山,118.4914,31.681,2026-01-07T1800,19,39,0.4,32,8,65,73,39,
马鞍山市,慈湖高新区,118.527362,31.722269,2026-01-07T1800,29,43,1.9,57,16,34,59,43,
茂名市,电白南海,111.0285,21.469,2026-01-07T1800,39,63,0.6,19,11,123,110,57,颗粒物(PM10)
茂名市,茂石化七小,110.9294,21.6533,2026-01-07T1800,24,56,0.5,16,8,107,103,53,颗粒物(PM10)
茂名市,健康路,110.9108,21.6688,2026-01-07T1800,31,34,0.5,18,12,114,111,45,
茂名市,高岭,110.8592,21.6826,2026-01-07T1800,19,48,/,16,9,106,108,48,
茂名市,电白水东,111.0101,21.5165,2026-01-07T1800,29,53,/,14,10,120,109,52,颗粒物(PM10)
眉山市,气象局,103.8414,30.0871,2026-01-07T1800,31,58,0.4,16,8,97,81,54,颗粒物(PM10)
眉山市,区人社局,103.829,30.0563,2026-01-07T1800,29,50,0.4,16,6,92,71,50,
眉山市,眉职院,103.8836,30.0695,2026-01-07T1800,23,41,0.4,9,1,98,72,41,
梅州市,梅江月梅,116.1248,24.3307,2026-01-07T1800,25,39,/,15,/,97,90,39,
梅州市,梅县新城,116.0798,24.2719,2026-01-07T1800,25,41,0.6,22,8,91,89,41,
梅州市,梅龙,116.1234,24.2994,2026-01-07T1800,16,29,0.5,17,8,87,87,29,
绵阳市,富乐山,104.7775,31.4741,2026-01-07T1800,41,61,0.6,15,12,84,72,58,细颗粒物(PM2.5)
绵阳市,高新区自来水公司,104.6698,31.4668,2026-01-07T1800,41,64,0.5,30,9,84,66,58,细颗粒物(PM2.5)
绵阳市,西科大附属小学,104.6899,31.5324,2026-01-07T1800,63,81,0.0,38,10,70,66,85,细颗粒物(PM2.5)
绵阳市,安州区旅游局,104.5647,31.5343,2026-01-07T1800,34,48,1.0,36,10,76,64,49,
绵阳市,科技城新区公安局,104.7092,31.4972,2026-01-07T1800,36,56,0.4,30,5,88,67,53,颗粒物(PM10)
绵阳市,绵阳市气象局,104.765114,31.453094,2026-01-07T1800,33,50,0.6,22,11,94,64,50,
牡丹江市,环保大楼,129.61,44.561,2026-01-07T1800,25,57,0.3,12,3,55,61,54,颗粒物(PM10)
牡丹江市,机车工厂,129.6364,44.6075,2026-01-07T1800,22,43,0.3,16,3,50,59,43,
牡丹江市,第一中学,129.6386,44.5462,2026-01-07T1800,17,34,0.3,7,4,54,58,34,
牡丹江市,东晓云街98号,129.5992,44.5964,2026-01-07T1800,38,47,0.4,11,4,53,59,54,细颗粒物(PM2.5)
内江市,市监测站,105.0703,29.61,2026-01-07T1800,44,56,0.6,17,5,107,74,62,细颗粒物(PM2.5)
内江市,内江二中,105.0657,29.5807,2026-01-07T1800,43,53,0.8,27,5,90,69,60,细颗粒物(PM2.5)
内江市,内江日报社,105.0407,29.5828,2026-01-07T1800,46,,0.6,26,2,95,71,64,细颗粒物(PM2.5)
内江市,玉峰路西段888号,105.0433,29.6105,2026-01-07T1800,36,51,0.5,21,4,108,72,52,细颗粒物(PM2.5)
那曲市,那曲监测站,92.0653,31.4846,2026-01-07T1800,10,34,0.9,10,6,90,66,34,
那曲市,那曲市委宣传部,92.0515,31.4787,2026-01-07T1800,3,8,0.5,2,4,92,70,29,
南昌市,省林业公司,115.8887,28.7006,2026-01-07T1800,22,27,0.4,15,4,80,72,32,
南昌市,林科所,115.813,28.7443,2026-01-07T1800,22,24,0.4,45,7,51,71,32,
南昌市,建工学校,115.8518,28.687,2026-01-07T1800,20,23,0.5,13,14,82,70,29,
南昌市,象湖,115.8926,28.6425,2026-01-07T1800,24,39,0.7,28,10,74,74,39,
南昌市,机电学校,115.9084,28.6062,2026-01-07T1800,27,49,0.6,24,7,80,78,49,
南昌市,外国语学校,115.9718,28.7032,2026-01-07T1800,23,35,0.6,54,13,61,71,35,
南昌市,工业二路,115.7923,28.6873,2026-01-07T1800,24,39,0.5,39,6,64,70,39,
南昌市,南京东路235号,115.931587,28.686774,2026-01-07T1800,20,30,0.2,35,6,84,84,30,
南充市,南充市委,106.0791,30.8022,2026-01-07T1800,56,72,0.7,48,5,45,33,77,细颗粒物(PM2.5)
南充市,南充炼油厂,106.1038,30.8215,2026-01-07T1800,66,78,,54,6,43,31,,
南充市,梨树横街98号,106.108336,30.788436,2026-01-07T1800,36,64,0.6,32,7,65,44,57,颗粒物(PM10)
南充市,清泉寺北路188号,106.1172,30.843,2026-01-07T1800,44,58,0.5,28,7,74,50,62,细颗粒物(PM2.5)
南充市,同庆路1号,106.067,30.7616,2026-01-07T1800,46,57,4.0,33,7,57,38,64,细颗粒物(PM2.5)
南京市,迈皋桥,118.8033,32.1085,2026-01-07T1800,22,40,0.4,20,2,69,78,40,
南京市,草场门,118.7487,32.057,2026-01-07T1800,24,48,0.2,28,7,66,72,48,
南京市,中华门,118.770105,32.004342,2026-01-07T1800,24,39,0.4,17,5,64,71,39,
南京市,瑞金路,118.8059,32.0329,2026-01-07T1800,29,44,0.7,25,4,59,68,44,
南京市,玄武湖,118.7946,32.0774,2026-01-07T1800,17,38,0.4,20,4,69,69,38,
南京市,浦口,118.6415,32.0964,2026-01-07T1800,21,47,0.6,25,8,66,73,47,
南京市,奥体中心,118.730129,32.000956,2026-01-07T1800,24,32,0.4,30,7,68,80,35,
南京市,仙林大学城,118.9072,32.1047,2026-01-07T1800,24,41,0.6,28,6,58,66,41,
南京市,江宁彩虹桥,118.8443,31.919,2026-01-07T1800,24,39,0.3,19,5,63,71,39,
南京市,六合雄州,118.8497,32.3599,2026-01-07T1800,25,39,0.7,39,9,55,75,39,
南京市,新模范马路66号,118.7641,32.0841,2026-01-07T1800,11,35,0.5,27,6,60,66,35,
南京市,汶溪路181号,118.8707617,31.34017673,2026-01-07T1800,33,45,0.4,31,5,66,77,48,
南京市,中山西路1号,119.019,31.6512,2026-01-07T1800,31,48,,27,4,55,61,,
南宁市,二十一中,108.3098,22.788,2026-01-07T1800,28,39,0.4,15,6,86,77,40,
南宁市,北湖,108.3135,22.8529,2026-01-07T1800,24,,0.6,14,4,101,88,,
南宁市,市监测站,108.3205,22.8222,2026-01-07T1800,29,,0.6,20,8,91,83,42,
南宁市,大自然花园,108.3828,22.8038,2026-01-07T1800,25,45,0.6,16,6,93,90,45,
南宁市,区农职院,108.2397,22.8462,2026-01-07T1800,22,28,0.6,14,9,95,84,32,
南宁市,英华嘉园,108.3285,22.7356,2026-01-07T1800,25,26,0.5,11,5,97,88,36,
南宁市,红星社区,108.4829,22.762,2026-01-07T1800,19,33,0.5,6,6,101,96,33,
南宁市,起凤路9号,108.2927,23.1477,2026-01-07T1800,21,27,0.4,13,2,90,86,30,
南宁市,乐贤路16号,108.2177,22.7774,2026-01-07T1800,20,38,0.4,13,4,92,80,38,
南平市,南平市监测站,118.1682,26.6371,2026-01-07T1800,30,32,0.7,33,4,54,78,43,
南平市,南平七中,118.1757,26.6276,2026-01-07T1800,23,45,0.6,24,5,68,80,45,
南通市,狼山街道,120.9056,31.9669,2026-01-07T1800,42,55,0.4,21,5,59,58,59,细颗粒物(PM2.5)
南通市,城中,120.8635,32.0231,2026-01-07T1800,41,73,0.6,38,6,56,62,62,颗粒物(PM10)
南通市,星湖花园,120.9376,31.9301,2026-01-07T1800,38,73,0.5,42,6,55,55,62,颗粒物(PM10)
南通市,紫琅学院,120.8053,32.046,2026-01-07T1800,48,75,0.7,38,6,57,68,67,细颗粒物(PM2.5)
南通市,通州监测站,121.0631,32.0644,2026-01-07T1800,53,70,0.7,38,5,65,71,73,细颗粒物(PM2.5)
南通市,环境教育馆,120.9348,31.9874,2026-01-07T1800,42,63,0.6,31,6,67,65,59,细颗粒物(PM2.5)
南通市,洪江路,120.8692,31.9885,2026-01-07T1800,37,59,0.5,43,6,54,54,55,颗粒物(PM10)
南阳市,瓦房庄,112.5338,33.0086,2026-01-07T1800,21,44,0.6,20,8,69,68,44,
南阳市,汉画馆,112.5002,32.9734,2026-01-07T1800,22,51,0.5,21,6,61,62,51,颗粒物(PM10)
南阳市,气象站,112.5778,33.0144,2026-01-07T1800,17,40,0.5,24,6,74,74,40,
南阳市,理工学院,112.548,32.9687,2026-01-07T1800,20,43,0.5,29,7,68,69,43,
南阳市,卧龙区政府,112.5233,32.9921,2026-01-07T1800,20,40,0.6,24,6,61,63,40,
宁波市,区环保大楼,121.8352,29.9111,2026-01-07T1800,34,61,0.7,48,9,72,75,56,颗粒物(PM10)
宁波市,万里学院,121.5595,29.8208,2026-01-07T1800,34,53,0.5,32,5,74,82,52,颗粒物(PM10)
宁波市,龙赛医院,121.713,29.9564,2026-01-07T1800,35,54,0.5,42,4,70,77,52,颗粒物(PM10)
宁波市,太古小学,121.5855,29.8635,2026-01-07T1800,40,50,0.5,30,2,77,87,57,细颗粒物(PM2.5)
宁波市,市环境监测中心,121.5239,29.8673,2026-01-07T1800,61,,0.7,34,6,69,79,83,细颗粒物(PM2.5)
宁波市,万里国际学校,121.6156,29.9015,2026-01-07T1800,34,53,0.5,38,4,75,84,52,颗粒物(PM10)
宁波市,白沙活动中心,121.5593,29.8976,2026-01-07T1800,35,48,0.5,37,5,72,81,50,
宁波市,中科路88号,121.8962,29.7529,2026-01-07T1800,38,51,0.5,47,6,61,85,54,细颗粒物(PM2.5)
宁德市,宁德市监测站,119.5387,26.6611,2026-01-07T1800,26,48,0.6,36,8,75,84,48,
宁德市,宁德一中,119.5231,26.6562,2026-01-07T1800,32,35,0.5,15,6,78,84,46,
怒江傈僳族自治州,州监测站,98.859,25.8541,2026-01-07T1800,24,25,,10,7,79,72,,
怒江傈僳族自治州,泸水一中,98.8607,25.8168,2026-01-07T1800,3,25,0.6,9,6,74,62,25,
攀枝花市,弄弄坪,101.6891,26.571,2026-01-07T1800,38,46,0.8,18,15,95,79,54,细颗粒物(PM2.5)
攀枝花市,河门口,101.577,26.5914,2026-01-07T1800,32,46,1.4,18,27,88,71,46,
攀枝花市,仁和,101.7365,26.4986,2026-01-07T1800,18,25,0.7,14,7,72,78,26,
攀枝花市,四十中小,101.7222,26.567,2026-01-07T1800,28,42,0.9,15,16,95,78,42,
盘锦市,开发区,122.0303,41.1489,2026-01-07T1800,40,59,0.8,16,3,48,62,57,细颗粒物(PM2.5)
盘锦市,兴隆台,122.0486,41.0883,2026-01-07T1800,,99,0.7,37,9,49,63,,
盘锦市,新生街道,121.8297,41.1026,2026-01-07T1800,12,33,0.3,24,4,44,65,33,
平顶山市,新华旅馆,113.3257,33.7423,2026-01-07T1800,25,58,0.3,17,5,74,81,54,颗粒物(PM10)
平顶山市,规划设计院,113.2917,33.737,2026-01-07T1800,,,,,,,78,,
平顶山市,平顶山工学院,113.182,33.7738,2026-01-07T1800,24,52,0.1,17,7,80,85,51,颗粒物(PM10)
平顶山市,石龙区,112.8736,33.9068,2026-01-07T1800,30,70,0.4,25,5,73,87,60,颗粒物(PM10)
平顶山市,姚电大道23号,113.284,33.7139,2026-01-07T1800,29,67,0.4,22,8,79,83,59,颗粒物(PM10)
平凉市,聚贤嘉苑,106.6633,35.5338,2026-01-07T1800,18,34,0.5,7,11,93,88,34,
平凉市,博物馆,106.7021,35.5307,2026-01-07T1800,19,31,0.6,9,10,92,80,31,
萍乡市,中医院,113.8384,27.6436,2026-01-07T1800,39,68,1.1,35,6,91,110,59,颗粒物(PM10)
萍乡市,市环保局,113.8677,27.6438,2026-01-07T1800,33,44,1.0,,14,123,122,,
萍乡市,安源区政府,113.8663,27.6202,2026-01-07T1800,47,,1.1,20,10,103,94,65,细颗粒物(PM2.5)
萍乡市,联洪村委会,113.8686,27.6668,2026-01-07T1800,42,57,,,,,82,,
莆田市,荔城区仓后路,119.0142,25.4324,2026-01-07T1800,31,54,/,24,/,92,95,52,颗粒物(PM10)
莆田市,莆田市监测站,119.0016,25.4553,2026-01-07T1800,34,56,0.6,22,4,91,99,53,颗粒物(PM10)
莆田市,涵江区六中,119.112,25.4561,2026-01-07T1800,34,59,0.7,,/,95,97,,
莆田市,秀屿区政府,119.1014,25.3215,2026-01-07T1800,26,34,0.6,11,4,103,102,38,
濮阳市,环保局,115.0312,35.7636,2026-01-07T1800,16,45,0.6,40,10,60,64,45,
濮阳市,濮水河管理处,115,35.7667,2026-01-07T1800,12,59,0.6,24,9,52,63,55,颗粒物(PM10)
濮阳市,中原东路68号,115.0552,35.7816,2026-01-07T1800,29,73,0.5,30,9,64,67,62,颗粒物(PM10)
濮阳市,任丘路479号,115.0923632,35.76857718,2026-01-07T1800,28,60,0.5,31,8,56,60,55,颗粒物(PM10)
普洱市,市环保局,100.9801,22.7634,2026-01-07T1800,15,35,0.4,6,4,44,59,35,
普洱市,普洱第二中学,100.9763,22.8237,2026-01-07T1800,22,28,0.5,7,4,51,60,32,
七台河市,中波台,131.0413,45.7795,2026-01-07T1800,,,,,,,52,,
七台河市,人民广场,131.0136,45.7688,2026-01-07T1800,29,39,0.5,20,7,48,49,42,
七台河市,新建矿广场,130.8639,45.8144,2026-01-07T1800,29,39,0.2,14,8,47,47,42,
齐齐哈尔市,安居小区,123.9307,47.3641,2026-01-07T1800,26,31,0.6,27,7,33,52,38,
齐齐哈尔市,中心广场,123.9497,47.3389,2026-01-07T1800,12,23,0.8,21,6,38,53,23,
齐齐哈尔市,农牧车辆厂,123.9483,47.3229,2026-01-07T1800,8,22,0.4,13,3,41,52,22,
齐齐哈尔市,市环境监测站,123.9442,47.2994,2026-01-07T1800,10,29,0.6,21,7,41,58,29,
齐齐哈尔市,富区青少年活动中心,123.6341,47.2079,2026-01-07T1800,31,55,0.7,33,7,30,53,53,颗粒物(PM10)
黔东南苗族侗族自治州,市环境监测站,107.9765,26.5724,2026-01-07T1800,24,28,0.5,14,2,68,56,35,
黔东南苗族侗族自治州,凯里学院,107.8909,26.531,2026-01-07T1800,25,34,0.4,18,4,66,57,36,
黔南布依族苗族自治州,小围寨,107.5223,26.2371,2026-01-07T1800,27,34,0.8,7,7,70,61,39,
黔南布依族苗族自治州,沙坝,107.5175,26.2977,2026-01-07T1800,36,36,0.8,14,6,68,64,52,细颗粒物(PM2.5)
黔西南布依族苗族自治州,场坝街,104.9022,25.0943,2026-01-07T1800,64,70,0.8,17,9,60,62,87,细颗粒物(PM2.5)
黔西南布依族苗族自治州,坪东大道,104.8812,25.0994,2026-01-07T1800,62,,0.9,21,10,63,61,84,细颗粒物(PM2.5)
钦州市,市环保站,108.6238,21.9667,2026-01-07T1800,27,58,0.6,18,4,107,98,54,颗粒物(PM10)
钦州市,沙埠小学,108.655,21.9481,2026-01-07T1800,32,76,0.7,25,6,107,98,63,颗粒物(PM10)
钦州市,港区一小,108.5989,21.7435,2026-01-07T1800,29,58,0.6,16,7,105,94,54,颗粒物(PM10)
钦州市,北职校,108.5959,21.9634,2026-01-07T1800,29,38,0.7,13,9,107,97,42,
秦皇岛市,建设大厦,119.5247,39.9346,2026-01-07T1800,28,37,0.4,32,5,41,64,40,
秦皇岛市,文明里,119.5979,39.938,2026-01-07T1800,21,27,0.3,25,9,44,62,30,
秦皇岛市,南园路157号,119.7458,39.9952,2026-01-07T1800,36,63,,36,,46,71,,
秦皇岛市,翠岛大街1号,119.5131,39.8858,2026-01-07T1800,11,56,0.4,27,9,43,64,53,颗粒物(PM10)
秦皇岛市,北戴河轮滑馆,119.509013,39.825305,2026-01-07T1800,19,34,0.4,19,5,54,69,34,
青岛市,市南区东部子站,120.404,36.0625,2026-01-07T1800,14,36,0.4,18,8,66,63,36,
青岛市,四方区子站,120.362344,36.10282,2026-01-07T1800,12,61,0.4,13,3,72,68,56,颗粒物(PM10)
青岛市,市南区西部子站,120.294373,36.054183,2026-01-07T1800,15,36,0.3,16,3,73,62,36,
青岛市,崂山区子站,120.4581,36.0858,2026-01-07T1800,9,31,0.5,25,10,65,66,31,
青岛市,城阳区子站,120.3945,36.3083,2026-01-07T1800,17,46,0.7,25,10,60,70,46,
青岛市,市北区南部,120.3454,36.0735,2026-01-07T1800,9,55,0.4,22,5,56,53,53,颗粒物(PM10)
青岛市,李沧区北部,120.3897,36.18,2026-01-07T1800,17,44,0.6,26,8,56,59,44,
青岛市,盟旺路653号,120.5222,36.4089,2026-01-07T1800,9,34,0.4,27,5,59,70,34,
青岛市,珠江路669号,120.196923,35.954556,2026-01-07T1800,22,53,0.6,45,10,45,63,52,颗粒物(PM10)
青岛市,黄岛区人民政府广场,120.0424,35.8656,2026-01-07T1800,22,66,0.7,30,6,64,76,58,颗粒物(PM10)
清远市,凤城街办,113.0218,23.7086,2026-01-07T1800,19,24,/,18,/,96,98,30,
清远市,技师学院,113.0479,23.6343,2026-01-07T1800,16,30,0.4,24,5,86,92,30,
清远市,清新太和,112.9898,23.7403,2026-01-07T1800,20,28,0.4,9,6,112,108,35,
清远市,清城东城,113.076,23.72,2026-01-07T1800,18,25,/,17,/,99,98,31,
庆阳市,庆阳五中,107.6325,35.7357,2026-01-07T1800,13,30,0.4,9,4,92,88,30,
庆阳市,市环保局,107.6361,35.7067,2026-01-07T1800,11,32,0.4,9,1,89,86,32,
曲靖市,环境监测站,103.7897,25.5036,2026-01-07T1800,29,58,,24,2,36,44,,
曲靖市,烟厂办公区,103.8013,25.5357,2026-01-07T1800,30,51,0.7,20,3,38,43,51,颗粒物(PM10)
曲靖市,南苑二区,103.7926,25.4651,2026-01-07T1800,32,50,0.7,18,4,39,48,50,
曲靖市,曲靖师范学院,103.7442,25.5259,2026-01-07T1800,36,44,0.5,15,2,43,47,52,细颗粒物(PM2.5)
衢州市,环保大楼,118.8694,28.94,2026-01-07T1800,31,46,/,27,/,80,92,46,
衢州市,衢州学院,118.8622,28.9809,2026-01-07T1800,28,43,0.5,26,7,80,87,43,
衢州市,衢州三中,118.9646,28.9832,2026-01-07T1800,29,43,0.7,28,8,79,89,43,
泉州市,涂山街,118.5818,24.9116,2026-01-07T1800,32,50,0.5,18,3,95,97,50,
泉州市,津头埔,118.597,24.8976,2026-01-07T1800,31,48,0.6,24,5,93,98,48,
泉州市,万安,118.6669,24.9422,2026-01-07T1800,27,51,0.6,15,3,93,95,51,颗粒物(PM10)
泉州市,霞新路6号,118.6355,24.9148,2026-01-07T1800,27,33,0.2,25,/,95,100,39,
日喀则市,日喀则监测站,88.8873,29.2723,2026-01-07T1800,6,8,0.4,2,7,,65,,
日喀则市,林业技术推广中心,88.8775,29.2425,2026-01-07T1800,3,12,0.2,2,11,92,81,29,
日照市,监测站,119.4711,35.421,2026-01-07T1800,16,46,0.6,22,7,64,70,46,
日照市,市政府广场,119.523,35.4216,2026-01-07T1800,16,31,0.3,23,9,70,71,31,
日照市,港务局,119.5511,35.4113,2026-01-07T1800,19,39,0.5,21,8,68,71,39,
日照市,职业技术学院,119.5326,35.4627,2026-01-07T1800,19,39,0.6,20,8,71,75,39,
日照市,岚山环保分局,119.3267,35.1043,2026-01-07T1800,43,90,1.1,53,16,36,55,70,颗粒物(PM10)
三门峡市,市政府,111.1922,34.7752,2026-01-07T1800,24,54,0.4,16,8,80,83,52,颗粒物(PM10)
三门峡市,开发区,111.1588,34.794,2026-01-07T1800,21,53,0.3,13,6,79,68,52,颗粒物(PM10)
三门峡市,三门峡市第一小学,111.1911,34.7829,2026-01-07T1800,23,71,0.3,16,6,76,74,61,颗粒物(PM10)
三门峡市,富达温泉假日酒店,111.1031,34.719,2026-01-07T1800,30,65,0.5,24,5,71,73,58,颗粒物(PM10)
三明市,三钢,117.621,26.2626,2026-01-07T1800,31,37,0.5,18,5,85,86,45,
三明市,三明二中,117.6352,26.2714,2026-01-07T1800,19,22,0.7,13,5,85,80,28,
三明市,三元区政府,117.6028,26.2377,2026-01-07T1800,29,40,0.7,18,5,86,81,42,
三亚市,河西子站,109.4962,18.2682,2026-01-07T1800,23,45,0.7,10,5,117,109,45,
三亚市,君悦子站,109.7348,18.3443,2026-01-07T1800,27,65,0.6,9,6,101,95,58,颗粒物(PM10)
三亚市,城东小学站,109.1714,18.3739,2026-01-07T1800,32,40,/,9,/,109,97,46,
山南市,山南监测站,91.7592,29.234,2026-01-07T1800,13,14,0.3,4,5,96,77,30,
山南市,山南人民医院,91.7701,29.2436,2026-01-07T1800,6,14,0.3,4,7,88,74,28,
汕头市,金平子站,116.6795,23.3666,2026-01-07T1800,28,39,0.7,13,6,116,100,40,
汕头市,龙湖子站,116.7248,23.3632,2026-01-07T1800,25,41,/,13,11,111,97,41,
汕头市,濠江子站,116.7257,23.2774,2026-01-07T1800,32,43,/,16,9,108,95,46,
汕头市,澄海子站,116.7518,23.4712,2026-01-07T1800,29,48,0.5,,7,106,98,,
汕头市,潮阳子站,116.6088,23.2539,2026-01-07T1800,25,49,0.4,16,8,112,102,49,
汕头市,潮南峡山,116.4539,23.2684,2026-01-07T1800,31,46,0.6,16,10,111,110,46,
汕头市,潮南子站,116.4069,23.2533,2026-01-07T1800,31,62,/,19,8,103,100,56,颗粒物(PM10)
汕尾市,市环保局,115.3653,22.7751,2026-01-07T1800,26,38,0.5,13,7,106,93,38,
汕尾市,新城中学,115.362,22.7926,2026-01-07T1800,26,41,0.6,16,6,102,96,41,
商洛市,监测站,109.9155,33.8714,2026-01-07T1800,13,22,0.2,13,4,90,89,29,
商洛市,商州区中学,109.9647,33.8486,2026-01-07T1800,3,32,0.4,12,5,94,91,32,
商丘市,环境监测站,115.6701,34.4283,2026-01-07T1800,37,50,0.2,28,4,66,69,53,细颗粒物(PM2.5)
商丘市,粮食局,115.6458,34.4047,2026-01-07T1800,30,51,0.3,26,6,66,67,51,颗粒物(PM10)
商丘市,梁园区档案局,115.6069,34.4465,2026-01-07T1800,34,48,0.3,24,7,62,63,49,
商丘市,北海东路185号,115.6701,34.3767,2026-01-07T1800,31,56,0.4,27,4,62,66,53,颗粒物(PM10)
商丘市,中山大街3号,115.6172,34.3704,2026-01-07T1800,39,63,,22,5,70,68,,
上海市,普陀,121.401,31.2382,2026-01-07T1800,48,65,0.7,60,8,53,68,67,细颗粒物(PM2.5)
上海市,十五厂,121.4774,31.2043,2026-01-07T1800,48,60,0.9,50,8,63,70,67,细颗粒物(PM2.5)
上海市,虹口,121.4673,31.3011,2026-01-07T1800,44,62,0.6,54,9,49,64,62,细颗粒物(PM2.5)
上海市,静安监测站,121.4253,31.226,2026-01-07T1800,44,63,0.5,52,8,61,71,62,细颗粒物(PM2.5)
上海市,浦东川沙,121.7029,31.1905,2026-01-07T1800,53,81,0.7,78,10,30,70,73,细颗粒物(PM2.5)
上海市,浦东新区监测站,121.5339,31.229,2026-01-07T1800,46,58,0.7,45,8,70,72,64,细颗粒物(PM2.5)
上海市,浦东张江,121.5776,31.2038,2026-01-07T1800,12,66,,36,8,73,77,,
上海市,宝山庙行,121.4242,31.3303,2026-01-07T1800,43,62,0.6,55,8,52,68,60,细颗粒物(PM2.5)
上海市,崇明上实东滩,121.8789,31.4662,2026-01-07T1800,63,91,0.5,29,8,73,73,85,细颗粒物(PM2.5)
上海市,嘉定南翔,121.316,31.2839,2026-01-07T1800,42,57,0.6,55,5,45,66,59,细颗粒物(PM2.5)
上海市,金山新城,121.3357,30.7455,2026-01-07T1800,35,39,1.0,35,8,71,80,50,
上海市,闵行浦江,121.4996,31.0741,2026-01-07T1800,48,60,0.5,62,9,47,64,67,细颗粒物(PM2.5)
上海市,青浦徐泾,121.2886,31.1663,2026-01-07T1800,44,62,0.8,61,7,41,64,62,细颗粒物(PM2.5)
上海市,松江图书馆,121.2193,31.0382,2026-01-07T1800,31,48,0.5,35,8,72,83,48,
上海市,长宁仙霞,121.3904,31.206,2026-01-07T1800,46,58,0.7,60,8,50,65,64,细颗粒物(PM2.5)
上海市,浦东惠南,121.7964,31.0507,2026-01-07T1800,53,70,0.9,79,6,35,67,73,细颗粒物(PM2.5)
上海市,奉贤南桥新城,121.4891,30.925,2026-01-07T1800,35,43,0.8,38,9,73,81,50,
上海市,冠生园路458号,121.417401,31.16637,2026-01-07T1800,45,58,0.6,55,6,57,67,63,细颗粒物(PM2.5)
上海市,宁武路151号,121.541914,31.268301,2026-01-07T1800,47,61,0.6,43,7,66,71,65,细颗粒物(PM2.5)
上饶市,市监测站,117.9758,28.4439,2026-01-07T1800,21,42,/,20,13,92,96,42,
上饶市,凤凰光学,117.9521,28.4637,2026-01-07T1800,23,44,0.8,21,15,86,86,44,
上饶市,双创科技城,117.897,28.4316,2026-01-07T1800,33,41,0.6,28,10,87,86,48,
上饶市,裕丰大道,118.190438,28.444845,2026-01-07T1800,27,48,0.7,25,30,90,94,48,
韶关市,市八中,113.5821,24.7733,2026-01-07T1800,21,29,0.5,21,8,80,84,30,
韶关市,园林处,113.5916,24.7973,2026-01-07T1800,24,,/,17,,96,92,,
韶关市,曲江监测站,113.5971,24.6864,2026-01-07T1800,23,28,0.3,14,10,89,84,33,
韶关市,大学路288号,113.6668,24.7756,2026-01-07T1800,20,37,/,13,6,84,87,37,
韶关市,碧湖山庄,113.5556,24.8082,2026-01-07T1800,25,33,0.4,14,8,95,88,36,
邵阳市,市化工厂,111.5277,27.2442,2026-01-07T1800,34,40,0.9,24,14,95,77,49,
邵阳市,市环保局,111.4327,27.2276,2026-01-07T1800,35,50,0.9,18,7,93,85,50,
邵阳市,北塔二期4-26地块,111.446,27.2472,2026-01-07T1800,38,55,1.0,41,7,71,74,54,细颗粒物(PM2.5)
邵阳市,邵水西路287号,111.4739,27.2282,2026-01-07T1800,32,,0.6,17,9,,85,,
绍兴市,城东开发委,120.6053,29.9927,2026-01-07T1800,32,46,0.7,40,8,62,79,46,
绍兴市,树下王站,120.5482,30.0003,2026-01-07T1800,27,41,0.6,29,7,68,76,41,
绍兴市,绍兴中专,120.5685,29.936,2026-01-07T1800,31,52,0.6,48,8,47,78,51,颗粒物(PM10)
绍兴市,柯桥区政府,120.4905,30.086,2026-01-07T1800,25,34,0.4,36,6,73,81,36,
绍兴市,重华小学,120.8751,30.0249,2026-01-07T1800,38,50,0.7,43,7,61,75,54,细颗粒物(PM2.5)
绍兴市,上虞中学,120.837,30.0137,2026-01-07T1800,32,40,0.6,35,8,72,78,46,
绍兴市,柯桥妇保,120.4715,30.0414,2026-01-07T1800,25,37,0.7,38,6,59,79,37,
绍兴市,袍江中学,120.6156,30.0762,2026-01-07T1800,41,60,0.3,49,7,58,73,58,细颗粒物(PM2.5)
深圳市,通心岭子站,114.0948,22.5506,2026-01-07T1800,33,50,0.5,20,8,113,107,50,
深圳市,洪湖,114.1153,22.5713,2026-01-07T1800,35,55,0.6,36,9,101,106,53,颗粒物(PM10)
深圳市,华侨城,113.9823,22.5398,2026-01-07T1800,32,50,/,25,/,107,106,50,
深圳市,南海子站,113.9181,22.517,2026-01-07T1800,39,57,0.6,22,6,110,104,55,细颗粒物(PM2.5)
深圳市,盐田,114.2345,22.565,2026-01-07T1800,32,42,0.5,14,8,105,103,46,
深圳市,南澳,114.4911,22.5381,2026-01-07T1800,28,41,/,19,/,101,109,41,
深圳市,葵涌,114.41,22.6346,2026-01-07T1800,26,40,0.6,17,8,101,98,40,
深圳市,梅沙,114.2967,22.5978,2026-01-07T1800,25,47,/,19,/,101,105,47,
深圳市,观澜,114.0563,22.7353,2026-01-07T1800,30,57,0.4,27,7,96,104,54,颗粒物(PM10)
深圳市,莲花,114.0614,22.556,2026-01-07T1800,29,50,/,22,/,100,100,50,
深圳市,民治,114.0144,22.6163,2026-01-07T1800,32,49,/,21,/,106,105,49,
深圳市,横岗,114.1756,22.6421,2026-01-07T1800,30,49,/,25,/,112,109,49,
深圳市,坪山,114.344,22.7115,2026-01-07T1800,24,43,0.6,30,9,93,99,43,
深圳市,西乡,113.8952,22.586,2026-01-07T1800,24,43,0.6,20,6,113,111,43,
深圳市,黄阁路,114.214113,22.713717,2026-01-07T1800,28,43,0.5,16,7,106,105,43,
沈阳市,浑南东路,123.5058,41.7084,2026-01-07T1800,14,34,0.4,24,10,46,62,34,
沈阳市,新秀街,123.4238,41.6992,2026-01-07T1800,14,47,0.6,19,10,53,68,47,
沈阳市,东陵路,123.5903,41.8412,2026-01-07T1800,19,35,0.5,28,7,39,59,35,
沈阳市,陵东街,123.4267,41.8466,2026-01-07T1800,13,37,0.4,15,9,50,62,37,
沈阳市,文化路,123.4116,41.7654,2026-01-07T1800,19,44,0.6,26,20,44,60,44,
沈阳市,小河沿,123.4673,41.787,2026-01-07T1800,12,38,0.6,19,9,48,58,38,
沈阳市,太原街,123.4019,41.7978,2026-01-07T1800,24,66,0.4,37,11,32,56,58,颗粒物(PM10)
沈阳市,京沈街,123.3778,41.9233,2026-01-07T1800,20,38,0.4,19,2,51,65,38,
沈阳市,沈辽西路,123.2429,41.7341,2026-01-07T1800,16,63,0.5,27,7,45,65,57,颗粒物(PM10)
沈阳市,裕农路,123.5951,41.9085,2026-01-07T1800,16,46,0.5,28,8,41,66,46,
十堰市,滨河新村,110.78,32.6494,2026-01-07T1800,9,39,0.7,45,/,59,80,39,
十堰市,刘家沟,110.7305,32.6408,2026-01-07T1800,9,22,/,13,/,86,81,27,
十堰市,铁二处,110.8843,32.5712,2026-01-07T1800,41,67,1.1,68,8,26,61,59,颗粒物(PM10)
十堰市,郧阳区金沙路,110.8053,32.8401,2026-01-07T1800,16,25,0.5,11,7,85,80,27,
石河子市,艾青诗歌馆,86.0391,44.298,2026-01-07T1800,138,151,1.3,46,8,36,51,183,细颗粒物(PM2.5)
石河子市,南区管委会,86.047,44.2331,2026-01-07T1800,138,176,1.4,32,6,61,58,183,细颗粒物(PM2.5)
石河子市,世纪广场,86.0791,44.3018,2026-01-07T1800,147,187,1.3,39,7,44,53,196,细颗粒物(PM2.5)
石河子市,城南景苑小区,86.0126,44.2349,2026-01-07T1800,122,188,0.8,38,4,60,63,160,细颗粒物(PM2.5)
石家庄市,高新区,114.5919,38.0328,2026-01-07T1800,32,55,0.4,24,5,54,60,53,颗粒物(PM10)
石家庄市,西南高教,114.4556,38.0136,2026-01-07T1800,24,74,0.4,28,3,54,53,62,颗粒物(PM10)
石家庄市,世纪公园,114.533,38.0177,2026-01-07T1800,27,54,0.4,18,5,61,60,52,颗粒物(PM10)
石家庄市,人民会堂,114.5105,38.0489,2026-01-07T1800,22,60,0.4,15,1,63,62,55,颗粒物(PM10)
石家庄市,鹿泉一中,114.2887,38.0905,2026-01-07T1800,43,81,0.5,28,4,53,59,66,颗粒物(PM10)
石家庄市,栾城区星河路,114.6491,37.9014,2026-01-07T1800,32,46,0.4,30,5,58,71,46,
石家庄市,裕华西路63号,114.4563,38.0365,2026-01-07T1800,32,52,0.7,27,3,58,61,51,颗粒物(PM10)
石家庄市,和平路363号,114.5586,38.0581,2026-01-07T1800,,,0.4,24,3,57,62,,
石家庄市,廉州西路160号,114.8347,38.0213,2026-01-07T1800,32,71,0.3,25,3,44,65,61,颗粒物(PM10)
石家庄市,北城路41号,114.4498,38.0729,2026-01-07T1800,,,,,,,60,,
石家庄市,矿区区委大楼,114.0494,38.059,2026-01-07T1800,22,65,0.4,34,9,47,54,58,颗粒物(PM10)
石嘴山市,大武口朝阳西街,106.3668,39.0145,2026-01-07T1800,29,35,0.3,8,3,82,76,42,
石嘴山市,惠农南大街,106.7713,39.2278,2026-01-07T1800,18,97,0.5,16,9,72,76,74,颗粒物(PM10)
石嘴山市,红果子镇惠新街,106.7074,39.1332,2026-01-07T1800,15,65,0.5,13,14,72,77,58,颗粒物(PM10)
石嘴山市,妇女儿童医院,106.3495,38.9837,2026-01-07T1800,11,34,0.3,11,6,84,80,34,
石嘴山市,石大公路,106.7495,39.2068,2026-01-07T1800,20,72,0.5,10,5,78,78,61,颗粒物(PM10)
双鸭山市,双合村,131.1509,46.6936,2026-01-07T1800,66,,0.6,9,6,53,51,89,细颗粒物(PM2.5)
双鸭山市,南小市,131.1651,46.6191,2026-01-07T1800,29,29,0.5,17,4,38,42,42,
双鸭山市,环保局,131.1526,46.6554,2026-01-07T1800,15,38,0.5,24,3,42,50,38,
朔州市,平朔,112.4399,39.3521,2026-01-07T1800,36,78,0.5,18,8,54,55,64,颗粒物(PM10)
朔州市,朔唯,112.4574,39.362,2026-01-07T1800,26,71,/,17,6,54,52,61,颗粒物(PM10)
朔州市,区政府,112.426,39.3199,2026-01-07T1800,26,84,0.3,16,5,60,62,67,颗粒物(PM10)
朔州市,市环保局,112.4075,39.3277,2026-01-07T1800,30,77,/,21,4,58,61,64,颗粒物(PM10)
朔州市,市二中,112.4273,39.3682,2026-01-07T1800,33,80,/,20,6,56,59,65,颗粒物(PM10)
朔州市,一水厂,112.2938,39.5296,2026-01-07T1800,33,82,0.6,20,5,51,58,66,颗粒物(PM10)
四平市,境园,124.3744,43.1842,2026-01-07T1800,35,44,0.5,27,10,32,52,50,
四平市,植物园,124.4029,43.1411,2026-01-07T1800,10,32,0.7,14,6,42,52,32,
四平市,世纪城,124.3286,43.1726,2026-01-07T1800,39,41,0.5,24,8,39,53,55,细颗粒物(PM2.5)
松原市,江南,124.8007,45.1213,2026-01-07T1800,16,23,0.4,14,6,44,54,23,
松原市,江北,124.7967,45.1721,2026-01-07T1800,30,30,0.5,24,8,35,53,43,
苏州市,轧钢厂,120.5974,31.3247,2026-01-07T1800,37,72,0.7,34,6,62,75,61,颗粒物(PM10)
苏州市,吴中区,120.6329,31.2741,2026-01-07T1800,37,96,0.3,36,10,77,82,73,颗粒物(PM10)
苏州市,苏州新区,120.5566,31.3049,2026-01-07T1800,31,46,0.5,26,8,77,80,46,
苏州市,苏州工业园区,120.668709,31.312523,2026-01-07T1800,34,60,0.8,36,7,76,82,55,颗粒物(PM10)
苏州市,相城区,120.6408,31.3707,2026-01-07T1800,29,54,0.7,27,11,82,86,52,颗粒物(PM10)
苏州市,方洲路,120.7431,31.3188,2026-01-07T1800,34,47,0.5,34,7,68,72,49,
苏州市,木渎中学,120.4979,31.2777,2026-01-07T1800,32,49,0.7,23,7,81,90,49,
苏州市,越秀幼儿园,120.642,31.1733,2026-01-07T1800,37,52,0.7,33,7,72,82,53,细颗粒物(PM2.5)
苏州市,高铁新城,120.6502,31.4117,2026-01-07T1800,30,79,0.3,73,10,24,58,65,颗粒物(PM10)
苏州市,学森路9号,120.4282,31.3228,2026-01-07T1800,35,47,0.6,20,6,78,88,50,
宿迁市,宿迁学院,118.2924,33.933,2026-01-07T1800,54,83,0.8,30,7,59,65,74,细颗粒物(PM2.5)
宿迁市,宿迁中学,118.2321,33.9572,2026-01-07T1800,53,80,0.7,45,8,42,57,73,细颗粒物(PM2.5)
宿迁市,市供电局,118.2781,33.9658,2026-01-07T1800,49,71,0.5,31,6,54,62,68,细颗粒物(PM2.5)
宿迁市,宿豫区政府,118.3243,33.95,2026-01-07T1800,52,83,0.9,41,9,57,63,72,细颗粒物(PM2.5)
宿迁市,春华路,118.352,33.7886,2026-01-07T1800,61,72,0.7,32,7,50,55,83,细颗粒物(PM2.5)
宿州市,远航博物馆,116.9508,33.666,2026-01-07T1800,36,72,0.5,29,7,69,64,61,颗粒物(PM10)
宿州市,社会福利中心,116.9708,33.5911,2026-01-07T1800,34,71,0.6,36,10,63,61,61,颗粒物(PM10)
宿州市,皖北煤电集团,116.9647,33.6252,2026-01-07T1800,39,75,0.5,25,6,68,59,63,颗粒物(PM10)
宿州市,中兴路,116.9929,33.6412,2026-01-07T1800,34,69,0.6,29,9,61,60,60,颗粒物(PM10)
绥化市,人和东街,126.9783,46.6365,2026-01-07T1800,20,30,0.5,12,3,48,57,30,
绥化市,党政办公中心,126.964,46.6527,2026-01-07T1800,25,29,0.5,18,3,44,54,36,
随州市,市委党校,113.3587,31.7275,2026-01-07T1800,13,26,0.4,12,3,87,79,28,
随州市,市林业局,113.3745,31.6926,2026-01-07T1800,17,25,0.7,15,4,84,73,27,
随州市,市立交桥水厂,113.3984,31.7309,2026-01-07T1800,32,,0.8,17,4,78,69,46,
遂宁市,市监测站,105.5581,30.5231,2026-01-07T1800,29,68,0.5,37,6,63,42,59,颗粒物(PM10)
遂宁市,美宁食品公司,105.5917,30.4727,2026-01-07T1800,45,64,0.4,34,7,63,47,63,细颗粒物(PM2.5)
遂宁市,环岛商务中心9号楼,105.5911,30.5368,2026-01-07T1800,29,46,0.5,25,10,76,48,46,
塔城地区,东门外小游园,82.9993,46.7432,2026-01-07T1800,23,58,0.6,25,7,57,57,54,颗粒物(PM10)
塔城地区,文化广场,82.9716,46.7464,2026-01-07T1800,46,63,0.8,18,,62,56,,
台州市,黄岩环保大楼,121.2727,28.6461,2026-01-07T1800,35,53,/,50,/,49,87,52,颗粒物(PM10)
台州市,台州环保大楼,121.4188,28.6545,2026-01-07T1800,47,68,0.5,36,/,83,91,65,细颗粒物(PM2.5)
台州市,路桥田洋王,121.3768,28.5772,2026-01-07T1800,41,58,0.8,35,6,85,93,58,细颗粒物(PM2.5)
台州市,台州科技职业学院,121.25678,28.66823971,2026-01-07T1800,41,69,0.4,60,6,56,92,60,颗粒物(PM10)
太原市,尖草坪,112.5138,37.8916,2026-01-07T1800,,,0.2,9,3,80,83,,
太原市,晋源,112.4691,37.7125,2026-01-07T1800,25,60,0.3,10,2,74,72,55,颗粒物(PM10)
太原市,小店,112.5595,37.7391,2026-01-07T1800,30,67,0.3,10,4,74,75,59,颗粒物(PM10)
太原市,坞城,112.5705,37.8199,2026-01-07T1800,30,76,0.4,13,5,74,78,63,颗粒物(PM10)
太原市,南寨,112.5495,37.9853,2026-01-07T1800,25,79,0.2,5,4,77,78,65,颗粒物(PM10)
太原市,金胜,112.4702,37.7821,2026-01-07T1800,22,78,0.1,13,1,77,82,64,颗粒物(PM10)
太原市,育英中学,112.5608,37.8807,2026-01-07T1800,24,67,0.3,8,6,76,79,59,颗粒物(PM10)
太原市,西矿街336号,112.449,37.8509,2026-01-07T1800,34,89,0.5,14,3,76,82,70,颗粒物(PM10)
太原市,迎宾北路9号,112.4792,37.9393,2026-01-07T1800,33,80,0.4,,1,78,81,,
太原市,迎泽大街248号,112.551,37.8575,2026-01-07T1800,26,83,0.3,10,2,73,75,67,颗粒物(PM10)
泰安市,监测站,117.1436,36.1938,2026-01-07T1800,25,44,0.8,22,5,56,53,44,
泰安市,人口学校,117.0905,36.2002,2026-01-07T1800,30,51,0.7,31,6,55,60,51,颗粒物(PM10)
泰安市,电力学校,117.0992,36.1757,2026-01-07T1800,30,46,0.5,28,8,59,63,46,
泰安市,国网新校,117.1812,36.2273,2026-01-07T1800,14,45,0.6,16,5,68,64,45,
泰安市,交通技校,117.0315,36.2017,2026-01-07T1800,26,34,0.5,39,5,46,67,38,
泰安市,山东第一医科大学,117.083,36.13,2026-01-07T1800,8,41,0.4,30,3,57,63,41,
泰州市,公园路,119.9042,32.488,2026-01-07T1800,31,53,0.6,30,7,64,71,52,颗粒物(PM10)
泰州市,莲花,119.9189,32.4626,2026-01-07T1800,34,56,0.5,27,11,73,79,53,颗粒物(PM10)
泰州市,留学生创业园,119.8877,32.4636,2026-01-07T1800,39,58,0.4,38,11,58,73,55,细颗粒物(PM2.5)
泰州市,王营,119.8767,32.3291,2026-01-07T1800,36,63,0.5,46,9,48,69,57,颗粒物(PM10)
泰州市,姜堰区政府广场,120.1226,32.515,2026-01-07T1800,35,55,0.5,21,9,67,68,53,颗粒物(PM10)
泰州市,周山河街区,119.9186,32.4322,2026-01-07T1800,35,44,0.5,29,11,62,68,50,
唐山市,十二中,118.1707,39.6505,2026-01-07T1800,11,19,0.4,28,3,54,72,19,
唐山市,小山,118.1868,39.6219,2026-01-07T1800,10,20,0.3,13,4,56,70,20,
唐山市,冀东油田职工医院,118.4357,39.277,2026-01-07T1800,14,25,0.4,28,3,44,72,25,
唐山市,正泰大街热力站,118.0927,39.5807,2026-01-07T1800,23,35,0.4,41,4,35,66,35,
唐山市,丰润区政府,118.1561,39.8322,2026-01-07T1800,14,19,0.4,25,4,42,69,20,
唐山市,金山小学,118.436906,39.73802,2026-01-07T1800,14,30,0.4,17,4,56,73,30,
唐山市,政府服务中心,118.2449,39.6693,2026-01-07T1800,8,15,0.2,15,6,53,66,17,
唐山市,消防缸窑路中队,118.2043,39.6703,2026-01-07T1800,9,18,0.3,9,2,62,75,20,
唐山市,路南电大,118.1432,39.6203,2026-01-07T1800,17,32,0.4,17,1,46,68,32,
唐山市,光明北路515号,118.1267,39.6579,2026-01-07T1800,,,0.3,,3,59,65,,
唐山市,友谊北路34号,118.130859,39.636026,2026-01-07T1800,,,0.3,,5,44,72,,
天津市,勤俭道,117.1446,39.1659,2026-01-07T1800,8,16,0.4,28,7,52,66,17,
天津市,前进道,117.2016,39.0928,2026-01-07T1800,8,16,0.5,25,6,54,68,17,
天津市,淮河道,117.1837,39.2134,2026-01-07T1800,9,21,0.4,27,5,45,61,21,
天津市,跃进路,117.308261,39.088386,2026-01-07T1800,8,23,0.2,39,6,49,67,23,
天津市,第四大街,117.707,39.0344,2026-01-07T1800,7,20,0.2,62,8,24,56,31,
天津市,永明路,117.4573,38.8395,2026-01-07T1800,11,20,0.5,31,8,46,63,20,
天津市,汉北路,117.7641,39.1588,2026-01-07T1800,7,45,0.4,41,9,29,59,45,
天津市,河西一经路,117.7917,39.2473,2026-01-07T1800,23,54,0.6,54,6,24,60,52,颗粒物(PM10)
天津市,津沽路,117.3747,38.9845,2026-01-07T1800,8,17,0.5,30,8,48,66,17,
天津市,宾水西道,117.159,39.0844,2026-01-07T1800,8,14,0.5,19,8,55,67,18,
天津市,大理道,117.194,39.1069,2026-01-07T1800,6,16,0.4,22,8,50,64,16,
天津市,中山北路,117.2096,39.1698,2026-01-07T1800,8,20,0.4,32,5,42,58,20,
天津市,西四道,117.385,39.1483,2026-01-07T1800,8,22,0.4,39,8,44,64,22,
天津市,雍阳西道,117.0362,39.3827,2026-01-07T1800,8,20,0.5,33,6,46,60,20,
天津市,辛老路,117.0291,39.0612,2026-01-07T1800,9,20,0.4,34,7,43,64,20,
天津市,地纬路,116.9638,38.9374,2026-01-07T1800,10,22,0.2,42,9,42,56,22,
天津市,北环路,117.4065,40.0583,2026-01-07T1800,3,7,0.2,11,2,63,60,20,
天津市,建设路,117.3041,39.7167,2026-01-07T1800,8,23,0.4,18,6,56,65,23,
天津市,滨水东路,117.8201,39.3519,2026-01-07T1800,18,48,0.4,12,9,60,65,48,
天津市,光华路,117.24369,39.102911,2026-01-07T1800,8,18,0.2,28,7,51,65,18,
天水市,公园小学,105.72058,34.57859,2026-01-07T1800,36,46,0.6,27,20,89,86,52,细颗粒物(PM2.5)
天水市,麦积国土局,105.89428,34.55353,2026-01-07T1800,45,70,1.0,35,18,83,75,63,细颗粒物(PM2.5)
铁岭市,水上乐园,123.865,42.292,2026-01-07T1800,14,38,0.6,23,10,40,52,38,
铁岭市,金沙江路北,123.7158,42.2218,2026-01-07T1800,24,36,0.6,15,3,52,63,36,
铁岭市,新华街20号,123.835,42.2853,2026-01-07T1800,39,86,0.6,22,12,45,63,68,颗粒物(PM10)
通化市,光明,125.9359,41.7174,2026-01-07T1800,14,37,0.3,16,5,50,61,37,
通化市,铁路,125.9446,41.7323,2026-01-07T1800,12,40,0.0,13,5,45,54,40,
通辽市,艺术职业学校,122.253,43.6801,2026-01-07T1800,10,49,0.3,8,6,64,66,49,
通辽市,老干部活动中心,122.2584,43.6333,2026-01-07T1800,25,49,0.5,8,1,62,63,49,
通辽市,东方明珠社区,122.2923,43.6189,2026-01-07T1800,24,55,0.3,7,5,56,58,53,颗粒物(PM10)
铜川市,王益区政府,109.0696,35.0699,2026-01-07T1800,11,25,0.4,12,2,88,71,28,
铜川市,新区管委会,108.9345,34.9059,2026-01-07T1800,14,29,0.3,11,3,82,82,29,
铜川市,大唐三路,108.949652,34.870529,2026-01-07T1800,14,60,0.1,11,2,92,83,55,颗粒物(PM10)
铜陵市,市第四中学,117.8176,30.9412,2026-01-07T1800,29,54,0.4,34,10,68,74,52,颗粒物(PM10)
铜陵市,市新民污水厂,117.7806,30.9413,2026-01-07T1800,,,,,5,68,74,,
铜陵市,车站新区,117.846,30.9414,2026-01-07T1800,43,51,0.4,34,7,62,72,60,细颗粒物(PM2.5)
铜陵市,市职教基地,117.8472,30.9699,2026-01-07T1800,29,51,0.4,22,5,81,77,51,颗粒物(PM10)
铜仁市,铜仁卫校,109.1839,27.7344,2026-01-07T1800,40,65,1.3,58,2,36,57,58,颗粒物(PM10)
铜仁市,铜仁七中,109.1752,27.6945,2026-01-07T1800,39,41,0.8,29,2,57,57,55,细颗粒物(PM2.5)
吐鲁番市,市环保局,89.1905,42.9419,2026-01-07T1800,143,210,1.8,25,2,41,34,190,细颗粒物(PM2.5)
吐鲁番市,地区环保局,89.1674,42.9558,2026-01-07T1800,145,212,1.9,22,6,43,31,193,细颗粒物(PM2.5)
威海市,华夏技校,122.121,37.4231,2026-01-07T1800,3,17,0.2,11,/,72,70,23,
威海市,山大分校,122.0508,37.5236,2026-01-07T1800,3,6,/,9,/,73,71,23,
威海市,市监测站,122.1067,37.5067,2026-01-07T1800,3,22,0.2,16,4,69,76,22,
威海市,文登开发区,122.0693,37.2175,2026-01-07T1800,9,28,/,17,/,66,71,28,
威海市,临港区管委会,122.1379,37.3414,2026-01-07T1800,7,17,0.3,11,3,74,74,24,
潍坊市,环保局,119.1436,36.7022,2026-01-07T1800,9,44,0.2,21,6,60,69,44,
潍坊市,坊子邮政,119.1638,36.6524,2026-01-07T1800,19,36,0.5,24,9,60,62,36,
潍坊市,潍坊七中,119.0587,36.7209,2026-01-07T1800,20,39,0.4,28,6,57,68,39,
潍坊市,高新实验学校,119.1978,36.6871,2026-01-07T1800,6,36,0.3,24,8,61,70,36,
潍坊市,潍坊学院,119.1758,36.7139,2026-01-07T1800,12,34,0.4,24,6,66,74,34,
潍坊市,寒亭区实验一小,119.2046,36.7696,2026-01-07T1800,12,39,0.5,36,9,50,67,39,
渭南市,体育馆,109.4605,34.4927,2026-01-07T1800,15,34,0.4,30,5,78,69,34,
渭南市,高新一小,109.4257,34.5067,2026-01-07T1800,22,44,0.6,,,70,66,,
渭南市,渭花路4号,109.505065,34.492137,2026-01-07T1800,22,46,0.6,30,6,74,69,46,
温州市,瓯海,120.6342,28.0088,2026-01-07T1800,46,57,0.5,39,7,80,88,64,细颗粒物(PM2.5)
温州市,南浦,120.6747,27.9881,2026-01-07T1800,52,71,0.5,35,7,83,91,72,细颗粒物(PM2.5)
温州市,龙湾,120.76,27.9745,2026-01-07T1800,46,72,0.4,30,6,85,90,64,细颗粒物(PM2.5)
温州市,茶山,120.6985,27.9252,2026-01-07T1800,40,63,/,39,/,80,93,57,"颗粒物(PM10),细颗粒物(PM2.5)"
温州市,鹿城惠民路,120.6935,28.0114,2026-01-07T1800,30,59,0.5,31,/,90,92,55,颗粒物(PM10)
文山壮族苗族自治州,州水务局,104.2533,23.3595,2026-01-07T1800,26,36,0.5,9,5,55,57,38,
文山壮族苗族自治州,市便民服务中心,104.2319,23.3892,2026-01-07T1800,24,31,0.6,10,7,53,54,35,
乌海市,市林业局,106.8172,39.6972,2026-01-07T1800,19,71,0.4,9,2,80,84,61,颗粒物(PM10)
乌海市,中海勃湾学校,106.7907,39.6666,2026-01-07T1800,13,53,0.3,6,8,89,86,52,颗粒物(PM10)
乌海市,海北新区,106.8129,39.7274,2026-01-07T1800,8,59,0.3,7,21,80,97,55,颗粒物(PM10)
乌海市,海拉北路,106.8212,39.6741,2026-01-07T1800,22,49,0.4,6,12,72,70,49,
乌兰察布市,集宁新区,113.1306,40.9924,2026-01-07T1800,34,48,0.5,24,6,55,70,49,
乌兰察布市,光明街小学,113.1076,41.0385,2026-01-07T1800,19,44,0.4,19,2,58,71,44,
乌兰察布市,北京八中,113.1383,40.9513,2026-01-07T1800,31,76,0.6,24,4,44,56,63,颗粒物(PM10)
乌兰察布市,市委党校,113.1776,40.9779,2026-01-07T1800,19,67,0.5,27,5,54,60,59,颗粒物(PM10)
乌鲁木齐市,监测站,87.5796,43.8299,2026-01-07T1800,97,166,1.5,66,4,27,18,128,细颗粒物(PM2.5)
乌鲁木齐市,收费所,87.6044,43.7679,2026-01-07T1800,91,,0.4,11,7,76,36,120,细颗粒物(PM2.5)
乌鲁木齐市,铁路局,87.5529,43.8704,2026-01-07T1800,165,198,1.6,76,2,24,26,215,细颗粒物(PM2.5)
乌鲁木齐市,三十一中学,87.6408,43.8258,2026-01-07T1800,122,,0.8,42,7,54,37,160,细颗粒物(PM2.5)
乌鲁木齐市,米东区环保局,87.7218,44.1747,2026-01-07T1800,193,236,1.5,50,8,56,40,243,细颗粒物(PM2.5)
乌鲁木齐市,培训基地,87.4652,43.4569,2026-01-07T1800,16,17,0.5,9,5,85,81,27,
乌鲁木齐市,达坂城区环保局,88.3088,43.3637,2026-01-07T1800,,,0.6,24,11,,70,,
乌鲁木齐市,红光山片区,87.6132,43.8791,2026-01-07T1800,182,201,1.6,74,9,22,28,232,细颗粒物(PM2.5)
乌鲁木齐市,新师大温泉校区,87.7008,43.8003,2026-01-07T1800,68,92,0.6,23,6,84,58,92,细颗粒物(PM2.5)
乌鲁木齐市,大绿谷,87.4892,43.84,2026-01-07T1800,132,171,1.3,56,3,35,24,175,细颗粒物(PM2.5)
无锡市,雪浪,120.2693,31.4864,2026-01-07T1800,34,53,0.8,23,9,69,77,52,颗粒物(PM10)
无锡市,黄巷,120.2761,31.621,2026-01-07T1800,46,59,0.7,52,11,40,60,64,细颗粒物(PM2.5)
无锡市,漆塘,120.2422,31.5037,2026-01-07T1800,36,67,0.1,22,10,65,75,59,颗粒物(PM10)
无锡市,东亭,120.3489,31.5865,2026-01-07T1800,39,51,0.5,34,11,56,68,55,细颗粒物(PM2.5)
无锡市,旺庄,120.3538,31.5474,2026-01-07T1800,34,64,0.8,40,7,58,70,57,颗粒物(PM10)
无锡市,荣巷,120.2447,31.5633,2026-01-07T1800,39,56,0.8,32,10,56,68,55,细颗粒物(PM2.5)
无锡市,堰桥,120.2986,31.6816,2026-01-07T1800,19,41,0.6,53,11,35,65,41,
无锡市,清舒道1号,120.3138,31.4927,2026-01-07T1800,30,49,0.8,23,6,64,75,49,
无锡市,健康路105号,120.2925,31.5685,2026-01-07T1800,46,71,0.7,54,10,39,63,64,细颗粒物(PM2.5)
吴忠市,教育园区,106.1535,37.9648,2026-01-07T1800,17,86,0.2,4,5,77,75,68,颗粒物(PM10)
吴忠市,新区二泵站,106.1851,37.9957,2026-01-07T1800,16,66,0.2,7,4,79,78,58,颗粒物(PM10)
吴忠市,文卫南街,106.2176,37.9832,2026-01-07T1800,20,60,0.3,8,6,77,75,55,颗粒物(PM10)
芜湖市,监测站,118.3603,31.3515,2026-01-07T1800,18,62,0.3,35,10,62,64,56,颗粒物(PM10)
芜湖市,科创中心,118.3716,31.4135,2026-01-07T1800,22,43,0.3,41,9,62,70,43,
芜湖市,四水厂,118.3671,31.3132,2026-01-07T1800,13,30,0.4,29,9,70,72,30,
芜湖市,市气象局,118.4209,31.3704,2026-01-07T1800,19,40,0.6,32,7,64,70,40,
芜湖市,清苑社区,118.4783,31.3226,2026-01-07T1800,21,51,0.6,39,9,61,74,51,颗粒物(PM10)
芜湖市,扬子职业技术学院,118.2746,31.2326,2026-01-07T1800,13,39,0.4,20,9,81,80,39,
芜湖市,湾沚区人民法院,118.5726,31.1371,2026-01-07T1800,20,38,0.6,25,8,69,80,38,
梧州市,市十一中,111.3126,23.4772,2026-01-07T1800,48,,0.1,4,,92,92,,
梧州市,龙新,111.26,23.4794,2026-01-07T1800,17,36,0.1,5,5,90,92,36,
梧州市,政贤路18号,111.2416,23.4155,2026-01-07T1800,15,29,0.2,9,6,92,84,29,
五家渠市,农水大厦,87.5352,44.1606,2026-01-07T1800,180,208,1.6,26,7,50,39,230,细颗粒物(PM2.5)
五家渠市,经开区管委会,87.5461,44.1909,2026-01-07T1800,187,231,1.6,34,5,60,42,237,细颗粒物(PM2.5)
五家渠市,建设西街760号,87.055284,43.999117,2026-01-07T1800,149,168,1.5,29,2,62,59,199,细颗粒物(PM2.5)
武汉市,东湖梨园,114.3676,30.5584,2026-01-07T1800,24,32,0.5,15,6,83,69,35,
武汉市,汉阳月湖,114.2527,30.5578,2026-01-07T1800,24,25,0.7,15,5,82,74,35,
武汉市,汉口花桥,114.2819,30.6189,2026-01-07T1800,39,,0.7,32,10,71,77,55,细颗粒物(PM2.5)
武汉市,武昌紫阳,114.3024,30.5332,2026-01-07T1800,48,,0.7,,8,86,76,,
武汉市,青山钢花,114.3646,30.6217,2026-01-07T1800,36,,0.5,28,5,81,68,52,细颗粒物(PM2.5)
武汉市,沌口新区,114.156697,30.482592,2026-01-07T1800,40,47,0.9,37,10,70,87,57,细颗粒物(PM2.5)
武汉市,汉口江滩,114.3013,30.5944,2026-01-07T1800,36,,0.4,24,7,84,76,52,细颗粒物(PM2.5)
武汉市,吴家山,114.1285,30.6339,2026-01-07T1800,29,40,0.4,30,8,82,79,42,
武汉市,民族大道182号,114.3876,30.4908,2026-01-07T1800,3,36,0.4,13,6,76,72,36,
武威市,监测站,102.6203,37.925,2026-01-07T1800,20,75,0.5,15,11,68,68,63,颗粒物(PM10)
武威市,钟楼街149号,102.6447,37.9293,2026-01-07T1800,18,71,0.4,11,8,73,72,61,颗粒物(PM10)
西安市,兴庆小区,108.9931,34.2629,2026-01-07T1800,15,31,0.7,23,1,76,66,31,
西安市,纺织城,109.0595,34.2569,2026-01-07T1800,17,64,0.3,34,1,66,58,57,颗粒物(PM10)
西安市,小寨,108.9377,34.2178,2026-01-07T1800,14,34,0.5,23,7,82,72,34,
西安市,市人民体育场,108.9522,34.2739,2026-01-07T1800,21,38,0.7,27,3,74,69,38,
西安市,高新西区,108.8923,34.2322,2026-01-07T1800,16,52,0.6,24,4,80,69,51,颗粒物(PM10)
西安市,经开区,108.9386,34.3446,2026-01-07T1800,14,32,0.4,22,3,65,61,32,
西安市,长安区,108.894,34.1557,2026-01-07T1800,18,46,0.5,32,4,69,64,46,
西安市,临潼区,109.213,34.3748,2026-01-07T1800,16,36,0.7,29,6,73,80,36,
西安市,广运潭,109.0508,34.321,2026-01-07T1800,20,37,0.4,26,2,70,63,37,
西安市,无线电监控中心,109.1019,34.5302,2026-01-07T1800,18,39,0.2,14,5,80,64,39,
西安市,行知小学,108.8869,34.2662,2026-01-07T1800,21,38,0.2,41,5,71,65,38,
西安市,西苑北路977号,108.596239,34.118792,2026-01-07T1800,34,45,0.5,16,2,89,74,49,
西安市,曲江池东路988号,108.9817,34.2035,2026-01-07T1800,15,46,0.5,16,2,88,74,46,
西宁市,城北区政府,101.7775,36.643,2026-01-07T1800,3,25,0.3,12,4,82,75,26,
西宁市,世纪职校,101.8304,36.5785,2026-01-07T1800,9,19,0.7,30,7,68,61,22,
西宁市,海晏路105号,101.6769,36.6535,2026-01-07T1800,17,39,0.4,19,2,72,63,39,
西双版纳傣族自治州,景洪市江南,100.8018,21.9995,2026-01-07T1800,10,30,0.6,5,4,58,50,30,
西双版纳傣族自治州,景洪市江北,100.7995,22.0238,2026-01-07T1800,12,25,0.6,6,3,65,59,25,
锡林郭勒盟,市环保监测站,116.1048,43.9318,2026-01-07T1800,7,14,0.3,13,3,50,60,16,
锡林郭勒盟,市政府,116.0778,43.9312,2026-01-07T1800,3,10,0.3,12,4,55,63,18,
厦门市,洪文,118.1519,24.4768,2026-01-07T1800,28,48,0.5,14,5,107,103,48,
厦门市,鼓浪屿,118.0671,24.4447,2026-01-07T1800,30,44,/,10,3,116,105,44,
厦门市,湖里中学,118.0937,24.5054,2026-01-07T1800,31,53,0.6,18,4,102,99,52,颗粒物(PM10)
厦门市,集美中学,118.0961,24.5689,2026-01-07T1800,,44,0.5,22,3,106,104,,
厦门市,同安二实小,118.1502,24.7246,2026-01-07T1800,30,46,0.5,28,5,97,98,46,
咸宁市,长江产业园,114.3379,29.8683,2026-01-07T1800,,,,26,,89,97,,
咸宁市,双鹤路18号,114.3182,29.8447,2026-01-07T1800,22,33,0.4,16,4,99,97,33,
咸宁市,碧桂路,114.284,29.8595,2026-01-07T1800,25,32,0.5,21,4,93,96,36,
咸阳市,实验中学,108.6726,34.315,2026-01-07T1800,21,39,0.3,16,5,82,68,39,
咸阳市,师范学院,108.7226,34.3622,2026-01-07T1800,17,42,0.3,18,4,84,68,42,
咸阳市,奥体中心,108.6394,34.408,2026-01-07T1800,18,55,,22,4,73,69,,
咸阳市,五陵塬路2号,108.6601,34.3767,2026-01-07T1800,22,34,0.7,28,4,74,67,34,
咸阳市,胭脂路9号,108.6372,34.3031,2026-01-07T1800,15,28,0.5,18,4,81,65,28,
湘潭市,板塘,112.9508,27.8626,2026-01-07T1800,34,42,0.4,15,1,66,65,49,
湘潭市,市监测站,112.9114,27.8404,2026-01-07T1800,38,46,0.5,28,3,84,80,54,细颗粒物(PM2.5)
湘潭市,江麓,112.8935,27.8729,2026-01-07T1800,35,51,0.9,24,6,78,81,51,颗粒物(PM10)
湘潭市,岳塘,112.9227,27.8159,2026-01-07T1800,35,48,0.7,26,3,86,76,50,
湘潭市,科大,112.9073,27.9118,2026-01-07T1800,60,,1.0,,,67,67,,
湘潭市,昭山,113.0048,27.9153,2026-01-07T1800,35,51,0.7,27,2,78,72,51,颗粒物(PM10)
湘西土家族苗族自治州,州政府,109.7298,28.3164,2026-01-07T1800,46,,0.6,20,4,55,50,64,细颗粒物(PM2.5)
湘西土家族苗族自治州,吉首市计生局,109.6957,28.2676,2026-01-07T1800,29,33,0.6,29,8,52,50,42,
襄阳市,襄城运动路,112.1555,32.0197,2026-01-07T1800,29,33,0.3,23,8,72,76,42,
襄阳市,高新管委会,112.1829,32.1146,2026-01-07T1800,19,33,0.3,29,9,60,64,33,
襄阳市,襄州航空路,112.2105,32.0903,2026-01-07T1800,22,35,0.5,25,8,66,73,35,
襄阳市,襄城隆中路,112.0764,32.0089,2026-01-07T1800,19,37,0.3,30,9,73,78,37,
襄阳市,高新台子湾,112.1154,32.103,2026-01-07T1800,17,34,0.1,30,2,62,64,34,
襄阳市,铁院东路4号,112.1433,32.0581,2026-01-07T1800,28,37,0.3,31,6,63,66,40,
孝感市,东城区,113.9062,30.9378,2026-01-07T1800,47,,0.6,16,5,89,88,65,细颗粒物(PM2.5)
孝感市,天仙南路1号,113.946,30.8999,2026-01-07T1800,46,73,0.7,17,5,96,81,64,细颗粒物(PM2.5)
忻州市,开发区,112.7313,38.457,2026-01-07T1800,37,117,0.5,16,7,65,62,84,颗粒物(PM10)
忻州市,会展中心,112.7023,38.4932,2026-01-07T1800,40,102,0.6,18,4,53,54,76,颗粒物(PM10)
忻州市,市政府,112.7279,38.4157,2026-01-07T1800,21,123,0.5,19,5,67,64,87,颗粒物(PM10)
新乡市,环保西院,113.836,35.3104,2026-01-07T1800,23,62,0.7,23,,63,68,,
新乡市,开发区,113.8847,35.2724,2026-01-07T1800,17,57,0.4,11,10,62,64,54,颗粒物(PM10)
新乡市,环保东院,113.8836,35.3028,2026-01-07T1800,36,55,0.6,25,6,60,66,53,颗粒物(PM10)
新乡市,市委党校,113.9194,35.2847,2026-01-07T1800,26,50,0.5,20,9,76,73,50,
新乡市,市政府,113.9189,35.3042,2026-01-07T1800,35,62,0.2,27,11,61,73,56,颗粒物(PM10)
新乡市,行政服务中心,113.9002,35.372,2026-01-07T1800,34,52,0.6,23,16,60,65,51,颗粒物(PM10)
新乡市,建设东路46号,113.916569,35.331547,2026-01-07T1800,35,91,0.5,27,12,54,66,71,颗粒物(PM10)
新余市,飞宇,114.9887,27.8433,2026-01-07T1800,27,40,0.6,22,15,101,98,40,
新余市,第二水厂,114.9234,27.8248,2026-01-07T1800,39,,0.6,18,12,103,91,55,细颗粒物(PM2.5)
新余市,市气象局,114.931,27.8037,2026-01-07T1800,23,32,0.5,17,10,89,79,33,
新余市,新钢沁园村,114.9148,27.8069,2026-01-07T1800,28,42,1.0,29,10,86,84,42,
信阳市,平桥分局,114.1096,32.1059,2026-01-07T1800,15,24,0.4,22,5,84,86,27,
信阳市,南湾水厂,113.9956,32.1272,2026-01-07T1800,18,26,0.2,,3,99,90,,
信阳市,市酿酒公司,114.078,32.1194,2026-01-07T1800,27,35,0.4,34,5,70,82,39,
信阳市,审计局,114.0712,32.1393,2026-01-07T1800,19,37,0.3,25,6,84,86,37,
兴安盟,洮儿河南路,122.0921,46.065,2026-01-07T1800,22,43,0.8,18,4,46,57,43,
兴安盟,科尔沁北路63号,122.0383,46.0691,2026-01-07T1800,28,30,0.4,10,6,52,62,40,
邢台市,达活泉,114.4687,37.0883,2026-01-07T1800,14,58,0.4,21,4,64,64,54,颗粒物(PM10)
邢台市,邢师高专,114.4954,37.0309,2026-01-07T1800,23,44,0.4,60,7,30,53,44,
邢台市,路桥公司,114.5281,37.0857,2026-01-07T1800,,,0.3,19,6,60,60,,
邢台市,市环保局,114.4721,37.0713,2026-01-07T1800,21,52,0.4,23,4,54,56,51,颗粒物(PM10)
邢台市,襄都区政府南院,114.5558,37.0578,2026-01-07T1800,28,68,0.5,29,7,45,57,59,颗粒物(PM10)
雄安新区,容城县环境保护局,115.8845,39.034,2026-01-07T1800,22,56,0.4,50,6,35,53,53,颗粒物(PM10)
雄安新区,河北容城中学,115.8644,39.0594,2026-01-07T1800,32,55,0.6,56,7,20,48,53,颗粒物(PM10)
雄安新区,安新县民政局,115.9234,38.9403,2026-01-07T1800,39,58,0.5,41,4,46,53,55,细颗粒物(PM2.5)
雄安新区,安新县电力局,115.9341,38.9332,2026-01-07T1800,28,48,0.4,47,5,45,59,48,
雄安新区,雄县环境保护局,116.0897,38.9816,2026-01-07T1800,36,70,0.4,48,5,42,61,60,颗粒物(PM10)
雄安新区,雄县国土资源局,116.1106,39.0048,2026-01-07T1800,,,0.7,,5,46,52,,
徐州市,新城区,117.257,34.2161,2026-01-07T1800,41,88,0.6,32,11,67,66,69,颗粒物(PM10)
徐州市,农科院,117.2933,34.2796,2026-01-07T1800,52,88,0.6,43,12,56,53,72,细颗粒物(PM2.5)
徐州市,鼓楼区政府,117.1812,34.29,2026-01-07T1800,44,,0.7,,9,67,60,,
徐州市,铜山区招生办,117.1693,34.1781,2026-01-07T1800,33,78,0.6,40,9,68,66,64,颗粒物(PM10)
徐州市,大泉街道,117.4619,34.4368,2026-01-07T1800,61,105,1.0,40,14,61,60,83,细颗粒物(PM2.5)
徐州市,纺织东路16号,117.1553,34.2567,2026-01-07T1800,44,89,0.6,30,13,63,56,70,颗粒物(PM10)
徐州市,解放南路202号,117.194237,34.229354,2026-01-07T1800,48,85,0.6,26,12,76,67,68,颗粒物(PM10)
徐州市,龙潭环路5号,117.2438,34.2844,2026-01-07T1800,51,78,0.5,41,14,59,58,70,细颗粒物(PM2.5)
许昌市,开发区,113.7904,33.9949,2026-01-07T1800,29,62,0.5,17,6,77,80,56,颗粒物(PM10)
许昌市,市一中,113.8172,34.0339,2026-01-07T1800,28,46,0.2,14,7,74,78,46,
许昌市,许昌学院,113.8611,34.0443,2026-01-07T1800,26,56,0.7,,4,72,82,,
许昌市,芙蓉广场,113.8428,34.0825,2026-01-07T1800,28,55,0.3,16,8,76,79,53,颗粒物(PM10)
许昌市,新元大道996号,113.8157285,34.126705,2026-01-07T1800,29,58,0.3,19,7,80,82,54,颗粒物(PM10)
许昌市,望田路111号,113.835877,34.0155267,2026-01-07T1800,30,50,0.4,21,7,84,84,50,
宣城市,鳌峰子站,118.7578,30.9457,2026-01-07T1800,31,51,0.4,29,6,80,90,51,颗粒物(PM10)
宣城市,敬亭山子站,118.7384,30.9745,2026-01-07T1800,28,45,0.4,17,4,90,91,45,
宣城市,开发区子站,118.7172,30.9428,2026-01-07T1800,26,42,0.5,29,8,77,89,42,
雅安市,市政府,103.011,29.9833,2026-01-07T1800,27,32,0.5,12,5,77,50,39,
雅安市,川农大,102.9907,29.9778,2026-01-07T1800,24,28,0.6,11,4,71,18,35,
雅安市,滨江西路,103.0544,30.0133,2026-01-07T1800,31,,0.5,12,8,73,55,45,
烟台市,开发区,121.2517,37.564,2026-01-07T1800,3,12,0.3,12,4,75,74,24,
烟台市,西郊化工站,121.3181,37.5436,2026-01-07T1800,3,12,0.4,10,3,72,73,23,
烟台市,莱山环保局,121.4419,37.4858,2026-01-07T1800,7,17,0.2,14,3,70,78,22,
烟台市,福山环保局,121.2619,37.4965,2026-01-07T1800,12,24,0.6,12,4,70,74,24,
烟台市,牟平检察院,121.5989,37.4016,2026-01-07T1800,16,,0.2,16,2,75,76,24,
烟台市,中国农业大学,121.5202,37.4336,2026-01-07T1800,9,14,0.5,8,4,78,77,25,
烟台市,青年南路118号,121.364239,37.529648,2026-01-07T1800,9,17,0.4,14,5,66,70,21,
延安市,延大医附院,109.4569,36.6161,2026-01-07T1800,12,56,0.4,16,8,67,60,53,颗粒物(PM10)
延安市,百米大道,109.5053,36.6105,2026-01-07T1800,9,56,0.4,11,8,80,63,53,颗粒物(PM10)
延安市,志丹路,109.485,36.6347,2026-01-07T1800,9,34,0.2,14,6,82,71,34,
延边朝鲜族自治州,妇幼医院,129.4704,42.8885,2026-01-07T1800,11,23,0.3,10,17,56,60,23,
延边朝鲜族自治州,延边医院,129.5047,42.9117,2026-01-07T1800,14,22,0.5,8,5,54,59,22,
延边朝鲜族自治州,朝阳川镇医院,129.395,42.8884,2026-01-07T1800,9,26,0.5,4,4,59,65,26,
盐城市,市监测站,120.1554,33.3941,2026-01-07T1800,40,73,0.7,34,9,47,60,62,颗粒物(PM10)
盐城市,开发区管委会,120.214332,33.37951,2026-01-07T1800,37,70,0.5,29,7,61,62,60,颗粒物(PM10)
盐城市,宝龙广场,120.1543,33.3664,2026-01-07T1800,46,66,0.6,39,8,53,66,64,细颗粒物(PM2.5)
盐城市,月亮广场,120.1518,33.3369,2026-01-07T1800,33,54,0.7,35,8,48,58,52,颗粒物(PM10)
盐城市,大丰高级中学,120.4283,33.2048,2026-01-07T1800,56,88,0.7,30,10,57,69,77,细颗粒物(PM2.5)
盐城市,黄海中路88号,120.12211,33.393982,2026-01-07T1800,41,73,0.7,34,6,55,64,62,颗粒物(PM10)
扬州市,邗江监测站,119.3895,32.377,2026-01-07T1800,28,56,0.4,33,2,65,79,53,颗粒物(PM10)
扬州市,五台山医院,119.4472,32.4156,2026-01-07T1800,31,46,0.3,28,2,72,76,46,
扬州市,广陵建设局,119.4682,32.394,2026-01-07T1800,31,45,0.3,29,4,66,76,45,
扬州市,市体育局,119.3649,32.3961,2026-01-07T1800,25,46,0.3,24,3,69,75,46,
扬州市,引江管理处,119.565282,32.422263,2026-01-07T1800,32,58,0.5,36,2,57,72,54,颗粒物(PM10)
扬州市,廖家沟步道,119.5202,32.3705,2026-01-07T1800,26,47,0.3,37,4,65,82,47,
阳江市,马南垌,111.9491,21.8658,2026-01-07T1800,33,45,0.7,21,7,108,102,48,
阳江市,两阳中学,111.9785,21.8954,2026-01-07T1800,26,52,0.5,20,/,113,106,51,颗粒物(PM10)
阳江市,阳东陶然,112.0125,21.8749,2026-01-07T1800,40,59,0.8,22,9,116,109,57,细颗粒物(PM2.5)
阳泉市,赛鱼,113.4894,37.8717,2026-01-07T1800,36,110,0.5,20,2,76,79,80,颗粒物(PM10)
阳泉市,南庄,113.582,37.8473,2026-01-07T1800,36,78,0.4,12,3,74,76,64,颗粒物(PM10)
阳泉市,平坦,113.5616,37.8706,2026-01-07T1800,18,88,0.4,13,3,80,77,69,颗粒物(PM10)
阳泉市,大阳泉,113.5115,37.8391,2026-01-07T1800,19,55,0.4,14,3,75,76,53,颗粒物(PM10)
阳泉市,龙柱,113.6169,37.8565,2026-01-07T1800,27,73,0.4,15,6,72,72,62,颗粒物(PM10)
阳泉市,宁波路,113.588,37.8712,2026-01-07T1800,25,65,0.5,13,2,77,75,58,颗粒物(PM10)
伊春市,环保局,128.8663,47.7199,2026-01-07T1800,6,17,0.5,10,1,48,54,17,
伊春市,电力嘉园,128.9014,47.732,2026-01-07T1800,31,,0.5,8,6,43,51,45,
伊春市,中心小学,128.7948,47.7291,2026-01-07T1800,45,,,8,3,51,64,,
伊春市,检察院,128.6736,47.729,2026-01-07T1800,21,,0.8,15,5,47,55,30,
伊春市,永安路4-1号,128.8325,47.8447,2026-01-07T1800,12,15,0.5,2,4,54,59,18,
伊犁哈萨克自治州,新政府片区,81.3002,43.9177,2026-01-07T1800,34,43,1.0,23,9,67,51,49,
伊犁哈萨克自治州,第二水厂,81.3364,43.9409,2026-01-07T1800,20,47,0.5,16,8,82,56,47,
