area,positionname,longitude,latitude,timepoint,pm2_5,pm10,co,no2,so2,o3,o3_8h,aqi,primarypollutant
阿坝藏族羌族自治州,马师校,102.2503,31.8896,2026-01-24T2300,25,,0.6,33,4,23,60,36,
阿坝藏族羌族自治州,马尔康中学西区,102.2174,31.9016,2026-01-24T2300,25,35,0.6,32,6,28,64,36,
阿克苏地区,电视台,80.2899,41.1684,2026-01-24T2300,83,468,0.4,10,13,41,49,360,颗粒物(PM10)
阿克苏地区,艺术中心,80.2592,41.1541,2026-01-24T2300,109,432,0.6,14,4,50,54,315,颗粒物(PM10)
阿拉善盟,蒙二幼,105.699,38.8409,2026-01-24T2300,265,1444,1.0,22,10,58,74,500,颗粒物(PM10)
阿拉善盟,环保局新楼,105.7198,38.8508,2026-01-24T2300,286,1510,1.0,25,9,52,84,500,颗粒物(PM10)
阿勒泰地区,市站,88.1266,47.8515,2026-01-24T2300,31,43,0.8,34,2,32,54,45,
阿勒泰地区,阿勒泰路33号,88.1198,47.7931,2026-01-24T2300,32,57,0.8,46,5,15,58,54,颗粒物(PM10)
阿里地区,阿里监测站,80.1171,32.4999,2026-01-24T2300,3,,0.6,7,8,147,128,46,
阿里地区,阿里藏医院,80.0906,32.5029,2026-01-24T2300,3,20,0.6,2,10,152,128,48,
安康市,汉滨区检察院,109.0088,32.6974,2026-01-24T2300,74,105,1.3,53,6,6,23,99,细颗粒物(PM2.5)
安康市,市邮政管理局,109.0324,32.6913,2026-01-24T2300,72,103,1.3,48,6,4,26,97,细颗粒物(PM2.5)
安庆市,环科院,117.0806,30.5181,2026-01-24T2300,75,105,0.9,66,7,10,66,100,细颗粒物(PM2.5)
安庆市,马山宾馆,117.0331,30.5118,2026-01-24T2300,72,105,1.1,78,7,12,75,97,细颗粒物(PM2.5)
安庆市,安庆大学,116.9897,30.6146,2026-01-24T2300,53,69,0.6,61,4,24,85,73,细颗粒物(PM2.5)
安庆市,市人大,117.0598,30.5351,2026-01-24T2300,84,124,1.0,76,7,2,76,112,细颗粒物(PM2.5)
安顺市,凤凰山,105.9408,26.2431,2026-01-24T2300,9,17,0.4,9,11,41,46,17,
安顺市,金钟山,105.9443,26.2567,2026-01-24T2300,12,22,0.6,10,9,41,44,22,
安顺市,娄家坡,105.8983,26.248,2026-01-24T2300,11,14,0.4,9,8,44,46,16,
安阳市,红庙街,114.3552,36.1017,2026-01-24T2300,222,223,1.2,57,4,40,77,272,细颗粒物(PM2.5)
安阳市,银杏小区,114.361,36.0681,2026-01-24T2300,228,231,1.1,45,4,56,81,278,细颗粒物(PM2.5)
安阳市,信访局,114.3921,36.0879,2026-01-24T2300,234,,1.1,46,5,53,87,284,细颗粒物(PM2.5)
安阳市,左辅环卫站,114.4706,36.0634,2026-01-24T2300,234,240,1.2,42,5,60,88,284,细颗粒物(PM2.5)
安阳市,钢三路198号,114.2918,36.0769,2026-01-24T2300,243,284,1.2,47,7,47,77,293,细颗粒物(PM2.5)
鞍山市,深沟寺,123.0441,41.1201,2026-01-24T2300,21,32,0.7,18,5,46,64,32,
鞍山市,太阳城,123.011,41.0931,2026-01-24T2300,18,31,0.6,20,9,46,62,31,
鞍山市,太平,123.0483,41.1445,2026-01-24T2300,26,49,0.8,28,8,37,58,49,
鞍山市,铁西三道街,122.964,41.0968,2026-01-24T2300,59,106,1.1,63,20,8,56,80,细颗粒物(PM2.5)
鞍山市,明达新区,123.0219,41.0822,2026-01-24T2300,20,35,0.7,16,9,47,67,35,
鞍山市,兴盛南路290号,122.944647,41.082639,2026-01-24T2300,60,125,1.5,67,31,5,59,88,颗粒物(PM10)
巴彦淖尔市,附二中,107.4206,40.7609,2026-01-24T2300,50,127,0.9,32,13,35,66,89,颗粒物(PM10)
巴彦淖尔市,市环保大楼,107.37,40.7372,2026-01-24T2300,51,130,0.9,30,13,46,68,90,颗粒物(PM10)
巴音郭楞蒙古自治州,孔雀公园,86.1476,41.7529,2026-01-24T2300,61,343,0.8,60,8,3,50,197,颗粒物(PM10)
巴音郭楞蒙古自治州,棉纺厂,86.1971,41.7166,2026-01-24T2300,57,412,/,56,/,5,53,289,颗粒物(PM10)
巴音郭楞蒙古自治州,经济开发区,86.236,41.7172,2026-01-24T2300,31,332,0.5,44,4,3,50,191,颗粒物(PM10)
巴中市,市五中,106.776805,31.852614,2026-01-24T2300,62,81,1.0,23,5,27,36,84,细颗粒物(PM2.5)
巴中市,圣泉水务公司,106.7419,31.8654,2026-01-24T2300,54,66,0.6,26,6,36,45,74,细颗粒物(PM2.5)
巴中市,市中心医院,106.7617,31.8343,2026-01-24T2300,67,81,1.0,29,7,30,47,90,细颗粒物(PM2.5)
白城市,洮北区环保局,122.7909,45.608,2026-01-24T2300,68,76,0.6,38,7,26,71,92,细颗粒物(PM2.5)
白城市,市环保局,122.8741,45.5725,2026-01-24T2300,38,80,0.6,61,13,13,69,65,颗粒物(PM10)
白山市,喜丰,126.4219,41.9172,2026-01-24T2300,29,51,0.8,42,16,34,67,51,颗粒物(PM10)
白山市,环保局,126.4082,41.9416,2026-01-24T2300,32,38,0.8,25,9,40,69,46,
白银市,第三小学,104.1727,36.5448,2026-01-24T2300,112,978,0.5,16,4,74,74,500,颗粒物(PM10)
白银市,动力公司,104.1467,36.5482,2026-01-24T2300,118,870,0.6,12,1,74,88,500,颗粒物(PM10)
百色市,市监测站,106.6102,23.901,2026-01-24T2300,27,40,0.8,16,11,29,42,40,
百色市,市中心血站,106.6524,23.8842,2026-01-24T2300,32,34,0.8,14,10,30,44,46,
百色市,龙景西路,106.6273,23.8798,2026-01-24T2300,36,43,0.8,18,17,26,40,52,细颗粒物(PM2.5)
蚌埠市,工人疗养院,117.396,32.9389,2026-01-24T2300,82,103,0.6,35,4,59,100,109,细颗粒物(PM2.5)
蚌埠市,百货大楼,117.3606,32.9428,2026-01-24T2300,84,103,0.6,42,5,52,96,112,细颗粒物(PM2.5)
蚌埠市,蚌埠学院,117.4183,32.8909,2026-01-24T2300,78,83,0.6,32,3,71,99,104,细颗粒物(PM2.5)
蚌埠市,淮上区政府,117.3534,32.9672,2026-01-24T2300,85,100,0.6,30,1,66,104,113,细颗粒物(PM2.5)
蚌埠市,高新区,117.3143,32.8977,2026-01-24T2300,78,97,0.6,25,6,73,98,104,细颗粒物(PM2.5)
蚌埠市,蚌埠田家炳中学,117.3091,32.9314,2026-01-24T2300,100,115,0.7,62,6,36,98,132,细颗粒物(PM2.5)
包头市,市环境监测站,109.8761,40.6533,2026-01-24T2300,54,147,1.7,86,12,0,41,99,颗粒物(PM10)
包头市,包头八中,109.9992,40.5843,2026-01-24T2300,29,141,1.1,30,27,53,49,96,颗粒物(PM10)
包头市,惠龙物流,109.8641,40.6288,2026-01-24T2300,58,129,1.7,86,20,4,48,90,颗粒物(PM10)
包头市,东河鸿龙湾,110.0376,40.5546,2026-01-24T2300,28,196,0.4,27,9,56,54,123,颗粒物(PM10)
包头市,滨河大厦,109.9154,40.5684,2026-01-24T2300,31,109,0.6,34,7,48,51,80,颗粒物(PM10)
包头市,包头市委党校,109.9449,40.6259,2026-01-24T2300,43,82,1.2,81,13,2,45,66,颗粒物(PM10)
包头市,昆区政府,109.8332,40.6577,2026-01-24T2300,45,108,1.4,85,11,3,43,79,颗粒物(PM10)
宝鸡市,竹园沟,107.0802,34.3129,2026-01-24T2300,109,,0.6,32,5,42,80,143,细颗粒物(PM2.5)
宝鸡市,监测站,107.1429,34.3549,2026-01-24T2300,122,122,0.9,43,4,37,83,160,细颗粒物(PM2.5)
宝鸡市,技工学校,107.1172,34.3759,2026-01-24T2300,118,,0.8,26,3,64,94,155,细颗粒物(PM2.5)
宝鸡市,文理学院,107.2025,34.3518,2026-01-24T2300,127,133,0.8,35,4,53,92,168,细颗粒物(PM2.5)
宝鸡市,三迪小学,107.2396,34.3626,2026-01-24T2300,135,,1.0,45,4,48,93,179,细颗粒物(PM2.5)
宝鸡市,滨河北路,107.1721,34.3558,2026-01-24T2300,104,133,0.8,26,5,53,84,137,细颗粒物(PM2.5)
宝鸡市,陈仓区北开路21号,107.3898,34.3601,2026-01-24T2300,170,,1.1,55,7,33,94,220,细颗粒物(PM2.5)
保定市,游泳馆,115.4803,38.8568,2026-01-24T2300,133,142,0.9,71,7,20,47,176,细颗粒物(PM2.5)
保定市,华电二区,115.509,38.8895,2026-01-24T2300,117,120,,64,4,10,38,153,细颗粒物(PM2.5)
保定市,接待中心,115.4588,38.9037,2026-01-24T2300,125,147,0.9,77,4,9,42,165,细颗粒物(PM2.5)
保定市,地表水厂,115.4484,38.8344,2026-01-24T2300,117,159,1.0,75,7,15,50,153,细颗粒物(PM2.5)
保定市,满城区生态环境分局,115.3136,38.9511,2026-01-24T2300,135,166,1.2,81,5,10,39,179,细颗粒物(PM2.5)
保定市,清苑区第二中学,115.4709,38.7628,2026-01-24T2300,128,182,1.0,71,9,18,46,169,细颗粒物(PM2.5)
保定市,徐水物探局,115.6231,39.0223,2026-01-24T2300,132,184,1.2,73,10,10,40,175,细颗粒物(PM2.5)
保定市,双鹰农机,115.4199,38.8665,2026-01-24T2300,127,181,1.0,74,9,19,61,168,细颗粒物(PM2.5)
保定市,植保所站,115.515,38.8589,2026-01-24T2300,119,141,0.9,67,5,18,39,156,细颗粒物(PM2.5)
保山市,市环境监测站,99.1589,25.1137,2026-01-24T2300,22,29,0.4,9,4,58,86,32,
保山市,市环保局,99.1616,25.1381,2026-01-24T2300,27,,0.5,4,3,75,88,39,
北海市,海滩公园,109.1435,21.4085,2026-01-24T2300,83,100,1.1,30,10,18,34,110,细颗粒物(PM2.5)
北海市,新市环保局,109.0983,21.466,2026-01-24T2300,68,,1.5,24,5,11,34,92,细颗粒物(PM2.5)
北海市,北海工业园,109.1775,21.5232,2026-01-24T2300,90,97,1.0,29,7,4,29,119,细颗粒物(PM2.5)
北海市,龙潭自来水厂,109.1844,21.4396,2026-01-24T2300,87,103,1.4,27,7,5,33,115,细颗粒物(PM2.5)
北京市,万寿西宫,116.3611,39.8786,2026-01-24T2300,29,56,0.7,77,2,2,47,53,颗粒物(PM10)
北京市,东四,116.4174,39.9289,2026-01-24T2300,25,53,0.7,71,5,9,37,52,颗粒物(PM10)
北京市,天坛,116.4073,39.8858,2026-01-24T2300,35,61,1.4,76,2,3,37,56,颗粒物(PM10)
北京市,农展馆,116.4622,39.9364,2026-01-24T2300,29,60,0.9,69,4,2,45,55,颗粒物(PM10)
北京市,官园,116.3399,39.9293,2026-01-24T2300,25,47,0.8,62,5,7,41,47,
北京市,海淀万柳,116.2879,39.9613,2026-01-24T2300,24,49,0.6,68,3,2,35,49,
北京市,顺义新城,116.6635,40.1349,2026-01-24T2300,20,38,0.4,25,4,46,60,38,
北京市,怀柔镇,116.6275,40.327,2026-01-24T2300,8,17,0.4,10,5,61,61,20,
北京市,昌平镇,116.2295,40.217,2026-01-24T2300,25,47,0.7,54,2,5,43,47,
北京市,奥体中心,116.3968,39.982,2026-01-24T2300,25,46,0.7,82,5,11,43,46,
北京市,密云新城,116.8336,40.4095,2026-01-24T2300,3,7,0.3,3,2,72,66,23,
北京市,门头沟三家店,116.0879,39.9725,2026-01-24T2300,28,49,0.6,49,3,2,37,49,
北京市,丰台云岗,116.1507,39.8246,2026-01-24T2300,23,42,0.6,53,3,13,38,42,
北京市,房山燕山,115.9578,39.7602,2026-01-24T2300,62,93,0.6,66,5,6,36,84,细颗粒物(PM2.5)
北京市,大兴旧宫,116.4669,39.7734,2026-01-24T2300,38,73,0.9,80,6,0,35,62,颗粒物(PM10)
北京市,延庆石河营,115.9859,40.4562,2026-01-24T2300,3,12,0.3,7,3,69,61,22,
北京市,怀柔新城,116.6151,40.3052,2026-01-24T2300,7,12,0.2,6,5,66,60,21,
北京市,丰台小屯,116.2542,39.8764,2026-01-24T2300,22,49,0.7,56,4,10,30,49,
北京市,密云镇,116.8399,40.3843,2026-01-24T2300,3,7,0.2,1,2,72,64,23,
北京市,延庆百泉,115.9423,40.4431,2026-01-24T2300,3,10,0.3,6,2,60,50,19,
北京市,通州新华,116.6598,39.9164,2026-01-24T2300,54,112,1.2,83,5,3,30,81,颗粒物(PM10)
北京市,石景山八角,116.1942,39.9158,2026-01-24T2300,17,40,0.4,45,5,26,35,40,
北京市,平谷新城,117.078628,40.151726,2026-01-24T2300,50,79,1.1,38,4,17,51,69,细颗粒物(PM2.5)
本溪市,大峪,123.8274146,41.31234549,2026-01-24T2300,39,58,1.0,54,6,14,63,55,细颗粒物(PM2.5)
本溪市,彩屯,123.7169,41.3094,2026-01-24T2300,74,118,1.0,46,8,22,60,99,细颗粒物(PM2.5)
本溪市,东明,123.7672166,41.28649327,2026-01-24T2300,68,69,1.2,65,5,11,66,92,细颗粒物(PM2.5)
本溪市,新立屯,123.799345,41.266614,2026-01-24T2300,15,31,0.7,42,8,23,61,31,
本溪市,威宁,123.829144,41.336777,2026-01-24T2300,55,100,1.5,58,5,4,52,75,"颗粒物(PM10),细颗粒物(PM2.5)"
毕节市,八中,105.287,27.3133,2026-01-24T2300,64,69,1.0,17,9,21,52,87,细颗粒物(PM2.5)
毕节市,师专,105.3079,27.2987,2026-01-24T2300,69,85,1.1,18,9,20,53,93,细颗粒物(PM2.5)
毕节市,工业大道,105.3688,27.3598,2026-01-24T2300,64,83,/,16,10,20,51,87,细颗粒物(PM2.5)
滨州市,第二水厂,117.9961,37.3604,2026-01-24T2300,75,110,1.0,51,14,25,59,100,细颗粒物(PM2.5)
滨州市,北中新校,117.9789,37.3931,2026-01-24T2300,73,97,0.9,50,11,22,65,98,细颗粒物(PM2.5)
滨州市,中海酒店,117.9379,37.3959,2026-01-24T2300,83,105,0.9,,14,39,64,110,细颗粒物(PM2.5)
滨州市,开发区一中,117.9381509,37.35547456,2026-01-24T2300,83,117,1.0,51,16,30,65,110,细颗粒物(PM2.5)
滨州市,金海六路,118.0914,37.6938,2026-01-24T2300,92,122,0.8,43,6,46,70,122,细颗粒物(PM2.5)
滨州市,滨州市西街道办事处,117.9955,37.3752,2026-01-24T2300,85,107,1.0,52,13,22,66,113,细颗粒物(PM2.5)
亳州市,污水处理厂,115.8071,33.8399,2026-01-24T2300,91,106,0.3,25,5,68,115,120,细颗粒物(PM2.5)
亳州市,三国揽胜宫,115.7789,33.8519,2026-01-24T2300,95,134,0.6,27,4,65,112,125,细颗粒物(PM2.5)
亳州市,亳州学院,115.7631,33.803,2026-01-24T2300,90,111,0.9,17,3,76,114,119,细颗粒物(PM2.5)
博尔塔拉蒙古自治州,市党校,82.0482,44.8553,2026-01-24T2300,69,135,1.0,26,3,66,72,93,"颗粒物(PM10),细颗粒物(PM2.5)"
博尔塔拉蒙古自治州,市环保局,82.0805,44.8966,2026-01-24T2300,73,139,0.7,40,4,54,62,98,细颗粒物(PM2.5)
沧州市,沧县城建局,116.8733,38.2922,2026-01-24T2300,117,154,1.3,103,14,6,70,153,细颗粒物(PM2.5)
沧州市,电视转播站,116.8462,38.3189,2026-01-24T2300,142,,1.2,99,8,1,70,189,细颗粒物(PM2.5)
沧州市,市环保局,116.8588,38.3161,2026-01-24T2300,123,149,1.2,92,14,2,64,162,细颗粒物(PM2.5)
沧州市,河北水利电力学院,116.8011,38.294,2026-01-24T2300,135,161,1.2,74,13,25,64,179,细颗粒物(PM2.5)
昌都市,昌都监测站,97.1813,31.1289,2026-01-24T2300,58,119,1.8,71,8,4,87,85,颗粒物(PM10)
昌都市,昌都会议中心,97.1707,31.1428,2026-01-24T2300,12,19,0.4,9,3,62,88,20,
昌吉回族自治州,新区政务中心,87.2722,44.0298,2026-01-24T2300,61,151,1.5,81,9,2,62,101,颗粒物(PM10)
昌吉回族自治州,亚心广场,87.3069,44.0093,2026-01-24T2300,70,144,1.3,58,8,25,64,97,颗粒物(PM10)
昌吉回族自治州,财政所,87.2057,43.9289,2026-01-24T2300,33,96,0.8,11,5,52,67,73,颗粒物(PM10)
长春市,客车厂,125.2874,43.9024,2026-01-24T2300,57,66,1.0,63,14,16,60,78,细颗粒物(PM2.5)
长春市,邮电学院,125.2943,43.8508,2026-01-24T2300,51,64,0.8,74,23,7,58,70,细颗粒物(PM2.5)
长春市,劳动公园,125.3648,43.8745,2026-01-24T2300,48,73,0.5,72,13,12,66,67,细颗粒物(PM2.5)
长春市,园林处,125.3233,43.8781,2026-01-24T2300,53,57,0.9,64,10,11,63,73,细颗粒物(PM2.5)
长春市,净月潭,125.4604,43.7904,2026-01-24T2300,49,60,0.9,25,5,44,66,68,细颗粒物(PM2.5)
长春市,经开区环卫处,125.38,43.8422,2026-01-24T2300,52,65,1.1,75,6,6,63,72,细颗粒物(PM2.5)
长春市,高新区管委会,125.234,43.7761,2026-01-24T2300,78,86,1.3,72,7,13,71,104,细颗粒物(PM2.5)
长春市,岱山公园,125.1695,43.83,2026-01-24T2300,63,79,1.0,68,9,6,68,85,细颗粒物(PM2.5)
长春市,北亚泰大街1068号,125.334645,43.916281,2026-01-24T2300,49,63,0.9,58,14,11,56,68,细颗粒物(PM2.5)
长沙市,经开区环保局,113.082,28.2421,2026-01-24T2300,57,74,1.0,40,5,36,69,78,细颗粒物(PM2.5)
长沙市,高开区环保局,112.8873,28.2202,2026-01-24T2300,42,58,0.9,20,5,52,64,59,细颗粒物(PM2.5)
长沙市,马坡岭,113.0785,28.2012,2026-01-24T2300,63,82,1.2,41,6,33,76,85,细颗粒物(PM2.5)
长沙市,湖南师范大学,112.9448,28.1894,2026-01-24T2300,35,49,1.0,25,6,50,68,50,
长沙市,雨花区环保局,113.0177,28.1322,2026-01-24T2300,51,59,1.3,39,11,39,62,70,细颗粒物(PM2.5)
长沙市,伍家岭,112.9795,28.2593,2026-01-24T2300,48,67,1.2,41,7,36,59,67,细颗粒物(PM2.5)
长沙市,火车新站,113.002,28.1944,2026-01-24T2300,56,73,1.1,56,4,29,62,77,细颗粒物(PM2.5)
长沙市,天心区环保局,112.9846,28.1177,2026-01-24T2300,48,58,1.0,42,8,43,72,67,细颗粒物(PM2.5)
长沙市,湖南中医药大学,112.8906,28.1307,2026-01-24T2300,45,72,1.0,59,6,23,67,63,细颗粒物(PM2.5)
长治市,清华站,113.1146,36.1547,2026-01-24T2300,188,,1.6,29,11,85,94,238,细颗粒物(PM2.5)
长治市,审计局,113.0887,36.2126,2026-01-24T2300,190,,1.4,,10,80,95,240,细颗粒物(PM2.5)
长治市,长治八中,113.0845,36.1856,2026-01-24T2300,200,,1.7,24,10,80,92,250,细颗粒物(PM2.5)
长治市,德盛苑,113.1561,36.1912,2026-01-24T2300,179,,1.6,27,10,83,92,229,细颗粒物(PM2.5)
长治市,向阳小学,113.0603,36.0464,2026-01-24T2300,157,181,1.8,37,14,79,89,207,细颗粒物(PM2.5)
长治市,屯留一中,112.8788,36.315,2026-01-24T2300,212,,1.9,48,12,62,85,262,细颗粒物(PM2.5)
长治市,英华南巷50号,113.113092,36.199482,2026-01-24T2300,192,,1.6,27,8,85,92,242,细颗粒物(PM2.5)
长治市,学府街1号,113.23666,36.33435,2026-01-24T2300,177,,1.6,38,9,72,86,227,细颗粒物(PM2.5)
常德市,市二中,111.696,28.9725,2026-01-24T2300,69,82,1.0,20,6,48,56,93,细颗粒物(PM2.5)
常德市,武陵区永安,111.7152,29.0288,2026-01-24T2300,62,81,0.9,24,6,53,64,84,细颗粒物(PM2.5)
常德市,鼎城区玉霞,111.6891,28.9881,2026-01-24T2300,70,71,0.7,25,7,54,63,94,细颗粒物(PM2.5)
常德市,武陵区长庚,111.6651,29.0526,2026-01-24T2300,66,77,0.7,27,5,50,61,89,细颗粒物(PM2.5)
常州市,市监测站,119.9524,31.7586,2026-01-24T2300,87,117,0.8,81,8,18,81,115,细颗粒物(PM2.5)
常州市,武进监测站,119.9351,31.703,2026-01-24T2300,80,104,0.9,78,12,23,82,107,细颗粒物(PM2.5)
常州市,行政中心,119.9701,31.813,2026-01-24T2300,86,126,0.8,69,8,31,82,114,细颗粒物(PM2.5)
常州市,经开区,120.0434,31.7726,2026-01-24T2300,88,143,0.7,79,9,15,85,117,细颗粒物(PM2.5)
常州市,钟楼,119.8919,31.7892,2026-01-24T2300,86,105,1.0,71,11,30,81,114,细颗粒物(PM2.5)
常州市,武进经发区,119.8595,31.706,2026-01-24T2300,85,108,0.9,91,9,19,82,113,细颗粒物(PM2.5)
常州市,金坛城区,119.5812,31.7256,2026-01-24T2300,96,113,1.1,72,8,27,92,127,细颗粒物(PM2.5)
常州市,崇义南街5-H号,119.9551,31.863,2026-01-24T2300,87,113,0.9,59,7,33,80,115,细颗粒物(PM2.5)
朝阳市,西梁,120.4318,41.588,2026-01-24T2300,41,67,1.0,60,12,14,62,59,颗粒物(PM10)
朝阳市,河畔小区,120.452,41.565,2026-01-24T2300,12,25,0.8,20,7,45,65,25,
朝阳市,八里堡,120.4176,41.5648,2026-01-24T2300,38,50,1.0,53,10,17,58,54,细颗粒物(PM2.5)
潮州市,市政府,116.6179,23.6608,2026-01-24T2300,38,,0.5,13,3,73,104,54,细颗粒物(PM2.5)
潮州市,金山,116.646,23.676,2026-01-24T2300,20,22,0.5,12,3,83,111,29,
郴州市,市职中,113.0116,25.8228,2026-01-24T2300,53,69,1.2,35,7,0,32,73,细颗粒物(PM2.5)
郴州市,市审计局,113.0381,25.8074,2026-01-24T2300,62,82,/,38,3,0,26,84,细颗粒物(PM2.5)
郴州市,市环保局,113.0348,25.7757,2026-01-24T2300,52,88,1.2,45,7,0,24,72,细颗粒物(PM2.5)
郴州市,好美居路49号,113.0138,25.8011,2026-01-24T2300,74,88,/,47,3,3,37,99,细颗粒物(PM2.5)
成都市,金泉两河,103.9727,30.7242,2026-01-24T2300,82,96,0.9,61,2,2,10,109,细颗粒物(PM2.5)
成都市,十里店,104.1423,30.6765,2026-01-24T2300,71,84,0.6,42,3,18,38,95,细颗粒物(PM2.5)
成都市,三瓦窑,104.0594,30.5765,2026-01-24T2300,59,79,0.7,36,3,31,44,80,细颗粒物(PM2.5)
成都市,沙河铺,104.1122,30.6306,2026-01-24T2300,67,82,0.8,44,3,25,36,90,细颗粒物(PM2.5)
成都市,大石西路,104.0219,30.6561,2026-01-24T2300,66,90,1.1,40,4,15,12,89,细颗粒物(PM2.5)
成都市,龙泉驿区区政府,104.2724,30.559,2026-01-24T2300,53,70,0.7,18,6,37,40,73,细颗粒物(PM2.5)
成都市,金博路,104.0028,30.6891,2026-01-24T2300,62,93,0.9,56,4,5,7,84,细颗粒物(PM2.5)
成都市,华阳,104.056,30.5228,2026-01-24T2300,41,53,0.6,29,2,43,46,58,细颗粒物(PM2.5)
成都市,青石路225号,104.387954,30.746684,2026-01-24T2300,77,92,0.9,50,4,3,37,103,细颗粒物(PM2.5)
成都市,科学城,104.0788,30.4054,2026-01-24T2300,55,64,0.7,20,6,31,39,75,细颗粒物(PM2.5)
成都市,光华大道三段,103.8505,30.6946,2026-01-24T2300,86,100,1.0,59,3,2,28,114,细颗粒物(PM2.5)
成都市,八角井街185号,104.3257,30.6406,2026-01-24T2300,61,91,1.0,26,3,25,38,83,细颗粒物(PM2.5)
成都市,鲸龙路1057号,104.2433276,30.53529463,2026-01-24T2300,47,61,0.6,37,5,20,48,65,细颗粒物(PM2.5)
承德市,铁路,117.9531,40.908,2026-01-24T2300,18,28,0.3,6,5,70,59,28,
承德市,中国银行,117.9397,40.9763,2026-01-24T2300,8,37,0.4,11,1,60,62,37,
承德市,杏林街1号,117.9462,40.95,2026-01-24T2300,17,19,0.4,9,4,64,68,25,
承德市,滨河大街98号,117.7994,40.9605,2026-01-24T2300,6,20,0.2,8,3,72,68,23,
池州市,池州学院,117.4698,30.6617,2026-01-24T2300,78,92,0.8,28,6,75,78,104,细颗粒物(PM2.5)
池州市,展览馆,117.4918,30.6617,2026-01-24T2300,66,84,0.9,35,3,52,76,89,细颗粒物(PM2.5)
池州市,第八中学,117.5626,30.695,2026-01-24T2300,55,88,0.8,28,5,72,78,75,细颗粒物(PM2.5)
池州市,第十二中学,117.5037,30.6242,2026-01-24T2300,66,100,1.0,44,4,53,75,89,细颗粒物(PM2.5)
赤峰市,松山一中,118.9229,42.2816,2026-01-24T2300,3,26,0.6,20,4,46,64,26,
赤峰市,哈达街,118.9588,42.2733,2026-01-24T2300,14,26,0.5,15,6,50,62,26,
赤峰市,天义路,118.8792,42.2551,2026-01-24T2300,11,18,0.6,27,5,46,68,18,
赤峰市,银河街,119.2656,42.0356,2026-01-24T2300,12,39,0.6,13,15,53,66,39,
赤峰市,桥北物流园区,118.9359,42.3146,2026-01-24T2300,7,22,0.6,30,7,40,72,22,
崇左市,市环保局江州分局,107.3473,22.4137,2026-01-24T2300,50,52,0.9,24,6,17,28,69,细颗粒物(PM2.5)
崇左市,石景林东路7号,107.375,22.3736,2026-01-24T2300,55,,0.6,23,3,18,27,75,细颗粒物(PM2.5)
滁州市,市政府原办公楼,118.31131,32.3033,2026-01-24T2300,86,114,0.8,82,7,26,75,114,细颗粒物(PM2.5)
滁州市,图书馆,118.3268,32.2633,2026-01-24T2300,77,111,1.0,87,10,12,75,103,细颗粒物(PM2.5)
滁州市,银山路666号,118.3196,32.3335,2026-01-24T2300,102,,0.7,46,4,37,81,134,细颗粒物(PM2.5)
滁州市,黄山路555号,118.3426,32.2979,2026-01-24T2300,95,126,1.1,101,16,10,87,125,细颗粒物(PM2.5)
楚雄彝族自治州,市经济开发区,101.5379,25.0492,2026-01-24T2300,24,43,0.7,44,3,22,78,43,
楚雄彝族自治州,团结路562号,101.5536,25.0343,2026-01-24T2300,16,27,0.3,6,4,68,77,27,
达州市,市环境监测站,107.5087,31.2186,2026-01-24T2300,58,80,0.8,42,6,17,30,79,细颗粒物(PM2.5)
达州市,凤凰小区,107.4988,31.2132,2026-01-24T2300,61,83,0.5,45,4,12,39,83,细颗粒物(PM2.5)
达州市,达县机关宾馆,107.5081,31.1987,2026-01-24T2300,62,102,1.1,55,4,5,30,84,细颗粒物(PM2.5)
达州市,市政中心,107.4644,31.2124,2026-01-24T2300,63,83,0.7,46,6,20,36,85,细颗粒物(PM2.5)
大理白族自治州,大理市环境监测站,100.2168,25.5818,2026-01-24T2300,21,,0.5,8,6,72,78,30,
大理白族自治州,大理古城,100.1542,25.7055,2026-01-24T2300,23,23,0.9,21,8,52,88,33,
大连市,甘井子,121.6119,38.974,2026-01-24T2300,22,35,0.2,30,10,61,77,35,
大连市,周水子,121.565,38.9509,2026-01-24T2300,27,46,0.6,52,20,30,64,46,
大连市,星海三站,121.5637,38.8849,2026-01-24T2300,37,44,0.8,39,16,25,64,53,细颗粒物(PM2.5)
大连市,青泥洼桥,121.6301,38.9117,2026-01-24T2300,24,,0.5,21,13,59,57,35,
大连市,傅家庄,121.6248,38.8643,2026-01-24T2300,19,33,0.7,24,12,52,55,33,
大连市,七贤岭,121.5117,38.8636,2026-01-24T2300,28,43,0.6,32,11,39,62,43,
大连市,金州,121.7507,39.1339,2026-01-24T2300,25,33,0.4,20,14,70,79,36,
大连市,开发区,121.7811,39.0495,2026-01-24T2300,20,31,0.1,11,4,76,70,31,
大连市,双D港,121.9762,39.0631,2026-01-24T2300,19,25,0.4,13,12,74,80,28,
大连市,旅顺,121.2548,38.8188,2026-01-24T2300,30,40,0.8,21,15,50,63,43,
大庆市,大同区,124.8085,46.0381,2026-01-24T2300,38,57,0.9,27,6,46,68,54,"颗粒物(PM10),细颗粒物(PM2.5)"
大庆市,龙凤区,125.1166,46.5255,2026-01-24T2300,22,39,0.5,32,8,44,59,39,
大庆市,红岗区,124.8894,46.4007,2026-01-24T2300,15,29,0.4,10,4,52,54,29,
大庆市,萨尔图区,125.1391,46.578,2026-01-24T2300,19,34,0.8,27,7,46,53,34,
大庆市,让胡路区,124.9026,46.6217,2026-01-24T2300,30,33,0.5,20,8,63,74,43,
大庆市,萨区政府监测点,125.127,46.6277,2026-01-24T2300,22,33,1.0,30,8,40,62,33,
大同市,云冈宾馆,113.2926,40.0759,2026-01-24T2300,14,24,0.6,14,6,61,53,24,
大同市,大同大学,113.3437,40.0921,2026-01-24T2300,3,27,0.5,12,5,71,64,27,
大同市,安家小村,113.2637,40.129,2026-01-24T2300,47,88,0.9,48,15,21,54,69,颗粒物(PM10)
大同市,大同市卫生学校,113.3399,40.0586,2026-01-24T2300,18,29,0.4,14,3,75,65,29,
大同市,云冈站,113.1371,40.1122,2026-01-24T2300,24,80,0.8,56,15,2,55,65,颗粒物(PM10)
大同市,图书馆,113.1186,40.2556,2026-01-24T2300,31,58,0.9,28,10,36,64,54,颗粒物(PM10)
大同市,区一中,113.5931,40.0459,2026-01-24T2300,18,40,1.5,13,8,64,58,40,
大同市,魏都大道141号,113.2798248,40.09972476,2026-01-24T2300,47,64,1.0,56,15,22,62,65,细颗粒物(PM2.5)
大兴安岭地区,科技局,124.1068,50.4091,2026-01-24T2300,12,16,0.2,2,4,65,66,21,
大兴安岭地区,红旗社区,124.117,50.4279,2026-01-24T2300,6,,0.3,1,5,69,68,22,
丹东市,江湾东路,124.33,40.0625,2026-01-24T2300,10,24,0.6,17,8,58,63,24,
丹东市,临江后街,124.4242,40.1513,2026-01-24T2300,10,24,0.6,10,6,60,66,24,
丹东市,元宝山,124.3935,40.1461,2026-01-24T2300,11,22,0.3,12,10,59,66,22,
丹东市,民主桥,124.3634,40.1093,2026-01-24T2300,13,27,0.6,13,9,62,64,27,
儋州市,第一中学子站,109.5726195,19.51688767,2026-01-24T2300,8,18,0.5,4,4,71,75,23,
儋州市,东坡学校子站,109.5567,19.5187,2026-01-24T2300,6,24,0.5,3,3,85,88,27,
德宏傣族景颇族自治州,德宏州监测站,98.5611,24.4273,2026-01-24T2300,61,83,0.9,38,6,24,82,83,细颗粒物(PM2.5)
德宏傣族景颇族自治州,芒市人民政府综合楼,98.5887,24.4366,2026-01-24T2300,31,74,0.8,15,4,45,79,62,颗粒物(PM10)
德阳市,东山公园,104.424,31.1209,2026-01-24T2300,74,80,0.8,17,1,18,33,99,细颗粒物(PM2.5)
德阳市,西小区,104.3827,31.1318,2026-01-24T2300,78,92,0.9,32,3,13,34,104,细颗粒物(PM2.5)
德阳市,耐火材料厂,104.3553,31.1091,2026-01-24T2300,87,102,0.9,46,1,2,23,115,细颗粒物(PM2.5)
德阳市,市林业局,104.4144,31.1495,2026-01-24T2300,87,95,0.9,32,2,12,26,115,细颗粒物(PM2.5)
德州市,儿童乐园,116.3034,37.4675,2026-01-24T2300,156,205,1.5,57,22,40,98,206,细颗粒物(PM2.5)
德州市,监理站,116.2992,37.4449,2026-01-24T2300,153,197,1.3,60,22,54,108,203,细颗粒物(PM2.5)
德州市,九衢泉纯净水厂,116.2722,37.438,2026-01-24T2300,149,193,1.5,58,19,44,98,199,细颗粒物(PM2.5)
德州市,开发区人民医院,116.3693,37.44,2026-01-24T2300,151,200,1.0,74,21,42,110,201,细颗粒物(PM2.5)
德州市,陵城艺术中心,116.5687,37.3331,2026-01-24T2300,132,175,1.2,62,30,20,76,175,细颗粒物(PM2.5)
德州市,新河东路,116.352738,37.420875,2026-01-24T2300,146,183,1.2,61,20,44,96,195,细颗粒物(PM2.5)
迪庆藏族自治州,迪庆州站,99.7054,27.8319,2026-01-24T2300,33,38,0.4,17,6,55,80,48,
迪庆藏族自治州,质量技术监督局,99.7122,27.8129,2026-01-24T2300,23,,0.4,6,4,76,83,33,
定西市,将台街,104.6092,35.5962,2026-01-24T2300,71,83,1.5,42,19,24,72,95,细颗粒物(PM2.5)
定西市,正龙路62号,104.6159,35.5701,2026-01-24T2300,43,66,0.8,18,7,39,73,60,细颗粒物(PM2.5)
东莞市,东城石井,113.7943,23.0132,2026-01-24T2300,53,89,1.0,62,6,31,125,73,细颗粒物(PM2.5)
东莞市,南城西平,113.7384,22.9659,2026-01-24T2300,52,82,0.9,69,7,39,120,72,细颗粒物(PM2.5)
东莞市,万江金泰,113.7283,23.041,2026-01-24T2300,84,150,1.6,135,7,8,111,112,细颗粒物(PM2.5)
东莞市,裕兴路,113.8666,23.1062,2026-01-24T2300,56,110,1.2,111,6,9,119,80,颗粒物(PM10)
东莞市,教育路1号,114.0076,22.9739,2026-01-24T2300,57,111,0.9,44,5,89,148,81,颗粒物(PM10)
东莞市,长怡路1号,113.7981,22.8124,2026-01-24T2300,48,87,1.0,71,6,28,115,69,颗粒物(PM10)
东营市,市环保局,118.6612,37.4313,2026-01-24T2300,68,97,0.9,34,8,52,71,92,细颗粒物(PM2.5)
东营市,开发区管委会,118.6903,37.4337,2026-01-24T2300,75,95,0.7,28,6,53,72,100,细颗粒物(PM2.5)
东营市,垦利区民丰路,118.5721,37.5654,2026-01-24T2300,95,114,0.8,38,7,38,64,125,细颗粒物(PM2.5)
东营市,河口城区,118.5063,37.8606,2026-01-24T2300,117,156,1.1,37,6,50,63,153,细颗粒物(PM2.5)
东营市,胜利站,118.4979,37.4623,2026-01-24T2300,90,99,0.9,38,7,40,65,119,细颗粒物(PM2.5)
东营市,理想之城,118.5753,37.4405,2026-01-24T2300,85,107,0.9,38,4,32,61,113,细颗粒物(PM2.5)
鄂尔多斯市,综合楼,110.0024,39.8127,2026-01-24T2300,31,139,0.6,68,17,17,63,95,颗粒物(PM10)
鄂尔多斯市,巴音孟克林场办事处,109.9485,39.8259,2026-01-24T2300,22,129,0.5,66,13,14,59,90,颗粒物(PM10)
鄂尔多斯市,康泽苑,109.7734,39.5987,2026-01-24T2300,39,92,0.6,42,13,40,66,71,颗粒物(PM10)
鄂尔多斯市,华泰汽车城,109.8121,39.5987,2026-01-24T2300,36,95,0.8,58,8,18,66,73,颗粒物(PM10)
鄂尔多斯市,奥林花园,109.9734,39.7884,2026-01-24T2300,24,102,0.6,47,16,34,63,76,颗粒物(PM10)
鄂州市,市政府,114.894,30.3989,2026-01-24T2300,58,62,0.6,21,7,58,82,79,细颗粒物(PM2.5)
鄂州市,赵家坝,114.8986,30.3714,2026-01-24T2300,60,69,0.8,12,9,62,84,82,细颗粒物(PM2.5)
鄂州市,精准医疗中心,114.8093,30.4091,2026-01-24T2300,73,,1.9,31,35,52,78,98,细颗粒物(PM2.5)
恩施土家族苗族自治州,湖北民院,109.4978,30.2979,2026-01-24T2300,96,,1.0,23,6,20,29,127,细颗粒物(PM2.5)
恩施土家族苗族自治州,龙凤新区,109.5061,30.3771,2026-01-24T2300,77,91,0.8,23,7,33,30,103,细颗粒物(PM2.5)
防城港市,沙万,108.3411,21.6159,2026-01-24T2300,46,52,0.9,18,5,26,34,64,细颗粒物(PM2.5)
防城港市,防城档案局,108.3515,21.7733,2026-01-24T2300,47,59,0.7,16,4,18,28,65,细颗粒物(PM2.5)
防城港市,大海花园,108.3506,21.6414,2026-01-24T2300,43,50,0.9,21,6,28,32,60,细颗粒物(PM2.5)
佛山市,湾梁,113.1293,23.0065,2026-01-24T2300,46,90,/,88,/,3,67,70,颗粒物(PM10)
佛山市,华材职中,113.1082,23.0477,2026-01-24T2300,74,149,1.1,94,6,4,67,100,颗粒物(PM10)
佛山市,南海气象局,113.1439,23.045,2026-01-24T2300,57,99,/,103,/,3,67,78,细颗粒物(PM2.5)
佛山市,顺德苏岗,113.2879,22.8094,2026-01-24T2300,70,84,1.3,91,/,2,80,94,细颗粒物(PM2.5)
佛山市,高明孔堂,112.8384,22.8678,2026-01-24T2300,59,73,/,44,/,25,63,80,细颗粒物(PM2.5)
佛山市,三水监测站,112.8835,23.1584,2026-01-24T2300,68,122,1.3,85,7,3,50,92,细颗粒物(PM2.5)
佛山市,三水云东海,112.8668,23.185,2026-01-24T2300,49,86,/,74,/,0,46,68,"颗粒物(PM10),细颗粒物(PM2.5)"
佛山市,容桂街道办,113.2568,22.7629,2026-01-24T2300,85,141,/,124,/,2,70,113,细颗粒物(PM2.5)
福州市,师大,119.2681,26.0506,2026-01-24T2300,19,42,0.7,31,4,55,58,42,
福州市,五四北路,119.2983,26.1028,2026-01-24T2300,16,29,0.6,20,6,66,60,29,
福州市,杨桥西路,119.2648,26.0769,2026-01-24T2300,17,25,/,19,6,62,57,25,
福州市,九龙,119.5799,26.0937,2026-01-24T2300,18,33,0.6,22,5,65,82,33,
福州市,吴航,119.5188,25.9666,2026-01-24T2300,16,26,0.4,19,6,72,79,26,
福州市,路通桥巷6号,119.3106,26.0648,2026-01-24T2300,19,26,/,18,/,64,57,28,
抚顺市,望花区,123.7974,41.8494,2026-01-24T2300,93,143,1.7,69,7,8,67,123,细颗粒物(PM2.5)
抚顺市,顺城区,123.9161,41.8827,2026-01-24T2300,102,113,1.5,68,12,7,62,134,细颗粒物(PM2.5)
抚顺市,东洲区,124.0437,41.8615,2026-01-24T2300,51,80,0.9,38,7,28,61,70,细颗粒物(PM2.5)
抚顺市,新抚区,123.9246,41.8638,2026-01-24T2300,84,106,1.2,66,6,9,63,112,细颗粒物(PM2.5)
抚顺市,大伙房水库,124.0972,41.8961,2026-01-24T2300,29,35,0.8,22,9,41,62,42,
抚顺市,沈抚新城,123.708,41.8386,2026-01-24T2300,61,93,1.2,69,10,10,64,83,细颗粒物(PM2.5)
抚州市,市站,116.3544,27.9833,2026-01-24T2300,70,98,1.0,33,10,38,63,94,细颗粒物(PM2.5)
抚州市,血防站,116.3562,27.9631,2026-01-24T2300,68,87,1.5,38,8,40,60,92,细颗粒物(PM2.5)
抚州市,采茶剧团,116.3561,28.0007,2026-01-24T2300,72,88,1.3,37,28,22,67,97,细颗粒物(PM2.5)
抚州市,医学分院,116.3854,27.9648,2026-01-24T2300,60,92,1.1,36,10,35,65,82,细颗粒物(PM2.5)
阜新市,工业园区,121.6095,41.9978,2026-01-24T2300,35,165,0.8,35,21,28,68,108,颗粒物(PM10)
阜新市,长青街,121.6567,42.0188,2026-01-24T2300,19,29,0.5,21,9,48,78,29,
阜新市,农业园区,121.6672,42.07,2026-01-24T2300,3,22,0.2,10,5,58,67,22,
阜新市,玉龙新城,121.6343,42.0455,2026-01-24T2300,14,40,0.7,32,7,33,67,40,
阜阳市,市监测站,115.8276,32.8929,2026-01-24T2300,89,117,0.7,27,5,65,87,118,细颗粒物(PM2.5)
阜阳市,开发区,115.8551,32.8606,2026-01-24T2300,91,111,0.5,31,5,58,86,120,细颗粒物(PM2.5)
阜阳市,阜阳职业技术学院,115.783962,32.889217,2026-01-24T2300,,,,,,,69,,
阜阳市,市规划展馆,115.79,32.8614,2026-01-24T2300,94,112,0.7,22,6,74,95,124,细颗粒物(PM2.5)
阜阳市,枣园社区,115.835101,32.918568,2026-01-24T2300,92,120,0.7,24,4,65,88,122,细颗粒物(PM2.5)
甘南藏族自治州,州政府,102.9097,34.9841,2026-01-24T2300,48,99,1.5,55,20,1,72,75,颗粒物(PM10)
甘南藏族自治州,甘肃民族师范学院,102.8915,34.9618,2026-01-24T2300,62,151,1.1,57,14,5,68,101,颗粒物(PM10)
甘孜藏族自治州,水桥子,101.96,30.048,2026-01-24T2300,23,36,0.6,40,7,25,72,36,
甘孜藏族自治州,州环保局,101.9534,29.9976,2026-01-24T2300,11,39,0.6,22,6,62,81,39,
赣州市,地委,114.9368,25.8663,2026-01-24T2300,57,94,1.3,47,7,8,44,78,细颗粒物(PM2.5)
赣州市,气象台,114.946,25.8483,2026-01-24T2300,42,119,1.0,65,7,2,37,85,颗粒物(PM10)
赣州市,市图书馆,114.932,25.8332,2026-01-24T2300,47,106,1.3,52,4,3,34,78,颗粒物(PM10)
赣州市,华坚鞋城,114.8905,25.8472,2026-01-24T2300,51,110,1.3,51,8,4,39,80,颗粒物(PM10)
赣州市,赣县区卫计委,115.0094,25.8614,2026-01-24T2300,47,63,0.9,58,7,0,25,65,细颗粒物(PM2.5)
固原市,监测站,106.2753,36.0057,2026-01-24T2300,45,148,0.7,18,7,60,81,99,颗粒物(PM10)
固原市,新区,106.2384,36.0189,2026-01-24T2300,45,64,0.7,13,7,65,78,63,细颗粒物(PM2.5)
广安市,市委,106.6307,30.4577,2026-01-24T2300,48,55,0.9,17,9,47,52,67,细颗粒物(PM2.5)
广安市,友谊中学,106.6266,30.4662,2026-01-24T2300,49,51,0.8,21,6,47,53,68,细颗粒物(PM2.5)
广安市,广电花园,106.6386,30.4551,2026-01-24T2300,50,82,0.8,17,5,45,48,69,细颗粒物(PM2.5)
广安市,北辰小学,106.6347,30.4868,2026-01-24T2300,49,59,1.1,16,5,52,57,68,细颗粒物(PM2.5)
广元市,老城,105.8211,32.4444,2026-01-24T2300,50,59,0.8,58,1,7,36,69,细颗粒物(PM2.5)
广元市,监测站,105.8629,32.429,2026-01-24T2300,49,70,0.9,34,6,16,40,68,细颗粒物(PM2.5)
广元市,经开区,105.8047,32.4167,2026-01-24T2300,46,61,0.9,34,2,13,42,64,细颗粒物(PM2.5)
广州市,广雅中学,113.2346,23.1423,2026-01-24T2300,53,100,1.8,98,4,1,67,75,颗粒物(PM10)
广州市,市五中,113.2611,23.105,2026-01-24T2300,37,72,/,100,9,4,90,61,颗粒物(PM10)
广州市,广东商学院,113.3477,23.0916,2026-01-24T2300,70,77,0.9,104,6,2,85,94,细颗粒物(PM2.5)
广州市,市八十六中,113.4332,23.105,2026-01-24T2300,52,79,/,100,8,2,78,72,细颗粒物(PM2.5)
广州市,番禺中学,113.3506,22.9488,2026-01-24T2300,56,124,1.2,102,3,5,84,87,颗粒物(PM10)
广州市,花都师范,113.2147,23.3918,2026-01-24T2300,51,81,1.3,92,6,3,65,70,细颗粒物(PM2.5)
广州市,市监测站,113.2599,23.1329,2026-01-24T2300,56,101,/,110,3,2,74,77,细颗粒物(PM2.5)
广州市,九龙镇镇龙,113.5618,23.3119,2026-01-24T2300,59,98,0.9,84,6,1,90,80,细颗粒物(PM2.5)
广州市,麓湖,113.2764,23.1544,2026-01-24T2300,35,49,0.9,75,8,4,62,50,
广州市,体育西,113.3209,23.1323,2026-01-24T2300,45,77,1.0,88,7,9,68,64,颗粒物(PM10)
广州市,从化街口,113.5718,23.5493,2026-01-24T2300,43,66,0.9,62,10,2,82,60,细颗粒物(PM2.5)
广州市,白云竹料,113.3463,23.369,2026-01-24T2300,66,122,1.6,78,5,7,77,89,细颗粒物(PM2.5)
广州市,白云嘉禾,113.2981,23.2365,2026-01-24T2300,44,82,/,87,6,0,79,66,颗粒物(PM10)
广州市,黄埔科学城,113.4256,23.1716,2026-01-24T2300,35,66,0.7,72,6,9,84,58,颗粒物(PM10)
广州市,番禺大学城,113.3942,23.0485,2026-01-24T2300,52,100,1.0,101,7,6,96,75,颗粒物(PM10)
广州市,南沙黄阁,113.4923,22.8169,2026-01-24T2300,72,,/,118,6,6,88,97,细颗粒物(PM2.5)
广州市,南沙街,113.534,22.7893,2026-01-24T2300,74,130,1.0,77,6,43,96,99,细颗粒物(PM2.5)
广州市,花都梯面,113.2905,23.5541,2026-01-24T2300,27,,/,40,4,1,45,,
广州市,从化良口,113.786,23.7479,2026-01-24T2300,23,28,/,14,7,56,82,33,
广州市,增城荔城,113.805,23.2614,2026-01-24T2300,45,59,0.9,59,4,13,101,63,细颗粒物(PM2.5)
贵港市,江南子站,109.604387,23.066791,2026-01-24T2300,62,63,1.0,21,4,23,24,84,细颗粒物(PM2.5)
贵港市,荷城子站,109.5669,23.1065,2026-01-24T2300,48,53,1.0,27,5,19,27,67,细颗粒物(PM2.5)
贵港市,新世纪学校,109.5886,23.1172,2026-01-24T2300,,,,,,,26,,
贵港市,中山路155-3号,109.5933,23.095,2026-01-24T2300,47,54,0.9,24,/,22,31,65,细颗粒物(PM2.5)
贵阳市,马鞍山,106.6863,26.6035,2026-01-24T2300,22,24,/,16,6,37,44,32,
贵阳市,鉴湖路,106.6241,26.6266,2026-01-24T2300,14,19,0.5,13,2,35,43,20,
贵阳市,燕子冲,106.7468,26.6344,2026-01-24T2300,31,,0.6,14,10,39,50,45,
贵阳市,碧云窝,106.6556,26.4362,2026-01-24T2300,19,29,/,10,3,42,48,29,
贵阳市,红边门,106.6963,26.6063,2026-01-24T2300,24,31,/,17,5,38,42,35,
贵阳市,新华路,106.7162383,26.56964667,2026-01-24T2300,27,36,0.6,20,7,37,46,39,
贵阳市,太慈桥,106.6742,26.542,2026-01-24T2300,19,24,/,16,5,35,46,28,
贵阳市,花果园大街66号,106.688212,26.56952,2026-01-24T2300,,14,/,15,3,29,37,,
贵阳市,漓江路57号,106.687268,26.516892,2026-01-24T2300,24,27,0.5,18,9,36,46,35,
桂林市,龙隐路小学,110.3091,25.2705,2026-01-24T2300,76,80,0.9,32,7,14,41,102,细颗粒物(PM2.5)
桂林市,八中,110.2849361,25.22909545,2026-01-24T2300,64,68,0.5,32,11,18,38,87,细颗粒物(PM2.5)
桂林市,旅游学院,110.296,25.1254,2026-01-24T2300,51,78,0.6,32,5,17,43,70,细颗粒物(PM2.5)
桂林市,环湖路276号,110.1835,25.2444,2026-01-24T2300,63,88,0.9,38,33,15,38,85,细颗粒物(PM2.5)
桂林市,信义路13号,110.2803,25.2773,2026-01-24T2300,55,75,0.9,36,27,21,42,75,细颗粒物(PM2.5)
果洛藏族自治州,玛沁县大武镇,100.2262,34.4854,2026-01-24T2300,27,96,0.8,19,13,42,90,73,颗粒物(PM10)
哈尔滨市,松北商大,126.5557,45.8109,2026-01-24T2300,62,,0.6,31,6,40,48,84,细颗粒物(PM2.5)
哈尔滨市,南岗学府路,126.6162,45.719,2026-01-24T2300,48,65,0.7,31,14,32,58,67,细颗粒物(PM2.5)
哈尔滨市,太平宏伟公园,126.6894,45.7733,2026-01-24T2300,48,49,0.7,28,20,46,61,67,细颗粒物(PM2.5)
哈尔滨市,道外承德广场,126.6361,45.7672,2026-01-24T2300,37,68,0.6,28,10,53,66,59,颗粒物(PM10)
哈尔滨市,动力和平路,126.644,45.7261,2026-01-24T2300,39,44,0.7,22,8,48,57,55,细颗粒物(PM2.5)
哈尔滨市,道里建国路,126.5933,45.7479,2026-01-24T2300,55,62,0.3,36,8,36,55,75,细颗粒物(PM2.5)
哈尔滨市,平房东轻厂,126.6127,45.6119,2026-01-24T2300,99,117,1.7,79,19,5,49,130,细颗粒物(PM2.5)
哈尔滨市,呼兰师专,126.5875,45.9827,2026-01-24T2300,115,119,1.3,56,10,14,52,150,细颗粒物(PM2.5)
哈尔滨市,省农科院,126.6299,45.6799,2026-01-24T2300,100,109,1.3,60,18,9,52,132,细颗粒物(PM2.5)
哈尔滨市,华山路1号,126.6769,45.7379,2026-01-24T2300,30,36,0.5,27,22,48,56,43,
哈尔滨市,解放大街52号,126.9717,45.5356,2026-01-24T2300,91,100,1.2,60,13,8,60,120,细颗粒物(PM2.5)
哈密市,地区监测站,93.5124,42.8176,2026-01-24T2300,36,86,0.2,24,10,34,45,68,颗粒物(PM10)
哈密市,哈密师范学校,93.5014,42.8312,2026-01-24T2300,29,94,0.7,33,7,30,48,72,颗粒物(PM10)
海北藏族自治州,海晏县西海镇,100.9016,36.9464,2026-01-24T2300,14,42,0.4,9,6,38,67,42,
海东市,平安区公安局北苑,102.074,36.5056,2026-01-24T2300,67,144,1.2,21,52,62,46,97,颗粒物(PM10)
海东市,滨河路,102.0984,36.5119,2026-01-24T2300,71,165,1.0,36,45,65,58,108,颗粒物(PM10)
海口市,海南大学,110.3189,20.0596,2026-01-24T2300,30,46,0.6,17,6,104,122,46,
海口市,秀英海南医院,110.2827,20.0051,2026-01-24T2300,21,44,0.5,17,7,96,114,44,
海口市,海南师范大学,110.3391,19.9979,2026-01-24T2300,28,47,0.6,18,6,96,117,47,
海口市,龙华路环保局宿舍,110.3303,20.0359,2026-01-24T2300,32,49,0.9,20,/,96,118,49,
海口市,桂林洋子站,110.5111,19.9737,2026-01-24T2300,28,41,/,13,/,87,115,41,
海口市,长滨二路9号,110.1952,20.0451,2026-01-24T2300,34,39,/,14,/,100,116,49,
海南藏族自治州,共和县恰卜恰镇,100.6158,36.2985,2026-01-24T2300,39,48,0.8,24,17,24,60,55,细颗粒物(PM2.5)
海西蒙古族藏族自治州,德令哈市,97.373,37.376,2026-01-24T2300,24,82,1.0,15,13,,88,,
邯郸市,矿院,114.492,36.5712,2026-01-24T2300,238,,1.2,,4,52,87,288,细颗粒物(PM2.5)
邯郸市,丛台公园,114.4839,36.6136,2026-01-24T2300,251,264,1.2,58,4,44,87,301,细颗粒物(PM2.5)
邯郸市,香泉濮院小区,114.7893,36.5592,2026-01-24T2300,218,273,1.4,53,6,45,99,268,细颗粒物(PM2.5)
邯郸市,峰峰矿区临水派出所,114.1998,36.4439,2026-01-24T2300,185,186,1.2,28,7,79,91,235,细颗粒物(PM2.5)
邯郸市,建安街268号,114.5209,36.7697,2026-01-24T2300,242,,1.4,85,4,12,50,292,细颗粒物(PM2.5)
邯郸市,丛台东路558号,114.5488,36.6177,2026-01-24T2300,270,,1.5,91,3,6,86,320,细颗粒物(PM2.5)
汉中市,市监测站,107.0155,33.0707,2026-01-24T2300,118,,1.7,51,6,11,32,155,细颗粒物(PM2.5)
汉中市,鑫源开发区,107.0083,33.114,2026-01-24T2300,94,102,1.6,52,6,7,37,124,细颗粒物(PM2.5)
汉中市,南郑大河坎水厂,107.0072,33.0323,2026-01-24T2300,104,128,1.8,50,7,3,27,137,细颗粒物(PM2.5)
杭州市,滨江,120.2073,30.2111,2026-01-24T2300,91,123,0.7,48,12,58,66,120,细颗粒物(PM2.5)
杭州市,西溪,120.0625,30.2737,2026-01-24T2300,75,98,0.8,36,12,65,75,100,细颗粒物(PM2.5)
杭州市,下沙,120.3417,30.315,2026-01-24T2300,80,112,0.9,48,12,60,83,107,细颗粒物(PM2.5)
杭州市,卧龙桥,120.1252,30.2465,2026-01-24T2300,82,103,0.7,54,8,16,69,109,细颗粒物(PM2.5)
杭州市,浙江农大,120.1902,30.2691,2026-01-24T2300,81,104,0.8,42,11,72,76,108,细颗粒物(PM2.5)
杭州市,和睦小学,120.1195,30.3121,2026-01-24T2300,86,119,0.9,46,10,57,74,114,细颗粒物(PM2.5)
杭州市,临平镇,120.3076,30.4146,2026-01-24T2300,75,107,0.8,37,8,66,72,100,细颗粒物(PM2.5)
杭州市,城厢镇,120.2753,30.1839,2026-01-24T2300,76,115,0.5,48,14,68,72,102,细颗粒物(PM2.5)
杭州市,云栖,120.0883,30.1808,2026-01-24T2300,74,112,0.7,49,6,33,63,99,细颗粒物(PM2.5)
杭州市,镇二中,119.9463,30.0496,2026-01-24T2300,103,109,1.0,59,9,40,63,135,细颗粒物(PM2.5)
杭州市,市府大楼,119.7184,30.2367,2026-01-24T2300,112,138,1.7,74,12,5,71,147,细颗粒物(PM2.5)
杭州市,消防大队,120.1554,30.2863,2026-01-24T2300,82,106,0.5,35,13,67,70,109,细颗粒物(PM2.5)
合肥市,明珠广场,117.1957,31.7845,2026-01-24T2300,83,112,1.0,45,8,46,81,110,细颗粒物(PM2.5)
合肥市,三里街,117.307,31.8765,2026-01-24T2300,73,100,1.1,65,8,34,72,98,细颗粒物(PM2.5)
合肥市,琥珀山庄,117.2587,31.8703,2026-01-24T2300,82,110,1.6,94,8,13,82,109,细颗粒物(PM2.5)
合肥市,庐阳区,117.2593,31.9376,2026-01-24T2300,73,112,1.1,87,10,21,78,98,细颗粒物(PM2.5)
合肥市,瑶海区,117.345251,31.861615,2026-01-24T2300,78,110,0.9,87,7,23,75,104,细颗粒物(PM2.5)
合肥市,包河区,117.3033,31.7967,2026-01-24T2300,90,114,1.1,82,11,30,78,119,细颗粒物(PM2.5)
合肥市,滨湖新区,117.278,31.7392,2026-01-24T2300,85,105,1.0,36,6,58,84,113,细颗粒物(PM2.5)
合肥市,高新区,117.1324,31.8395,2026-01-24T2300,81,105,1.0,51,8,56,87,108,细颗粒物(PM2.5)
合肥市,高教基地,117.3802,31.9148,2026-01-24T2300,84,102,1.1,61,8,20,79,112,细颗粒物(PM2.5)
合肥市,中国科学技术大学,117.2518,31.8404,2026-01-24T2300,75,114,1.2,55,12,44,86,100,细颗粒物(PM2.5)
和田地区,地区环保局,79.9241,37.0878,2026-01-24T2300,80,315,1.1,23,4,34,56,183,颗粒物(PM10)
和田地区,市环保局,79.9132,37.1137,2026-01-24T2300,75,267,1.3,33,5,24,52,159,颗粒物(PM10)
河池市,市环保站,108.0496,24.6957,2026-01-24T2300,48,58,0.9,14,4,45,60,67,细颗粒物(PM2.5)
河池市,上任中路54号,108.0901,24.6945,2026-01-24T2300,52,60,0.7,15,5,42,56,72,细颗粒物(PM2.5)
河源市,东埔,114.6962,23.7538,2026-01-24T2300,46,59,1.1,68,6,1,80,64,细颗粒物(PM2.5)
河源市,老城,114.6895,23.7232,2026-01-24T2300,33,37,0.9,50,6,10,82,48,
菏泽市,定陶老年大学,115.5562,35.089,2026-01-24T2300,127,153,0.8,42,5,60,107,168,细颗粒物(PM2.5)
菏泽市,黄河路600号,115.4239,35.2593,2026-01-24T2300,126,153,0.9,37,3,74,108,166,细颗粒物(PM2.5)
菏泽市,菏泽市人社局,115.5025,35.2727,2026-01-24T2300,137,167,1.0,59,10,36,98,182,细颗粒物(PM2.5)
菏泽市,永昌路1号,115.479691,35.244011,2026-01-24T2300,128,156,0.6,37,4,64,105,169,细颗粒物(PM2.5)
菏泽市,长城路999号,115.471542,35.280012,2026-01-24T2300,128,161,1.0,54,13,51,105,169,细颗粒物(PM2.5)
贺州市,环保小区,111.5264,24.4178,2026-01-24T2300,60,86,1.0,38,5,10,30,82,细颗粒物(PM2.5)
贺州市,政协大楼,111.561,24.4074,2026-01-24T2300,66,94,1.3,42,11,5,33,89,细颗粒物(PM2.5)
贺州市,西湾,111.4744,24.455,2026-01-24T2300,65,105,0.9,25,8,18,34,88,细颗粒物(PM2.5)
鹤壁市,市监测站,114.17,35.9019,2026-01-24T2300,232,249,1.6,41,6,54,80,282,细颗粒物(PM2.5)
鹤壁市,市交警支队,114.2953,35.7512,2026-01-24T2300,199,211,1.0,42,2,50,79,249,细颗粒物(PM2.5)
鹤壁市,迎宾馆,114.2877,35.7302,2026-01-24T2300,178,209,1.1,35,6,56,89,228,细颗粒物(PM2.5)
鹤壁市,大新区,114.2616,35.6824,2026-01-24T2300,195,199,1.2,23,7,62,87,245,细颗粒物(PM2.5)
鹤壁市,南山宾馆,114.1573,35.9607,2026-01-24T2300,231,262,1.5,48,8,57,81,281,细颗粒物(PM2.5)
鹤岗市,哈啤分公司,130.2537,47.3416,2026-01-24T2300,16,26,0.3,5,6,74,76,26,
鹤岗市,斯达机电,130.2683,47.3087,2026-01-24T2300,14,31,0.4,6,4,74,70,31,
鹤岗市,东山纸板厂,130.3114,47.3388,2026-01-24T2300,14,17,0.4,5,7,72,67,23,
黑河市,交通局,127.4832,50.2524,2026-01-24T2300,22,,0.2,6,4,73,77,32,
黑河市,环保局,127.5146,50.2339,2026-01-24T2300,13,14,0.3,8,4,70,72,22,
衡水市,电机北厂,115.6839,37.754,2026-01-24T2300,194,245,1.3,64,15,20,78,244,细颗粒物(PM2.5)
衡水市,市监测站,115.6303,37.7318,2026-01-24T2300,172,212,1.2,56,16,31,80,222,细颗粒物(PM2.5)
衡水市,市城管局,115.6684,37.7216,2026-01-24T2300,169,229,1.3,70,21,26,81,219,细颗粒物(PM2.5)
衡水市,地表水厂,115.599,37.5491,2026-01-24T2300,188,196,1.1,69,10,26,85,238,细颗粒物(PM2.5)
衡阳市,衡阳化工总厂,112.6209,26.9268,2026-01-24T2300,39,49,1.2,34,8,23,54,55,细颗粒物(PM2.5)
衡阳市,珠晖区环保局,112.621,26.8957,2026-01-24T2300,41,59,1.1,52,6,9,52,58,细颗粒物(PM2.5)
衡阳市,市委党校,112.628,26.8654,2026-01-24T2300,42,82,1.3,36,12,18,56,66,颗粒物(PM10)
衡阳市,市监测站,112.6007,26.8977,2026-01-24T2300,56,111,1.7,54,7,4,53,81,颗粒物(PM10)
衡阳市,真空机电公司,112.5658,26.9013,2026-01-24T2300,55,100,2.0,64,8,2,50,75,"颗粒物(PM10),细颗粒物(PM2.5)"
衡阳市,师范学院,112.6703,26.8817,2026-01-24T2300,38,60,1.0,33,4,24,57,55,颗粒物(PM10)
红河哈尼族彝族自治州,州图书馆,103.3757,23.3679,2026-01-24T2300,18,32,0.6,11,7,53,70,32,
红河哈尼族彝族自治州,蒙自市朝阳路,103.401,23.3561,2026-01-24T2300,20,,0.5,6,7,62,73,29,
呼和浩特市,呼市一监,111.6506,40.7517,2026-01-24T2300,8,29,0.4,11,12,64,65,29,
呼和浩特市,如意水处理厂,111.7516,40.8369,2026-01-24T2300,8,29,0.3,11,9,70,70,29,
呼和浩特市,二十九中,111.727798,40.806187,2026-01-24T2300,7,51,0.2,9,11,69,67,51,颗粒物(PM10)
呼和浩特市,化肥厂生活区,111.717,40.7617,2026-01-24T2300,8,37,0.4,11,5,67,71,37,
呼和浩特市,海东办,111.6519,40.8389,2026-01-24T2300,8,27,0.4,17,4,65,63,27,
呼和浩特市,成吉思汗西街8号,111.591512,40.827312,2026-01-24T2300,10,34,0.6,36,5,35,55,34,
呼和浩特市,公园东路75号,111.6597,40.8077,2026-01-24T2300,8,39,0.4,17,6,61,61,39,
呼和浩特市,金海路35号,111.5427,40.7846,2026-01-24T2300,10,37,0.6,32,9,45,57,37,
呼伦贝尔市,国华电力东,119.7511,49.1576,2026-01-24T2300,23,34,0.4,16,7,59,64,34,
呼伦贝尔市,伊敏大街东7号,119.7569,49.2222,2026-01-24T2300,18,33,0.2,15,7,56,62,33,
湖州市,城西水厂,120.075,30.867,2026-01-24T2300,84,118,0.7,45,8,61,77,112,细颗粒物(PM2.5)
湖州市,仁皇山新区,120.083,30.8929,2026-01-24T2300,102,127,1.0,55,8,73,76,134,细颗粒物(PM2.5)
湖州市,吴兴区站,120.1846,30.8592,2026-01-24T2300,94,118,0.8,54,6,73,70,124,细颗粒物(PM2.5)
湖州市,南浔区站,120.4146,30.8538,2026-01-24T2300,74,91,0.6,28,9,79,85,99,细颗粒物(PM2.5)
葫芦岛市,龙港区,120.904878,40.721091,2026-01-24T2300,68,87,1.8,68,17,7,58,92,细颗粒物(PM2.5)
葫芦岛市,化工街,120.8382,40.7521,2026-01-24T2300,73,107,1.4,76,36,8,55,98,细颗粒物(PM2.5)
葫芦岛市,新区,120.8339,40.7078,2026-01-24T2300,70,82,1.8,80,20,6,59,94,细颗粒物(PM2.5)
葫芦岛市,东城区,120.8697,40.7679,2026-01-24T2300,56,83,1.3,70,78,7,56,77,细颗粒物(PM2.5)
怀化市,河西地税局,109.9297,27.5383,2026-01-24T2300,113,147,/,57,4,11,45,148,细颗粒物(PM2.5)
怀化市,市四医院,109.9783,27.5342,2026-01-24T2300,90,123,1.5,48,10,0,35,119,细颗粒物(PM2.5)
怀化市,监测楼,109.9971,27.5579,2026-01-24T2300,102,136,1.0,49,4,3,42,134,细颗粒物(PM2.5)
淮安市,钵池山,119.0566,33.5991,2026-01-24T2300,95,102,0.6,34,6,58,83,125,细颗粒物(PM2.5)
淮安市,北京南路,119.0083,33.578,2026-01-24T2300,88,102,0.7,32,7,57,80,117,细颗粒物(PM2.5)
淮安市,市监测站,118.9938,33.6083,2026-01-24T2300,90,95,0.9,34,9,66,86,119,细颗粒物(PM2.5)
淮安市,楚州区监测站,119.135,33.5038,2026-01-24T2300,98,110,0.5,35,8,50,83,129,细颗粒物(PM2.5)
淮安市,新华书店,118.8757,33.2897,2026-01-24T2300,92,106,0.8,41,8,48,84,122,细颗粒物(PM2.5)
淮安市,枚皋中路89号,119.119691,33.550006,2026-01-24T2300,94,111,0.7,26,8,77,98,124,细颗粒物(PM2.5)
淮安市,承德北路606号,119.028838,33.631911,2026-01-24T2300,90,117,0.7,33,7,59,84,119,细颗粒物(PM2.5)
淮北市,监测站,116.8005,33.9749,2026-01-24T2300,87,125,0.7,22,4,78,106,115,细颗粒物(PM2.5)
淮北市,烈山区政府,116.8094,33.9008,2026-01-24T2300,81,98,0.6,14,3,90,107,108,细颗粒物(PM2.5)
淮北市,市博物馆,116.7926,33.9534,2026-01-24T2300,91,114,0.7,27,7,72,104,120,细颗粒物(PM2.5)
淮北市,杜集区第一实验学校,116.8322,33.9884,2026-01-24T2300,93,110,0.9,18,7,81,128,123,细颗粒物(PM2.5)
淮南市,潘集区政府,116.8304,32.7726,2026-01-24T2300,98,114,0.6,33,5,43,81,129,细颗粒物(PM2.5)
淮南市,谢家集区政府,116.8569,32.5949,2026-01-24T2300,73,102,0.9,42,8,42,83,98,细颗粒物(PM2.5)
淮南市,八公山区政府,116.8279,32.6333,2026-01-24T2300,85,97,0.8,34,4,50,84,113,细颗粒物(PM2.5)
淮南市,经济技术开发区消防队,117.0561,32.6536,2026-01-24T2300,84,105,0.9,44,4,46,80,112,细颗粒物(PM2.5)
淮南市,山南新区,117.011,32.5891,2026-01-24T2300,72,108,1.0,35,8,63,87,97,细颗粒物(PM2.5)
淮南市,国庆中路369号,117.003137,32.644456,2026-01-24T2300,88,92,0.8,37,11,51,71,117,细颗粒物(PM2.5)
黄冈市,职工中心,114.9021,30.474,2026-01-24T2300,53,63,0.6,32,12,52,89,73,细颗粒物(PM2.5)
黄冈市,红卫路,114.8858,30.4519,2026-01-24T2300,54,62,0.3,19,10,57,86,74,细颗粒物(PM2.5)
黄冈市,市林业局,114.9134,30.4446,2026-01-24T2300,53,59,0.6,24,4,56,85,73,细颗粒物(PM2.5)
黄南藏族自治州,同仁县隆务镇,102.02,35.5101,2026-01-24T2300,19,49,0.4,3,10,44,60,49,
黄山市,延安路89号,118.2905,29.6965,2026-01-24T2300,26,40,0.8,26,4,14,68,40,
黄山市,黄山区政府5号楼,118.1369,30.2755,2026-01-24T2300,,,0.9,34,2,12,78,,
黄山市,滨江东路7-2号,118.335445,29.720283,2026-01-24T2300,58,72,/,38,/,7,62,79,细颗粒物(PM2.5)
黄石市,沈家营,115.0547,30.2332,2026-01-24T2300,51,85,1.9,23,16,44,64,70,细颗粒物(PM2.5)
黄石市,铁山,114.899,30.211,2026-01-24T2300,59,,,13,9,66,87,,
黄石市,团城山,115.0259,30.2108,2026-01-24T2300,61,63,0.7,13,6,64,86,83,细颗粒物(PM2.5)
黄石市,笔架山北路,115.0174,30.1591,2026-01-24T2300,57,90,1.2,20,10,49,76,78,细颗粒物(PM2.5)
黄石市,磁湖东路29号,115.078022,30.21118,2026-01-24T2300,58,72,1.1,21,7,61,83,79,细颗粒物(PM2.5)
惠州市,河南岸金山湖子站,114.4181,23.0528,2026-01-24T2300,37,61,0.7,29,4,80,87,56,颗粒物(PM10)
惠州市,下埔横江三路子站,114.4055,23.0824,2026-01-24T2300,40,68,0.8,33,7,83,95,59,颗粒物(PM10)
惠州市,惠阳区承修路船湖子站,114.4645,22.7832,2026-01-24T2300,35,46,0.7,22,7,102,126,50,
惠州市,大亚湾管委会子站,114.5316,22.7423,2026-01-24T2300,26,38,0.5,17,6,108,122,38,
惠州市,惠阳秋长,114.4334,22.8134,2026-01-24T2300,28,39,/,23,/,119,140,40,
惠州市,大亚湾霞涌,114.6521,22.7755,2026-01-24T2300,18,35,/,19,/,100,131,35,
惠州市,文华一路1号,114.4089,23.1147,2026-01-24T2300,33,56,/,27,/,101,109,53,颗粒物(PM10)
鸡西市,环保局,130.9618,45.2926,2026-01-24T2300,14,17,0.3,8,6,65,72,21,
鸡西市,第一中学,130.9294,45.2959,2026-01-24T2300,16,16,0.4,9,2,68,73,23,
鸡西市,欧美日汽修厂,131.0069,45.2988,2026-01-24T2300,16,19,0.2,5,6,68,73,23,
吉安市,红声器材厂,114.9753,27.0803,2026-01-24T2300,37,67,0.9,48,14,21,63,59,颗粒物(PM10)
吉安市,市环境监测站,114.9903,27.1313,2026-01-24T2300,44,70,/,35,13,24,57,62,细颗粒物(PM2.5)
吉安市,青原区法院,115.009527,27.096792,2026-01-24T2300,38,59,0.9,46,20,11,49,55,颗粒物(PM10)
吉林市,哈达湾,126.54,43.8622,2026-01-24T2300,48,49,0.9,18,10,64,72,67,细颗粒物(PM2.5)
吉林市,东局子,126.5843,43.8358,2026-01-24T2300,45,53,0.9,23,5,49,63,63,细颗粒物(PM2.5)
吉林市,电力学院,126.5051,43.8243,2026-01-24T2300,77,101,1.5,43,9,36,72,103,细颗粒物(PM2.5)
吉林市,江北,126.6133,43.8971,2026-01-24T2300,73,100,1.4,29,8,41,65,98,细颗粒物(PM2.5)
吉林市,江南公园,126.5549,43.8304,2026-01-24T2300,49,64,0.8,26,7,50,67,68,细颗粒物(PM2.5)
吉林市,九站,126.4737,43.953,2026-01-24T2300,44,53,0.8,28,7,52,65,62,细颗粒物(PM2.5)
济南市,科干所,116.9866,36.6118,2026-01-24T2300,110,151,1.2,47,19,45,87,144,细颗粒物(PM2.5)
济南市,农科所,116.9379,36.6652,2026-01-24T2300,110,166,1.2,75,22,27,73,144,细颗粒物(PM2.5)
济南市,开发区,117.1265,36.6736,2026-01-24T2300,122,164,1.3,67,15,25,50,160,细颗粒物(PM2.5)
济南市,省种子仓库,117.0616,36.6865,2026-01-24T2300,124,175,1.7,68,22,26,50,163,细颗粒物(PM2.5)
济南市,机床二厂,116.9495185,36.644937,2026-01-24T2300,127,166,1.1,52,21,43,82,168,细颗粒物(PM2.5)
济南市,市监测站,117.0496,36.6629,2026-01-24T2300,122,156,1.3,58,15,32,58,160,细颗粒物(PM2.5)
济南市,长清党校,116.7674,36.5458,2026-01-24T2300,107,142,1.2,61,17,35,92,140,细颗粒物(PM2.5)
济南市,东山小学,117.5323,36.6865,2026-01-24T2300,120,168,1.0,68,19,29,88,158,细颗粒物(PM2.5)
济南市,泰兴公司,117.7181,36.205,2026-01-24T2300,129,163,1.3,88,10,8,80,170,细颗粒物(PM2.5)
济南市,莱芜战役纪念馆,117.6861,36.2172,2026-01-24T2300,124,161,1.3,70,16,29,84,163,细颗粒物(PM2.5)
济南市,济阳区政府,117.1673,36.9782,2026-01-24T2300,137,173,1.2,51,20,40,67,182,细颗粒物(PM2.5)
济南市,锦屏中学,117.1168,36.6299,2026-01-24T2300,100,127,1.4,48,5,30,59,132,细颗粒物(PM2.5)
济南市,山财大街5号,117.7107,36.2385,2026-01-24T2300,101,144,1.4,67,22,44,88,133,细颗粒物(PM2.5)
济南市,无影山路12号,116.9744,36.6889,2026-01-24T2300,130,166,1.3,75,27,28,69,172,细颗粒物(PM2.5)
济宁市,火炬城,116.6229,35.4288,2026-01-24T2300,158,158,1.1,59,4,32,101,208,细颗粒物(PM2.5)
济宁市,北湖一中,116.5808,35.3703,2026-01-24T2300,160,,1.1,62,7,42,108,210,细颗粒物(PM2.5)
济宁市,服务中心,116.8251,35.5592,2026-01-24T2300,122,175,0.8,70,13,3,96,160,细颗粒物(PM2.5)
济宁市,市第七中学,116.5907,35.4054,2026-01-24T2300,139,142,1.2,49,9,57,112,185,细颗粒物(PM2.5)
济宁市,任和路,116.6075,35.4566,2026-01-24T2300,140,200,1.0,73,7,27,110,186,细颗粒物(PM2.5)
济宁市,文体南路1号,116.5648,35.3921,2026-01-24T2300,153,184,1.0,48,6,61,113,203,细颗粒物(PM2.5)
佳木斯市,佳纺,130.2749,46.8028,2026-01-24T2300,26,44,0.7,10,6,62,63,44,
佳木斯市,环保局,130.3258,46.7975,2026-01-24T2300,27,48,0.6,23,13,51,67,48,
佳木斯市,顺和街,130.363,46.806,2026-01-24T2300,37,42,0.5,24,13,46,61,53,细颗粒物(PM2.5)
佳木斯市,长安路196号,130.3952,46.8268,2026-01-24T2300,26,39,0.5,14,5,64,71,39,
嘉兴市,清河小学,120.7439,30.778,2026-01-24T2300,74,94,0.4,38,8,62,82,99,细颗粒物(PM2.5)
嘉兴市,嘉兴学院,120.7261,30.7477,2026-01-24T2300,74,102,1.2,35,6,64,84,99,细颗粒物(PM2.5)
嘉兴市,南湖区残联,120.7845,30.7524,2026-01-24T2300,72,95,0.9,43,5,60,90,97,细颗粒物(PM2.5)
嘉兴市,秀洲住建,120.6915,30.7741,2026-01-24T2300,74,94,0.6,36,8,70,84,99,细颗粒物(PM2.5)
嘉峪关市,气象局,98.291,39.7705,2026-01-24T2300,129,871,0.4,5,8,60,67,500,颗粒物(PM10)
嘉峪关市,酒钢宾馆,98.2672,39.7978,2026-01-24T2300,146,,0.1,2,11,70,69,195,细颗粒物(PM2.5)
嘉峪关市,雄关区,98.2644,39.7723,2026-01-24T2300,109,677,0.4,15,8,54,58,500,颗粒物(PM10)
江门市,北街,113.1063,22.6058,2026-01-24T2300,63,85,/,99,/,17,101,85,细颗粒物(PM2.5)
江门市,西区,113.073,22.5835,2026-01-24T2300,68,119,/,116,/,2,109,92,细颗粒物(PM2.5)
江门市,圭峰西,113.0218,22.531,2026-01-24T2300,74,87,/,41,/,53,114,99,细颗粒物(PM2.5)
江门市,东湖,113.0826,22.5947,2026-01-24T2300,67,102,1.5,94,7,3,110,90,细颗粒物(PM2.5)
江门市,江海富民,113.1077,22.5647,2026-01-24T2300,77,128,1.2,111,/,11,111,103,细颗粒物(PM2.5)
江门市,新会银湖,113.0496,22.4669,2026-01-24T2300,99,110,0.9,76,7,17,98,130,细颗粒物(PM2.5)
焦作市,马村街道办,113.3137,35.2643,2026-01-24T2300,121,132,0.8,24,8,57,80,159,细颗粒物(PM2.5)
焦作市,焦作技师学院,113.2464,35.2374,2026-01-24T2300,110,141,1.0,27,7,60,83,144,细颗粒物(PM2.5)
焦作市,中站许衡医院,113.1656,35.2536,2026-01-24T2300,115,131,0.8,20,6,80,94,150,细颗粒物(PM2.5)
焦作市,原李万街道办,113.2456,35.18,2026-01-24T2300,110,136,0.9,23,5,66,81,144,细颗粒物(PM2.5)
焦作市,新安路1731号,113.234,35.219,2026-01-24T2300,121,153,0.9,24,7,63,85,159,细颗粒物(PM2.5)
焦作市,人民路3066号,113.2722,35.2121,2026-01-24T2300,110,145,1.4,27,10,58,80,144,细颗粒物(PM2.5)
揭阳市,新兴,116.3701,23.5345,2026-01-24T2300,26,,0.5,18,8,85,107,38,
揭阳市,西马,116.3261,23.5442,2026-01-24T2300,26,28,0.5,11,4,81,107,38,
揭阳市,东兴,116.361,23.5627,2026-01-24T2300,25,34,/,14,8,86,110,36,
揭阳市,渔湖,116.4151,23.5295,2026-01-24T2300,3,22,/,10,5,87,110,28,
揭阳市,曲溪,116.4028,23.5699,2026-01-24T2300,21,26,0.5,9,6,86,112,30,
金昌市,天庆家园,102.1691,38.5166,2026-01-24T2300,272,2244,0.8,13,12,48,69,500,颗粒物(PM10)
金昌市,金川区人防中心,102.1648,38.5369,2026-01-24T2300,243,2149,0.6,11,5,52,70,500,颗粒物(PM10)
金昌市,长春路96号,102.193042,38.531887,2026-01-24T2300,206,1548,0.6,8,6,54,66,500,颗粒物(PM10)
金华市,十五中,119.6478,29.0773,2026-01-24T2300,100,145,0.6,103,4,7,66,132,细颗粒物(PM2.5)
金华市,监测站,119.6859,29.1032,2026-01-24T2300,101,158,0.8,109,4,0,52,133,细颗粒物(PM2.5)
金华市,气象局,119.656,29.1132,2026-01-24T2300,95,146,0.8,101,5,2,48,125,细颗粒物(PM2.5)
锦州市,南山,121.1114,41.0879,2026-01-24T2300,161,177,2.9,77,27,6,55,211,细颗粒物(PM2.5)
锦州市,开发区,121.060361,40.842794,2026-01-24T2300,104,124,1.8,77,66,3,58,137,细颗粒物(PM2.5)
锦州市,百股街道,121.1836,41.1118,2026-01-24T2300,113,124,2.2,68,22,7,60,148,细颗粒物(PM2.5)
锦州市,天安街道,121.1176,41.1224,2026-01-24T2300,34,108,1.0,38,8,39,60,79,颗粒物(PM10)
锦州市,北湖公园,121.1303,41.1385,2026-01-24T2300,22,34,0.7,14,9,58,61,34,
晋城市,自来水公司,112.8496,35.5051,2026-01-24T2300,63,100,0.6,16,5,82,93,85,细颗粒物(PM2.5)
晋城市,市环保局,112.8509,35.4886,2026-01-24T2300,70,95,0.8,16,4,83,96,94,细颗粒物(PM2.5)
晋城市,泽州一中,112.8258,35.4804,2026-01-24T2300,89,93,0.7,20,3,86,95,118,细颗粒物(PM2.5)
晋城市,前书院路,112.8246,35.5152,2026-01-24T2300,63,97,0.5,17,5,76,86,85,细颗粒物(PM2.5)
晋城市,祥云街666号,112.8864,35.4773,2026-01-24T2300,87,105,0.5,17,3,81,91,115,细颗粒物(PM2.5)
晋中市,榆次区政府,112.6992,37.6984,2026-01-24T2300,102,244,1.1,47,14,44,58,147,颗粒物(PM10)
晋中市,榆次三中,112.7195,37.683,2026-01-24T2300,108,266,1.2,43,15,41,62,158,颗粒物(PM10)
晋中市,广安街188号,112.7375,37.7215,2026-01-24T2300,100,207,1.1,42,15,51,65,132,细颗粒物(PM2.5)
晋中市,迎宾街26号,112.7478,37.6954,2026-01-24T2300,116,261,1.3,45,15,41,65,156,颗粒物(PM10)
荆门市,竹园小学,112.2012,31.048,2026-01-24T2300,70,84,0.6,47,1,43,85,94,细颗粒物(PM2.5)
荆门市,掇刀,112.1968,30.9892,2026-01-24T2300,63,78,0.7,30,3,50,88,85,细颗粒物(PM2.5)
荆门市,西山林语,112.1849,31.0361,2026-01-24T2300,54,70,0.8,26,9,55,88,74,细颗粒物(PM2.5)
荆门市,龙泉中学南校,112.1631,31.0134,2026-01-24T2300,62,77,0.5,18,5,67,88,84,细颗粒物(PM2.5)
荆门市,新台西路6号,112.2213,31.0654,2026-01-24T2300,71,79,1.0,42,10,41,85,95,细颗粒物(PM2.5)
荆州市,市图书馆,112.2493,30.3198,2026-01-24T2300,63,,0.9,28,8,49,85,85,细颗粒物(PM2.5)
荆州市,市委党校,112.2009,30.3543,2026-01-24T2300,56,63,0.9,45,2,38,75,77,细颗粒物(PM2.5)
荆州市,管委会,112.2749,30.3124,2026-01-24T2300,64,,1.0,31,7,45,81,87,细颗粒物(PM2.5)
荆州市,学苑路85号,112.1722,30.3366,2026-01-24T2300,58,62,0.9,22,7,53,84,79,细颗粒物(PM2.5)
景德镇市,老干部活动中心,117.2114,29.2931,2026-01-24T2300,60,73,1.1,40,3,1,44,82,细颗粒物(PM2.5)
景德镇市,兽医站,117.1893,29.2789,2026-01-24T2300,54,101,1.0,54,4,3,41,76,颗粒物(PM10)
景德镇市,陶研所,117.246,29.2958,2026-01-24T2300,48,60,1.1,34,3,1,49,67,细颗粒物(PM2.5)
景德镇市,青少年活动中心,117.154766,29.256967,2026-01-24T2300,68,150,/,60,18,3,38,100,颗粒物(PM10)
九江市,十里,115.9873,29.6816,2026-01-24T2300,64,114,1.5,66,6,8,58,87,细颗粒物(PM2.5)
九江市,茅山头,115.9583,29.7047,2026-01-24T2300,62,83,1.2,67,5,,60,,
九江市,西园,115.9877,29.7295,2026-01-24T2300,49,79,0.6,42,7,49,67,68,细颗粒物(PM2.5)
九江市,综合工业园,115.9112,29.6038,2026-01-24T2300,81,,0.7,58,2,20,60,108,细颗粒物(PM2.5)
九江市,外国语学校,116.0254,29.6995,2026-01-24T2300,62,,0.8,43,11,34,58,84,细颗粒物(PM2.5)
九江市,莲花大道8号,116.010205,29.659402,2026-01-24T2300,56,,0.6,11,2,35,49,77,细颗粒物(PM2.5)
酒泉市,玉门东路5号,98.495752,39.733935,2026-01-24T2300,126,,0.3,1,10,67,66,166,细颗粒物(PM2.5)
酒泉市,北大街108号,98.5099,39.7506,2026-01-24T2300,119,1035,0.3,4,10,58,60,500,颗粒物(PM10)
喀什地区,巡警大队,76.0071,39.466,2026-01-24T2300,136,658,0.8,25,4,38,54,500,颗粒物(PM10)
喀什地区,吾办,75.9756,39.4693,2026-01-24T2300,143,503,1.0,31,12,35,50,403,颗粒物(PM10)
喀什地区,老干局,75.9485,39.4688,2026-01-24T2300,124,652,0.6,18,4,44,60,500,颗粒物(PM10)
开封市,肿瘤医院,114.3389,34.778,2026-01-24T2300,108,133,1.0,56,8,42,103,142,细颗粒物(PM2.5)
开封市,世纪星幼儿园,114.2884,34.7966,2026-01-24T2300,130,,0.9,56,4,51,100,172,细颗粒物(PM2.5)
开封市,龙亭公园,114.3434,34.8101,2026-01-24T2300,135,,0.9,41,6,65,98,179,细颗粒物(PM2.5)
开封市,汴京公园,114.3645,34.7955,2026-01-24T2300,119,124,0.6,68,4,34,92,156,细颗粒物(PM2.5)
开封市,技师学院,114.2485,34.8306,2026-01-24T2300,121,,0.8,53,6,54,109,159,细颗粒物(PM2.5)
开封市,祥符区生态环境局,114.4518,34.7503,2026-01-24T2300,117,157,0.7,71,3,50,100,153,细颗粒物(PM2.5)
克拉玛依市,长征新村,84.886,45.6029,2026-01-24T2300,68,91,0.8,27,7,56,74,92,细颗粒物(PM2.5)
克拉玛依市,南林小区,84.8894,45.5827,2026-01-24T2300,52,95,0.9,32,3,49,70,73,颗粒物(PM10)
克拉玛依市,独山子区,84.896,44.3328,2026-01-24T2300,45,94,0.8,56,1,42,70,72,颗粒物(PM10)
克拉玛依市,乌尔禾区商贸楼,85.6888,46.0909,2026-01-24T2300,52,72,0.7,30,7,61,78,72,细颗粒物(PM2.5)
克拉玛依市,白碱滩区新站,85.1045,45.6895,2026-01-24T2300,50,86,0.7,28,9,52,68,69,细颗粒物(PM2.5)
克孜勒苏柯尔克孜自治州,市人民政府,76.1457,39.7143,2026-01-24T2300,136,780,0.3,20,4,50,65,500,颗粒物(PM10)
克孜勒苏柯尔克孜自治州,克州文化中心,76.1654,39.7157,2026-01-24T2300,163,866,0.8,19,4,46,63,500,颗粒物(PM10)
昆明市,呈贡新区,102.8203,24.889,2026-01-24T2300,15,27,0.4,28,4,50,84,27,
昆明市,龙泉镇,102.7253,25.0904,2026-01-24T2300,28,55,0.5,46,3,20,85,53,颗粒物(PM10)
昆明市,东风东路,102.7267,25.0378,2026-01-24T2300,22,,0.5,16,5,70,86,32,
昆明市,金鼎山,102.6744,25.0671,2026-01-24T2300,23,38,0.4,24,5,52,84,38,
昆明市,碧鸡广场,102.6643,25.0401,2026-01-24T2300,23,37,0.5,38,4,41,85,37,
昆明市,官渡区博物馆,102.7491,25.012,2026-01-24T2300,14,24,0.4,14,3,68,90,24,
昆明市,青年创业园,102.8016,24.8336,2026-01-24T2300,19,34,0.3,37,8,31,89,34,
昆明市,昆明学院,102.8,24.9787,2026-01-24T2300,17,32,0.4,14,4,65,90,32,
昆明市,晋宁区生态环境分局,102.5969,24.6738,2026-01-24T2300,19,37,0.7,12,3,66,87,37,
昆明市,云天化总部,102.6673,24.9861,2026-01-24T2300,14,24,0.3,8,6,77,89,25,
拉萨市,八廓街,91.132,29.6515,2026-01-24T2300,19,41,0.4,4,7,96,88,41,
拉萨市,市环保局,91.1221,29.6748,2026-01-24T2300,25,47,0.7,8,7,88,87,47,
拉萨市,区监测站,91.0874,29.6476,2026-01-24T2300,10,29,0.7,4,4,93,87,30,
拉萨市,西藏大学,91.1774,29.6541,2026-01-24T2300,17,46,0.5,6,6,96,91,46,
拉萨市,区辐射站,90.9798,29.6586,2026-01-24T2300,24,92,0.4,6,3,88,85,71,颗粒物(PM10)
拉萨市,拉萨火车站,91.0831,29.6292,2026-01-24T2300,8,41,0.2,2,4,93,89,41,
来宾市,来宾技工学校,109.2203,23.7252,2026-01-24T2300,81,,0.7,22,7,18,52,108,细颗粒物(PM2.5)
来宾市,兴宾区政府,109.1781,23.7293,2026-01-24T2300,70,88,1.0,29,8,16,52,94,细颗粒物(PM2.5)
来宾市,中南小学,109.2312,23.7428,2026-01-24T2300,77,,1.0,22,5,18,51,103,细颗粒物(PM2.5)
兰州市,铁路设计院,103.8309,36.0467,2026-01-24T2300,,,,,,,,,
兰州市,百合公园,103.7439,36.0841,2026-01-24T2300,100,635,0.5,17,5,66,64,500,颗粒物(PM10)
兰州市,和平,103.9613,35.9985,2026-01-24T2300,135,805,0.8,19,10,69,75,500,颗粒物(PM10)
兰州市,庄浪东路808号,103.629272,36.093822,2026-01-24T2300,112,647,0.8,20,11,73,69,500,颗粒物(PM10)
兰州市,安宁西路88号,103.7251,36.104344,2026-01-24T2300,105,759,0.7,23,7,73,76,500,颗粒物(PM10)
兰州市,北滨河东路1号,103.846982,36.067567,2026-01-24T2300,110,640,0.8,26,9,67,69,500,颗粒物(PM10)
廊坊市,药材公司,116.6712,39.5109,2026-01-24T2300,148,189,1.5,93,6,2,29,198,细颗粒物(PM2.5)
廊坊市,开发区,116.7215,39.5592,2026-01-24T2300,142,184,1.4,101,6,1,31,189,细颗粒物(PM2.5)
廊坊市,北华航天学院,116.7246,39.5273,2026-01-24T2300,147,194,1.6,94,8,1,27,196,细颗粒物(PM2.5)
廊坊市,河北工业大学,116.7022,39.5454,2026-01-24T2300,125,195,1.3,85,6,5,30,165,细颗粒物(PM2.5)
乐山市,牛耳桥,103.7629,29.5844,2026-01-24T2300,57,66,0.9,20,6,36,34,78,细颗粒物(PM2.5)
乐山市,市第三水厂,103.7501,29.6002,2026-01-24T2300,63,76,0.9,26,5,36,37,85,细颗粒物(PM2.5)
乐山市,市监测站,103.7571,29.5664,2026-01-24T2300,59,69,0.9,18,5,36,30,80,细颗粒物(PM2.5)
乐山市,理工大学,103.7313,29.563,2026-01-24T2300,69,74,0.8,17,5,31,29,93,细颗粒物(PM2.5)
丽江市,丽江古城,100.2497,26.8802,2026-01-24T2300,11,25,0.4,10,10,75,81,25,
丽江市,市中心,100.2203,26.8906,2026-01-24T2300,18,,0.4,10,6,76,83,26,
丽水市,监测站大楼,119.9141,28.4513,2026-01-24T2300,49,67,0.5,22,6,68,71,68,细颗粒物(PM2.5)
丽水市,莲都小学,119.93,28.4589,2026-01-24T2300,34,59,/,34,/,62,74,55,颗粒物(PM10)
丽水市,余庄前,119.8794,28.4232,2026-01-24T2300,38,56,0.4,29,5,50,64,54,细颗粒物(PM2.5)
连云港市,市环境监测站,119.1759,34.5885,2026-01-24T2300,83,102,0.6,20,10,83,90,110,细颗粒物(PM2.5)
连云港市,德源药业,119.3577,34.6971,2026-01-24T2300,85,117,1.0,69,6,33,76,113,细颗粒物(PM2.5)
连云港市,新城一中,119.178,34.8442,2026-01-24T2300,93,118,0.9,95,10,17,71,123,细颗粒物(PM2.5)
连云港市,胡沟管理处,119.3607,34.7519,2026-01-24T2300,73,105,0.9,75,12,38,61,98,细颗粒物(PM2.5)
连云港市,矿山设计院,119.1478,34.5913,2026-01-24T2300,88,110,1.0,27,8,72,88,117,细颗粒物(PM2.5)
连云港市,工贸学校,119.2414,34.6539,2026-01-24T2300,93,104,0.8,17,11,98,95,123,细颗粒物(PM2.5)
连云港市,连云街道,119.4171,34.734,2026-01-24T2300,68,90,0.8,27,4,69,82,92,细颗粒物(PM2.5)
凉山彝族自治州,西昌市政府,102.2629,27.8981,2026-01-24T2300,23,48,0.5,15,8,65,85,48,
凉山彝族自治州,凉山州政府,102.2686,27.885,2026-01-24T2300,36,89,1.0,42,8,25,87,70,颗粒物(PM10)
凉山彝族自治州,凯乐南路30号,102.2342,27.8859,2026-01-24T2300,33,63,0.6,18,9,49,86,57,颗粒物(PM10)
辽阳市,宏伟区,123.1978,41.2036,2026-01-24T2300,52,73,1.1,37,9,16,62,72,细颗粒物(PM2.5)
辽阳市,新华园,123.1684,41.2497,2026-01-24T2300,71,150,1.5,64,49,10,67,100,颗粒物(PM10)
辽阳市,滨河路,123.2355,41.2663,2026-01-24T2300,38,62,0.9,43,27,22,68,56,颗粒物(PM10)
辽阳市,铁西路150号,123.153,41.2874,2026-01-24T2300,71,94,1.9,60,25,3,69,95,细颗粒物(PM2.5)
辽源市,环保局,125.1359,42.8845,2026-01-24T2300,85,113,1.7,69,4,13,69,113,细颗粒物(PM2.5)
辽源市,安宁大街333号,125.0998,42.9134,2026-01-24T2300,95,102,1.5,39,8,9,66,125,细颗粒物(PM2.5)
聊城市,区政府,115.9789,36.4372,2026-01-24T2300,125,156,1.2,61,16,45,92,165,细颗粒物(PM2.5)
聊城市,监控中心,115.9772,36.4986,2026-01-24T2300,158,185,1.1,68,9,33,98,208,细颗粒物(PM2.5)
聊城市,九州社区,116.0443,36.436,2026-01-24T2300,133,168,1.0,46,10,59,109,176,细颗粒物(PM2.5)
聊城市,星美广场,116.0564,36.4609,2026-01-24T2300,140,188,1.2,51,6,32,98,186,细颗粒物(PM2.5)
聊城市,利民路,116.0091,36.4495,2026-01-24T2300,133,174,1.1,80,14,23,90,176,细颗粒物(PM2.5)
林芝市,林芝监测站,94.3683,29.6373,2026-01-24T2300,11,,0.2,2,3,82,84,26,
林芝市,林芝人民医院,94.3616,29.6634,2026-01-24T2300,12,17,0.1,2,5,86,89,27,
临沧市,市环保局,100.0779,23.8981,2026-01-24T2300,75,,0.7,15,8,41,88,100,细颗粒物(PM2.5)
临沧市,市气象局,100.0894,23.882,2026-01-24T2300,34,62,0.6,18,11,41,85,56,颗粒物(PM10)
临汾市,临钢医院,111.5552,36.0791,2026-01-24T2300,70,136,0.8,17,3,76,74,94,细颗粒物(PM2.5)
临汾市,技工学校,111.4984,36.0734,2026-01-24T2300,85,111,0.7,23,3,75,75,113,细颗粒物(PM2.5)
临汾市,市委,111.5017,36.0857,2026-01-24T2300,61,114,0.9,14,6,80,82,83,细颗粒物(PM2.5)
临汾市,唐尧大酒店,111.5048,36.1015,2026-01-24T2300,57,104,0.8,15,2,80,82,78,细颗粒物(PM2.5)
临汾市,启星学校,111.4879,36.053,2026-01-24T2300,63,86,0.8,21,8,79,81,85,细颗粒物(PM2.5)
临夏回族自治州,滨河东路1号,103.2464,35.6123,2026-01-24T2300,150,371,2.7,83,15,10,68,230,颗粒物(PM10)
临夏回族自治州,新华街21号,103.207136,35.599807,2026-01-24T2300,75,172,0.9,24,20,53,74,111,颗粒物(PM10)
临沂市,沂河小区,118.3429,35.0532,2026-01-24T2300,154,163,1.1,57,14,32,89,204,细颗粒物(PM2.5)
临沂市,鲁南制药厂,118.2962,35.0568,2026-01-24T2300,140,168,1.4,80,20,19,85,186,细颗粒物(PM2.5)
临沂市,新光毛纺厂,118.2793,34.9976,2026-01-24T2300,124,158,1.5,84,24,18,90,163,细颗粒物(PM2.5)
临沂市,河东保险公司,118.3955,35.0889,2026-01-24T2300,125,168,1.2,95,11,5,91,165,细颗粒物(PM2.5)
临沂市,十里堡居委,118.3563,35.0215,2026-01-24T2300,124,161,1.3,81,16,18,93,163,细颗粒物(PM2.5)
临沂市,南坊新区,118.359,35.1067,2026-01-24T2300,141,166,1.5,87,15,18,92,188,细颗粒物(PM2.5)
临沂市,皇山花园小区,118.3915,35.0297,2026-01-24T2300,124,175,1.5,90,22,11,94,163,细颗粒物(PM2.5)
柳州市,柳东小学,109.4854,24.3898,2026-01-24T2300,43,52,0.8,16,8,29,54,60,细颗粒物(PM2.5)
柳州市,环保监测站,109.4109,24.3304,2026-01-24T2300,,,,,,,52,,
柳州市,河西水厂,109.3886,24.3408,2026-01-24T2300,40,72,0.8,31,5,24,53,61,颗粒物(PM10)
柳州市,市四中,109.4263,24.2951,2026-01-24T2300,43,58,1.0,33,10,18,53,60,细颗粒物(PM2.5)
柳州市,市九中,109.396,24.3658,2026-01-24T2300,39,60,0.8,29,8,24,53,55,"颗粒物(PM10),细颗粒物(PM2.5)"
柳州市,古亭山,109.4912,24.3164,2026-01-24T2300,54,54,0.7,25,6,24,54,74,细颗粒物(PM2.5)
柳州市,市二中,109.5422,24.3994,2026-01-24T2300,21,52,0.8,21,8,29,55,51,颗粒物(PM10)
六安市,监测大楼,116.5078,31.7369,2026-01-24T2300,76,81,0.6,27,4,68,80,102,细颗粒物(PM2.5)
六安市,皖西学院,116.4738,31.7642,2026-01-24T2300,73,91,0.7,29,6,73,88,98,细颗粒物(PM2.5)
六安市,朝阳厂,116.4997,31.7904,2026-01-24T2300,66,82,0.8,33,6,73,77,89,细颗粒物(PM2.5)
六安市,开发区,116.5566,31.7885,2026-01-24T2300,64,86,0.7,24,5,74,79,87,细颗粒物(PM2.5)
六盘水市,黄土坡,104.8293,26.592,2026-01-24T2300,36,47,0.9,26,10,26,42,52,细颗粒物(PM2.5)
六盘水市,民中,104.8481,26.5898,2026-01-24T2300,41,,0.9,19,5,30,41,58,细颗粒物(PM2.5)
六盘水市,双水,104.9541,26.5506,2026-01-24T2300,12,24,0.5,10,3,37,48,24,
六盘水市,钟山大道中段564号,104.8899,26.5685,2026-01-24T2300,25,38,0.8,10,4,35,43,38,
龙岩市,龙岩市监测站,117.022,25.1031,2026-01-24T2300,45,,0.5,33,9,74,92,63,细颗粒物(PM2.5)
龙岩市,闽西职业技术学院,117.0257,25.0662,2026-01-24T2300,46,,0.7,21,9,80,101,64,细颗粒物(PM2.5)
龙岩市,龙岩学院,117.0195,25.0306,2026-01-24T2300,31,,/,20,9,66,99,45,
陇南市,滨江中学,104.9344,33.3827,2026-01-24T2300,37,68,0.9,15,4,40,48,59,颗粒物(PM10)
陇南市,市总工会,104.9551,33.3709,2026-01-24T2300,33,54,0.8,14,7,40,47,52,颗粒物(PM10)
娄底市,市监测站,111.9984,27.7346,2026-01-24T2300,44,55,0.6,24,10,58,75,62,细颗粒物(PM2.5)
娄底市,市政府,111.9888,27.7035,2026-01-24T2300,40,44,0.7,12,7,57,73,57,细颗粒物(PM2.5)
娄底市,涟钢职大,111.9812,27.7591,2026-01-24T2300,38,48,0.7,15,6,57,76,54,细颗粒物(PM2.5)
娄底市,娄底体校,112.0303,27.7457,2026-01-24T2300,40,50,0.4,11,3,55,23,57,细颗粒物(PM2.5)
泸州市,小市上码头,105.4427,28.9063,2026-01-24T2300,62,84,1.1,32,4,16,25,84,细颗粒物(PM2.5)
泸州市,兰田宪桥,105.4241,28.8573,2026-01-24T2300,52,75,0.8,17,8,26,28,72,细颗粒物(PM2.5)
泸州市,市环监站,105.4378,28.8833,2026-01-24T2300,54,82,1.0,29,9,20,22,74,细颗粒物(PM2.5)
泸州市,纳溪中医医院,105.3689,28.7783,2026-01-24T2300,68,71,0.9,19,8,26,24,92,细颗粒物(PM2.5)
吕梁市,环保局,111.1447,37.5212,2026-01-24T2300,33,80,0.4,18,8,79,68,65,颗粒物(PM10)
吕梁市,自来水公司,111.1285,37.5338,2026-01-24T2300,42,78,0.6,18,7,78,70,64,颗粒物(PM10)
吕梁市,马茂庄小学,111.1225,37.5093,2026-01-24T2300,43,125,0.8,22,6,76,60,88,颗粒物(PM10)
洛阳市,市委党校,112.3934,34.6517,2026-01-24T2300,127,128,1.0,42,10,47,72,168,细颗粒物(PM2.5)
洛阳市,河南林校,112.494,34.6883,2026-01-24T2300,121,124,0.9,47,8,42,74,159,细颗粒物(PM2.5)
洛阳市,开发区管委会,112.3843,34.623,2026-01-24T2300,150,169,0.9,41,11,49,81,200,细颗粒物(PM2.5)
洛阳市,市委新办公区,112.4263,34.6249,2026-01-24T2300,132,182,1.0,49,8,37,76,175,细颗粒物(PM2.5)
洛阳市,伊滨,112.6005,34.6323,2026-01-24T2300,180,291,1.3,80,7,17,70,230,细颗粒物(PM2.5)
洛阳市,中移产业园,112.495,34.6338,2026-01-24T2300,133,139,1.1,58,10,30,68,176,细颗粒物(PM2.5)
洛阳市,吉利监测站,112.5736,34.8993,2026-01-24T2300,114,114,0.8,23,8,85,81,149,细颗粒物(PM2.5)
洛阳市,河科大西苑校区,112.3678,34.6623,2026-01-24T2300,108,134,0.8,40,8,58,81,142,细颗粒物(PM2.5)
洛阳市,英才小学,112.4387,34.678,2026-01-24T2300,120,133,1.0,43,8,53,78,158,细颗粒物(PM2.5)
洛阳市,春都路1号院,112.460027,34.694929,2026-01-24T2300,100,134,0.8,33,6,51,70,132,细颗粒物(PM2.5)
漯河市,三五一五工厂,114.051,33.5721,2026-01-24T2300,123,149,1.2,30,6,61,95,162,细颗粒物(PM2.5)
漯河市,漯河大学,114.0055,33.5698,2026-01-24T2300,122,132,0.7,30,5,66,102,160,细颗粒物(PM2.5)
漯河市,市水利局,114.0134,33.5826,2026-01-24T2300,127,136,1.0,26,4,55,83,168,细颗粒物(PM2.5)
漯河市,市广电局,114.0261,33.5697,2026-01-24T2300,122,139,0.9,24,6,62,92,160,细颗粒物(PM2.5)
漯河市,市图书馆,113.9691,33.568,2026-01-24T2300,124,144,0.9,29,6,61,90,163,细颗粒物(PM2.5)
漯河市,韶山路11号,114.089259,33.588274,2026-01-24T2300,124,148,0.8,31,7,57,88,163,细颗粒物(PM2.5)
马鞍山市,湖东路四小,118.5084,31.6838,2026-01-24T2300,64,97,0.8,40,5,54,77,87,细颗粒物(PM2.5)
马鞍山市,开发区,118.5019,31.6449,2026-01-24T2300,76,91,0.8,37,6,56,84,102,细颗粒物(PM2.5)
马鞍山市,雨山,118.4914,31.681,2026-01-24T2300,65,95,0.7,39,12,60,79,88,细颗粒物(PM2.5)
马鞍山市,慈湖高新区,118.527362,31.722269,2026-01-24T2300,59,89,0.8,29,4,68,78,80,细颗粒物(PM2.5)
茂名市,电白南海,111.0285,21.469,2026-01-24T2300,39,61,1.0,18,9,125,118,56,颗粒物(PM10)
茂名市,茂石化七小,110.9294,21.6533,2026-01-24T2300,,,0.9,31,10,67,98,,
茂名市,健康路,110.9108,21.6688,2026-01-24T2300,44,68,0.9,31,13,93,109,62,细颗粒物(PM2.5)
茂名市,高岭,110.8592,21.6826,2026-01-24T2300,44,85,/,52,11,60,93,68,颗粒物(PM10)
茂名市,电白水东,111.0101,21.5165,2026-01-24T2300,41,63,/,19,8,94,97,58,细颗粒物(PM2.5)
眉山市,气象局,103.8414,30.0871,2026-01-24T2300,80,85,1.0,28,14,19,29,107,细颗粒物(PM2.5)
眉山市,区人社局,103.829,30.0563,2026-01-24T2300,66,76,0.9,31,9,18,27,89,细颗粒物(PM2.5)
眉山市,眉职院,103.8836,30.0695,2026-01-24T2300,70,97,1.0,22,1,15,30,94,细颗粒物(PM2.5)
梅州市,梅江月梅,116.1248,24.3307,2026-01-24T2300,35,42,/,54,/,11,79,50,
梅州市,梅县新城,116.0798,24.2719,2026-01-24T2300,55,74,0.9,57,7,7,73,75,细颗粒物(PM2.5)
梅州市,梅龙,116.1234,24.2994,2026-01-24T2300,40,63,1.5,47,8,8,65,57,"颗粒物(PM10),细颗粒物(PM2.5)"
绵阳市,富乐山,104.7775,31.4741,2026-01-24T2300,58,69,0.7,14,8,24,29,79,细颗粒物(PM2.5)
绵阳市,高新区自来水公司,104.6698,31.4668,2026-01-24T2300,78,92,1.1,46,8,1,24,104,细颗粒物(PM2.5)
绵阳市,西科大附属小学,104.6899,31.5324,2026-01-24T2300,79,110,1.0,42,8,2,24,105,细颗粒物(PM2.5)
绵阳市,安州区旅游局,104.5647,31.5343,2026-01-24T2300,58,60,0.6,19,8,30,24,79,细颗粒物(PM2.5)
绵阳市,科技城新区公安局,104.7092,31.4972,2026-01-24T2300,65,78,0.9,48,6,3,35,88,细颗粒物(PM2.5)
绵阳市,绵阳市气象局,104.765114,31.453094,2026-01-24T2300,63,65,0.8,18,5,27,25,85,细颗粒物(PM2.5)
牡丹江市,环保大楼,129.61,44.561,2026-01-24T2300,30,42,0.3,16,2,59,73,43,
牡丹江市,机车工厂,129.6364,44.6075,2026-01-24T2300,38,44,0.4,36,8,129,83,54,细颗粒物(PM2.5)
牡丹江市,第一中学,129.6386,44.5462,2026-01-24T2300,22,32,0.3,13,4,61,72,32,
牡丹江市,东晓云街98号,129.5992,44.5964,2026-01-24T2300,34,43,0.5,12,4,64,73,49,
内江市,市监测站,105.0703,29.61,2026-01-24T2300,56,61,0.7,14,5,46,51,77,细颗粒物(PM2.5)
内江市,内江二中,105.0657,29.5807,2026-01-24T2300,50,64,0.4,27,6,36,43,69,细颗粒物(PM2.5)
内江市,内江日报社,105.0407,29.5828,2026-01-24T2300,53,58,0.9,28,8,40,47,73,细颗粒物(PM2.5)
内江市,玉峰路西段888号,105.0433,29.6105,2026-01-24T2300,50,,1.2,22,4,43,50,69,细颗粒物(PM2.5)
那曲市,那曲监测站,92.0653,31.4846,2026-01-24T2300,21,34,0.9,21,8,60,88,34,
那曲市,那曲市委宣传部,92.0515,31.4787,2026-01-24T2300,9,18,0.5,13,4,62,92,20,
南昌市,省林业公司,115.8887,28.7006,2026-01-24T2300,68,85,0.6,68,4,9,44,92,细颗粒物(PM2.5)
南昌市,林科所,115.813,28.7443,2026-01-24T2300,61,70,0.6,61,5,5,56,83,细颗粒物(PM2.5)
南昌市,建工学校,115.8518,28.687,2026-01-24T2300,69,97,0.9,69,8,17,48,93,细颗粒物(PM2.5)
南昌市,象湖,115.8926,28.6425,2026-01-24T2300,73,100,0.9,47,9,19,42,98,细颗粒物(PM2.5)
南昌市,机电学校,115.9084,28.6062,2026-01-24T2300,85,127,0.9,70,5,5,50,113,细颗粒物(PM2.5)
南昌市,外国语学校,115.9718,28.7032,2026-01-24T2300,67,82,0.6,41,13,34,50,90,细颗粒物(PM2.5)
南昌市,工业二路,115.7923,28.6873,2026-01-24T2300,72,91,0.8,64,5,9,57,97,细颗粒物(PM2.5)
南昌市,南京东路235号,115.931587,28.686774,2026-01-24T2300,84,118,1.0,52,6,13,45,112,细颗粒物(PM2.5)
南充市,南充市委,106.0791,30.8022,2026-01-24T2300,53,64,0.8,39,4,19,31,73,细颗粒物(PM2.5)
南充市,南充炼油厂,106.1038,30.8215,2026-01-24T2300,57,66,0.6,16,5,34,33,78,细颗粒物(PM2.5)
南充市,梨树横街98号,106.108336,30.788436,2026-01-24T2300,45,62,0.7,20,5,43,44,63,细颗粒物(PM2.5)
南充市,清泉寺北路188号,106.1172,30.843,2026-01-24T2300,41,53,0.4,14,6,47,47,58,细颗粒物(PM2.5)
南充市,同庆路1号,106.067,30.7616,2026-01-24T2300,53,64,0.9,40,6,20,30,73,细颗粒物(PM2.5)
南京市,迈皋桥,118.8033,32.1085,2026-01-24T2300,80,102,0.8,39,8,41,86,107,细颗粒物(PM2.5)
南京市,草场门,118.7487,32.057,2026-01-24T2300,73,105,1.1,50,3,42,68,98,细颗粒物(PM2.5)
南京市,中华门,118.770105,32.004342,2026-01-24T2300,78,97,1.0,39,4,53,93,104,细颗粒物(PM2.5)
南京市,瑞金路,118.8059,32.0329,2026-01-24T2300,80,102,0.8,37,4,34,87,107,细颗粒物(PM2.5)
南京市,玄武湖,118.7946,32.0774,2026-01-24T2300,71,97,1.1,23,4,63,91,95,细颗粒物(PM2.5)
南京市,浦口,118.6415,32.0964,2026-01-24T2300,85,129,0.8,74,10,30,76,113,细颗粒物(PM2.5)
南京市,奥体中心,118.730129,32.000956,2026-01-24T2300,80,105,1.0,48,13,60,101,107,细颗粒物(PM2.5)
南京市,仙林大学城,118.9072,32.1047,2026-01-24T2300,92,122,1.3,56,10,42,91,122,细颗粒物(PM2.5)
南京市,江宁彩虹桥,118.8443,31.919,2026-01-24T2300,90,129,1.1,76,4,43,103,119,细颗粒物(PM2.5)
南京市,六合雄州,118.8497,32.3599,2026-01-24T2300,63,87,0.7,48,9,46,88,85,细颗粒物(PM2.5)
南京市,新模范马路66号,118.7641,32.0841,2026-01-24T2300,80,105,0.6,25,3,82,116,107,细颗粒物(PM2.5)
南京市,汶溪路181号,118.8707617,31.34017673,2026-01-24T2300,78,89,1.0,50,8,52,79,104,细颗粒物(PM2.5)
南京市,中山西路1号,119.019,31.6512,2026-01-24T2300,78,100,1.1,38,4,52,81,104,细颗粒物(PM2.5)
南宁市,二十一中,108.3098,22.788,2026-01-24T2300,54,64,0.8,29,3,18,24,74,细颗粒物(PM2.5)
南宁市,北湖,108.3135,22.8529,2026-01-24T2300,60,69,1.0,35,1,9,18,82,细颗粒物(PM2.5)
南宁市,市监测站,108.3205,22.8222,2026-01-24T2300,49,64,1.1,30,4,14,20,68,细颗粒物(PM2.5)
南宁市,大自然花园,108.3828,22.8038,2026-01-24T2300,47,77,0.9,17,4,19,30,65,细颗粒物(PM2.5)
南宁市,区农职院,108.2397,22.8462,2026-01-24T2300,51,57,0.6,35,6,16,23,70,细颗粒物(PM2.5)
南宁市,英华嘉园,108.3285,22.7356,2026-01-24T2300,68,,0.8,27,3,14,26,92,细颗粒物(PM2.5)
南宁市,红星社区,108.4829,22.762,2026-01-24T2300,55,69,0.9,28,4,18,38,75,细颗粒物(PM2.5)
南宁市,起凤路9号,108.2927,23.1477,2026-01-24T2300,74,91,1.0,25,1,9,31,99,细颗粒物(PM2.5)
南宁市,乐贤路16号,108.2177,22.7774,2026-01-24T2300,66,66,0.8,39,3,4,19,89,细颗粒物(PM2.5)
南平市,南平市监测站,118.1682,26.6371,2026-01-24T2300,22,26,0.7,16,4,44,60,32,
南平市,南平七中,118.1757,26.6276,2026-01-24T2300,20,26,0.5,21,4,37,65,29,
南通市,狼山街道,120.9056,31.9669,2026-01-24T2300,87,101,0.7,40,3,67,79,115,细颗粒物(PM2.5)
南通市,城中,120.8635,32.0231,2026-01-24T2300,75,102,0.7,32,4,80,82,100,细颗粒物(PM2.5)
南通市,星湖花园,120.9376,31.9301,2026-01-24T2300,70,96,0.6,38,5,77,86,94,细颗粒物(PM2.5)
南通市,紫琅学院,120.8053,32.046,2026-01-24T2300,74,98,0.6,29,4,87,84,99,细颗粒物(PM2.5)
南通市,通州监测站,121.0631,32.0644,2026-01-24T2300,75,85,0.6,20,3,101,105,100,细颗粒物(PM2.5)
南通市,环境教育馆,120.9348,31.9874,2026-01-24T2300,89,100,0.8,44,4,53,88,118,细颗粒物(PM2.5)
南通市,洪江路,120.8692,31.9885,2026-01-24T2300,82,89,,,4,80,79,109,细颗粒物(PM2.5)
南阳市,瓦房庄,112.5338,33.0086,2026-01-24T2300,101,106,1.0,18,6,65,78,133,细颗粒物(PM2.5)
南阳市,汉画馆,112.5002,32.9734,2026-01-24T2300,99,111,0.9,20,6,64,76,130,细颗粒物(PM2.5)
南阳市,气象站,112.5778,33.0144,2026-01-24T2300,100,122,0.9,19,4,64,84,132,细颗粒物(PM2.5)
南阳市,理工学院,112.548,32.9687,2026-01-24T2300,84,104,1.0,18,5,62,79,112,细颗粒物(PM2.5)
南阳市,卧龙区政府,112.5233,32.9921,2026-01-24T2300,99,129,1.0,18,5,62,74,130,细颗粒物(PM2.5)
宁波市,区环保大楼,121.8352,29.9111,2026-01-24T2300,72,106,0.7,88,6,18,72,97,细颗粒物(PM2.5)
宁波市,万里学院,121.5595,29.8208,2026-01-24T2300,74,102,0.7,49,4,60,80,99,细颗粒物(PM2.5)
宁波市,龙赛医院,121.713,29.9564,2026-01-24T2300,66,88,0.6,57,4,60,93,89,细颗粒物(PM2.5)
宁波市,太古小学,121.5855,29.8635,2026-01-24T2300,78,121,0.9,89,6,21,86,104,细颗粒物(PM2.5)
宁波市,市环境监测中心,121.5239,29.8673,2026-01-24T2300,83,99,1.0,55,8,50,88,110,细颗粒物(PM2.5)
宁波市,万里国际学校,121.6156,29.9015,2026-01-24T2300,88,115,1.0,88,4,25,88,117,细颗粒物(PM2.5)
宁波市,白沙活动中心,121.5593,29.8976,2026-01-24T2300,82,95,0.6,70,4,26,89,109,细颗粒物(PM2.5)
宁波市,中科路88号,121.8962,29.7529,2026-01-24T2300,51,67,0.5,60,5,32,107,70,细颗粒物(PM2.5)
宁德市,宁德市监测站,119.5387,26.6611,2026-01-24T2300,19,,0.5,24,4,75,62,28,
宁德市,宁德一中,119.5231,26.6562,2026-01-24T2300,21,26,0.6,16,3,74,69,30,
怒江傈僳族自治州,州监测站,98.859,25.8541,2026-01-24T2300,37,54,0.6,20,4,40,78,53,细颗粒物(PM2.5)
怒江傈僳族自治州,泸水一中,98.8607,25.8168,2026-01-24T2300,40,40,0.8,30,4,23,67,57,细颗粒物(PM2.5)
攀枝花市,弄弄坪,101.6891,26.571,2026-01-24T2300,63,100,1.0,39,20,45,101,85,细颗粒物(PM2.5)
攀枝花市,河门口,101.577,26.5914,2026-01-24T2300,17,90,1.2,39,24,36,107,70,颗粒物(PM10)
攀枝花市,仁和,101.7365,26.4986,2026-01-24T2300,43,70,1.0,21,10,48,100,60,"颗粒物(PM10),细颗粒物(PM2.5)"
攀枝花市,四十中小,101.7222,26.567,2026-01-24T2300,79,127,1.9,74,20,22,88,105,细颗粒物(PM2.5)
盘锦市,开发区,122.0303,41.1489,2026-01-24T2300,124,,1.9,46,12,14,75,163,细颗粒物(PM2.5)
盘锦市,兴隆台,122.0486,41.0883,2026-01-24T2300,56,72,1.2,59,9,8,68,77,细颗粒物(PM2.5)
盘锦市,新生街道,121.8297,41.1026,2026-01-24T2300,96,98,1.0,62,9,16,73,127,细颗粒物(PM2.5)
平顶山市,新华旅馆,113.3257,33.7423,2026-01-24T2300,102,134,0.8,28,5,76,84,134,细颗粒物(PM2.5)
平顶山市,规划设计院,113.2917,33.737,2026-01-24T2300,95,141,0.8,21,6,75,83,125,细颗粒物(PM2.5)
平顶山市,平顶山工学院,113.182,33.7738,2026-01-24T2300,102,119,0.8,27,7,70,90,134,细颗粒物(PM2.5)
平顶山市,石龙区,112.8736,33.9068,2026-01-24T2300,120,139,0.9,18,5,69,82,158,细颗粒物(PM2.5)
平顶山市,姚电大道23号,113.284,33.7139,2026-01-24T2300,106,137,0.6,29,5,76,87,139,细颗粒物(PM2.5)
平凉市,聚贤嘉苑,106.6633,35.5338,2026-01-24T2300,86,115,0.8,44,23,58,91,114,细颗粒物(PM2.5)
平凉市,博物馆,106.7021,35.5307,2026-01-24T2300,93,116,1.2,37,12,69,90,123,细颗粒物(PM2.5)
萍乡市,中医院,113.8384,27.6436,2026-01-24T2300,52,68,1.1,24,8,56,68,72,细颗粒物(PM2.5)
萍乡市,市环保局,113.8677,27.6438,2026-01-24T2300,44,56,1.1,23,21,58,75,62,细颗粒物(PM2.5)
萍乡市,安源区政府,113.8663,27.6202,2026-01-24T2300,55,64,1.2,27,15,47,54,75,细颗粒物(PM2.5)
萍乡市,联洪村委会,113.8686,27.6668,2026-01-24T2300,43,62,0.9,16,4,68,73,60,细颗粒物(PM2.5)
莆田市,荔城区仓后路,119.0142,25.4324,2026-01-24T2300,11,25,/,13,/,69,66,25,
莆田市,莆田市监测站,119.0016,25.4553,2026-01-24T2300,7,16,0.5,6,3,79,70,25,
莆田市,涵江区六中,119.112,25.4561,2026-01-24T2300,14,20,0.4,10,/,80,74,25,
莆田市,秀屿区政府,119.1014,25.3215,2026-01-24T2300,12,21,0.6,15,2,71,74,23,
濮阳市,环保局,115.0312,35.7636,2026-01-24T2300,126,130,1.2,69,9,36,86,166,细颗粒物(PM2.5)
濮阳市,濮水河管理处,115,35.7667,2026-01-24T2300,103,135,1.0,38,4,55,98,135,细颗粒物(PM2.5)
濮阳市,中原东路68号,115.0552,35.7816,2026-01-24T2300,145,186,1.1,68,8,20,93,193,细颗粒物(PM2.5)
濮阳市,任丘路479号,115.0923632,35.76857718,2026-01-24T2300,140,171,1.4,62,19,31,94,186,细颗粒物(PM2.5)
普洱市,市环保局,100.9801,22.7634,2026-01-24T2300,19,69,0.4,11,4,59,88,60,颗粒物(PM10)
普洱市,普洱第二中学,100.9763,22.8237,2026-01-24T2300,36,47,0.4,27,5,39,90,52,细颗粒物(PM2.5)
七台河市,中波台,131.0413,45.7795,2026-01-24T2300,21,28,0.4,12,10,63,72,30,
七台河市,人民广场,131.0136,45.7688,2026-01-24T2300,22,34,0.6,21,6,60,72,34,
七台河市,新建矿广场,130.8639,45.8144,2026-01-24T2300,19,24,0.5,10,4,58,63,28,
齐齐哈尔市,安居小区,123.9307,47.3641,2026-01-24T2300,19,22,0.8,14,7,53,64,28,
齐齐哈尔市,中心广场,123.9497,47.3389,2026-01-24T2300,9,32,0.5,10,5,59,63,32,
齐齐哈尔市,农牧车辆厂,123.9483,47.3229,2026-01-24T2300,18,24,0.3,8,5,58,66,26,
齐齐哈尔市,市环境监测站,123.9442,47.2994,2026-01-24T2300,17,,0.5,7,4,61,65,25,
齐齐哈尔市,富区青少年活动中心,123.6341,47.2079,2026-01-24T2300,13,17,0.6,6,4,64,66,20,
黔东南苗族侗族自治州,市环境监测站,107.9765,26.5724,2026-01-24T2300,19,24,0.7,12,5,42,44,28,
黔东南苗族侗族自治州,凯里学院,107.8909,26.531,2026-01-24T2300,12,,0.6,7,2,54,55,18,
黔南布依族苗族自治州,小围寨,107.5223,26.2371,2026-01-24T2300,14,14,0.8,6,5,38,53,20,
黔南布依族苗族自治州,沙坝,107.5175,26.2977,2026-01-24T2300,12,17,0.7,8,4,40,54,18,
黔西南布依族苗族自治州,场坝街,104.9022,25.0943,2026-01-24T2300,22,44,0.7,8,2,23,29,44,
黔西南布依族苗族自治州,坪东大道,104.8812,25.0994,2026-01-24T2300,48,,1.0,10,4,18,29,67,细颗粒物(PM2.5)
钦州市,市环保站,108.6238,21.9667,2026-01-24T2300,73,92,2.5,35,2,5,26,98,细颗粒物(PM2.5)
钦州市,沙埠小学,108.655,21.9481,2026-01-24T2300,52,64,0.6,36,3,7,26,72,细颗粒物(PM2.5)
钦州市,港区一小,108.5989,21.7435,2026-01-24T2300,48,76,1.3,35,1,6,17,67,细颗粒物(PM2.5)
钦州市,北职校,108.5959,21.9634,2026-01-24T2300,54,,0.9,17,2,15,28,74,细颗粒物(PM2.5)
秦皇岛市,建设大厦,119.5247,39.9346,2026-01-24T2300,29,41,0.6,24,10,42,52,42,
秦皇岛市,文明里,119.5979,39.938,2026-01-24T2300,35,43,0.3,23,15,49,52,50,
秦皇岛市,南园路157号,119.7458,39.9952,2026-01-24T2300,30,,0.6,43,13,30,60,43,
秦皇岛市,翠岛大街1号,119.5131,39.8858,2026-01-24T2300,27,47,0.6,34,15,34,51,47,
秦皇岛市,北戴河轮滑馆,119.509013,39.825305,2026-01-24T2300,23,39,0.5,23,8,52,56,39,
青岛市,市南区东部子站,120.404,36.0625,2026-01-24T2300,39,48,0.6,26,8,75,77,55,细颗粒物(PM2.5)
青岛市,四方区子站,120.362344,36.10282,2026-01-24T2300,63,70,1.3,81,4,5,85,85,细颗粒物(PM2.5)
青岛市,市南区西部子站,120.294373,36.054183,2026-01-24T2300,46,63,0.6,24,4,97,90,64,细颗粒物(PM2.5)
青岛市,崂山区子站,120.4581,36.0858,2026-01-24T2300,24,36,0.5,35,9,59,67,36,
青岛市,城阳区子站,120.3945,36.3083,2026-01-24T2300,44,66,1.0,56,8,36,73,62,细颗粒物(PM2.5)
青岛市,市北区南部,120.3454,36.0735,2026-01-24T2300,36,56,0.7,20,3,88,87,53,颗粒物(PM10)
青岛市,李沧区北部,120.3897,36.18,2026-01-24T2300,39,41,0.6,20,8,70,73,55,细颗粒物(PM2.5)
青岛市,盟旺路653号,120.5222,36.4089,2026-01-24T2300,47,72,0.8,29,4,69,72,65,细颗粒物(PM2.5)
青岛市,珠江路669号,120.196923,35.954556,2026-01-24T2300,78,83,1.1,43,5,59,101,104,细颗粒物(PM2.5)
青岛市,黄岛区人民政府广场,120.0424,35.8656,2026-01-24T2300,102,134,1.5,83,7,15,95,134,细颗粒物(PM2.5)
清远市,凤城街办,113.0218,23.7086,2026-01-24T2300,45,76,/,68,/,4,52,63,"颗粒物(PM10),细颗粒物(PM2.5)"
清远市,技师学院,113.0479,23.6343,2026-01-24T2300,47,88,1.2,76,6,2,61,69,颗粒物(PM10)
清远市,清新太和,112.9898,23.7403,2026-01-24T2300,20,32,0.7,23,11,51,60,32,
清远市,清城东城,113.076,23.72,2026-01-24T2300,29,54,/,44,/,8,56,52,颗粒物(PM10)
庆阳市,庆阳五中,107.6325,35.7357,2026-01-24T2300,63,85,1.0,31,7,77,95,85,细颗粒物(PM2.5)
庆阳市,市环保局,107.6361,35.7067,2026-01-24T2300,93,,0.8,24,9,83,99,123,细颗粒物(PM2.5)
曲靖市,环境监测站,103.7897,25.5036,2026-01-24T2300,12,33,0.6,13,4,67,100,33,
曲靖市,烟厂办公区,103.8013,25.5357,2026-01-24T2300,15,28,0.2,9,4,71,97,28,
曲靖市,南苑二区,103.7926,25.4651,2026-01-24T2300,10,23,0.4,5,3,71,94,23,
曲靖市,曲靖师范学院,103.7442,25.5259,2026-01-24T2300,11,33,0.2,10,6,70,101,33,
衢州市,环保大楼,118.8694,28.94,2026-01-24T2300,80,104,/,74,/,6,65,107,细颗粒物(PM2.5)
衢州市,衢州学院,118.8622,28.9809,2026-01-24T2300,58,74,0.9,62,5,14,67,79,细颗粒物(PM2.5)
衢州市,衢州三中,118.9646,28.9832,2026-01-24T2300,75,102,0.9,75,5,1,61,100,细颗粒物(PM2.5)
泉州市,涂山街,118.5818,24.9116,2026-01-24T2300,14,14,0.4,14,3,67,79,21,
泉州市,津头埔,118.597,24.8976,2026-01-24T2300,17,19,0.4,17,4,63,77,25,
泉州市,万安,118.6669,24.9422,2026-01-24T2300,15,18,0.5,14,3,64,73,22,
泉州市,霞新路6号,118.6355,24.9148,2026-01-24T2300,16,25,0.5,27,/,55,76,25,
日喀则市,日喀则监测站,88.8873,29.2723,2026-01-24T2300,14,32,0.4,8,8,85,93,32,
日喀则市,林业技术推广中心,88.8775,29.2425,2026-01-24T2300,6,23,0.3,4,9,96,98,30,
日照市,监测站,119.4711,35.421,2026-01-24T2300,144,193,2.5,104,28,7,81,192,细颗粒物(PM2.5)
日照市,市政府广场,119.523,35.4216,2026-01-24T2300,83,119,1.2,101,10,6,87,110,细颗粒物(PM2.5)
日照市,港务局,119.5511,35.4113,2026-01-24T2300,93,117,1.2,95,7,5,84,123,细颗粒物(PM2.5)
日照市,职业技术学院,119.5326,35.4627,2026-01-24T2300,53,83,1.0,35,7,67,88,73,细颗粒物(PM2.5)
日照市,岚山环保分局,119.3267,35.1043,2026-01-24T2300,75,97,0.9,29,11,91,96,100,细颗粒物(PM2.5)
三门峡市,市政府,111.1922,34.7752,2026-01-24T2300,154,,1.1,23,8,71,96,204,细颗粒物(PM2.5)
三门峡市,开发区,111.1588,34.794,2026-01-24T2300,148,177,0.7,26,6,64,87,198,细颗粒物(PM2.5)
三门峡市,三门峡市第一小学,111.1911,34.7829,2026-01-24T2300,139,,0.7,28,7,68,93,185,细颗粒物(PM2.5)
三门峡市,富达温泉假日酒店,111.1031,34.719,2026-01-24T2300,151,181,1.0,32,5,63,88,201,细颗粒物(PM2.5)
三明市,三钢,117.621,26.2626,2026-01-24T2300,49,,0.9,47,5,7,7,68,细颗粒物(PM2.5)
三明市,三明二中,117.6352,26.2714,2026-01-24T2300,32,41,1.1,36,3,17,73,46,
三明市,三元区政府,117.6028,26.2377,2026-01-24T2300,34,44,1.0,33,5,19,66,49,
三亚市,河西子站,109.4962,18.2682,2026-01-24T2300,13,34,0.6,10,3,82,90,34,
三亚市,君悦子站,109.7348,18.3443,2026-01-24T2300,21,41,0.6,39,4,39,92,41,
三亚市,城东小学站,109.1714,18.3739,2026-01-24T2300,19,47,/,23,/,40,90,47,
山南市,山南监测站,91.7592,29.234,2026-01-24T2300,10,31,0.2,1,4,88,90,31,
山南市,山南人民医院,91.7701,29.2436,2026-01-24T2300,10,28,0.4,1,7,90,91,29,
汕头市,金平子站,116.6795,23.3666,2026-01-24T2300,15,24,0.7,13,4,79,106,25,
汕头市,龙湖子站,116.7248,23.3632,2026-01-24T2300,14,25,/,12,9,81,106,26,
汕头市,濠江子站,116.7257,23.2774,2026-01-24T2300,14,19,/,11,6,86,106,27,
汕头市,澄海子站,116.7518,23.4712,2026-01-24T2300,17,19,0.6,8,6,79,106,25,
汕头市,潮阳子站,116.6088,23.2539,2026-01-24T2300,7,16,0.5,4,5,90,110,29,
汕头市,潮南峡山,116.4539,23.2684,2026-01-24T2300,8,16,0.5,7,5,94,114,30,
汕头市,潮南子站,116.4069,23.2533,2026-01-24T2300,12,39,/,13,6,82,105,39,
汕尾市,市环保局,115.3653,22.7751,2026-01-24T2300,19,22,0.6,10,6,96,127,30,
汕尾市,新城中学,115.362,22.7926,2026-01-24T2300,21,31,0.5,12,5,94,127,31,
商洛市,监测站,109.9155,33.8714,2026-01-24T2300,63,83,0.7,18,12,65,64,85,细颗粒物(PM2.5)
商洛市,商州区中学,109.9647,33.8486,2026-01-24T2300,66,,0.8,13,19,70,62,89,细颗粒物(PM2.5)
商丘市,环境监测站,115.6701,34.4283,2026-01-24T2300,123,,1.0,40,3,64,114,162,细颗粒物(PM2.5)
商丘市,粮食局,115.6458,34.4047,2026-01-24T2300,112,112,0.9,30,4,67,105,147,细颗粒物(PM2.5)
商丘市,梁园区档案局,115.6069,34.4465,2026-01-24T2300,115,,0.9,39,2,68,110,150,细颗粒物(PM2.5)
商丘市,北海东路185号,115.6701,34.3767,2026-01-24T2300,113,160,0.7,28,2,65,115,148,细颗粒物(PM2.5)
商丘市,中山大街3号,115.6172,34.3704,2026-01-24T2300,116,138,0.6,27,5,80,108,152,细颗粒物(PM2.5)
上海市,普陀,121.401,31.2382,2026-01-24T2300,62,67,0.8,37,6,79,82,84,细颗粒物(PM2.5)
上海市,十五厂,121.4774,31.2043,2026-01-24T2300,58,71,,52,7,63,85,,
上海市,虹口,121.4673,31.3011,2026-01-24T2300,62,74,0.5,53,8,50,83,84,细颗粒物(PM2.5)
上海市,静安监测站,121.4253,31.226,2026-01-24T2300,56,59,0.4,39,7,84,86,77,细颗粒物(PM2.5)
上海市,浦东川沙,121.7029,31.1905,2026-01-24T2300,57,79,0.7,61,7,44,85,78,细颗粒物(PM2.5)
上海市,浦东新区监测站,121.5339,31.229,2026-01-24T2300,61,71,0.8,55,7,56,87,83,细颗粒物(PM2.5)
上海市,浦东张江,121.5776,31.2038,2026-01-24T2300,47,74,0.6,43,7,66,94,65,细颗粒物(PM2.5)
上海市,宝山庙行,121.4242,31.3303,2026-01-24T2300,64,79,0.6,52,8,42,82,87,细颗粒物(PM2.5)
上海市,崇明上实东滩,121.8789,31.4662,2026-01-24T2300,55,69,0.0,11,4,77,106,75,细颗粒物(PM2.5)
上海市,嘉定南翔,121.316,31.2839,2026-01-24T2300,56,76,0.6,48,3,55,79,77,细颗粒物(PM2.5)
上海市,金山新城,121.3357,30.7455,2026-01-24T2300,54,,0.5,25,9,88,104,74,细颗粒物(PM2.5)
上海市,闵行浦江,121.4996,31.0741,2026-01-24T2300,62,78,0.6,48,7,43,84,84,细颗粒物(PM2.5)
上海市,青浦徐泾,121.2886,31.1663,2026-01-24T2300,62,85,0.6,50,6,60,82,84,细颗粒物(PM2.5)
上海市,松江图书馆,121.2193,31.0382,2026-01-24T2300,65,83,0.7,51,6,60,85,88,细颗粒物(PM2.5)
上海市,长宁仙霞,121.3904,31.206,2026-01-24T2300,55,63,0.3,34,8,70,86,75,细颗粒物(PM2.5)
上海市,浦东惠南,121.7964,31.0507,2026-01-24T2300,57,77,0.5,60,4,45,99,78,细颗粒物(PM2.5)
上海市,奉贤南桥新城,121.4891,30.925,2026-01-24T2300,74,111,0.6,31,2,69,96,99,细颗粒物(PM2.5)
上海市,冠生园路458号,121.417401,31.16637,2026-01-24T2300,62,75,0.8,51,4,58,78,84,细颗粒物(PM2.5)
上海市,宁武路151号,121.541914,31.268301,2026-01-24T2300,57,86,0.9,83,5,19,77,78,细颗粒物(PM2.5)
上饶市,市监测站,117.9758,28.4439,2026-01-24T2300,39,73,/,35,9,59,86,62,颗粒物(PM10)
上饶市,凤凰光学,117.9521,28.4637,2026-01-24T2300,43,80,0.8,35,25,47,74,65,颗粒物(PM10)
上饶市,双创科技城,117.897,28.4316,2026-01-24T2300,46,72,0.9,47,18,58,86,64,细颗粒物(PM2.5)
上饶市,裕丰大道,118.190438,28.444845,2026-01-24T2300,67,93,0.9,52,14,45,76,90,细颗粒物(PM2.5)
韶关市,市八中,113.5821,24.7733,2026-01-24T2300,44,77,0.9,62,8,2,61,64,颗粒物(PM10)
韶关市,园林处,113.5916,24.7973,2026-01-24T2300,48,64,/,60,7,3,67,67,细颗粒物(PM2.5)
韶关市,曲江监测站,113.5971,24.6864,2026-01-24T2300,42,65,1.1,51,12,7,65,59,细颗粒物(PM2.5)
韶关市,大学路288号,113.6668,24.7756,2026-01-24T2300,25,36,/,17,5,34,62,36,
韶关市,碧湖山庄,113.5556,24.8082,2026-01-24T2300,40,63,0.4,26,11,36,67,57,"颗粒物(PM10),细颗粒物(PM2.5)"
邵阳市,市化工厂,111.5277,27.2442,2026-01-24T2300,43,54,0.6,26,6,39,61,60,细颗粒物(PM2.5)
邵阳市,市环保局,111.4327,27.2276,2026-01-24T2300,44,,0.9,23,7,48,54,62,细颗粒物(PM2.5)
邵阳市,北塔二期4-26地块,111.446,27.2472,2026-01-24T2300,50,,1.0,28,7,35,50,69,细颗粒物(PM2.5)
邵阳市,邵水西路287号,111.4739,27.2282,2026-01-24T2300,42,47,1.0,25,9,44,56,59,细颗粒物(PM2.5)
绍兴市,城东开发委,120.6053,29.9927,2026-01-24T2300,93,116,0.9,50,9,32,78,123,细颗粒物(PM2.5)
绍兴市,树下王站,120.5482,30.0003,2026-01-24T2300,83,106,1.0,35,8,52,78,110,细颗粒物(PM2.5)
绍兴市,绍兴中专,120.5685,29.936,2026-01-24T2300,95,121,0.7,73,8,7,72,125,细颗粒物(PM2.5)
绍兴市,柯桥区政府,120.4905,30.086,2026-01-24T2300,84,113,0.9,44,10,66,73,112,细颗粒物(PM2.5)
绍兴市,重华小学,120.8751,30.0249,2026-01-24T2300,89,109,0.7,39,6,51,76,118,细颗粒物(PM2.5)
绍兴市,上虞中学,120.837,30.0137,2026-01-24T2300,92,114,0.8,48,10,47,79,122,细颗粒物(PM2.5)
绍兴市,柯桥妇保,120.4715,30.0414,2026-01-24T2300,84,107,0.7,33,6,49,74,112,细颗粒物(PM2.5)
绍兴市,袍江中学,120.6156,30.0762,2026-01-24T2300,85,108,1.1,38,10,65,74,113,细颗粒物(PM2.5)
深圳市,通心岭子站,114.0948,22.5506,2026-01-24T2300,28,40,0.7,18,5,90,125,40,
深圳市,洪湖,114.1153,22.5713,2026-01-24T2300,29,53,0.8,38,8,78,126,52,颗粒物(PM10)
深圳市,华侨城,113.9823,22.5398,2026-01-24T2300,51,69,/,56,/,47,125,70,细颗粒物(PM2.5)
深圳市,南海子站,113.9181,22.517,2026-01-24T2300,62,86,1.1,50,6,61,130,84,细颗粒物(PM2.5)
深圳市,盐田,114.2345,22.565,2026-01-24T2300,23,32,0.7,26,8,84,107,33,
深圳市,南澳,114.4911,22.5381,2026-01-24T2300,17,20,/,29,/,60,122,25,
深圳市,葵涌,114.41,22.6346,2026-01-24T2300,33,42,0.7,24,7,55,116,48,
深圳市,梅沙,114.2967,22.5978,2026-01-24T2300,18,29,/,11,/,102,124,32,
深圳市,观澜,114.0563,22.7353,2026-01-24T2300,75,133,1.1,125,8,11,162,100,细颗粒物(PM2.5)
深圳市,莲花,114.0614,22.556,2026-01-24T2300,35,48,/,33,/,77,121,50,
深圳市,民治,114.0144,22.6163,2026-01-24T2300,35,53,/,30,/,91,131,52,颗粒物(PM10)
深圳市,横岗,114.1756,22.6421,2026-01-24T2300,34,48,/,29,/,94,111,49,
深圳市,坪山,114.344,22.7115,2026-01-24T2300,26,40,0.8,22,8,91,126,40,
深圳市,西乡,113.8952,22.586,2026-01-24T2300,69,100,1.0,120,6,10,130,93,细颗粒物(PM2.5)
深圳市,黄阁路,114.214113,22.713717,2026-01-24T2300,27,41,0.9,21,6,104,134,41,
沈阳市,浑南东路,123.5058,41.7084,2026-01-24T2300,110,,1.7,84,12,4,57,144,细颗粒物(PM2.5)
沈阳市,新秀街,123.4238,41.6992,2026-01-24T2300,41,70,,,11,8,59,,
沈阳市,东陵路,123.5903,41.8412,2026-01-24T2300,60,,1.2,67,8,8,66,82,细颗粒物(PM2.5)
沈阳市,陵东街,123.4267,41.8466,2026-01-24T2300,27,41,0.9,70,13,1,64,41,
沈阳市,文化路,123.4116,41.7654,2026-01-24T2300,32,62,1.0,67,12,9,64,56,颗粒物(PM10)
沈阳市,小河沿,123.4673,41.787,2026-01-24T2300,70,,1.5,80,14,5,72,94,细颗粒物(PM2.5)
沈阳市,太原街,123.4019,41.7978,2026-01-24T2300,32,60,0.9,68,26,10,65,55,颗粒物(PM10)
沈阳市,京沈街,123.3778,41.9233,2026-01-24T2300,70,74,1.3,86,18,1,73,94,细颗粒物(PM2.5)
沈阳市,沈辽西路,123.2429,41.7341,2026-01-24T2300,57,83,1.2,80,12,7,56,78,细颗粒物(PM2.5)
沈阳市,裕农路,123.5951,41.9085,2026-01-24T2300,29,,0.9,33,6,49,85,42,
十堰市,滨河新村,110.78,32.6494,2026-01-24T2300,,,,,/,,64,,
十堰市,刘家沟,110.7305,32.6408,2026-01-24T2300,117,118,/,28,/,65,72,153,细颗粒物(PM2.5)
十堰市,铁二处,110.8843,32.5712,2026-01-24T2300,115,,1.1,27,7,51,60,150,细颗粒物(PM2.5)
十堰市,郧阳区金沙路,110.8053,32.8401,2026-01-24T2300,92,,1.0,16,7,61,61,122,细颗粒物(PM2.5)
石河子市,艾青诗歌馆,86.0391,44.298,2026-01-24T2300,140,213,1.5,75,11,9,52,186,细颗粒物(PM2.5)
石河子市,南区管委会,86.047,44.2331,2026-01-24T2300,101,156,1.3,36,7,49,70,133,细颗粒物(PM2.5)
石河子市,世纪广场,86.0791,44.3018,2026-01-24T2300,130,208,1.5,88,9,10,52,172,细颗粒物(PM2.5)
石河子市,城南景苑小区,86.0126,44.2349,2026-01-24T2300,132,208,0.9,35,7,44,76,175,细颗粒物(PM2.5)
石家庄市,高新区,114.5919,38.0328,2026-01-24T2300,188,219,1.2,48,7,33,62,238,细颗粒物(PM2.5)
石家庄市,西南高教,114.4556,38.0136,2026-01-24T2300,196,233,1.2,64,5,39,64,246,细颗粒物(PM2.5)
石家庄市,世纪公园,114.533,38.0177,2026-01-24T2300,167,206,1.1,54,7,46,62,217,细颗粒物(PM2.5)
石家庄市,人民会堂,114.5105,38.0489,2026-01-24T2300,178,218,1.2,50,2,38,58,228,细颗粒物(PM2.5)
石家庄市,鹿泉一中,114.2887,38.0905,2026-01-24T2300,180,217,1.3,59,4,25,52,230,细颗粒物(PM2.5)
石家庄市,栾城区星河路,114.6491,37.9014,2026-01-24T2300,204,220,1.2,69,9,31,60,254,细颗粒物(PM2.5)
石家庄市,裕华西路63号,114.4563,38.0365,2026-01-24T2300,218,227,1.4,79,4,18,60,268,细颗粒物(PM2.5)
石家庄市,和平路363号,114.5586,38.0581,2026-01-24T2300,195,,1.2,56,4,34,58,245,细颗粒物(PM2.5)
石家庄市,廉州西路160号,114.8347,38.0213,2026-01-24T2300,214,229,1.4,60,2,10,49,264,细颗粒物(PM2.5)
石家庄市,北城路41号,114.4498,38.0729,2026-01-24T2300,181,268,1.5,105,3,8,63,231,细颗粒物(PM2.5)
石家庄市,矿区区委大楼,114.0494,38.059,2026-01-24T2300,194,257,1.4,59,12,46,40,244,细颗粒物(PM2.5)
石嘴山市,大武口朝阳西街,106.3668,39.0145,2026-01-24T2300,41,95,0.8,30,35,54,74,73,颗粒物(PM10)
石嘴山市,惠农南大街,106.7713,39.2278,2026-01-24T2300,32,79,0.7,49,18,34,74,65,颗粒物(PM10)
石嘴山市,红果子镇惠新街,106.7074,39.1332,2026-01-24T2300,30,99,0.6,41,8,46,77,75,颗粒物(PM10)
石嘴山市,妇女儿童医院,106.3495,38.9837,2026-01-24T2300,36,110,1.1,35,34,57,82,80,颗粒物(PM10)
石嘴山市,石大公路,106.7495,39.2068,2026-01-24T2300,35,95,0.8,33,12,48,73,73,颗粒物(PM10)
双鸭山市,双合村,131.1509,46.6936,2026-01-24T2300,24,29,0.5,10,7,58,68,35,
双鸭山市,南小市,131.1651,46.6191,2026-01-24T2300,33,,0.3,17,11,49,62,48,
双鸭山市,环保局,131.1526,46.6554,2026-01-24T2300,18,44,0.2,12,6,61,66,44,
朔州市,平朔,112.4399,39.3521,2026-01-24T2300,82,173,0.9,51,21,17,52,112,颗粒物(PM10)
朔州市,朔唯,112.4574,39.362,2026-01-24T2300,92,169,/,58,19,11,41,122,细颗粒物(PM2.5)
朔州市,区政府,112.426,39.3199,2026-01-24T2300,80,170,0.8,57,26,14,54,110,颗粒物(PM10)
朔州市,市环保局,112.4075,39.3277,2026-01-24T2300,86,163,/,55,27,25,56,114,细颗粒物(PM2.5)
朔州市,市二中,112.4273,39.3682,2026-01-24T2300,84,168,/,46,22,19,54,112,细颗粒物(PM2.5)
朔州市,一水厂,112.2938,39.5296,2026-01-24T2300,72,165,1.0,52,19,24,53,108,颗粒物(PM10)
四平市,境园,124.3744,43.1842,2026-01-24T2300,53,117,0.6,61,9,4,56,84,颗粒物(PM10)
四平市,植物园,124.4029,43.1411,2026-01-24T2300,46,52,0.8,57,6,17,56,64,细颗粒物(PM2.5)
四平市,世纪城,124.3286,43.1726,2026-01-24T2300,34,71,0.4,37,12,34,60,61,颗粒物(PM10)
松原市,江南,124.8007,45.1213,2026-01-24T2300,85,102,1.3,58,17,8,61,113,细颗粒物(PM2.5)
松原市,江北,124.7967,45.1721,2026-01-24T2300,42,61,0.6,45,7,7,61,59,细颗粒物(PM2.5)
苏州市,轧钢厂,120.5974,31.3247,2026-01-24T2300,69,99,0.8,49,6,43,77,93,细颗粒物(PM2.5)
苏州市,吴中区,120.6329,31.2741,2026-01-24T2300,60,86,0.6,40,7,54,66,82,细颗粒物(PM2.5)
苏州市,苏州新区,120.5566,31.3049,2026-01-24T2300,60,85,0.7,51,9,48,74,82,细颗粒物(PM2.5)
苏州市,苏州工业园区,120.668709,31.312523,2026-01-24T2300,68,94,0.7,52,6,48,86,92,细颗粒物(PM2.5)
苏州市,相城区,120.6408,31.3707,2026-01-24T2300,62,86,0.5,55,4,44,85,84,细颗粒物(PM2.5)
苏州市,方洲路,120.7431,31.3188,2026-01-24T2300,68,94,0.7,56,8,44,83,92,细颗粒物(PM2.5)
苏州市,木渎中学,120.4979,31.2777,2026-01-24T2300,66,86,0.8,34,6,64,77,89,细颗粒物(PM2.5)
苏州市,越秀幼儿园,120.642,31.1733,2026-01-24T2300,67,104,0.7,48,5,51,75,90,细颗粒物(PM2.5)
苏州市,高铁新城,120.6502,31.4117,2026-01-24T2300,78,103,0.8,76,4,5,84,104,细颗粒物(PM2.5)
苏州市,学森路9号,120.4282,31.3228,2026-01-24T2300,64,93,0.6,43,10,62,72,87,细颗粒物(PM2.5)
宿迁市,宿迁学院,118.2924,33.933,2026-01-24T2300,95,127,0.9,70,4,29,100,125,细颗粒物(PM2.5)
宿迁市,宿迁中学,118.2321,33.9572,2026-01-24T2300,84,111,1.0,38,6,61,98,112,细颗粒物(PM2.5)
宿迁市,市供电局,118.2781,33.9658,2026-01-24T2300,102,136,0.9,46,3,43,98,134,细颗粒物(PM2.5)
宿迁市,宿豫区政府,118.3243,33.95,2026-01-24T2300,101,124,0.8,38,7,73,99,133,细颗粒物(PM2.5)
宿迁市,春华路,118.352,33.7886,2026-01-24T2300,101,119,0.7,49,5,61,102,133,细颗粒物(PM2.5)
宿州市,远航博物馆,116.9508,33.666,2026-01-24T2300,83,111,0.7,34,2,68,101,110,细颗粒物(PM2.5)
宿州市,社会福利中心,116.9708,33.5911,2026-01-24T2300,76,102,0.7,16,5,82,94,102,细颗粒物(PM2.5)
宿州市,皖北煤电集团,116.9647,33.6252,2026-01-24T2300,77,103,0.8,30,4,83,101,103,细颗粒物(PM2.5)
宿州市,中兴路,116.9929,33.6412,2026-01-24T2300,96,123,0.6,28,5,70,99,127,细颗粒物(PM2.5)
绥化市,人和东街,126.9783,46.6365,2026-01-24T2300,28,41,0.7,13,3,61,64,41,
绥化市,党政办公中心,126.964,46.6527,2026-01-24T2300,35,42,0.6,15,1,58,62,50,
随州市,市委党校,113.3587,31.7275,2026-01-24T2300,71,93,0.9,48,57,43,98,95,细颗粒物(PM2.5)
随州市,市林业局,113.3745,31.6926,2026-01-24T2300,66,82,0.9,33,26,50,95,89,细颗粒物(PM2.5)
随州市,市立交桥水厂,113.3984,31.7309,2026-01-24T2300,89,89,0.6,48,4,34,91,118,细颗粒物(PM2.5)
遂宁市,市监测站,105.5581,30.5231,2026-01-24T2300,33,49,0.7,20,6,37,38,49,
遂宁市,美宁食品公司,105.5917,30.4727,2026-01-24T2300,40,57,0.6,20,8,32,44,57,细颗粒物(PM2.5)
遂宁市,环岛商务中心9号楼,105.5911,30.5368,2026-01-24T2300,44,49,0.7,25,9,27,40,62,细颗粒物(PM2.5)
塔城地区,东门外小游园,82.9993,46.7432,2026-01-24T2300,24,33,1.1,23,6,48,71,35,
塔城地区,文化广场,82.9716,46.7464,2026-01-24T2300,16,26,0.6,10,6,58,65,26,
台州市,黄岩环保大楼,121.2727,28.6461,2026-01-24T2300,65,92,/,40,/,51,86,88,细颗粒物(PM2.5)
台州市,台州环保大楼,121.4188,28.6545,2026-01-24T2300,76,100,0.7,34,/,81,88,102,细颗粒物(PM2.5)
台州市,路桥田洋王,121.3768,28.5772,2026-01-24T2300,80,105,0.7,40,6,59,96,107,细颗粒物(PM2.5)
台州市,台州科技职业学院,121.25678,28.66823971,2026-01-24T2300,83,122,0.6,42,6,57,76,110,细颗粒物(PM2.5)
太原市,尖草坪,112.5138,37.8916,2026-01-24T2300,55,99,0.7,44,11,45,68,75,"颗粒物(PM10),细颗粒物(PM2.5)"
太原市,晋源,112.4691,37.7125,2026-01-24T2300,59,113,0.7,30,9,66,66,82,颗粒物(PM10)
太原市,小店,112.5595,37.7391,2026-01-24T2300,63,153,0.7,44,14,52,57,102,颗粒物(PM10)
太原市,坞城,112.5705,37.8199,2026-01-24T2300,49,95,0.7,46,10,63,60,73,颗粒物(PM10)
太原市,南寨,112.5495,37.9853,2026-01-24T2300,47,102,0.8,31,8,62,70,76,颗粒物(PM10)
太原市,金胜,112.4702,37.7821,2026-01-24T2300,48,104,0.8,43,10,49,69,77,颗粒物(PM10)
太原市,育英中学,112.5608,37.8807,2026-01-24T2300,60,107,1.5,57,17,27,63,82,细颗粒物(PM2.5)
太原市,西矿街336号,112.449,37.8509,2026-01-24T2300,48,93,0.7,34,9,51,65,72,颗粒物(PM10)
太原市,迎宾北路9号,112.4792,37.9393,2026-01-24T2300,49,96,0.6,34,10,52,66,73,颗粒物(PM10)
太原市,迎泽大街248号,112.551,37.8575,2026-01-24T2300,53,105,1.1,59,16,26,64,78,颗粒物(PM10)
泰安市,监测站,117.1436,36.1938,2026-01-24T2300,111,158,1.3,68,10,29,75,145,细颗粒物(PM2.5)
泰安市,人口学校,117.0905,36.2002,2026-01-24T2300,99,119,0.8,36,7,63,86,130,细颗粒物(PM2.5)
泰安市,电力学校,117.0992,36.1757,2026-01-24T2300,148,168,1.6,94,15,6,80,198,细颗粒物(PM2.5)
泰安市,国网新校,117.1812,36.2273,2026-01-24T2300,95,117,1.1,36,6,48,79,125,细颗粒物(PM2.5)
泰安市,交通技校,117.0315,36.2017,2026-01-24T2300,88,115,0.9,90,5,7,88,117,细颗粒物(PM2.5)
泰安市,山东第一医科大学,117.083,36.13,2026-01-24T2300,145,171,1.2,88,13,11,89,193,细颗粒物(PM2.5)
泰州市,公园路,119.9042,32.488,2026-01-24T2300,73,95,0.4,23,6,74,104,98,细颗粒物(PM2.5)
泰州市,莲花,119.9189,32.4626,2026-01-24T2300,78,93,0.7,19,9,76,116,104,细颗粒物(PM2.5)
泰州市,留学生创业园,119.8877,32.4636,2026-01-24T2300,84,112,0.8,23,10,76,105,112,细颗粒物(PM2.5)
泰州市,王营,119.8767,32.3291,2026-01-24T2300,85,106,0.8,28,7,60,108,113,细颗粒物(PM2.5)
泰州市,姜堰区政府广场,120.1226,32.515,2026-01-24T2300,93,106,0.8,23,6,73,95,123,细颗粒物(PM2.5)
泰州市,周山河街区,119.9186,32.4322,2026-01-24T2300,82,110,0.6,19,10,68,105,109,细颗粒物(PM2.5)
唐山市,十二中,118.1707,39.6505,2026-01-24T2300,61,98,1.6,44,5,7,42,83,细颗粒物(PM2.5)
唐山市,小山,118.1868,39.6219,2026-01-24T2300,45,84,1.4,43,6,12,43,67,颗粒物(PM10)
唐山市,冀东油田职工医院,118.4357,39.277,2026-01-24T2300,42,55,0.8,53,8,20,55,59,细颗粒物(PM2.5)
唐山市,正泰大街热力站,118.0927,39.5807,2026-01-24T2300,42,61,0.8,30,3,21,44,59,细颗粒物(PM2.5)
唐山市,丰润区政府,118.1561,39.8322,2026-01-24T2300,67,122,1.5,53,11,2,43,90,细颗粒物(PM2.5)
唐山市,金山小学,118.436906,39.73802,2026-01-24T2300,33,76,1.1,43,8,23,46,63,颗粒物(PM10)
唐山市,政府服务中心,118.2449,39.6693,2026-01-24T2300,34,60,0.7,28,6,12,29,55,颗粒物(PM10)
唐山市,消防缸窑路中队,118.2043,39.6703,2026-01-24T2300,32,59,0.9,24,3,13,45,55,颗粒物(PM10)
唐山市,路南电大,118.1432,39.6203,2026-01-24T2300,41,68,1.1,39,3,10,40,59,颗粒物(PM10)
唐山市,光明北路515号,118.1267,39.6579,2026-01-24T2300,71,126,2.7,65,8,0,30,95,细颗粒物(PM2.5)
唐山市,友谊北路34号,118.130859,39.636026,2026-01-24T2300,60,90,2.2,42,2,11,46,82,细颗粒物(PM2.5)
天津市,勤俭道,117.1446,39.1659,2026-01-24T2300,145,192,1.8,118,17,4,74,193,细颗粒物(PM2.5)
天津市,前进道,117.2016,39.0928,2026-01-24T2300,130,167,2.2,82,16,24,73,172,细颗粒物(PM2.5)
天津市,淮河道,117.1837,39.2134,2026-01-24T2300,183,250,1.5,113,11,2,66,233,细颗粒物(PM2.5)
天津市,跃进路,117.308261,39.088386,2026-01-24T2300,145,197,1.4,109,12,2,56,193,细颗粒物(PM2.5)
天津市,第四大街,117.707,39.0344,2026-01-24T2300,152,218,1.6,171,16,0,19,202,细颗粒物(PM2.5)
天津市,永明路,117.4573,38.8395,2026-01-24T2300,132,144,1.1,89,11,0,50,175,细颗粒物(PM2.5)
天津市,汉北路,117.7641,39.1588,2026-01-24T2300,131,171,0.9,104,10,0,18,173,细颗粒物(PM2.5)
天津市,河西一经路,117.7917,39.2473,2026-01-24T2300,136,188,1.6,120,9,1,31,180,细颗粒物(PM2.5)
天津市,津沽路,117.3747,38.9845,2026-01-24T2300,136,169,1.8,105,11,3,67,180,细颗粒物(PM2.5)
天津市,宾水西道,117.159,39.0844,2026-01-24T2300,133,148,2.1,81,9,23,65,176,细颗粒物(PM2.5)
天津市,大理道,117.194,39.1069,2026-01-24T2300,133,157,2.3,90,16,19,68,176,细颗粒物(PM2.5)
天津市,中山北路,117.2096,39.1698,2026-01-24T2300,146,210,2.1,100,8,2,61,195,细颗粒物(PM2.5)
天津市,西四道,117.385,39.1483,2026-01-24T2300,135,194,1.4,113,12,3,38,179,细颗粒物(PM2.5)
天津市,雍阳西道,117.0362,39.3827,2026-01-24T2300,162,230,1.4,101,11,2,32,212,细颗粒物(PM2.5)
天津市,辛老路,117.0291,39.0612,2026-01-24T2300,122,165,1.0,100,14,11,60,160,细颗粒物(PM2.5)
天津市,地纬路,116.9638,38.9374,2026-01-24T2300,138,168,1.2,86,14,20,57,183,细颗粒物(PM2.5)
天津市,北环路,117.4065,40.0583,2026-01-24T2300,45,72,1.2,27,7,44,56,63,细颗粒物(PM2.5)
天津市,建设路,117.3041,39.7167,2026-01-24T2300,102,142,1.4,78,12,6,21,134,细颗粒物(PM2.5)
天津市,滨水东路,117.8201,39.3519,2026-01-24T2300,93,108,1.4,91,15,5,39,123,细颗粒物(PM2.5)
天津市,光华路,117.24369,39.102911,2026-01-24T2300,131,175,2.0,114,11,3,69,173,细颗粒物(PM2.5)
天水市,公园小学,105.72058,34.57859,2026-01-24T2300,36,47,0.6,16,14,60,64,52,细颗粒物(PM2.5)
天水市,麦积国土局,105.89428,34.55353,2026-01-24T2300,34,44,0.7,14,3,57,64,49,
铁岭市,水上乐园,123.865,42.292,2026-01-24T2300,42,47,0.6,23,8,50,64,59,细颗粒物(PM2.5)
铁岭市,金沙江路北,123.7158,42.2218,2026-01-24T2300,58,71,0.8,65,6,6,62,79,细颗粒物(PM2.5)
铁岭市,新华街20号,123.835,42.2853,2026-01-24T2300,56,88,0.6,35,14,42,74,77,细颗粒物(PM2.5)
通化市,光明,125.9359,41.7174,2026-01-24T2300,45,60,0.6,34,12,29,64,63,细颗粒物(PM2.5)
通化市,铁路,125.9446,41.7323,2026-01-24T2300,39,50,0.9,38,9,22,57,55,细颗粒物(PM2.5)
通辽市,艺术职业学校,122.253,43.6801,2026-01-24T2300,14,38,0.4,9,5,67,78,38,
通辽市,老干部活动中心,122.2584,43.6333,2026-01-24T2300,7,37,0.4,9,4,65,73,37,
通辽市,东方明珠社区,122.2923,43.6189,2026-01-24T2300,13,43,0.4,14,3,61,66,43,
铜川市,王益区政府,109.0696,35.0699,2026-01-24T2300,67,,0.9,17,4,77,90,90,细颗粒物(PM2.5)
铜川市,新区管委会,108.9345,34.9059,2026-01-24T2300,75,94,1.0,30,6,64,86,100,细颗粒物(PM2.5)
铜川市,大唐三路,108.949652,34.870529,2026-01-24T2300,81,,0.9,16,5,75,87,108,细颗粒物(PM2.5)
铜陵市,市第四中学,117.8176,30.9412,2026-01-24T2300,73,107,0.7,53,8,37,69,98,细颗粒物(PM2.5)
铜陵市,市新民污水厂,117.7806,30.9413,2026-01-24T2300,67,90,0.7,41,7,52,69,90,细颗粒物(PM2.5)
铜陵市,车站新区,117.846,30.9414,2026-01-24T2300,73,105,0.6,81,8,12,73,98,细颗粒物(PM2.5)
铜陵市,市职教基地,117.8472,30.9699,2026-01-24T2300,72,99,0.6,21,7,65,79,97,细颗粒物(PM2.5)
铜仁市,铜仁卫校,109.1839,27.7344,2026-01-24T2300,71,82,0.8,19,1,54,68,95,细颗粒物(PM2.5)
铜仁市,铜仁七中,109.1752,27.6945,2026-01-24T2300,112,120,1.5,46,6,8,48,147,细颗粒物(PM2.5)
吐鲁番市,市环保局,89.1905,42.9419,2026-01-24T2300,95,310,2.4,70,4,7,36,180,颗粒物(PM10)
吐鲁番市,地区环保局,89.1674,42.9558,2026-01-24T2300,94,446,1.4,50,3,14,44,333,颗粒物(PM10)
威海市,华夏技校,122.121,37.4231,2026-01-24T2300,55,58,0.7,41,/,35,68,75,细颗粒物(PM2.5)
威海市,山大分校,122.0508,37.5236,2026-01-24T2300,17,24,/,23,/,57,64,25,
威海市,市监测站,122.1067,37.5067,2026-01-24T2300,29,29,0.4,31,5,52,62,42,
威海市,文登开发区,122.0693,37.2175,2026-01-24T2300,53,89,/,38,/,21,74,73,细颗粒物(PM2.5)
威海市,临港区管委会,122.1379,37.3414,2026-01-24T2300,51,83,1.0,46,6,33,66,70,细颗粒物(PM2.5)
潍坊市,环保局,119.1436,36.7022,2026-01-24T2300,118,168,1.6,89,17,3,78,155,细颗粒物(PM2.5)
潍坊市,坊子邮政,119.1638,36.6524,2026-01-24T2300,117,153,1.5,78,14,10,78,153,细颗粒物(PM2.5)
潍坊市,潍坊七中,119.0587,36.7209,2026-01-24T2300,110,149,1.2,72,10,5,78,144,细颗粒物(PM2.5)
潍坊市,高新实验学校,119.1978,36.6871,2026-01-24T2300,127,158,1.4,84,12,6,80,168,细颗粒物(PM2.5)
潍坊市,潍坊学院,119.1758,36.7139,2026-01-24T2300,129,183,1.8,91,17,4,80,170,细颗粒物(PM2.5)
潍坊市,寒亭区实验一小,119.2046,36.7696,2026-01-24T2300,114,144,1.5,76,10,5,77,149,细颗粒物(PM2.5)
渭南市,体育馆,109.4605,34.4927,2026-01-24T2300,115,166,0.9,30,5,55,68,150,细颗粒物(PM2.5)
渭南市,高新一小,109.4257,34.5067,2026-01-24T2300,119,140,1.0,24,5,54,73,156,细颗粒物(PM2.5)
渭南市,渭花路4号,109.505065,34.492137,2026-01-24T2300,,,,,,,62,,
温州市,瓯海,120.6342,28.0088,2026-01-24T2300,48,63,0.4,26,8,78,84,67,细颗粒物(PM2.5)
温州市,南浦,120.6747,27.9881,2026-01-24T2300,54,78,0.6,27,7,84,88,74,细颗粒物(PM2.5)
温州市,龙湾,120.76,27.9745,2026-01-24T2300,49,87,0.4,40,7,69,83,69,颗粒物(PM10)
温州市,茶山,120.6985,27.9252,2026-01-24T2300,50,78,/,30,/,76,96,69,细颗粒物(PM2.5)
温州市,鹿城惠民路,120.6935,28.0114,2026-01-24T2300,41,76,0.2,38,/,69,88,63,颗粒物(PM10)
文山壮族苗族自治州,州水务局,104.2533,23.3595,2026-01-24T2300,18,22,0.5,5,6,40,47,26,
文山壮族苗族自治州,市便民服务中心,104.2319,23.3892,2026-01-24T2300,16,24,0.5,6,6,42,48,24,
乌海市,市林业局,106.8172,39.6972,2026-01-24T2300,38,91,0.7,33,14,53,76,71,颗粒物(PM10)
乌海市,中海勃湾学校,106.7907,39.6666,2026-01-24T2300,32,64,0.7,41,14,55,68,57,颗粒物(PM10)
乌海市,海北新区,106.8129,39.7274,2026-01-24T2300,24,94,0.7,46,23,38,68,72,颗粒物(PM10)
乌海市,海拉北路,106.8212,39.6741,2026-01-24T2300,28,84,0.6,38,17,44,61,67,颗粒物(PM10)
乌兰察布市,集宁新区,113.1306,40.9924,2026-01-24T2300,8,24,0.5,13,8,71,74,24,
乌兰察布市,光明街小学,113.1076,41.0385,2026-01-24T2300,20,28,0.5,2,9,49,80,29,
乌兰察布市,北京八中,113.1383,40.9513,2026-01-24T2300,6,21,0.7,15,7,62,65,21,
乌兰察布市,市委党校,113.1776,40.9779,2026-01-24T2300,24,25,0.4,7,5,76,80,35,
乌鲁木齐市,监测站,87.5796,43.8299,2026-01-24T2300,57,131,1.5,92,4,3,30,91,颗粒物(PM10)
乌鲁木齐市,收费所,87.6044,43.7679,2026-01-24T2300,73,126,1.3,75,7,7,46,98,细颗粒物(PM2.5)
乌鲁木齐市,铁路局,87.5529,43.8704,2026-01-24T2300,66,139,1.1,107,3,1,43,95,颗粒物(PM10)
乌鲁木齐市,三十一中学,87.6408,43.8258,2026-01-24T2300,42,101,0.4,74,2,37,62,76,颗粒物(PM10)
乌鲁木齐市,米东区环保局,87.7218,44.1747,2026-01-24T2300,102,140,1.0,50,7,51,65,134,细颗粒物(PM2.5)
乌鲁木齐市,培训基地,87.4652,43.4569,2026-01-24T2300,7,14,0.6,12,5,78,88,25,
乌鲁木齐市,达坂城区环保局,88.3088,43.3637,2026-01-24T2300,17,58,0.3,13,2,52,74,54,颗粒物(PM10)
乌鲁木齐市,红光山片区,87.6132,43.8791,2026-01-24T2300,59,115,0.9,88,3,6,41,83,颗粒物(PM10)
乌鲁木齐市,新师大温泉校区,87.7008,43.8003,2026-01-24T2300,21,49,0.3,24,5,64,72,49,
乌鲁木齐市,大绿谷,87.4892,43.84,2026-01-24T2300,59,127,1.2,96,4,6,44,89,颗粒物(PM10)
无锡市,雪浪,120.2693,31.4864,2026-01-24T2300,63,100,0.7,56,9,47,80,85,细颗粒物(PM2.5)
无锡市,黄巷,120.2761,31.621,2026-01-24T2300,75,116,0.8,70,7,23,75,100,细颗粒物(PM2.5)
无锡市,漆塘,120.2422,31.5037,2026-01-24T2300,56,118,0.4,51,12,52,83,84,颗粒物(PM10)
无锡市,东亭,120.3489,31.5865,2026-01-24T2300,70,107,0.9,90,10,4,78,94,细颗粒物(PM2.5)
无锡市,旺庄,120.3538,31.5474,2026-01-24T2300,68,111,0.7,72,6,29,80,92,细颗粒物(PM2.5)
无锡市,荣巷,120.2447,31.5633,2026-01-24T2300,68,97,0.7,51,9,48,82,92,细颗粒物(PM2.5)
无锡市,堰桥,120.2986,31.6816,2026-01-24T2300,73,105,0.8,80,6,14,86,98,细颗粒物(PM2.5)
无锡市,清舒道1号,120.3138,31.4927,2026-01-24T2300,70,110,0.9,73,12,35,81,94,细颗粒物(PM2.5)
无锡市,健康路105号,120.2925,31.5685,2026-01-24T2300,75,112,0.8,51,8,42,74,100,细颗粒物(PM2.5)
吴忠市,教育园区,106.1535,37.9648,2026-01-24T2300,217,2962,0.8,21,6,58,74,500,颗粒物(PM10)
吴忠市,新区二泵站,106.1851,37.9957,2026-01-24T2300,232,900,0.8,25,4,53,67,500,颗粒物(PM10)
吴忠市,文卫南街,106.2176,37.9832,2026-01-24T2300,370,1184,0.7,23,5,56,72,500,颗粒物(PM10)
芜湖市,监测站,118.3603,31.3515,2026-01-24T2300,82,106,1.1,49,12,44,83,109,细颗粒物(PM2.5)
芜湖市,科创中心,118.3716,31.4135,2026-01-24T2300,74,87,0.9,59,9,33,79,99,细颗粒物(PM2.5)
芜湖市,四水厂,118.3671,31.3132,2026-01-24T2300,81,109,0.7,52,13,43,87,108,细颗粒物(PM2.5)
芜湖市,市气象局,118.4209,31.3704,2026-01-24T2300,62,80,0.7,32,12,54,80,84,细颗粒物(PM2.5)
芜湖市,清苑社区,118.4783,31.3226,2026-01-24T2300,72,96,0.8,65,12,23,83,97,细颗粒物(PM2.5)
芜湖市,扬子职业技术学院,118.2746,31.2326,2026-01-24T2300,91,112,1.1,42,12,47,90,120,细颗粒物(PM2.5)
芜湖市,湾沚区人民法院,118.5726,31.1371,2026-01-24T2300,94,113,1.0,53,9,46,97,124,细颗粒物(PM2.5)
梧州市,市十一中,111.3126,23.4772,2026-01-24T2300,54,77,0.6,37,15,2,25,74,细颗粒物(PM2.5)
梧州市,龙新,111.26,23.4794,2026-01-24T2300,51,71,0.7,17,13,18,32,70,细颗粒物(PM2.5)
梧州市,政贤路18号,111.2416,23.4155,2026-01-24T2300,52,81,0.9,42,10,2,22,72,细颗粒物(PM2.5)
五家渠市,农水大厦,87.5352,44.1606,2026-01-24T2300,104,137,0.9,29,7,45,52,137,细颗粒物(PM2.5)
五家渠市,经开区管委会,87.5461,44.1909,2026-01-24T2300,95,144,1.2,27,5,49,55,125,细颗粒物(PM2.5)
五家渠市,建设西街760号,87.055284,43.999117,2026-01-24T2300,88,127,1.8,38,4,41,77,117,细颗粒物(PM2.5)
武汉市,东湖梨园,114.3676,30.5584,2026-01-24T2300,51,63,1.2,34,7,51,80,70,细颗粒物(PM2.5)
武汉市,汉阳月湖,114.2527,30.5578,2026-01-24T2300,56,83,1.1,27,5,50,81,77,细颗粒物(PM2.5)
武汉市,汉口花桥,114.2819,30.6189,2026-01-24T2300,54,76,1.1,35,10,47,73,74,细颗粒物(PM2.5)
武汉市,武昌紫阳,114.3024,30.5332,2026-01-24T2300,72,81,1.2,39,7,40,76,97,细颗粒物(PM2.5)
武汉市,青山钢花,114.3646,30.6217,2026-01-24T2300,68,82,1.2,48,10,44,80,92,细颗粒物(PM2.5)
武汉市,沌口新区,114.156697,30.482592,2026-01-24T2300,60,84,0.8,35,9,46,79,82,细颗粒物(PM2.5)
武汉市,汉口江滩,114.3013,30.5944,2026-01-24T2300,77,,0.8,27,8,53,78,103,细颗粒物(PM2.5)
武汉市,吴家山,114.1285,30.6339,2026-01-24T2300,68,88,1.1,53,6,34,66,92,细颗粒物(PM2.5)
武汉市,民族大道182号,114.3876,30.4908,2026-01-24T2300,71,,0.5,39,8,47,83,95,细颗粒物(PM2.5)
武威市,监测站,102.6203,37.925,2026-01-24T2300,198,1245,0.6,20,11,47,66,500,颗粒物(PM10)
武威市,钟楼街149号,102.6447,37.9293,2026-01-24T2300,276,1695,0.7,15,8,40,67,500,颗粒物(PM10)
西安市,兴庆小区,108.9931,34.2629,2026-01-24T2300,172,,1.3,57,4,48,75,222,细颗粒物(PM2.5)
西安市,纺织城,109.0595,34.2569,2026-01-24T2300,191,220,1.5,98,4,1,65,241,细颗粒物(PM2.5)
西安市,小寨,108.9377,34.2178,2026-01-24T2300,170,220,1.1,47,9,58,83,220,细颗粒物(PM2.5)
西安市,市人民体育场,108.9522,34.2739,2026-01-24T2300,186,193,1.3,66,3,38,74,236,细颗粒物(PM2.5)
西安市,高新西区,108.8923,34.2322,2026-01-24T2300,174,209,1.2,54,4,48,82,224,细颗粒物(PM2.5)
西安市,经开区,108.9386,34.3446,2026-01-24T2300,196,222,1.5,67,4,26,64,246,细颗粒物(PM2.5)
西安市,长安区,108.894,34.1557,2026-01-24T2300,208,223,1.8,51,6,36,76,258,细颗粒物(PM2.5)
西安市,临潼区,109.213,34.3748,2026-01-24T2300,130,140,1.6,37,6,47,76,172,细颗粒物(PM2.5)
西安市,广运潭,109.0508,34.321,2026-01-24T2300,160,220,1.8,73,4,3,71,210,细颗粒物(PM2.5)
西安市,无线电监控中心,109.1019,34.5302,2026-01-24T2300,132,170,1.3,34,8,43,72,175,细颗粒物(PM2.5)
西安市,行知小学,108.8869,34.2662,2026-01-24T2300,168,211,1.2,73,4,34,77,218,细颗粒物(PM2.5)
西安市,西苑北路977号,108.596239,34.118792,2026-01-24T2300,158,179,1.2,,4,31,82,208,细颗粒物(PM2.5)
西安市,曲江池东路988号,108.9817,34.2035,2026-01-24T2300,160,200,1.1,48,3,57,81,210,细颗粒物(PM2.5)
西宁市,城北区政府,101.7775,36.643,2026-01-24T2300,44,140,1.5,35,37,56,60,95,颗粒物(PM10)
西宁市,世纪职校,101.8304,36.5785,2026-01-24T2300,63,113,1.3,27,44,72,46,85,细颗粒物(PM2.5)
西宁市,海晏路105号,101.6769,36.6535,2026-01-24T2300,61,141,1.2,36,27,42,33,96,颗粒物(PM10)
西双版纳傣族自治州,景洪市江南,100.8018,21.9995,2026-01-24T2300,52,89,1.4,33,4,21,81,72,细颗粒物(PM2.5)
西双版纳傣族自治州,景洪市江北,100.7995,22.0238,2026-01-24T2300,,,,11,3,,88,,
锡林郭勒盟,市环保监测站,116.1048,43.9318,2026-01-24T2300,14,34,0.5,38,15,22,61,34,
锡林郭勒盟,市政府,116.0778,43.9312,2026-01-24T2300,9,18,0.4,37,12,26,68,19,
厦门市,洪文,118.1519,24.4768,2026-01-24T2300,16,30,0.4,13,2,66,95,30,
厦门市,鼓浪屿,118.0671,24.4447,2026-01-24T2300,13,24,/,9,1,70,99,24,
厦门市,湖里中学,118.0937,24.5054,2026-01-24T2300,18,29,0.4,17,2,63,94,29,
厦门市,集美中学,118.0961,24.5689,2026-01-24T2300,12,27,0.3,17,2,65,91,27,
厦门市,同安二实小,118.1502,24.7246,2026-01-24T2300,11,14,0.4,10,2,77,90,25,
咸宁市,长江产业园,114.3379,29.8683,2026-01-24T2300,86,88,0.4,34,6,42,91,114,细颗粒物(PM2.5)
咸宁市,双鹤路18号,114.3182,29.8447,2026-01-24T2300,69,88,0.6,33,3,54,92,93,细颗粒物(PM2.5)
咸宁市,碧桂路,114.284,29.8595,2026-01-24T2300,72,95,1.0,35,4,49,90,97,细颗粒物(PM2.5)
咸阳市,实验中学,108.6726,34.315,2026-01-24T2300,193,204,1.3,52,8,53,85,243,细颗粒物(PM2.5)
咸阳市,师范学院,108.7226,34.3622,2026-01-24T2300,184,189,1.3,69,4,27,84,234,细颗粒物(PM2.5)
咸阳市,奥体中心,108.6394,34.408,2026-01-24T2300,164,196,1.3,45,7,49,85,214,细颗粒物(PM2.5)
咸阳市,五陵塬路2号,108.6601,34.3767,2026-01-24T2300,183,223,1.3,63,4,33,80,233,细颗粒物(PM2.5)
咸阳市,胭脂路9号,108.6372,34.3031,2026-01-24T2300,173,229,1.2,62,4,33,81,223,细颗粒物(PM2.5)
湘潭市,板塘,112.9508,27.8626,2026-01-24T2300,39,49,0.7,41,2,23,50,55,细颗粒物(PM2.5)
湘潭市,市监测站,112.9114,27.8404,2026-01-24T2300,41,49,1.3,41,6,24,60,58,细颗粒物(PM2.5)
湘潭市,江麓,112.8935,27.8729,2026-01-24T2300,40,47,1.0,27,6,45,79,57,细颗粒物(PM2.5)
